~V
VERS. 2.00: Ver 2.00
~W
STRT.M 50.0000:
STOP.M 277.0000:
STEP.M 0.1250:
NULL. -999.2500:
UWI. DF5031:
~C
DEPT.M :
DEN.GM/CC :
GR.API :
CALI.CM :
RXO.OHMM :
RI. :
RML.OHMM :
SP.MV :
~A
# ...
  140.0000     2.1880    72.6530    24.3430     7.5220     6.9270     9.5830   -14.7800 
  140.1250     2.1990    76.6980    24.2840     7.9380     7.2960    10.1530   -14.4750 
  140.2500     2.2390    79.3360    24.3430     8.5820     7.5540    10.5100   -14.0940 
  140.3750     2.2880    81.5210    24.5820     8.9170     7.4770    10.3120   -13.7170 
  140.5000     2.3210    85.7180    24.7510     8.3050     6.9630     9.4430   -13.3960 
  140.6250     2.3160    92.6260    24.8690     6.8990     6.1050     8.1630   -13.1130 
  140.7500     2.2850    98.3680    24.9300     5.7910     5.2240     6.9740   -12.8220 
  140.8750     2.2470    98.8970    24.9780     5.1790     4.5120     6.1000   -12.5030 
  141.0000     2.2210    96.7730    24.9980     4.8320     4.0640     5.6160   -12.2550 
  141.1250     2.2220    98.7310    25.0400     4.6450     3.9540     5.5860   -12.0870 
  141.2500     2.2360   101.4550    25.1110     4.6470     4.1100     5.9140   -12.0350 
  141.3750     2.2490    99.3570    25.0870     5.0250     4.4750     6.5400   -12.0340 
  141.5000     2.2440    92.6740    24.8900     5.7570     4.9480     7.3320   -12.0350 
  141.6250     2.2230    88.1190    24.7440     6.4170     5.3440     7.9660   -12.1510 
  141.7500     2.2080    87.1380    24.6530     6.6770     5.5020     8.1320   -12.3040 
  141.8750     2.2170    88.6860    24.6690     6.5090     5.3890     7.7850   -12.4840 
  142.0000     2.2420    91.8060    24.7460     5.9910     5.1190     7.1790   -12.5720 
  142.1250     2.2610    92.2890    24.7510     5.4800     4.9040     6.7310   -12.7000 
  142.2500     2.2580    88.4490    24.6770     5.3830     4.8910     6.6690   -12.8250 
  142.3750     2.2310    83.5210    24.6790     5.8720     5.1310     7.0600   -12.9820 
  142.5000     2.1950    80.5290    24.7460     6.7390     5.5980     7.8520   -13.0840 
  142.6250     2.1640    78.8960    24.8830     7.5220     6.1830     8.8580   -13.1380 
  142.7500     2.1420    77.8260    24.8680     7.8260     6.6740     9.6860   -13.1880 
  142.8750     2.1260    78.8000    24.7570     7.7780     6.9020    10.0220   -13.2430 
  143.0000     2.1200    82.8800    24.8030     7.5960     6.7940     9.7540   -13.2800 
  143.1250     2.1450    88.5250    24.9480     7.3210     6.3930     9.0200   -13.2780 
  143.2500     2.1950    91.6350    24.9940     6.8380     5.9010     8.2120   -13.2160 
  143.3750     2.2510    91.5050    24.9770     6.2360     5.4410     7.5360   -13.1210 
  143.5000     2.2860    92.2050    24.9660     5.7600     5.0750     7.0720   -13.0660 
  143.6250     2.2910    95.6120    24.9580     5.6810     4.8360     6.8460   -13.0310 
  143.7500     2.2830    97.9810    24.8830     5.6550     4.6890     6.7600   -12.9780 
  143.8750     2.2810    97.5850    24.6950     5.5830     4.6110     6.7370   -12.9610 
  144.0000     2.2940    97.6170    24.5360     5.4660     4.5790     6.7180   -13.0300 
  144.1250     2.3160   100.2010    24.5080     5.3560     4.5890     6.7010   -13.1880 
  144.2500     2.3250   100.4060    24.5570     5.3570     4.6340     6.7260   -13.3680 
  144.3750     2.3130    97.1840    24.5980     5.3500     4.6980     6.8010   -13.5530 
  144.5000     2.2900    94.1650    24.5900     5.3080     4.7510     6.8840   -13.7620 
  144.6250     2.2690    93.9110    24.5840     5.4050     4.7560     6.8990   -14.0440 
  144.7500     2.2590    93.1650    24.5190     5.6300     4.7310     6.8470   -14.3650 
  144.8750     2.2600    91.0220    24.3730     5.7220     4.7220     6.8010   -14.6740 
  145.0000     2.2630    89.7450    24.3570     5.5680     4.7960     6.8740   -15.0120 
  145.1250     2.2420    89.0540    24.5990     5.6970     5.0440     7.2290   -15.2700 
  145.2500     2.1990    86.4930    24.6360     6.3620     5.4740     7.8750   -15.5820 
  145.3750     2.1580    83.4180    24.5860     7.2700     6.0520     8.7510   -15.8580 
  145.5000     2.1330    80.4060    24.5430     7.9120     6.6870     9.6950   -16.1100 
  145.6250     2.1260    78.3480    24.5700     8.1160     7.2080    10.4030   -16.2600 
  145.7500     2.1290    79.3560    24.5920     8.2810     7.5090    10.7110   -16.4490 
  145.8750     2.1400    81.6290    24.6000     8.4210     7.5780    10.6310   -16.6330 
  146.0000     2.1510    81.4380    24.6000     8.4410     7.5050    10.3270   -16.7750 
  146.1250     2.1510    79.8180    24.6000     8.5740     7.4390    10.0290   -16.8830 
  146.2500     2.1400    78.7450    24.6000     8.9040     7.5170     9.9250   -16.9310 
  146.3750     2.1300    77.3300    24.6000     9.3400     7.8560    10.1670   -17.0100 
  146.5000     2.1290    74.0870    24.6010     9.9180     8.5590    10.8950   -17.0980 
  146.6250     2.1570    72.0670    24.6060    10.9840     9.7240    12.2330   -17.1140 
  146.7500     2.2300    72.7570    24.6220    12.9100    11.0950    13.8500   -17.0710 
  146.8750     2.3400    75.5130    24.6560    16.1660    12.2360    15.1730   -17.0460 
  147.0000     2.4420    80.2340    24.7320    19.3060    12.5570    15.4320   -17.0310 
  147.1250     2.4680    85.7040    24.7950    18.4760    11.5580    14.0150   -16.9890 
  147.2500     2.4300    90.7210    24.8510    14.0560     9.8380    11.7820   -16.9210 
  147.3750     2.3690    96.5260    24.8350     9.4150     8.0210     9.5700   -16.7950 
  147.5000     2.3200   101.9020    24.7450     6.7400     6.5070     7.8450   -16.6770 
  147.6250     2.2870   101.8080    24.5190     5.9070     5.4850     6.7550   -16.6070 
  147.7500     2.2580    97.3670    24.5380     5.7240     4.8510     6.1020   -16.5250 
  147.8750     2.2430    95.4410    24.7390     5.6780     4.5570     5.8080   -16.3830 
  148.0000     2.2600    97.6480    24.9070     5.5130     4.5870     5.8640   -16.2200 
  148.1250     2.3180    95.3060    24.9630     5.8060     5.0550     6.4400   -16.1280 
  148.2500     2.3870    85.5040    24.9920     7.6800     6.0370     7.6580   -16.0550 
  148.3750     2.4550    75.3370    24.9720    11.6670     7.6970     9.7220   -15.9960 
  148.5000     2.5250    70.4410    25.0130    16.5210    10.1610    12.7560   -15.8540 
  148.6250     2.5880    68.4560    25.0290    20.0530    13.4030    16.6540   -15.7730 
  148.7500     2.6230    66.5150    24.9510    23.9810    16.6580    20.4020   -15.6590 
  148.8750     2.6340    66.1530    24.7350    28.3950    19.0410    22.8840   -15.5580 
  149.0000     2.6360    66.9540    24.5710    29.6310    20.0070    23.5620   -15.4270 
  149.1250     2.6420    67.0200    24.5020    25.6560    19.6630    22.8580   -15.2960 
  149.2500     2.6450    65.5270    24.5030    22.2900    18.9210    21.9590   -15.1980 
  149.3750     2.6440    63.9660    24.5650    21.7600    18.2370    21.3430   -15.1510 
  149.5000     2.6430    61.3250    24.7460    22.5840    17.8400    21.1700   -15.1160 
  149.6250     2.6430    58.1990    24.8720    23.3040    17.8320    21.4580   -15.0720 
  149.7500     2.6410    56.5970    24.9390    23.8690    18.0470    21.9270   -15.0880 
  149.8750     2.6380    55.7770    24.9630    23.7600    18.3250    22.3490   -15.1740 
  150.0000     2.6330    54.5400    24.9750    22.5560    18.5580    22.6110   -15.3170 
  150.1250     2.6220    52.9210    24.9790    20.8990    18.7580    22.7630   -15.4500 
  150.2500     2.6130    52.6040    24.9830    20.3010    19.0000    22.9560   -15.5180 
  150.3750     2.6140    52.9240    25.0050    20.8850    19.3120    23.2520   -15.5960 
  150.5000     2.6220    52.4700    25.0510    21.9010    19.6830    23.6440   -15.7260 
  150.6250     2.6240    51.9680    25.1170    22.3940    20.0430    24.0380   -15.8170 
  150.7500     2.6170    53.3430    25.1450    22.7070    20.3000    24.2850   -15.8480 
  150.8750     2.6100    56.5090    25.1510    22.7160    20.3900    24.2860   -15.8010 
  151.0000     2.6080    58.6550    25.1510    22.2870    20.3340    24.0660   -15.7140 
  151.1250     2.6040    57.9620    25.1510    21.8400    20.2610    23.8080   -15.6660 
