~V
VERS. 2.00: Ver 2.00
~W
STRT.M 61.0000:
STOP.M 253.0000:
STEP.M 0.1250:
NULL. -999.2500:
UWI. DF5045:
~C
DEPT.M :
GR.API :
CALI.CM :
RXO.OHMM :
RI. :
RML.OHMM :
DEN.GM/CC :
SP.MV :
~A
# ...
   94.7500    90.9560    22.3870    13.1390    11.2110    13.8970     2.4240   -23.2290 
   94.8750    94.7920    22.7900    16.3960    11.5670    13.9310     2.4970   -23.4760 
   95.0000    96.9840    22.7380    16.9460    11.3570    13.3200     2.4900   -23.6580 
   95.1250    96.6300    22.2870    14.6660    10.7840    12.3770     2.4180   -23.8460 
   95.2500    94.1870    21.8790    11.7200    10.0490    11.3600     2.3250   -24.0890 
   95.3750    90.5100    21.7110     9.9730     9.3420    10.4870     2.2560   -24.3550 
   95.5000    86.7280    21.6950     9.5470     8.8200     9.9250     2.2320   -24.5980 
   95.6250    83.6600    21.6930     9.4950     8.4930     9.6250     2.2350   -24.8050 
   95.7500    81.2160    21.6840     9.5090     8.3300     9.5100     2.2480   -24.9460 
   95.8750    78.8280    21.6690     9.5200     8.2720     9.4750     2.2590   -25.0430 
   96.0000    76.1730    21.6920     9.4910     8.2410     9.4250     2.2530   -25.1860 
   96.1250    73.9120    21.7560     9.3940     8.1830     9.3220     2.2290   -25.3030 
   96.2500    72.6430    21.8360     9.2480     8.0890     9.1780     2.2000   -25.2440 
   96.3750    72.2740    21.9020     9.0830     7.9770     9.0190     2.1810   -25.1090 
   96.5000    71.6870    21.9340     8.9200     7.8660     8.8680     2.1780   -25.0410 
   96.6250    70.2040    21.9480     8.7890     7.7710     8.7400     2.1810   -24.9590 
   96.7500    68.8720    21.9580     8.6780     7.7020     8.6440     2.1830   -24.9260 
   96.8750    69.6050    21.9750     8.5640     7.6560     8.5880     2.1820   -25.0060 
   97.0000    72.5130    21.9950     8.5090     7.6340     8.5770     2.1820   -25.0060 
   97.1250    74.1210    21.9880     8.5180     7.6310     8.6040     2.1850   -24.9150 
   97.2500    72.9400    21.9690     8.5910     7.6500     8.6600     2.1910   -24.9500 
   97.3750    70.9080    21.9560     8.7340     7.6880     8.7360     2.1980   -25.0360 
   97.5000    71.1760    21.9540     8.9610     7.7450     8.8230     2.2030   -24.9350 
   97.6250    72.8490    21.9640     9.1720     7.8090     8.9090     2.2050   -24.8930 
   97.7500    74.0340    21.9780     9.3000     7.8740     8.9880     2.2010   -24.9500 
   97.8750    74.3750    21.9830     9.3520     7.9340     9.0520     2.1950   -24.8600 
   98.0000    74.2750    21.9680     9.3340     7.9740     9.0890     2.1930   -24.6930 
   98.1250    73.2740    21.9440     9.2720     7.9820     9.0880     2.1960   -24.6440 
   98.2500    71.4200    21.9360     9.2340     7.9480     9.0380     2.2020   -24.5010 
   98.3750    69.9520    21.9550     9.2880     7.8620     8.9310     2.2130   -24.2230 
   98.5000    71.0030    22.0070     9.3760     7.7200     8.7560     2.2250   -24.0970 
   98.6250    74.3830    22.0720     9.3470     7.5420     8.5360     2.2340   -23.9520 
   98.7500    78.7840    22.1500     9.0460     7.3490     8.2980     2.2380   -23.6480 
   98.8750    82.6000    22.2230     8.4270     7.1620     8.0750     2.2370   -23.4330 
   99.0000    84.3710    22.2530     7.7830     7.0150     7.9130     2.2290   -23.3780 
   99.1250    84.3460    22.2680     7.4580     6.9230     7.8210     2.2140   -23.1980 
   99.2500    83.6790    22.2770     7.4680     6.8930     7.8000     2.1960   -23.0240 
   99.3750    83.6920    22.2840     7.5930     6.9210     7.8340     2.1840   -23.0150 
   99.5000    84.3780    22.2950     7.7860     6.9920     7.8920     2.1870   -22.9040 
   99.6250    84.0040    22.3420     8.1160     7.0620     7.9270     2.1970   -22.7630 
   99.7500    81.7780    22.4410     8.4320     7.0920     7.9020     2.1990   -22.7650 
   99.8750    78.8790    22.5340     8.5710     7.0540     7.7930     2.1880   -22.6860 
  100.0000    77.6650    22.5910     8.5230     6.9210     7.5770     2.1760   -22.4210 
  100.1250    78.7800    22.6240     8.4000     6.7110     7.2860     2.1750   -22.2800 
  100.2500    81.5230    22.6570     8.0580     6.4430     6.9470     2.1940   -22.1390 
  100.3750    85.1520    22.7120     7.4140     6.1550     6.6080     2.2280   -21.8590 
  100.5000    89.4040    22.8060     6.7580     5.9070     6.3420     2.2640   -21.7310 
  100.6250    93.7190    22.8160     6.3590     5.7450     6.1940     2.2900   -21.6680 
  100.7500    96.7180    22.7450     6.3380     5.7020     6.1930     2.3080   -21.4910 
  100.8750    96.5620    22.6670     6.4980     5.7940     6.3470     2.3250   -21.4270 
  101.0000    92.2860    22.6200     6.6280     6.0350     6.6520     2.3300   -21.5810 
  101.1250    86.3420    22.5950     7.0060     6.3670     7.0180     2.3080   -21.6030 
  101.2500    80.9790    22.5800     7.7260     6.7240     7.3590     2.2660   -21.6030 
  101.3750    77.7110    22.5610     8.4530     7.0200     7.5830     2.2250   -21.7120 
  101.5000    77.2920    22.5310     8.6850     7.1300     7.5780     2.2030   -21.6760 
  101.6250    78.8220    22.5230     8.6030     7.0270     7.3550     2.1940   -21.5110 
  101.7500    81.9680    22.5390     8.4100     6.7210     6.9490     2.1980   -21.4510 
  101.8750    87.3150    22.5790     8.1850     6.2730     6.4450     2.2200   -21.3900 
  102.0000    94.8190    22.6420     7.7860     5.7900     5.9760     2.2550   -21.1760 
  102.1250   101.1810    22.7630     7.1170     5.3900     5.6600     2.2840   -21.1120 
  102.2500   103.9240    22.9180     6.3060     5.1480     5.5640     2.2970   -21.2350 
  102.3750   103.0710    23.0860     5.6310     5.1110     5.7190     2.3060   -21.3460 
  102.5000    99.4540    23.0940     5.4860     5.3370     6.1600     2.3270   -21.5530 
  102.6250    94.2160    22.8230     5.9570     5.7820     6.8130     2.3480   -21.9720 
  102.7500    88.8030    22.3740     7.0420     6.4150     7.6200     2.3490   -22.3750 
  102.8750    85.5330    22.0630     8.6580     7.1700     8.4910     2.3310   -22.6710 
  103.0000    84.9930    21.9860    10.6910     7.9380     9.2880     2.3070   -23.0740 
  103.1250    84.0040    22.0070    12.6670     8.6030     9.9110     2.2860   -23.3920 
  103.2500    81.0030    22.0770    14.2340     9.0810    10.2930     2.2640   -23.5190 
  103.3750    77.3900    22.1740    16.1970     9.3240    10.4130     2.2410   -23.6740 
  103.5000    75.9720    22.2340    18.8180     9.3030    10.2810     2.2240   -23.8220 
  103.6250    76.7680    22.2700    19.0170     9.1200    10.0210     2.2140   -23.7770 
  103.7500    78.6940    22.3000    15.8150     8.8490     9.7160     2.2080   -23.7140 
  103.8750    80.7780    22.3300    11.5150     8.5580     9.4390     2.2090   -23.7550 
  104.0000    82.2350    22.3420     9.3550     8.3110     9.2560     2.2160   -23.6430 
  104.1250    82.6480    22.3300     8.5730     8.1270     9.1630     2.2190   -23.5060 
  104.2500    82.3450    22.2990     8.4270     8.0090     9.1410     2.2110   -23.4890 
  104.3750    82.3240    22.2800     8.4840     7.9460     9.1570     2.1990   -23.3670 
  104.5000    83.1400    22.2700     8.4760     7.9260     9.1690     2.1930   -23.1160 
  104.6250    84.1180    22.2250     8.2710     7.9200     9.1600     2.1920   -23.0120 
  104.7500    84.5360    22.1110     8.0910     7.9200     9.1300     2.1940   -22.9290 
  104.8750    84.1010    21.9710     8.1440     7.9230     9.0860     2.1960   -22.7080 
  105.0000    82.9990    21.8220     8.3860     7.9210     9.0360     2.1930   -22.5650 
  105.1250    81.9190    21.6530     8.5760     7.9070     8.9790     2.1840   -22.5100 
  105.2500    81.4810    21.5150     8.6400     7.8720     8.9110     2.1720   -22.3130 
  105.3750    81.7960    21.4610     8.5800     7.8080     8.8220     2.1680   -22.1080 
  105.5000    82.2000    21.4670     8.4830     7.6980     8.6880     2.1740   -22.0580 
  105.6250    81.7060    21.4330     8.3660     7.5420     8.5040     2.1780   -21.8880 
  105.7500    80.3250    21.3820     8.3960     7.3490     8.2770     2.1710   -21.6190 
  105.8750    79.4010    21.3550     8.5680     7.1360     8.0280     2.1630   -21.4780 
