~V
VERS. 2.00: Ver 2.00
~W
STRT.M 61.0000:
STOP.M 247.0000:
STEP.M 0.1250:
NULL. -999.2500:
UWI. DF5042:
~C
DEPT.M :
SP.MV :
GR.API :
CALI.CM :
RXO.OHMM :
RI. :
RML.OHMM :
DEN.GM/CC :
~A
# ...
   94.7500   -26.7270    71.6150    24.8240     7.7860     7.4630     8.8150     2.1430 
   94.8750   -26.7610    72.2400    24.8090     7.6010     7.3990     8.6960     2.1390 
   95.0000   -26.7330    72.9220    24.7960     7.5240     7.3470     8.5900     2.1340 
   95.1250   -26.6690    72.6420    24.7880     7.5600     7.3000     8.4890     2.1280 
   95.2500   -26.5910    71.5770    24.7870     7.5310     7.2270     8.3590     2.1220 
   95.3750   -26.4860    70.6650    24.7890     7.4210     7.0990     8.1660     2.1220 
   95.5000   -26.2890    70.6200    24.7910     7.4220     6.8950     7.8860     2.1320 
   95.6250   -26.1390    72.7160    24.7900     7.3220     6.6030     7.5140     2.1530 
   95.7500   -26.0060    74.8640    24.7930     6.7650     6.2680     7.1110     2.1770 
   95.8750   -25.8760    76.3370    24.8400     6.4830     5.9240     6.7230     2.2000 
   96.0000   -25.7940    78.9980    24.9810     6.2140     5.5970     6.3800     2.2180 
   96.1250   -25.7630    83.6520    25.1680     5.6510     5.3100     6.1120     2.2310 
   96.2500   -25.7420    87.7560    25.2590     5.1880     5.0860     5.9330     2.2430 
   96.3750   -25.7600    90.3530    25.2540     5.1460     4.9610     5.8770     2.2540 
   96.5000   -25.7660    90.8910    25.2650     5.0100     4.9700     5.9820     2.2610 
   96.6250   -25.7660    89.2190    25.3080     4.8530     5.1760     6.3190     2.2580 
   96.7500   -25.7440    85.4700    25.2630     5.2510     5.5600     6.8420     2.2420 
   96.8750   -25.7360    79.1600    25.1270     6.0920     6.0840     7.4770     2.2130 
   97.0000   -25.7560    72.1700    25.0090     6.8810     6.6650     8.1050     2.1840 
   97.1250   -25.8520    68.5750    24.9790     7.2510     7.1720     8.5660     2.1630 
   97.2500   -26.0350    68.8630    24.9800     7.5220     7.5150     8.8170     2.1550 
   97.3750   -26.2300    70.3140    24.9820     7.6180     7.6730     8.8940     2.1540 
   97.5000   -26.5110    69.8230    24.9820     7.3800     7.6920     8.8830     2.1540 
   97.6250   -26.8770    68.1450    24.9820     7.3420     7.6440     8.8760     2.1510 
   97.7500   -27.2840    68.1060    24.9820     7.4470     7.5960     8.9050     2.1460 
   97.8750   -27.7000    70.3310    24.9820     7.5900     7.5730     8.9610     2.1420 
   98.0000   -28.0630    73.8750    24.9810     7.6630     7.5700     9.0170     2.1410 
   98.1250   -28.3220    75.5980    24.9820     7.6650     7.5620     9.0320     2.1440 
   98.2500   -28.4850    76.1820    24.9910     7.6610     7.5260     8.9980     2.1500 
   98.3750   -28.6090    74.7480    25.0100     7.6030     7.4560     8.9160     2.1560 
   98.5000   -28.6550    71.2620    25.0300     7.3870     7.3570     8.8000     2.1620 
   98.6250   -28.6030    69.8160    25.0380     7.1230     7.2470     8.6730     2.1660 
   98.7500   -28.4870    71.7140    25.0440     7.0840     7.1480     8.5650     2.1720 
   98.8750   -28.3220    74.2640    25.0600     7.3580     7.0770     8.4910     2.1810 
   99.0000   -28.2030    73.9020    25.0860     7.4120     7.0400     8.4560     2.1870 
   99.1250   -28.1090    74.2130    25.0920     7.2180     7.0460     8.4640     2.1840 
   99.2500   -28.0740    76.9600    25.0750     7.1300     7.0880     8.5050     2.1720 
   99.3750   -28.0780    77.8560    25.0520     7.2620     7.1610     8.5720     2.1570 
   99.5000   -28.1100    74.8330    25.0430     7.3520     7.2570     8.6550     2.1450 
   99.6250   -28.1360    70.9000    25.0380     7.3710     7.3660     8.7370     2.1420 
   99.7500   -28.1850    69.1350    25.0100     7.3770     7.4570     8.7840     2.1440 
   99.8750   -28.2000    67.5860    24.9670     7.4110     7.5010     8.7680     2.1480 
  100.0000   -28.1680    65.6300    24.9480     7.4870     7.4740     8.6740     2.1500 
  100.1250   -28.1240    64.8900    24.9780     7.4320     7.3610     8.4960     2.1500 
  100.2500   -28.0390    66.4570    25.0180     7.2380     7.1900     8.2710     2.1500 
  100.3750   -27.9140    69.5560    25.0360     6.9480     6.9970     8.0440     2.1510 
  100.5000   -27.7500    72.5270    25.0360     6.7710     6.8270     7.8730     2.1500 
  100.6250   -27.5810    73.8780    25.0350     6.7730     6.7420     7.8270     2.1470 
  100.7500   -27.3940    73.3370    25.0360     6.7880     6.7600     7.9090     2.1440 
  100.8750   -27.2610    72.0080    25.0350     6.9870     6.8780     8.0950     2.1410 
  101.0000   -27.1310    69.7120    25.0280     7.4280     7.0620     8.3300     2.1430 
  101.1250   -27.0140    68.8980    25.0200     7.7260     7.2410     8.5210     2.1480 
  101.2500   -26.9380    70.6000    25.0220     7.8300     7.3450     8.6120     2.1550 
  101.3750   -26.8520    72.6460    25.0300     7.6670     7.3500     8.5950     2.1600 
  101.5000   -26.7710    74.0620    25.0360     7.0860     7.2730     8.5100     2.1620 
  101.6250   -26.6810    75.5470    25.0370     6.9280     7.1690     8.4300     2.1630 
  101.7500   -26.6100    76.7450    25.0340     7.1670     7.1000     8.4040     2.1620 
  101.8750   -26.5720    76.1500    25.0200     7.4300     7.0820     8.4310     2.1580 
  102.0000   -26.5490    75.1800    24.9980     7.4610     7.1040     8.4880     2.1550 
  102.1250   -26.5610    73.8490    24.9820     7.7080     7.1620     8.5830     2.1530 
  102.2500   -26.5560    69.4100    24.9670     7.9000     7.2810     8.7710     2.1540 
  102.3750   -26.5660    63.0420    24.9400     7.8410     7.5090     9.1130     2.1600 
  102.5000   -26.5940    60.5180    24.9020     7.7000     7.8710     9.6130     2.1760 
  102.6250   -26.6420    64.7900    24.8780     8.2550     8.3360    10.1700     2.2030 
  102.7500   -26.6980    67.6300    24.8730    10.4950     8.7480    10.5590     2.2350 
  102.8750   -26.7790    67.0970    24.8900    14.1190     8.9350    10.5880     2.2530 
  103.0000   -26.8190    67.0580    24.9350    14.4670     8.7910    10.1920     2.2490 
  103.1250   -26.8610    69.7530    24.9920    10.9620     8.3430     9.4940     2.2240 
  103.2500   -26.8260    70.7280    25.0270     8.4200     7.8390     8.8190     2.1900 
  103.3750   -26.7300    69.7640    25.0350     7.9350     7.4470     8.3550     2.1620 
  103.5000   -26.6070    71.1960    25.0370     7.8280     7.2570     8.1670     2.1470 
  103.6250   -26.4710    74.7280    25.0770     8.3060     7.2930     8.2260     2.1430 
  103.7500   -26.3120    74.6570    25.1450     9.2020     7.4190     8.3370     2.1470 
  103.8750   -26.1320    70.4560    25.1940     9.0210     7.4940     8.3410     2.1510 
  104.0000   -25.8990    66.3450    25.1920     7.6690     7.3940     8.1200     2.1520 
  104.1250   -25.6510    68.3490    25.1650     7.2360     7.0100     7.5890     2.1550 
  104.2500   -25.4520    74.6700    25.2000     6.8160     6.4210     6.8630     2.1630 
  104.3750   -25.3030    81.8210    25.3260     6.0310     5.7350     6.0820     2.1820 
  104.5000   -25.1690    87.5180    25.4860     5.1040     5.0830     5.3950     2.2080 
  104.6250   -25.0130    92.2570    25.5850     4.5820     4.6040     4.9520     2.2330 
  104.7500   -24.8480    95.9880    25.6090     4.2940     4.3280     4.7560     2.2500 
  104.8750   -24.6320    98.0610    25.5950     4.2380     4.2550     4.7800     2.2520 
  105.0000   -24.4000    98.3090    25.5610     4.3830     4.3480     4.9590     2.2470 
  105.1250   -24.0950    97.0950    25.5100     4.7840     4.5340     5.1930     2.2410 
  105.2500   -23.7630    96.2820    25.4710     5.2540     4.7070     5.3700     2.2400 
  105.3750   -23.4120    98.0780    25.4540     5.3000     4.8120     5.4480     2.2460 
  105.5000   -23.0760   102.3860    25.4450     4.8570     4.8450     5.4450     2.2540 
  105.6250   -22.7560   105.5570    25.4260     4.5360     4.8370     5.4170     2.2580 
  105.7500   -22.4630   103.6300    25.4060     4.7000     4.8330     5.4080     2.2560 
  105.8750   -22.2650    97.7580    25.3980     4.8830     4.8400     5.4210     2.2500 
