~V
VERS. 2.00: Ver 2.00
~W
STRT.M 60.0000:
STOP.M 256.0000:
STEP.M 0.1250:
NULL. -999.2500:
UWI. DF5048:
~C
DEPT.M :
GR.API :
CALI.CM :
RXO.OHMM :
RI. :
RML.OHMM :
DEN.GM/CC :
SP.MV :
~A
# ...
  161.2500    68.6550    24.0640    19.1260    29.7340    32.1590     2.2730   -28.4900 
  161.3750    70.6730    23.7210    18.0700    29.4110    31.5290     2.2980   -28.7190 
  161.5000    70.1390    23.4170    18.3790    29.1910    31.0930     2.3160   -28.9990 
  161.6250    68.0240    23.2440    20.2480    28.9790    30.6720     2.3170   -29.2390 
  161.7500    67.5950    23.1430    22.1540    28.5650    30.0360     2.3100   -29.5330 
  161.8750    68.0120    23.0990    22.3960    27.9410    29.2480     2.3050   -29.8000 
  162.0000    68.1600    23.1010    20.7620    27.3320    28.6420     2.3060   -30.1100 
  162.1250    67.6130    23.0870    21.1280    27.1930    28.7920     2.3080   -30.4100 
  162.2500    68.2500    23.0200    23.6440    27.7810    29.9110     2.3020   -30.7530 
  162.3750    70.3800    22.9420    27.0780    29.2650    32.0960     2.2860   -31.1190 
  162.5000    70.5320    22.9020    30.3440    31.7300    35.3320     2.2670   -31.4940 
  162.6250    68.6200    22.8880    31.4820    35.3690    39.7930     2.2490   -31.8850 
  162.7500    67.5100    22.8580    28.7990    40.1480    45.5280     2.2360   -32.2200 
  162.8750    68.3590    22.8170    27.6770    46.4520    52.9960     2.2270   -32.5690 
  163.0000    71.4290    22.7900    29.3700    54.8050    62.6640     2.2210   -32.9220 
  163.1250    74.1410    22.7810    32.0680    65.7910    74.8180     2.2190   -33.2680 
  163.2500    75.3310    22.7950    33.7700    77.9590    87.6050     2.2180   -33.6080 
  163.3750    75.4670    22.8760    34.9380    88.6520    97.9700     2.2190   -33.9340 
  163.5000    74.8960    23.0460    36.2600    94.3710   102.2640     2.2220   -34.2270 
  163.6250    72.7620    23.2720    37.2820    92.2740    98.2220     2.2280   -34.5280 
  163.7500    69.9680    23.4910    37.8220    85.8350    90.4640     2.2350   -34.7760 
  163.8750    68.6520    23.6660    35.9780    78.5670    82.8760     2.2400   -35.0290 
  164.0000    70.6580    23.7740    31.5450    72.9750    77.7520     2.2410   -35.2030 
  164.1250    73.9550    23.8020    30.1920    70.8310    76.5000     2.2360   -35.4180 
  164.2500    74.9650    23.8220    41.1170    71.8720    78.4360     2.2290   -35.5630 
  164.3750    74.0330    23.9160    54.8970    75.6630    82.9120     2.2230   -35.6620 
  164.5000    72.8180    24.1390    62.0760    81.4140    88.9940     2.2190   -35.7030 
  164.6250    72.3910    24.4690    65.8310    88.0690    95.4000     2.2130   -35.7770 
  164.7500    71.6070    24.7620    75.3160    93.9640   100.4730     2.2070   -35.8500 
  164.8750    70.9410    24.9330    85.3440    97.7140   102.9060     2.2020   -35.9000 
  165.0000    71.9430    24.9870    90.7960    98.4370   102.0130     2.2030   -35.9230 
  165.1250    71.4300    24.9830    92.8150    95.4460    97.4530     2.2120   -35.9050 
  165.2500    67.8530    24.9760    86.1940    89.8890    90.7930     2.2250   -35.8650 
  165.3750    62.8120    24.9750    71.7090    83.1080    83.6490     2.2350   -35.8020 
  165.5000    61.0310    24.9790    60.9090    76.7900    77.7010     2.2400   -35.7280 
  165.6250    65.9470    24.9860    59.7790    72.6440    74.5110     2.2380   -35.6030 
  165.7500    70.0670    24.9890    60.0050    71.1030    74.2650     2.2310   -35.4440 
  165.8750    69.9660    24.9880    63.6260    72.6950    77.4340     2.2200   -35.2490 
  166.0000    67.8340    24.9900    71.6320    77.9930    84.5680     2.2090   -35.0690 
  166.1250    67.8400    25.0040    76.3690    88.4240    97.1560     2.2020   -34.8920 
  166.2500    68.4400    25.0280    85.5360   104.0060   115.1200     2.1960   -34.7060 
  166.3750    66.9080    25.0650   114.4340   124.8000   138.4250     2.1920   -34.5060 
  166.5000    64.2540    25.1100   151.9430   149.0760   165.2370     2.1890   -34.2820 
  166.6250    62.0350    25.1460   167.4910   171.2210   189.3580     2.1890   -34.0000 
  166.7500    61.5980    25.1640   168.1180   184.6970   203.3900     2.1930   -33.7820 
  166.8750    62.4640    25.1680   164.7100   186.3170   204.0500     2.2010   -33.5770 
  167.0000    62.3550    25.1620   154.1160   178.1510   194.5490     2.2100   -33.4040 
  167.1250    61.8320    25.1440   134.0040   166.2030   182.2680     2.2130   -33.1630 
  167.2500    61.5750    25.1330   117.0540   156.4240   173.0070     2.2110   -32.9670 
  167.3750    61.1520    25.1410   112.6040   150.4480   167.8990     2.2040   -32.7950 
  167.5000    59.2180    25.1530   114.0500   148.0420   166.3760     2.1950   -32.7140 
  167.6250    55.6100    25.1440   121.4310   148.6760   167.6810     2.1880   -32.6400 
  167.7500    54.0650    25.1270   121.6670   150.8710   170.2230     2.1860   -32.6200 
  167.8750    56.3710    25.1160   119.8450   153.6120   172.9030     2.1900   -32.5680 
  168.0000    59.6170    25.1140   120.4040   155.7850   174.5700     2.1960   -32.5800 
  168.1250    59.5130    25.1130   128.2870   156.0340   173.7860     2.2030   -32.5710 
  168.2500    56.7440    25.1120   137.1670   154.0460   170.2880     2.2100   -32.6010 
  168.3750    54.6810    25.1050   138.3540   149.8890   164.1270     2.2170   -32.6870 
  168.5000    54.7350    25.0850   129.5050   144.1590   156.0010     2.2250   -32.8120 
  168.6250    55.4950    25.0620   118.0470   137.9350   147.2550     2.2340   -32.9800 
  168.7500    55.7550    25.0480   113.4350   132.4010   139.3550     2.2400   -33.1230 
  168.8750    56.0690    25.0450   107.7500   128.1880   132.9680     2.2420   -33.2940 
  169.0000    57.4290    25.0580    98.3770   125.5420   128.1620     2.2390   -33.4580 
  169.1250    60.1700    25.1080    94.2600   124.0920   124.1900     2.2330   -33.7270 
  169.2500    63.2980    25.1720    87.0400   122.0540   119.2040     2.2280   -33.9890 
  169.3750    64.8270    25.2100    84.4400   117.5680   111.6010     2.2270   -34.2510 
  169.5000    64.9670    25.2210    84.1610   109.1690   100.4550     2.2320   -34.4950 
  169.6250    64.7650    25.2410    87.3430    95.9640    85.7440     2.2420   -34.8920 
  169.7500    66.2130    25.2680    69.9030    80.3580    70.0040     2.2580   -35.2400 
  169.8750    68.7070    25.2730    49.2500    64.9360    55.4830     2.2760   -35.5920 
  170.0000    70.8130    25.2590    36.0790    51.9040    43.7730     2.2940   -35.9290 
  170.1250    72.2030    25.2700    28.3550    42.8470    35.9500     2.3050   -36.3320 
  170.2500    72.8840    25.3080    23.4850    37.0090    31.1000     2.3090   -36.7520 
  170.3750    74.5860    25.3490    23.1210    33.7790    28.6090     2.3060   -37.1830 
  170.5000    76.9410    25.3660    22.8240    32.5410    27.9190     2.2960   -37.6130 
  170.6250    78.6260    25.3230    22.1980    33.1450    28.9580     2.2830   -37.8990 
  170.7500    80.1240    25.1670    25.6170    35.2770    31.5170     2.2680   -38.2770 
  170.8750    81.6300    24.8590    25.7620    39.1740    35.8780     2.2510   -38.7010 
  171.0000    82.1320    24.5220    24.6730    45.2410    42.4170     2.2330   -39.1380 
  171.1250    79.4910    24.4520    39.9720    54.3150    51.7970     2.2170   -39.5020 
  171.2500    74.2290    24.6740    72.9440    65.8160    63.3790     2.2050   -39.8210 
  171.3750    68.4630    24.9850    93.7280    78.7730    76.4390     2.1980   -40.1120 
  171.5000    64.9690    25.1780    89.2160    91.8120    90.2090     2.1980   -40.4120 
  171.6250    65.2140    25.2220    87.4910   104.3650   105.0750     2.1980   -40.7160 
  171.7500    64.9930    25.2230    97.2130   118.3530   122.9960     2.1950   -40.9770 
  171.8750    61.6470    25.2210   114.3360   137.1040   147.0940     2.1850   -41.2100 
  172.0000    57.5730    25.2220   145.3420   164.0900   180.5630     2.1710   -41.3820 
  172.1250    57.7040    25.2130   206.3750   202.6220   226.7310     2.1570   -41.5470 
  172.2500    59.2570    25.1870   265.0400   247.1920   279.3260     2.1460   -41.7240 
  172.3750    58.3200    25.1480   286.1870   287.8220   326.2050     2.1380   -41.8960 
