~V
VERS. 2.00: Ver 2.00
~W
STRT.M 61.0000:
STOP.M 267.0000:
STEP.M 0.1250:
NULL. -999.2500:
UWI. DF5036:
~C
DEPT.M :
SP.MV :
GR.API :
RML.OHMM :
RI. :
RXO.OHMM :
CALI.CM :
DEN.GM/CC :
~A
# ...
  128.5000   -16.0090    90.1450     6.2730     5.6820     5.1900    24.5130     2.2900 
  128.6250   -16.2530    90.8050     6.2450     5.7110     5.2040    24.4290     2.2860 
  128.7500   -16.5510    90.5010     6.1300     5.6960     5.4110    24.1800     2.2870 
  128.8750   -16.8780    88.1080     5.9510     5.6210     5.7200    23.7840     2.2930 
  129.0000   -17.2340    86.8970     5.7300     5.4930     5.9490    23.6180     2.2990 
  129.1250   -17.6380    88.3270     5.5390     5.3530     5.8160    23.8490     2.3000 
  129.2500   -18.1120    89.6190     5.4720     5.2750     5.7910    24.1090     2.2960 
  129.3750   -18.6600    89.1190     5.6030     5.3250     6.0850    24.1900     2.2880 
  129.5000   -19.2650    88.3110     5.9660     5.5480     6.7550    24.0580     2.2790 
  129.6250   -19.9210    86.1610     6.5570     5.9710     7.8020    23.7650     2.2710 
  129.7500   -20.5950    80.3130     7.2450     6.5050     9.1230    23.5040     2.2640 
  129.8750   -21.2970    75.4850     7.9250     7.0670    10.2510    23.3900     2.2580 
  130.0000   -22.0410    75.7840     8.5180     7.5800    10.4430    23.3740     2.2510 
  130.1250   -22.7730    77.4870     8.9750     7.9800     9.9320    23.4230     2.2430 
  130.2500   -23.4230    74.2350     9.3280     8.2800     9.6580    23.4720     2.2340 
  130.3750   -23.9580    66.0940     9.5900     8.4890     9.7380    23.5470     2.2260 
  130.5000   -24.3470    58.3810     9.7510     8.6110     9.9550    23.6270     2.2210 
  130.6250   -24.5570    55.3780     9.7600     8.6210    10.2470    23.6870     2.2210 
  130.7500   -24.6330    56.0120     9.6330     8.5370    10.3930    23.7070     2.2250 
  130.8750   -24.5720    57.9600     9.4460     8.4060    10.4450    23.7110     2.2310 
  131.0000   -24.3340    59.6130     9.3840     8.3390    10.5170    23.7110     2.2370 
  131.1250   -23.8940    59.3180     9.7950     8.5580    11.0910    23.7360     2.2420 
  131.2500   -23.3230    56.8740    10.7870     9.1500    13.0810    23.7960     2.2450 
  131.3750   -22.6780    55.5620    12.2390    10.0710    16.8430    23.8470     2.2520 
  131.5000   -22.0130    57.4030    13.7290    11.0760    21.6500    23.8050     2.2630 
  131.6250   -21.3460    60.3250    14.4320    11.6330    25.6990    23.6330     2.2720 
  131.7500   -20.6880    61.9240    13.9260    11.3920    25.4850    23.5130     2.2680 
  131.8750   -20.0760    63.8150    12.3060    10.3290    18.8040    23.5340     2.2410 
  132.0000   -19.5640    69.2300    10.2250     8.8210    12.0740    23.7440     2.1970 
  132.1250   -19.2740    77.1430     8.6020     7.4900     8.9150    24.1450     2.1570 
  132.2500   -19.2120    82.0670     7.7600     6.6610     7.2700    24.4780     2.1410 
  132.3750   -19.2840    81.9530     7.6360     6.3770     7.1360    24.2840     2.1520 
  132.5000   -19.4040    78.4550     8.0180     6.5550     8.0530    23.7230     2.1820 
  132.6250   -19.5430    74.2090     8.6830     7.0920     9.1930    23.3710     2.2130 
  132.7500   -19.6480    70.6740     9.3730     7.7590     9.5600    23.2630     2.2350 
  132.8750   -19.6750    69.2860     9.9570     8.3990     9.4360    23.2430     2.2520 
  133.0000   -19.5860    71.0350    10.3630     8.8850     9.0320    23.2390     2.2700 
  133.1250   -19.2900    74.6130    10.5120     9.0820     8.5510    23.2290     2.2920 
  133.2500   -18.8160    77.7510    10.3900     8.9780     8.2230    23.1790     2.3100 
  133.3750   -18.2650    79.8960     9.9490     8.5570     8.0440    23.0780     2.3200 
  133.5000   -17.7110    81.7200     9.1810     7.8470     7.9980    23.0920     2.3190 
  133.6250   -17.2240    87.6750     8.1540     6.9300     7.8700    23.4100     2.3050 
  133.7500   -16.8800    97.9900     7.1230     6.0170     6.9270    23.9530     2.2830 
  133.8750   -16.7420   106.6440     6.2980     5.2680     5.5700    24.3490     2.2580 
  134.0000   -16.8370   107.0500     5.8290     4.8000     4.9760    24.5380     2.2350 
  134.1250   -17.1840   100.6540     5.8450     4.7320     5.2010    24.4990     2.2200 
  134.2500   -17.6910    93.5800     6.2470     5.0100     5.8330    24.1990     2.2120 
  134.3750   -18.2880    86.3230     6.9450     5.5890     6.6400    23.7560     2.2080 
  134.5000   -18.9230    78.8570     7.8000     6.3740     7.4050    23.4080     2.2030 
  134.6250   -19.5100    71.6280     8.6170     7.2050     8.0490    23.2730     2.1960 
  134.7500   -20.0120    66.0690     9.2380     7.8960     8.3120    23.2420     2.1890 
  134.8750   -20.3900    63.7220     9.6000     8.3230     8.4060    23.2380     2.1840 
  135.0000   -20.6000    64.4770     9.7030     8.4390     8.4170    23.2470     2.1840 
  135.1250   -20.6160    67.5010     9.5670     8.2450     8.2590    23.2900     2.1900 
  135.2500   -20.4860    70.0920     9.2700     7.8860     7.9290    23.3500     2.2010 
  135.3750   -20.2470    72.0720     8.8310     7.4410     7.4860    23.3470     2.2170 
  135.5000   -19.9580    73.8640     8.2500     6.9750     7.0790    23.2580     2.2370 
  135.6250   -19.6720    76.5330     7.7160     6.5870     6.8800    23.2010     2.2560 
  135.7500   -19.3960    80.7980     7.4580     6.3600     6.9390    23.2770     2.2680 
  135.8750   -19.1600    84.1550     7.6420     6.3520     6.9830    23.4750     2.2680 
  136.0000   -18.9800    82.6410     8.0480     6.5430     7.1120    23.7210     2.2540 
  136.1250   -18.7800    74.6280     8.4650     6.8320     7.5900    23.8520     2.2320 
  136.2500   -18.4880    68.3340     8.6600     7.0460     8.3360    23.9290     2.2180 
  136.3750   -18.0860    69.3110     8.5440     7.0850     8.7030    23.9650     2.2190 
  136.5000   -17.6180    75.5640     8.1930     6.9460     8.2690    23.9770     2.2360 
  136.6250   -17.1530    79.3560     7.8290     6.7270     7.4080    23.9690     2.2620 
  136.7500   -16.6980    79.3270     7.6520     6.5840     6.9280    23.9460     2.2910 
  136.8750   -16.2020    77.4080     7.7070     6.5860     7.1870    23.9220     2.3210 
  137.0000   -15.6880    76.7570     7.9240     6.7180     8.0150    23.9100     2.3510 
  137.1250   -15.2480    81.5450     8.1490     6.8920     8.7030    23.9070     2.3730 
  137.2500   -14.9420    87.0150     8.2370     6.9830     9.0770    23.8890     2.3790 
  137.3750   -14.7740    89.7450     8.1280     6.9180     8.8180    23.8210     2.3690 
  137.5000   -14.6910    89.8920     7.8390     6.6880     7.1810    23.6790     2.3530 
  137.6250   -14.6180    89.5600     7.4330     6.3390     6.1410    23.5800     2.3420 
  137.7500   -14.5440    89.4090     7.0120     5.9750     5.6700    23.5410     2.3400 
  137.8750   -14.4890    88.8360     6.6280     5.6530     5.4510    23.5770     2.3410 
  138.0000   -14.4400    91.6290     6.3140     5.4050     5.2210    23.6360     2.3430 
  138.1250   -14.3890    98.7930     6.0880     5.2440     5.0570    23.7070     2.3460 
  138.2500   -14.3320   104.6270     5.9240     5.1390     4.9810    23.7930     2.3510 
  138.3750   -14.2850   104.6160     5.8110     5.0750     5.0390    23.9440     2.3530 
  138.5000   -14.2490   100.5510     5.7520     5.0520     5.1750    24.1150     2.3480 
  138.6250   -14.2350    98.3740     5.7720     5.0920     5.3680    24.2010     2.3280 
  138.7500   -14.2520    98.3830     5.8720     5.2000     5.5190    24.2340     2.3000 
  138.8750   -14.3050    97.9520     6.0470     5.3740     5.6310    24.2340     2.2710 
  139.0000   -14.3760    96.8350     6.2740     5.6000     5.7430    24.1310     2.2530 
  139.1250   -14.4380    95.6520     6.5140     5.8440     5.8020    23.8980     2.2490 
  139.2500   -14.4790    94.7120     6.7140     6.0580     5.9750    23.6990     2.2540 
  139.3750   -14.4970    94.7610     6.8410     6.2060     6.0230    23.6720     2.2640 
  139.5000   -14.5030    94.6400     6.8810     6.2690     5.9240    23.7330     2.2760 
  139.6250   -14.4890    92.0250     6.8380     6.2430     5.8180    23.8320     2.2880 
