~V
VERS. 2.00: Ver 2.00
~W
STRT.M 60.0000:
STOP.M 259.0000:
STEP.M 0.1250:
NULL. -999.2500:
UWI. DF5006:
~C
DEPT.M :
SP.MV :
GR.API :
RML.OHMM :
RI. :
RXO.OHMM :
CALI.CM :
DEN.GM/CC :
~A
# ...
  251.2500    -9.4420    64.4080     9.4290     7.7110     7.4410    23.2730     2.3240 
  251.3750    -9.4050    64.4080     9.2980     7.5590     7.2790    23.2720     2.2970 
  251.5000    -9.3370    64.4080     9.1590     7.3970     7.2130    23.2620     2.2790 
  251.6250    -9.2160    64.4080     8.9990     7.2540     7.1160    23.2240     2.2700 
  251.7500    -9.0900    64.4080     8.8260     7.1590     6.9550    23.0750     2.2660 
  251.8750    -8.9840    64.4080     8.6550     7.1080     6.8420    22.6590     2.2610 
  252.0000    -8.8840    64.4080     8.5430     7.0910     6.8390    21.7100     2.2540 
  252.1250    -8.7830    64.4080     8.4810     7.0900     7.0120    20.2390     2.2440 
  252.2500    -8.7510    64.4080     8.4670     7.0940     7.2930    18.6320     2.2320 
  252.3750    -8.7590    64.4080     8.4490     7.0970     7.5400    17.2260     2.2200 
  252.5000    -8.8490    64.4080     8.4190     7.0970     7.7510    16.1520     2.2100 
  252.6250    -8.9970    64.4080     8.3800     7.0970     7.8990    15.5050     2.2030 
  252.7500    -9.1430    64.4080     8.3440     7.0970     7.8530    15.2880     2.2030 
  252.8750    -9.2770    64.4080     8.3380     7.0980     7.6430    15.2190     2.2070 
  253.0000    -9.3660    64.4080     8.3370     7.0990     7.3150    15.1950     2.2110 
  253.1250    -9.4480    64.4080     8.3370     7.1010     7.0010    15.1860     2.2120 
  253.2500    -9.5090    64.4080     8.3370     7.1020     6.8440    15.1680     2.2080 
  253.3750    -9.5120    64.4080     8.3370     7.1040     6.7670    15.0850     2.2000 
  253.5000    -9.4150    64.4080     8.3370     7.1050     6.6990    14.8950     2.1900 
  253.6250    -9.2710    64.4080     8.3370     7.1060     6.6020    14.6500     2.1810 
  253.7500    -9.1840    64.4080     8.3370     7.1060     6.4660    14.5090     2.1780 
  253.8750    -9.1190    64.4080     8.3370     7.1050     6.1930    14.4580     2.1850 
  254.0000    -9.0530    64.4080     8.3370     7.1040     5.8390    14.4550     2.1900 
  254.1250    -8.9780    64.4080     8.3370     7.1030     5.5460    14.4870     2.2210 
  254.2500    -8.8780    64.4080     8.3370     7.1020     5.4000    14.6360     2.2290 
  254.3750    -8.7980    64.4080     8.3370     7.1010     5.2940    15.0050     2.2110 
  254.5000    -8.8330    64.4080     8.3370     7.1020     5.1560    15.7190     2.1660 
  254.6250    -8.9170    64.4080     8.3370     7.1030     4.9670    16.9090     2.1030 
  254.7500    -8.9630    64.4080     8.3370     7.1060     4.8950    18.4670     2.0450 
  254.8750    -9.0000    64.4080     8.3370     7.1090     5.0740    20.0690     2.0100 
  255.0000    -9.0550    64.4080     8.3370     7.1110     5.3640    21.0700     2.0010 
  255.1250    -9.1250    64.4080     8.3370     7.1110     5.5220    21.3710     2.0090 
  255.2500    -9.2030    64.4080     8.3370     7.1110     5.6630    21.5320     2.0190 
  255.3750    -9.3050    64.4080     8.3370     7.1110     5.9830    21.8720     2.0230 
  255.5000    -9.3380    64.4080     8.3370     7.1110     6.5020    22.2120     2.0230 
  255.6250    -9.3380    64.4080     8.3370     7.1110     7.1180    22.3740     2.0280 
  255.7500    -9.3380    64.4080     8.3370     7.1110     7.6900    22.4080     2.0430 
  255.8750  -999.2500    64.4080     8.3370     7.1110     8.1140    22.4300     2.0610 
  256.0000  -999.2500    64.4080     8.3370     7.1110     8.3940    22.4060     2.0750 
  256.1250  -999.2500    64.4080     8.3370     7.1110     8.5130    22.3300     2.0790 
  256.2500  -999.2500    64.4080     8.3370     7.1110     8.6120    22.1050     2.0740 
  256.3750  -999.2500    64.4080     8.3370     7.1110     8.5440    21.6430     2.0650 
  256.5000  -999.2500    64.4080     8.3370     7.1110     8.3140    21.0010     2.0580 
  256.6250  -999.2500    64.4080     8.3370     7.1110     8.0230    20.6080     2.0520 
  256.7500  -999.2500    64.4080     8.3370     7.1110     7.9050    20.5120     2.0500 
  256.8750  -999.2500    64.4080     8.3370     7.1110     7.8750    20.5120     2.0460 
  257.0000  -999.2500    64.4080     8.3370     7.1110     7.8740    20.5120  -999.2500 
  257.1250  -999.2500    64.4080     8.3370     7.1110     7.8740    20.5120  -999.2500 
  257.2500  -999.2500    64.4080     8.3370     7.1110     7.8760    20.5120  -999.2500 
  257.3750  -999.2500    64.4080     8.3370     7.1110     7.8770    20.5120  -999.2500 
  257.5000  -999.2500    64.4080     8.3370     7.1110     7.8770    20.5110  -999.2500 
  257.6250  -999.2500    64.4080     8.3370     7.1110     7.8760    20.5080  -999.2500 
  257.7500  -999.2500    64.4080     8.3370     7.1110     7.8740    20.5070  -999.2500 
  257.8750  -999.2500    64.4080     8.3370     7.1110     7.8730    20.5050  -999.2500 
  258.0000  -999.2500    64.4080     8.3370     7.1110     7.8720    20.5050  -999.2500 
  258.1250  -999.2500    64.4080     8.3370     7.1110     7.8730    20.5040  -999.2500 
  258.2500  -999.2500    64.4080     8.3370     7.1110     7.8730    20.5040  -999.2500 
  258.3750  -999.2500    64.4080     8.3370     7.1110     7.8720    20.5040  -999.2500 
  258.5000  -999.2500    64.4080     8.3370     7.1110     7.8720    20.5040  -999.2500 
  258.6250  -999.2500    64.4080     8.3370     7.1110     7.8710    20.5040  -999.2500 
  258.7500  -999.2500    64.4080     8.3370     7.1110     7.8710    20.5040  -999.2500 
  258.8750  -999.2500    64.4080     8.3370     7.1110     7.8710    20.5040  -999.2500 
  259.0000  -999.2500    64.4080     8.3370     7.1110     7.8720    20.5040  -999.2500 
