~V
VERS. 2.00: Ver 2.00
~W
STRT.M 55.0000:
STOP.M 273.0000:
STEP.M 0.1250:
NULL. -999.2500:
UWI. DF5004:
~C
DEPT.M :
GR.API :
CALI.CM :
RXO.OHMM :
RI. :
RML.OHMM :
DEN.GM/CC :
SP.MV :
~A
# ...
   66.2500    68.0760    23.4930    11.8010     7.2070     9.2820     2.1500   -40.5650 
   66.3750    66.6890    23.4930    11.7150     7.3280     9.3630     2.1550   -39.9000 
   66.5000    64.8340    23.5180    11.6230     7.4040     9.3780     2.1610   -39.0700 
   66.6250    65.2370    23.5650    11.4330     7.3740     9.2690     2.1730   -37.9940 
   66.7500    67.9720    23.6980    10.8700     7.2480     9.0850     2.1930   -36.7370 
   66.8750    71.4010    23.7350     9.9360     7.0650     8.8990     2.2150   -35.3390 
   67.0000    77.3080    23.7280     9.0500     6.8800     8.7750     2.2300   -33.9530 
   67.1250    87.0390    23.7100     8.6440     6.7370     8.7310     2.2310   -32.7510 
   67.2500    94.9380    23.6680     8.4700     6.6190     8.6680     2.2240   -31.7840 
   67.3750    97.0840    23.6250     8.3770     6.4830     8.4730     2.2200   -31.0960 
   67.5000    93.8650    23.6110     8.3880     6.3020     8.1130     2.2220   -30.6340 
   67.6250    90.7920    23.6500     8.2420     6.1450     7.7640     2.2300   -30.4830 
   67.7500    91.1650    23.7160     7.8730     6.1580     7.7250     2.2480   -30.5910 
   67.8750    92.4510    23.7760     7.4980     6.4760     8.2150     2.2810   -30.9830 
   68.0000    90.8190    23.8020     7.8240     7.1730     9.3480     2.3200   -31.5670 
   68.1250    87.1630    23.8090     9.8320     8.2240    11.0850     2.3370   -32.3420 
   68.2500    83.0100    23.7990    12.7990     9.2660    12.7790     2.3160   -33.1930 
   68.3750    78.1020    23.7470    14.7020     9.8790    13.6560     2.2570   -34.1080 
   68.5000    73.7160    23.6030    14.1740     9.7940    13.2900     2.1830   -35.0140 
   68.6250    71.5540    23.5040    12.1720     9.0980    12.0040     2.1330   -36.0170 
   68.7500    71.3210    23.4670    10.8530     8.3040    10.7300     2.1160   -37.0360 
   68.8750    72.7700    23.4630    10.3650     7.6870     9.8780     2.1140   -37.9860 
   69.0000    73.8950    23.4680    10.3070     7.3470     9.5310     2.1020   -38.7780 
   69.1250    71.8800    23.4970    10.3820     7.2870     9.6050     2.0820   -39.3020 
   69.2500    67.9520    23.5520    10.4670     7.3570     9.8170     2.0770   -39.6230 
   69.3750    66.2770    23.6240    10.4300     7.4600    10.0130     2.0870   -39.6770 
   69.5000    67.7470    23.6840    10.3100     7.5260    10.1140     2.0970   -39.6440 
   69.6250    70.3030    23.7300    10.2530     7.5070    10.0700     2.1000   -39.4410 
   69.7500    73.2120    23.6750    10.3660     7.4060     9.9180     2.1110   -39.0670 
   69.8750    74.6930    23.4680    10.5170     7.2440     9.7060     2.1370   -38.6340 
   70.0000    75.0720    23.2820    10.4870     7.0670     9.5010     2.1640   -38.2230 
   70.1250    77.0680    23.2050    10.1930     6.9310     9.3870     2.1740   -37.7670 
   70.2500    78.6150    23.2090     9.9900     6.8600     9.3850     2.1720   -37.2650 
   70.3750    77.3910    23.2180     9.9640     6.8560     9.4810     2.1750   -36.8960 
   70.5000    74.8500    23.2200     9.9530     6.9050     9.6320     2.1860   -36.4900 
   70.6250    74.4220    23.2150    10.0150     6.9920     9.7820     2.1880   -36.0510 
   70.7500    76.0970    23.2170    10.0310     7.0880     9.8840     2.1780   -35.7890 
   70.8750    77.3650    23.2180     9.9680     7.1760     9.9220     2.1610   -35.5580 
   71.0000    78.2000    23.2150    10.0180     7.2370     9.9040     2.1420   -35.2760 
   71.1250    77.0760    23.2090    10.2130     7.2630     9.8510     2.1250   -35.0960 
   71.2500    74.0220    23.2070    10.3520     7.2750     9.8020     2.1140   -34.9350 
   71.3750    72.2990    23.2070    10.2460     7.3000     9.7830     2.1140   -34.6040 
   71.5000    73.1310    23.2110    10.0330     7.3490     9.7980     2.1220   -34.2270 
   71.6250    74.5430    23.2710     9.7960     7.3850     9.7920     2.1310   -33.8180 
   71.7500    75.9640    23.3510     9.7590     7.3440     9.6800     2.1430   -33.3120 
   71.8750    77.5830    23.3320     9.8170     7.1850     9.4150     2.1640   -32.7830 
   72.0000    79.3250    23.2680     9.5560     6.9290     9.0390     2.1950   -32.1900 
   72.1250    82.0830    23.2200     8.7130     6.6660     8.6960     2.2270   -31.4060 
   72.2500    85.6370    23.2120     7.8290     6.4910     8.5160     2.2430   -30.6040 
   72.3750    88.2160    23.2160     7.3520     6.4340     8.5290     2.2390   -29.9210 
   72.5000    87.7370    23.2550     7.6390     6.4560     8.6600     2.2250   -29.3530 
   72.6250    85.7010    23.3490     8.6110     6.4570     8.7250     2.2210   -28.8790 
   72.7500    87.0580    23.5120     9.0130     6.3570     8.5940     2.2310   -28.4870 
   72.8750    91.8350    23.7280     8.3800     6.1590     8.2870     2.2530   -28.1770 
   73.0000    98.9480    24.0300     7.4220     5.9300     7.9330     2.2810   -28.0540 
   73.1250   103.7340    24.0410     7.0890     5.7780     7.7030     2.3000   -28.1910 
   73.2500   102.4640    24.0220     7.5600     5.7640     7.6700     2.2950   -28.4600 
   73.3750    95.4760    23.9540     8.4280     5.9480     7.9020     2.2660   -28.8700 
   73.5000    86.9760    23.6510     9.1920     6.3920     8.4890     2.2350   -29.3900 
   73.6250    82.3310    23.4750     9.7530     7.1860     9.5900     2.2400   -29.9280 
   73.7500    78.4230    23.3590    10.8920     8.2390    11.1090     2.2860   -30.3870 
   73.8750    73.2180    23.3510    14.6070     9.3840    12.8160     2.3540   -30.8230 
   74.0000    69.5110    23.3950    21.8610    10.3070    14.2080     2.4010   -31.2870 
   74.1250    70.1530    23.4790    24.6110    10.5180    14.4530     2.3720   -31.7140 
   74.2500    72.2050    23.4700    19.9550    10.0470    13.6020     2.2850   -32.1530 
   74.3750    73.7020    23.3760    13.4560     9.1760    12.1790     2.1900   -32.4600 
   74.5000    74.2550    23.3130    10.5560     8.2500    10.7870     2.1370   -32.6290 
   74.6250    74.8060    23.3160    10.0790     7.5530     9.8700     2.1360   -32.7130 
   74.7500    76.4510    23.3760     9.9790     7.1470     9.4350     2.1510   -32.8060 
   74.8750    78.8260    23.5050     9.7350     7.0090     9.3930     2.1640   -32.8620 
   75.0000    80.1870    23.8550     9.4010     7.0760     9.6150     2.1710   -32.9160 
   75.1250    80.2790    24.4790     9.7160     7.3080    10.0160     2.1730   -32.9420 
   75.2500    80.0170    24.7220    10.4230     7.6280    10.5010     2.1700   -32.9220 
   75.3750    78.4380    24.3800    10.7400     7.9790    10.9950     2.1650   -32.9520 
   75.5000    75.1570    23.8770    10.4720     8.2970    11.3970     2.1570   -33.0380 
   75.6250    72.9980    23.3720    10.2980     8.5110    11.6130     2.1490   -33.2040 
   75.7500    74.2300    23.1060    10.7540     8.6130    11.6890     2.1500   -33.4040 
   75.8750    76.4330    22.9600    11.8540     8.6160    11.6820     2.1640   -33.6350 
   76.0000    76.3790    22.9130    13.3950     8.5490    11.6340     2.1830   -33.7700 
   76.1250    73.3960    22.9890    13.7500     8.4230    11.5310     2.1870   -33.9080 
   76.2500    70.9970    23.2070    12.8470     8.2500    11.3640     2.1750   -34.0320 
   76.3750    70.7650    23.4560    11.4720     8.0440    11.1430     2.1570   -34.1230 
   76.5000    71.8140    23.4520    10.4590     7.8360    10.9180     2.1350   -34.2150 
   76.6250    72.9020    23.3870    10.2320     7.6830    10.7660     2.1110   -34.2520 
   76.7500    73.0290    23.3330    10.3960     7.6090    10.7130     2.0950   -34.3190 
   76.8750    72.1420    23.3130    10.5960     7.6130    10.7490     2.0970   -34.3900 
   77.0000    71.0990    23.3420    10.6580     7.6690    10.8370     2.1120   -34.4890 
   77.1250    69.6950    23.4560    10.6710     7.7330    10.9320     2.1250   -34.5470 
   77.2500    68.7450    23.6070    10.6730     7.7670    10.9910     2.1360   -34.6450 
   77.3750    69.7890    23.6180    10.5680     7.7570    10.9950     2.1470   -34.7150 
