~V
VERS. 2.00: Ver 2.00
~W
STRT.M 55.0000:
STOP.M 262.0000:
STEP.M 0.1250:
NULL. -999.2500:
UWI. DF5047:
~C
DEPT.M :
GR.API :
CALI.CM :
RXO.OHMM :
RI. :
RML.OHMM :
DEN.GM/CC :
SP.MV :
~A
# ...
  246.2500    69.9120    24.1600    13.0360    11.2990    13.4110     2.4940   -15.0000 
  246.3750    68.7980    24.1770    14.2360    11.7490    13.9680     2.5030   -14.7710 
  246.5000    66.7310    24.1770    14.7260    12.1730    14.3870     2.5040   -14.5670 
  246.6250    63.9740    24.1760    15.0110    12.2740    14.3240     2.4920   -14.4570 
  246.7500    63.1390    24.1760    14.8090    11.9550    13.7550     2.4720   -14.4540 
  246.8750    64.1610    24.1720    13.0780    11.2930    12.8380     2.4560   -14.5010 
  247.0000    65.1610    24.1680    11.1760    10.5010    11.8630     2.4500   -14.5550 
  247.1250    65.9490    24.1780    10.4290     9.8480    11.1660     2.4530   -14.6340 
  247.2500    67.5310    24.2030     9.8990     9.4570    10.8400     2.4610   -14.7190 
  247.3750    67.3460    24.2250     9.0630     9.3500    10.8600     2.4690   -14.7540 
  247.5000    63.7070    24.2310     8.7550     9.4880    11.1310     2.4790   -14.6950 
  247.6250    60.8680    24.2300     8.7010     9.8060    11.5240     2.4900   -14.5350 
  247.7500    61.8940    24.2350     8.6790    10.1610    11.8840     2.4990   -14.3170 
  247.8750    63.5830    24.2450     8.6530    10.4550    12.1170     2.5020   -14.1580 
  248.0000    63.2120    24.2590     8.6730    10.6130    12.1670     2.4970   -14.0790 
  248.1250    62.0800    24.2750     8.6630    10.5820    12.0090     2.4870   -14.0380 
  248.2500    62.6480    24.2880     8.6560    10.4290    11.7480     2.4780   -14.0210 
  248.3750    64.0020    24.2940     8.6370    10.2320    11.4870     2.4700   -14.0540 
  248.5000    64.6680    24.2930     9.0530    10.0750    11.3270     2.4640   -14.1700 
  248.6250    63.8120    24.2920     9.2760    10.0370    11.3500     2.4590   -14.2510 
  248.7500    62.5820    24.2900     9.1530    10.1160    11.5160     2.4610   -14.2440 
  248.8750    62.3630    24.2850     8.9560    10.2850    11.7690     2.4720   -14.2310 
  249.0000    63.4230    24.2820     8.9560    10.4970    12.0350     2.4900   -14.1760 
  249.1250    64.9740    24.2840     9.2370    10.6880    12.2380     2.5080   -13.9960 
  249.2500    65.7180    24.2720     9.4300    10.8270    12.3630     2.5200   -13.8530 
  249.3750    65.2850    24.2240     9.2110    10.9270    12.4420     2.5250   -13.7050 
  249.5000    64.7520    24.1480     8.4310    11.0250    12.5290     2.5250   -13.5660 
  249.6250    65.3930    24.1020     7.6500    11.1620    12.6730     2.5210   -13.5020 
  249.7500    66.3260    24.1030     7.5570    11.3320    12.8620     2.5140   -13.5050 
  249.8750    66.4020    24.1310     8.5010    11.5080    13.0550     2.5040   -13.4220 
  250.0000    65.8780    24.1650     9.6050    11.6550    13.2060     2.4950   -13.2980 
  250.1250    66.9940    24.2000     9.8480    11.7470    13.2970     2.4880   -13.2690 
  250.2500    68.9770    24.2250     9.6040    11.8060    13.3650     2.4820   -13.1580 
  250.3750    69.5420    24.2320     9.5960    11.8590    13.4480     2.4760   -13.1560 
  250.5000    68.9720    24.2300     9.5090    11.9310    13.5700     2.4720   -13.2000 
  250.6250    69.3330    24.2280     9.4870    12.0430    13.7370     2.4720   -13.1820 
  250.7500    69.6340    24.2260     9.6420    12.1890    13.9310     2.4770   -13.0750 
  250.8750    69.2160    24.2260    10.3040    12.3610    14.1440     2.4880   -12.9500 
  251.0000    67.6750    24.2210    11.0680    12.5510    14.3780     2.5000   -12.8650 
  251.1250    66.6520    24.1960    11.9360    12.7630    14.6400     2.5090   -12.8120 
  251.2500    66.8870    24.1600    12.4760    12.9970    14.9230     2.5120   -12.8950 
  251.3750    68.7840    24.1240    12.7350    13.2470    15.2110     2.5110   -12.9290 
  251.5000    71.6290    24.0940    12.6940    13.4950    15.4860     2.5070   -12.8340 
  251.6250    73.8090    24.0900    12.1410    13.7250    15.7290     2.5060   -12.7810 
  251.7500    74.8250    24.1300    11.8140    13.9310    15.9370     2.5070   -12.9050 
  251.8750    74.8930    24.1990    12.1640    14.1070    16.1090     2.5090   -13.1610 
  252.0000    74.8930    24.2600    14.1540    14.2460    16.2370     2.5080   -13.4080 
  252.1250    74.8930    24.2840    17.0470    14.3310    16.3090     2.5080   -13.5110 
  252.2500    74.8930    24.2890    18.6140    14.3670    16.3330     2.5100   -13.5240 
  252.3750    74.8930    24.2840    19.5250    14.3590    16.3180     2.5130   -13.5820 
  252.5000    74.8930    24.2750    20.5650    14.3200    16.2770     2.5140   -13.7860 
  252.6250    74.8930    24.2550    21.1750    14.2630    16.2260     2.5090   -13.9610 
  252.7500    74.8930    24.2280    23.4310    14.2070    16.1750     2.4990   -14.0450 
  252.8750    74.8930    24.2100    24.7700    14.1650    16.1300     2.4890   -14.0100 
  253.0000    74.8930    24.2080    22.5240    14.1440    16.0950     2.4840   -13.9140 
  253.1250    74.8930    24.2080    17.5810    14.1470    16.0820     2.4880   -13.9710 
  253.2500    74.8930    24.1960    16.1700    14.1730    16.1070     2.4970   -14.0700 
  253.3750    74.8930    24.1810    14.8490    14.2350    16.1900     2.5000   -14.0000 
  253.5000    74.8930    24.1820    13.4800    14.3490    16.3460     2.4920   -13.8470 
  253.6250    74.8930    24.2220    13.4230    14.5350    16.5710     2.4760   -13.8610 
  253.7500    74.8930    24.2790    13.0400    14.7590    16.8090     2.4570   -13.8870 
  253.8750    74.8930    24.3240    12.9290    14.9640    16.9960     2.4420   -13.8710 
  254.0000    74.8930    24.3400    13.2960    15.0870    17.0710     2.4340   -13.8100 
  254.1250    74.8930    24.3390    13.9630    15.0610    16.9810     2.4370   -13.6930 
  254.2500    74.8930    24.3370    14.3750    14.9200    16.7800     2.4470   -13.5300 
  254.3750    74.8930    24.3450    14.1140    14.7210    16.5400     2.4600   -13.4440 
  254.5000    74.8930    24.3450    14.0660    14.5380    16.3430     2.4720   -13.4690 
  254.6250    74.8930    24.2960    14.6420    14.4450    16.2640     2.4780   -13.4030 
  254.7500    74.8930    24.2090    16.8890    14.4390    16.2840     2.4770   -13.2430 
  254.8750    74.8930    24.1350    19.4490    14.4870    16.3610     2.4740   -13.1060 
  255.0000    74.8930    24.1150    19.8030    14.5480    16.4480     2.4700   -13.0660 
  255.1250    74.8930    24.1440    18.3710    14.5840    16.5050     2.4670   -13.1040 
  255.2500    74.8930    24.1820    16.2500    14.5990    16.5340     2.4650   -13.2000 
  255.3750    74.8930    24.2010    15.7970    14.6090    16.5500     2.4670   -13.3280 
  255.5000    74.8930    24.1740    16.2430    14.6220    16.5610     2.4750   -13.2800 
  255.6250    74.8930    24.0880    17.2130    14.6310    16.5710     2.4850   -13.1550 
  255.7500    74.8930    23.9870    18.6590    14.6280    16.5810     2.4950   -13.1270 
  255.8750    74.8930    23.9330    20.0080    14.6150    16.5930     2.5010   -13.1870 
  256.0000    74.8930    23.9300    18.7730    14.6010    16.6010     2.5060   -13.3280 
  256.1250    74.8930    23.9080    15.5740    14.5960    16.5980     2.5080   -13.3350 
  256.2500    74.8930    23.8590    13.3480    14.6010    16.5860     2.5110   -13.3190 
  256.3750    74.8930    23.8530    11.6560    14.6070    16.5700     2.5140   -13.3000 
  256.5000    74.8930    23.9300    10.1180    14.6090    16.5590     2.5140   -13.2800 
  256.6250    74.8930    24.0380     9.3540    14.6030    16.5570     2.5110   -13.3570 
  256.7500    74.8930    24.1230     9.2770    14.5950    16.5550     2.5070   -13.4020 
  256.8750    74.8930    24.1800     9.4680    14.5920    16.5440     2.5060   -13.3090 
  257.0000    74.8930    24.2140     9.8800    14.5960    16.5220     2.5080   -13.2000 
  257.1250    74.8930    24.2370    10.3710    14.6020    16.4920     2.5160   -13.2160 
  257.2500    74.8930    24.2520    11.1660    14.6040    16.4680     2.5260   -13.1610 
  257.3750    74.8930    24.2500    12.8230    14.6000    16.4540     2.5340   -13.0280 
