~V
VERS. 2.00: Ver 2.00
~W
STRT.M 60.0000:
STOP.M 257.0000:
STEP.M 0.1250:
NULL. -999.2500:
UWI. DF5064:
~C
DEPT.M :
SP.MV :
GR.API :
RML.OHMM :
RI. :
RXO.OHMM :
CALI.CM :
DEN.GM/CC :
~A
# ...
  251.2500    -3.3980    76.2640    21.0150    19.9780    22.6270    25.3800     2.5550 
  251.3750    -3.3880    76.2640    21.0020    19.9030    22.9000    25.6200     2.5450 
  251.5000    -3.3920    76.2640    21.0970    19.9250    27.1480    25.7430     2.5310 
  251.6250    -3.3510    76.2640    21.2470    20.0060    26.8710    25.8780     2.5160 
  251.7500    -3.3020    76.2640    21.3910    20.0940    24.7670    25.9570     2.5060 
  251.8750    -3.2520    76.2640    21.4970    20.1630    20.6960    25.8880     2.5040 
  252.0000    -3.1770    76.2640    21.5540    20.2030    20.5260    25.7760     2.5120 
  252.1250    -3.1230    76.2640    21.5690    20.2150    22.4800    25.7690     2.5280 
  252.2500    -3.0550    76.2640    21.5690    20.2170    21.3250    25.8750     2.5410 
  252.3750    -3.0040    76.2640    21.5680    20.2170    19.1850    25.9530     2.5440 
  252.5000    -2.9440    76.2640    21.5660    20.2170    18.4400    25.8820     2.5340 
  252.6250    -2.8960    76.2640    21.5650    20.2170    21.0450    25.7220     2.5150 
  252.7500    -2.8620    76.2640    21.5650    20.2170    22.5420    25.6240     2.4980 
  252.8750    -2.7470    76.2640    21.5650    20.2170    17.4600    25.5430     2.4900 
  253.0000    -2.5750    76.2640    21.5650    20.2170    13.2400    25.4700     2.4940 
  253.1250    -2.4390    76.2640    21.5650    20.2170    13.7560    25.5430     2.5080 
  253.2500    -2.3930    76.2640    21.5650    20.2170    15.8550    25.6830     2.5190 
  253.3750    -2.3480    76.2640    21.5650    20.2170    15.7130    25.7320     2.5170 
  253.5000    -2.2860    76.2640    21.5650    20.2170    14.7080    25.8780     2.5020 
  253.6250    -2.2260    76.2640    21.5650    20.2170    15.4570    26.1220     2.4800 
  253.7500    -2.1610    76.2640    21.5650    20.2170    17.9160    26.4050     2.4600 
  253.8750    -2.1510    76.2640    21.5650    20.2170    21.9120    26.5510     2.4420 
  254.0000    -2.2290    76.2640    21.5650    20.2170    28.2590    26.4800     2.4250 
  254.1250    -2.3250    76.2640    21.5650    20.2170    33.1180    26.4540     2.4110 
  254.2500    -2.3280    76.2640    21.5650    20.2170    29.2690    26.6730     2.4100 
  254.3750    -2.3140    76.2640    21.5650    20.2170    23.1420    26.8100     2.4290 
  254.5000    -2.3140    76.2640    21.5650    20.2170    19.7290    26.5200     2.4620 
  254.6250  -999.2500    76.2640    21.5650    20.2170    20.6210    26.0910     2.4870 
  254.7500  -999.2500    76.2640    21.5650    20.2170    22.7620    25.9260     2.4900 
  254.8750  -999.2500    76.2640    21.5650    20.2170    24.3870    25.7940     2.4760 
  255.0000  -999.2500    76.2640    21.5650    20.2170    26.8500    25.5380     2.4580 
  255.1250  -999.2500    76.2640    21.5650    20.2170    29.1930    25.3830     2.4560 
  255.2500  -999.2500    76.2640    21.5650    20.2170    28.6820    25.3070     2.4680 
  255.3750  -999.2500    76.2640    21.5650    20.2170    26.1040    25.2380     2.4860 
  255.5000  -999.2500    76.2640    21.5650    20.2170    23.2530    25.2070     2.4990 
  255.6250  -999.2500    76.2640    21.5650    20.2170    20.8240    25.1420     2.5010 
  255.7500  -999.2500    76.2640    21.5650    20.2170    19.3010    25.0340     2.4960 
  255.8750  -999.2500    76.2640    21.5650    20.2170    18.6270    24.9030     2.4910 
  256.0000  -999.2500    76.2640    21.5650    20.2170    19.3780    24.7760     2.4930 
  256.1250  -999.2500    76.2640    21.5650    20.2170    20.3800    24.6390     2.5060 
  256.2500  -999.2500    76.2640    21.5650    20.2170    21.7580    24.4820     2.5270 
  256.3750  -999.2500    76.2640    21.5650    20.2170    22.6870    24.2690     2.5490 
  256.5000  -999.2500    76.2640    21.5650    20.2170    25.4450    23.7610     2.5670 
  256.6250  -999.2500    76.2640    21.5650    20.2170    35.0360    22.6920     2.5740 
  256.7500  -999.2500    76.2640    21.5650    20.2170    48.6590    21.5290     2.5730 
  256.8750  -999.2500    76.2640    21.5650    20.2170    56.3280    20.9650     2.5680 
  257.0000  -999.2500    76.2640    21.5650    20.2170    57.3500    20.8500     2.5630 
