~V
VERS. 2.00: Ver 2.00
~W
STRT.M 60.0000:
STOP.M 277.0000:
STEP.M 0.1250:
NULL. -999.2500:
UWI. DF5010:
~C
DEPT.M :
GR.API :
CALI.CM :
RXO.OHMM :
RI. :
RML.OHMM :
SP.MV :
DEN.GM/CC :
~A
# ...
  262.5000    81.1040    24.4370    11.5080     8.6660     9.1560   -39.1010     2.2840 
  262.6250    82.0410    24.4350    12.0350     9.0330     9.4990   -39.1770     2.2860 
  262.7500    84.6790    24.4360    11.5940     9.4240     9.8730   -39.2470     2.2970 
  262.8750    88.3650    24.4360    11.5500     9.8580    10.2960   -39.2990     2.3170 
  263.0000    91.9770    24.4290    12.6130    10.3180    10.7420   -39.2780     2.3370 
  263.1250    94.6370    24.4080    14.7340    10.7320    11.1180   -39.1800     2.3470 
  263.2500    95.9110    24.3870    16.3840    11.0090    11.3340   -39.1320     2.3500 
  263.3750    94.8950    24.3770    15.4240    11.0770    11.3250   -39.1970     2.3490 
  263.5000    93.4010    24.3750    12.4950    10.9040    11.0810   -39.1930     2.3440 
  263.6250    91.8700    24.3680    12.0380    10.4930    10.6270   -39.0420     2.3390 
  263.7500    90.6840    24.3550    11.8290     9.9610    10.0770   -38.9610     2.3350 
  263.8750    90.4810    24.3470    11.2180     9.3780     9.4980   -38.9210     2.3260 
  264.0000    89.3890    24.3460    10.1800     8.8060     8.9420   -38.9060     2.3080 
  264.1250    86.1100    24.3490     8.7140     8.3020     8.4580   -38.9870     2.2910 
  264.2500    83.6480    24.3510     7.9860     7.8870     8.0640   -39.0250     2.2860 
  264.3750    83.8570    24.3520     7.5980     7.5800     7.7810   -39.0130     2.2930 
  264.5000    86.0290    24.3540     7.3300     7.3970     7.6300   -39.0520     2.3030 
  264.6250    87.4180    24.3540     7.3560     7.3760     7.6470   -39.2020     2.3090 
  264.7500    86.0430    24.3530     7.7830     7.5010     7.8120   -39.4030     2.3110 
  264.8750    81.8880    24.3490     8.5270     7.7710     8.1220   -39.6000     2.3150 
  265.0000    78.5970    24.3460     9.2670     8.1700     8.5600   -39.7600     2.3230 
  265.1250    79.9070    24.3440     9.7270     8.6700     9.0910   -39.9310     2.3320 
  265.2500    84.1220    24.3430    10.3730     9.1850     9.6280   -40.0950     2.3390 
  265.3750    89.9030    24.3430    11.2440     9.6370    10.0870   -40.2100     2.3450 
  265.5000    95.2950    24.3420    11.8650     9.9500    10.3950   -40.2600     2.3470 
  265.6250    95.8140    24.3420    11.7300    10.0340    10.4750   -40.1090     2.3420 
  265.7500    92.2650    24.3450    11.4780     9.9220    10.3720   -39.8360     2.3350 
  265.8750    87.4330    24.3490    11.2840     9.6730    10.1570   -39.4210     2.3280 
  266.0000    83.5680    24.3520    10.9720     9.3870     9.9320   -38.9060     2.3210 
  266.1250    83.5680    24.3520    10.4370     9.2050     9.8490   -38.2130     2.3150 
  266.2500    83.5680    24.3520    10.3350     9.2240    10.0080   -37.4200     2.3130 
  266.3750    83.5680    24.3540    10.8820     9.5120    10.4750   -36.7190     2.3130 
  266.5000    83.5680    24.3590    11.9460    10.0880    11.2440   -36.0880     2.3140 
  266.6250    83.5680    24.3600    13.0510    10.9150    12.2150   -35.5020     2.3200 
  266.7500    83.5680    24.2920    13.9540    11.7720    13.1060   -34.8460     2.3350 
  266.8750    83.5680    24.1130    13.9050    12.4330    13.6730   -34.2730     2.3540 
  267.0000    83.5680    23.8870    13.8510    12.7300    13.7850   -33.8310     2.3580 
  267.1250    83.5680    23.7560    13.9830    12.6100    13.4710   -33.3530     2.3320 
  267.2500    83.5680    23.7290    13.8040    12.2850    13.0080   -32.9000     2.2990 
  267.3750    83.5680    23.7370    12.7500    11.8740    12.5280   -32.3610     2.2880 
  267.5000    83.5680    23.7370    12.1600    11.4110    12.0340   -31.8420     2.3110 
  267.6250    83.5680    23.7370    12.1070    10.8300    11.4060   -31.3420     2.3550 
  267.7500    83.5680    23.7370    11.4330    10.0890    10.5860   -30.8810     2.3920 
  267.8750    83.5680    23.7370     9.8540     9.2130     9.6120   -30.4530     2.4100 
  268.0000    83.5680    23.7370     8.2260     8.3080     8.6220   -29.8960     2.4050 
  268.1250    83.5680    23.7370     7.3160     7.5410     7.8190   -29.3530     2.3870 
  268.2500    83.5680    23.7370     6.7710     6.9940     7.2840   -28.9350     2.3760 
  268.3750    83.5680    23.7370     6.5460     6.7020     7.0350   -28.5080     2.3790 
  268.5000    83.5680    23.7360     6.3720     6.6450     7.0250   -28.0480     2.3920 
  268.6250    83.5680    23.7380     6.3530     6.7700     7.1670   -27.6280     2.4050 
  268.7500    83.5680    23.7510     6.6540     6.9400     7.3180   -27.3740     2.4130 
  268.8750    83.5680    23.7730     7.0530     7.0580     7.3900   -27.1740     2.4160 
  269.0000    83.5680    23.7920     7.2950     7.0540     7.3300   -27.0720     2.4110 
  269.1250    83.5680    23.7970     7.2470     6.8880     7.1190   -27.0610     2.4000 
  269.2500    83.5680    23.7950     6.9730     6.6330     6.8320   -26.9930     2.3890 
  269.3750    83.5680    23.8020     6.4470     6.3530     6.5360   -27.0150     2.3780 
  269.5000    83.5680    23.8240     5.9460     6.0990     6.2860   -27.0410     2.3620 
  269.6250    83.5680    23.8530     5.7140     5.9060     6.1170   -27.0210     2.3460 
  269.7500    83.5680    23.8700     5.4110     5.7690     6.0090   -26.9740     2.3350 
  269.8750    83.5680    23.8730     5.0140     5.6770     5.9430   -26.8220     2.3280 
  270.0000    83.5680    23.8710     4.8350     5.6190     5.9050   -26.6270     2.3250 
  270.1250    83.5680    23.8710     4.7930     5.5870     5.8870   -26.4690     2.3290 
  270.2500    83.5680    23.8710     4.8000     5.5590     5.8680   -26.4280     2.3380 
  270.3750    83.5680    23.8710     4.8510     5.5150     5.8160   -26.3550     2.3430 
  270.5000    83.5680    23.8710     4.9590     5.4520     5.7030   -26.3090     2.3400 
  270.6250    83.5680    23.8710     5.0290     5.3790     5.5240   -26.3730     2.3310 
  270.7500    83.5680    23.8710     5.0290     5.3200     5.3450   -26.4310     2.3210 
  270.8750    83.5680    23.8720     5.0020     5.2890     5.2550   -26.6630     2.3140 
  271.0000    83.5680    23.8740     4.9880     5.2920     5.3090   -26.9440     2.3170 
  271.1250    83.5680    23.8590     4.9830     5.3210     5.4630   -27.1770     2.3320 
  271.2500    83.5680    23.8190     5.0060     5.3560     5.6040   -27.2550     2.3430 
  271.3750    83.5680    23.7700     5.0960     5.3840     5.6940   -27.4150     2.3420 
  271.5000    83.5680    23.7390     5.1940     5.3980     5.7340   -27.6450     2.3340 
  271.6250    83.5680    23.7350     5.1740     5.4000     5.7450   -27.7310     2.3290 
  271.7500    83.5680    23.7370     5.1470     5.3990     5.7520   -27.7580     2.3300 
  271.8750    83.5680    23.7280     5.2620     5.3980     5.7550   -27.7120     2.3380 
  272.0000    83.5680    23.6960     5.6680     5.3980     5.7550   -27.6940     2.3530 
  272.1250    83.5680    23.6350     6.2520     5.3980     5.7550   -27.5990     2.3630 
  272.2500    83.5680    23.5680     6.5900     5.3980     5.7550   -27.5840     2.3640 
  272.3750    83.5680    23.5150     6.5820     5.3980     5.7550   -27.5370     2.3630 
  272.5000    83.5680    23.4880     6.5220     5.3980     5.7550   -27.3890     2.3650 
  272.6250    83.5680    23.4830     6.6990     5.3980     5.7550   -27.3600     2.3680 
  272.7500    83.5680    23.4840     6.8090     5.3980     5.7550   -27.3770     2.3680 
  272.8750    83.5680    23.4840     6.6840     5.3980     5.7550   -27.3800     2.3670 
  273.0000    83.5680    23.4840     6.2780     5.3980     5.7550   -27.3460     2.3690 
  273.1250    83.5680    23.4840     5.9220     5.3980     5.7550   -27.3770     2.3700 
  273.2500    83.5680    23.4840     5.7130     5.3980     5.7550   -27.3370     2.3680 
  273.3750    83.5680    23.4830     5.7610     5.3980     5.7550   -27.2330     2.3660 
  273.5000    83.5680    23.4890     5.8390     5.3980     5.7550   -27.1510     2.3720 
  273.6250    83.5680    23.4790     5.7450     5.3980     5.7550   -27.0600     2.3850 
