~V
VERS. 2.00: Ver 2.00
~W
STRT.M 55.0000:
STOP.M 262.0000:
STEP.M 0.1250:
NULL. -999.2500:
UWI. DF5047:
~C
DEPT.M :
GR.API :
CALI.CM :
RXO.OHMM :
RI. :
RML.OHMM :
DEN.GM/CC :
SP.MV :
~A
# ...
   66.2500    71.9760    23.9410     7.9620     7.6610     8.0840     2.1370   -46.2170 
   66.3750    71.9490    24.0010     8.1570     7.7850     8.2570     2.1430   -46.4380 
   66.5000    71.4440    24.0470     8.3460     7.9200     8.4290     2.1490   -46.6410 
   66.6250    72.5550    24.0770     8.4290     8.0490     8.5770     2.1540   -46.6280 
   66.7500    75.3780    24.1220     8.6000     8.1440     8.6790     2.1560   -46.7140 
   66.8750    76.7410    24.1880     8.7660     8.1860     8.7280     2.1550   -46.8590 
   67.0000    73.7590    24.2520     8.8340     8.1780     8.7500     2.1540   -46.8480 
   67.1250    68.9380    24.2870     8.8920     8.1470     8.7630     2.1530   -46.7500 
   67.2500    68.2220    24.2960     8.8460     8.1320     8.7590     2.1560   -46.7810 
   67.3750    69.0290    24.2950     8.7610     8.1480     8.7820     2.1610   -46.7980 
   67.5000    67.3170    24.2920     8.7090     8.1890     8.8630     2.1670   -46.6950 
   67.6250    65.9000    24.2920     8.9270     8.2170     8.9820     2.1720   -46.5830 
   67.7500    66.2800    24.2920     9.1260     8.1860     9.0180     2.1730   -46.4640 
   67.8750    65.9150    24.2920     9.2180     8.0710     8.8970     2.1700   -46.3310 
   68.0000    64.1410    24.2920     9.1840     7.8870     8.6600     2.1640   -46.2380 
   68.1250    64.7330    24.2900     9.0210     7.6780     8.4170     2.1580   -46.1270 
   68.2500    68.1000    24.2960     8.8510     7.5020     8.2530     2.1560   -45.9640 
   68.3750    69.8200    24.3190     8.7950     7.3880     8.1850     2.1590   -45.8000 
   68.5000    68.7470    24.3570     8.9730     7.3430     8.1860     2.1650   -45.6280 
   68.6250    66.9230    24.3920     9.0420     7.3650     8.2450     2.1660   -45.4850 
   68.7500    67.1790    24.4190     8.9350     7.4260     8.3280     2.1590   -45.4110 
   68.8750    68.4430    24.4410     8.7160     7.5050     8.4150     2.1480   -45.2700 
   69.0000    66.7500    24.4640     8.5900     7.5770     8.4810     2.1400   -45.0610 
   69.1250    62.4720    24.4880     8.7060     7.6120     8.5040     2.1420   -45.0440 
   69.2500    60.6160    24.5100     8.8420     7.6020     8.4850     2.1500   -45.0610 
   69.3750    60.8390    24.5230     8.8520     7.5510     8.4330     2.1580   -44.9270 
   69.5000    60.9220    24.5240     8.7750     7.4720     8.3620     2.1590   -44.7620 
   69.6250    60.4640    24.5230     8.8730     7.3880     8.2850     2.1530   -44.7070 
   69.7500    60.3480    24.5230     9.0880     7.3100     8.2080     2.1470   -44.6340 
   69.8750    59.7090    24.5240     9.1950     7.2420     8.1320     2.1440   -44.4420 
   70.0000    58.5690    24.5190     9.1350     7.1790     8.0550     2.1440   -44.2250 
   70.1250    59.7280    24.5010     8.9740     7.1210     7.9840     2.1460   -44.0150 
   70.2500    62.1970    24.4810     8.7870     7.0780     7.9400     2.1500   -43.7890 
   70.3750    63.3660    24.4800     8.6460     7.0660     7.9410     2.1570   -43.5450 
   70.5000    61.9610    24.4980     8.6080     7.0920     7.9950     2.1650   -43.2310 
   70.6250    60.6190    24.5120     8.6820     7.1580     8.1020     2.1710   -42.8890 
   70.7500    61.4640    24.4980     8.9500     7.2440     8.2280     2.1700   -42.4930 
   70.8750    63.3870    24.4600     9.2360     7.3250     8.3360     2.1630   -42.0370 
   71.0000    65.0370    24.4150     9.2440     7.3610     8.3690     2.1530   -41.5590 
   71.1250    67.8510    24.3930     9.0700     7.2710     8.2250     2.1470   -41.0190 
   71.2500    72.4600    24.3900     9.0000     7.0220     7.8830     2.1480   -40.4550 
   71.3750    78.1210    24.3930     8.7950     6.6190     7.3730     2.1550   -39.9050 
   71.5000    82.8460    24.4180     8.1750     6.1300     6.8070     2.1700   -39.3630 
   71.6250    84.8250    24.5310     6.8720     5.6980     6.3770     2.1940   -38.7610 
   71.7500    85.2970    24.6930     5.8590     5.4400     6.2010     2.2190   -38.1920 
   71.8750    85.9890    24.8000     5.7820     5.4200     6.3240     2.2360   -37.7100 
   72.0000    87.8990    24.7720     6.7270     5.6510     6.7130     2.2390   -37.2950 
   72.1250    88.5180    24.6340    10.4850     6.1100     7.2620     2.2270   -37.0120 
   72.2500    86.0900    24.4680    14.9790     6.6310     7.7590     2.2090   -36.7560 
   72.3750    83.2660    24.2630    15.7940     7.0700     8.0630     2.1930   -36.4630 
   72.5000    82.6150    23.9980    12.5190     7.3240     8.1310     2.1820   -36.3620 
   72.6250    83.0060    23.7450     9.4070     7.3710     8.0150     2.1770   -36.3710 
   72.7500    81.9880    23.5980     8.4270     7.3200     7.8510     2.1750   -36.2160 
   72.8750    81.8800    23.5610     7.9380     7.2170     7.6680     2.1750   -36.1330 
   73.0000    84.0500    23.5780     7.8370     7.0490     7.4270     2.1770   -36.1550 
   73.1250    86.1680    23.6350     7.8890     6.7420     7.0450     2.1810   -35.9020 
   73.2500    87.2740    23.7590     7.7700     6.2950     6.5400     2.1890   -35.5050 
   73.3750    88.8690    23.9670     6.9140     5.7590     5.9840     2.2020   -35.2690 
   73.5000    92.7310    24.2130     5.6600     5.2360     5.4910     2.2210   -34.9960 
   73.6250    98.8040    24.3770     4.8730     4.8610     5.2090     2.2410   -34.5400 
   73.7500   104.1830    24.4010     4.9260     4.6830     5.1630     2.2570   -34.1390 
   73.8750   104.4870    24.3360     5.4160     4.7160     5.3380     2.2640   -33.8430 
   74.0000    99.6850    24.2480     5.8350     4.9340     5.6690     2.2640   -33.5130 
   74.1250    94.0040    24.1300     6.3070     5.2700     6.0420     2.2570   -33.1860 
   74.2500    89.8530    23.9730     6.7830     5.5960     6.3410     2.2480   -32.9740 
   74.3750    86.9650    23.8470     7.2230     5.8630     6.5780     2.2360   -32.7940 
   74.5000    85.4040    23.8250     7.1850     6.1250     6.8850     2.2250   -32.5980 
   74.6250    84.9870    23.8970     7.1820     6.5520     7.5050     2.2250   -32.3820 
   74.7500    82.6280    23.9760     7.7330     7.2480     8.4720     2.2420   -32.1900 
   74.8750    77.6400    24.0610     9.3970     8.1970     9.6310     2.2810   -31.9520 
   75.0000    73.0500    24.2030    14.2740     9.1610    10.5760     2.3390   -31.5920 
   75.1250    74.3010    24.3440    17.2170     9.5050    10.5840     2.4100   -31.2580 
   75.2500    80.1120    24.3150    14.9340     8.9440     9.5790     2.4660   -30.9970 
   75.3750    88.0350    24.1640     9.7920     7.7200     7.9680     2.4870   -30.7270 
   75.5000    96.2470    24.1410     6.3820     6.3610     6.3760     2.4710   -30.4210 
   75.6250   103.8340    24.4120     4.6730     5.3260     5.3060     2.4380   -30.2450 
   75.7500   109.6670    24.7440     4.3780     4.6820     4.7360     2.4060   -30.2190 
   75.8750   112.1340    25.0190     4.3730     4.3810     4.5350     2.3820   -30.1390 
   76.0000   110.8350    25.2960     4.3430     4.3190     4.5380     2.3670   -30.1400 
   76.1250   108.6050    25.4750     4.3010     4.3700     4.5940     2.3620   -30.3830 
   76.2500   108.9360    25.4210     4.3080     4.4190     4.6180     2.3620   -30.6650 
   76.3750   111.4830    25.1710     4.2940     4.4400     4.6170     2.3660   -30.8690 
   76.5000   113.9350    24.8860     4.2560     4.4610     4.6380     2.3720   -31.0730 
   76.6250   114.8830    24.7280     4.2380     4.5370     4.7430     2.3730   -31.4700 
   76.7500   111.6320    24.6650     4.4080     4.6870     4.9330     2.3680   -31.8300 
   76.8750   102.5240    24.5990     4.9000     4.8960     5.1770     2.3560   -32.1670 
   77.0000    92.6530    24.4590     5.6210     5.1170     5.4220     2.3360   -32.5800 
   77.1250    91.5110    24.2920     5.8620     5.2820     5.6070     2.3110   -33.0320 
   77.2500    96.6970    24.1890     5.8500     5.3740     5.7320     2.2860   -33.4370 
   77.3750    98.9340    24.1360     5.8170     5.4180     5.8360     2.2640   -33.8060 
