~V
VERS. 2.00: Ver 2.00
~W
STRT.M 55.0000:
STOP.M 278.0000:
STEP.M 0.1250:
NULL. -999.2500:
UWI. DF5019:
~C
DEPT.M :
DEN.GM/CC :
GR.API :
CALI.CM :
RXO.OHMM :
RI. :
RML.OHMM :
SP.MV :
~A
# ...
   66.2500     2.1290    71.7650    25.3050    11.0100     6.8870     8.8170   -34.2420 
   66.3750     2.1320    71.0670    24.8950    11.1210     6.8700     8.8090   -33.7310 
   66.5000     2.1350    72.2850    24.5810    11.3540     6.8740     8.8620   -33.3430 
   66.6250     2.1340    74.7070    24.5450    11.8000     6.8800     8.9390   -33.1230 
   66.7500     2.1300    75.6210    24.5790    12.0360     6.8580     8.9660   -32.9220 
   66.8750     2.1260    74.7140    24.6740    11.7910     6.7910     8.9030   -32.8350 
   67.0000     2.1250    73.1350    24.9260    11.2680     6.6840     8.7640   -32.9520 
   67.1250     2.1300    72.5550    25.1550    10.9420     6.5640     8.6210   -33.1950 
   67.2500     2.1360    72.4970    25.2300    10.8260     6.4610     8.5440   -33.5440 
   67.3750     2.1300    70.6470    25.1330    10.7170     6.3880     8.5500   -33.9710 
   67.5000     2.1100    67.0040    25.0940    10.5550     6.3460     8.6180   -34.3740 
   67.6250     2.0940    66.8330    25.1300    10.3140     6.3260     8.7130   -34.7230 
   67.7500     2.1010    69.1180    25.1080    10.1340     6.3200     8.8060   -35.0380 
   67.8750     2.1220    70.7330    24.9290     9.9810     6.3310     8.9080   -35.3310 
   68.0000     2.1370    70.1690    24.7610     9.9930     6.3690     9.0340   -35.4780 
   68.1250     2.1420    68.6090    24.5900    10.2110     6.4330     9.1800   -35.5170 
   68.2500     2.1500    67.9810    24.6300    10.2070     6.5000     9.3040   -35.5330 
   68.3750     2.1660    68.6210    24.6500     9.9580     6.5470     9.3740   -35.4700 
   68.5000     2.1760    68.8300    24.6200     9.7630     6.5560     9.3780   -35.3680 
   68.6250     2.1660    65.8180    24.5480     9.5880     6.5180     9.3280   -35.2660 
   68.7500     2.1450    63.2840    24.5080     9.4890     6.4620     9.2790   -35.1700 
   68.8750     2.1300    65.2370    24.4270     9.6360     6.4130     9.2710   -35.0550 
   69.0000     2.1270    69.9680    24.4170    10.1280     6.3760     9.3030   -34.9650 
   69.1250     2.1260    71.9870    24.3150    10.5180     6.3240     9.3100   -34.7970 
   69.2500     2.1200    70.8570    24.2850    10.5580     6.2250     9.2100   -34.5170 
   69.3750     2.1210    70.5840    24.2070    10.1600     6.0610     8.9690   -34.1720 
   69.5000     2.1440    74.7560    24.1030     9.3440     5.8530     8.6360   -33.6900 
   69.6250     2.1850    81.5390    23.8230     8.2390     5.6720     8.3530   -33.1260 
   69.7500     2.2100    84.5870    23.6550     7.4400     5.5820     8.2480   -32.5830 
   69.8750     2.2070    81.6940    23.6430     7.2990     5.6130     8.3640   -31.9850 
   70.0000     2.1860    76.7130    23.7260     7.8330     5.7430     8.6420   -31.4270 
   70.1250     2.1700    75.5220    23.8700     8.5020     5.8910     8.9090   -31.0220 
   70.2500     2.1710    78.9960    23.9100     8.7640     5.9540     8.9860   -30.5640 
   70.3750     2.1880    85.3280    23.9370     8.4740     5.8980     8.8310   -30.1610 
   70.5000     2.2100    90.1010    23.9460     7.8410     5.7600     8.5370   -29.8590 
   70.6250     2.2200    87.6520    23.9250     7.3100     5.6330     8.2900   -29.5620 
   70.7500     2.2120    80.8130    23.9010     7.2970     5.5920     8.2200   -29.3810 
   70.8750     2.1910    75.7500    23.9490     8.0290     5.6610     8.3480   -29.3640 
   71.0000     2.1700    76.1410    24.0910     9.0780     5.8150     8.6110   -29.3960 
   71.1250     2.1510    78.8800    24.0530     9.3680     5.9950     8.8870   -29.3870 
   71.2500     2.1290    78.5870    23.9170     9.0030     6.1370     9.0680   -29.5330 
   71.3750     2.1060    76.2760    23.8990     8.7460     6.2030     9.1070   -29.7120 
   71.5000     2.0900    74.7620    24.0430     8.7980     6.1730     9.0030   -29.9390 
   71.6250     2.0900    78.9650    24.2520     8.8670     6.0400     8.7770   -30.0970 
   71.7500     2.1080    87.3480    24.5010     8.8650     5.8450     8.4850   -29.9630 
   71.8750     2.1400    94.1920    24.7260     8.7820     5.6220     8.1660   -29.6090 
   72.0000     2.1730    95.3990    24.8970     8.4110     5.4190     7.8880   -29.0060 
   72.1250     2.1860    91.3500    25.0170     7.9310     5.3150     7.7690   -28.3800 
   72.2500     2.1790    87.2590    25.1530     7.7800     5.3280     7.8240   -27.7610 
   72.3750     2.1650    84.7320    25.2210     8.0600     5.4330     8.0060   -27.1150 
   72.5000     2.1590    84.0420    25.2510     8.4490     5.5630     8.1970   -26.4500 
   72.6250     2.1690    89.2100    25.2760     8.7480     5.6110     8.2010   -25.7630 
   72.7500     2.1920    98.8110    25.3010     8.3450     5.5250     7.9620   -25.1780 
   72.8750     2.2240   109.0770    25.2900     7.3600     5.3310     7.5660   -24.5600 
   73.0000     2.2570   116.1890    25.2540     6.3300     5.1220     7.1960   -23.9910 
   73.1250     2.2710   117.2970    25.2410     5.9850     5.0200     7.0600   -23.4100 
   73.2500     2.2630   114.4110    25.2150     6.0420     5.0640     7.1880   -22.7840 
   73.3750     2.2450   109.0270    25.0560     6.5330     5.2420     7.5280   -22.1610 
   73.5000     2.2350   102.9630    24.7560     7.4070     5.4860     7.9370   -21.5390 
   73.6250     2.2340    98.9310    24.6230     7.8330     5.6590     8.1540   -20.9900 
   73.7500     2.2330    99.1720    24.6120     7.3820     5.6640     8.0460   -20.4590 
   73.8750     2.2330   102.2920    24.7040     6.4370     5.4890     7.6460   -20.0290 
   74.0000     2.2350   104.0740    24.9160     5.7930     5.1990     7.1140   -19.6600 
   74.1250     2.2390   105.0960    25.1080     5.4420     4.9100     6.6680   -19.2470 
   74.2500     2.2400   108.2020    25.2240     5.3090     4.7100     6.4230   -18.8120 
   74.3750     2.2480   112.3940    25.3000     5.2990     4.6330     6.3980   -18.4010 
   74.5000     2.2650   113.6050    25.3400     5.3960     4.6670     6.5490   -18.1050 
   74.6250     2.2790   109.4060    25.2320     5.6160     4.7880     6.8050   -17.9680 
   74.7500     2.2760   104.1450    25.2180     5.8200     4.9400     7.0670   -17.9340 
   74.8750     2.2570    98.6450    25.3260     5.9740     5.0810     7.2610   -18.0150 
   75.0000     2.2270    93.8660    25.3620     6.1220     5.1850     7.3440   -18.1840 
   75.1250     2.1960    90.4460    25.3940     6.4180     5.2950     7.3870   -18.5380 
   75.2500     2.1780    89.4950    25.2770     6.8520     5.5400     7.6200   -19.0140 
   75.3750     2.1930    89.5600    25.1460     7.2770     6.0700     8.2880   -19.6080 
   75.5000     2.2540    86.4260    25.0370     7.8640     6.9930     9.5810   -20.1420 
   75.6250     2.3510    79.3550    25.1280     9.7020     8.3620    11.6290   -20.5870 
   75.7500     2.4280    73.1210    25.1700    13.7500     9.8260    13.8950   -21.1640 
   75.8750     2.4310    69.8800    25.1190    17.8900    10.8690    15.4880   -21.7450 
   76.0000     2.3510    67.7700    24.8960    18.1660    11.0360    15.5750   -22.2770 
   76.1250     2.2410    67.1420    24.6150    15.2740    10.2690    14.1470   -22.8080 
   76.2500     2.1660    70.1590    24.3850    14.2010     9.2360    12.4510   -23.3080 
   76.3750     2.1380    76.3180    24.1280    16.1650     8.3520    11.1640   -23.7670 
   76.5000     2.1390    82.2220    23.9800    16.6940     7.8100    10.5130   -24.2170 
   76.6250     2.1470    85.4160    24.0230    13.9160     7.6710    10.4980   -24.6490 
   76.7500     2.1490    85.0060    24.1890    11.0690     7.7540    10.7800   -24.8700 
   76.8750     2.1430    80.5820    24.2890    10.1070     7.9250    11.1280   -24.9990 
   77.0000     2.1330    76.3480    24.3140     9.8770     8.0780    11.3830   -25.1750 
   77.1250     2.1200    76.8710    24.3170     9.6490     8.1430    11.4480   -25.3100 
   77.2500     2.1090    78.1410    24.2830     9.4980     8.1230    11.3530   -25.3300 
   77.3750     2.1030    78.0190    24.2170     9.4440     8.0400    11.1420   -25.2720 
