~V
VERS. 2.00: Ver 2.00
~W
STRT.M 58.0000:
STOP.M 276.0000:
STEP.M 0.1250:
NULL. -999.2500:
UWI. DF5012:
~C
DEPT.M :
SP.MV :
GR.API :
CALI.CM :
RXO.OHMM :
RI. :
RML.OHMM :
DEN.GM/CC :
~A
# ...
  215.5000   -34.4950    68.1480    25.2790   181.6530   232.2870   290.2970     2.1980 
  215.6250   -34.7260    66.6390    25.3680   177.5190   236.3820   291.2450     2.1990 
  215.7500   -34.9470    64.8340    25.2300   198.0060   237.8540   287.4450     2.2000 
  215.8750   -35.1540    64.1730    24.9880   211.8210   233.5520   274.5730     2.2030 
  216.0000   -35.3130    64.0930    24.8710   208.5220   220.3530   249.9510     2.2100 
  216.1250   -35.4390    64.7940    25.0540   194.8690   197.2970   215.8320     2.2220 
  216.2500   -35.5080    65.7780    25.3670   168.9260   170.7340   181.6070     2.2360 
  216.3750   -35.5720    65.5890    25.5920   132.1390   146.0470   153.0770     2.2470 
  216.5000   -35.6180    63.5920    25.6530   102.4380   126.9300   132.8330     2.2500 
  216.6250   -35.6440    62.5130    25.6420    90.2790   116.0600   122.4020     2.2430 
  216.7500   -35.6670    64.7510    25.6360    84.6250   112.2380   119.5930     2.2330 
  216.8750   -35.6800    68.2990    25.6200    86.0420   115.1850   123.8520     2.2270 
  217.0000   -35.6970    70.4260    25.5940    89.6460   124.8150   134.9630     2.2250 
  217.1250   -35.7250    70.1200    25.5750   101.8390   142.3280   154.0640     2.2250 
  217.2500   -35.7580    68.3750    25.5710   118.1550   166.2010   179.6100     2.2260 
  217.3750   -35.7730    66.7830    25.5700   129.6280   194.7660   209.8870     2.2280 
  217.5000   -35.8070    66.4740    25.5630   151.3200   224.3080   240.8550     2.2320 
  217.6250   -35.8590    66.2080    25.5500   189.4620   247.1840   263.8410     2.2380 
  217.7500   -35.9110    64.2080    25.5410   215.5210   258.2580   273.4270     2.2390 
  217.8750   -35.9630    62.4090    25.5390   204.9460   256.5200   269.3860     2.2310 
  218.0000   -36.0020    62.3470    25.5400   178.0650   245.6380   256.6250     2.2150 
  218.1250   -36.0270    62.9290    25.5370   169.0000   231.3500   241.5230     2.1970 
  218.2500   -36.0660    63.7300    25.5350   165.8000   218.2660   228.0770     2.1830 
  218.3750   -36.0830    64.5380    25.5340   162.6520   207.3920   216.7640     2.1760 
  218.5000   -36.0570    64.2780    25.5340   166.9240   198.3770   207.0210     2.1780 
  218.6250   -35.9430    62.8450    25.5350   174.0690   190.9000   198.6700     2.1830 
  218.7500   -35.8530    63.0060    25.5370   174.4910   184.8470   191.8830     2.1880 
  218.8750   -35.7310    65.4740    25.5380   169.4030   180.6620   187.1710     2.1920 
  219.0000   -35.6240    68.0290    25.5350   169.6750   178.6380   184.7100     2.1940 
  219.1250   -35.4560    69.1410    25.5280   177.1560   178.8730   184.3710     2.1970 
  219.2500   -35.2820    68.4370    25.5250   184.7580   180.2840   184.9530     2.2020 
  219.3750   -35.0670    67.1330    25.5250   189.5560   181.9400   185.5520     2.2070 
  219.5000   -34.8620    66.9500    25.5280   191.4580   182.9260   185.4030     2.2090 
  219.6250   -34.6740    66.9340    25.5300   196.1490   182.4360   183.8800     2.2050 
  219.7500   -34.5230    66.0110    25.5290   195.3660   180.7280   181.2720     2.1980 
  219.8750   -34.4180    64.9080    25.5270   188.3770   178.1850   177.9070     2.1890 
  220.0000   -34.3740    65.3760    25.5290   177.4140   175.1010   174.0270     2.1810 
  220.1250   -34.3460    66.4010    25.5320   168.0370   171.3670   169.5470     2.1760 
  220.2500   -34.3430    66.5800    25.5320   164.7490   166.8980   164.4060     2.1750 
  220.3750   -34.3720    66.0380    25.5280   164.5650   161.6920   158.6480     2.1790 
  220.5000   -34.4410    63.8260    25.5240   160.6720   156.1230   152.7140     2.1860 
  220.6250   -34.5850    61.8910    25.5290   153.5890   151.2100   147.7150     2.1940 
  220.7500   -34.6940    63.1790    25.5430   145.2040   147.8470   144.4870     2.2000 
  220.8750   -34.8110    66.7140    25.5370   141.9030   146.4740   143.3720     2.2050 
  221.0000   -34.9100    68.0030    25.4860   159.4690   146.9260   144.0780     2.2090 
  221.1250   -35.0520    64.4060    25.3830   237.5050   148.4770   145.7620     2.2100 
  221.2500   -35.1820    61.8640    25.2480   285.8200   149.8070   147.1110     2.2040 
  221.3750   -35.3340    61.9370    25.1440   249.1420   150.1440   147.4390     2.1920 
  221.5000   -35.4780    62.8180    25.1450   185.3220   149.2090   146.6220     2.1840 
  221.6250   -35.5390    62.7180    25.2450   142.7030   147.1470   145.0670     2.1890 
  221.7500   -35.5970    62.1540    25.3240   133.9900   145.0180   143.8840     2.2090 
  221.8750   -35.6410    61.3330    25.3540   128.8950   143.9880   144.1640     2.2370 
  222.0000   -35.6610    60.8790    25.3890   125.7570   145.2220   146.9090     2.2620 
  222.1250   -35.6770    63.5360    25.4470   125.0690   150.1180   153.3230     2.2660 
  222.2500   -35.6760    67.6030    25.4900   151.5360   158.1600   162.7210     2.2540 
  222.3750   -35.6060    69.3560    25.5090   215.0400   168.2070   173.8280     2.2360 
  222.5000   -35.4960    68.6540    25.5100   277.3130   178.1960   184.4210     2.2250 
  222.6250   -35.4170    65.3490    25.5080   281.4630   185.3610   191.4610     2.2270 
  222.7500   -35.3530    60.7100    25.5070   252.2180   189.2180   194.5840     2.2390 
  222.8750   -35.2750    58.7270    25.5160   221.9330   190.5400   194.8000     2.2550 
  223.0000   -35.1970    62.2660    25.5530   197.7700   190.4000   193.3850     2.2630 
  223.1250   -35.1130    64.8580    25.6040   201.6350   187.9430   189.5400     2.2560 
  223.2500   -35.0410    61.7980    25.6360   224.3290   181.0370   181.1670     2.2400 
  223.3750   -35.0020    56.9510    25.6420   227.5160   167.8580   166.5420     2.2250 
  223.5000   -34.9840    55.6120    25.6390   190.9240   149.0400   146.6500     2.2140 
  223.6250   -34.9120    57.6630    25.6400   141.6820   128.2750   125.8390     2.2100 
  223.7500   -34.8220    60.4990    25.6400    97.8400   110.3560   108.7610     2.2090 
  223.8750   -34.6860    62.5430    25.6400    78.5730    97.2830    96.9720     2.2090 
  224.0000   -34.5080    62.4560    25.6400    70.6210    88.9800    89.9670     2.2080 
  224.1250   -34.2760    61.3230    25.6400    68.3070    84.6140    86.6440     2.2070 
  224.2500   -34.0110    61.7010    25.6400    73.6200    82.0490    84.8250     2.2080 
  224.3750   -33.7540    63.0660    25.6400    80.2650    80.1650    83.4430     2.2100 
  224.5000   -33.4890    64.6270    25.6400    69.5710    78.3890    82.0720     2.2130 
  224.6250   -33.3040    65.7400    25.6400    57.9700    76.8790    81.0590     2.2170 
  224.7500   -33.1200    66.1310    25.6400    61.2290    76.0160    80.8970     2.2200 
  224.8750   -32.9900    66.1760    25.6400    67.1970    76.1500    82.0280     2.2220 
  225.0000   -32.9100    66.7030    25.6400    68.5910    77.6500    84.8640     2.2210 
  225.1250   -32.9200    67.1250    25.6400    70.6990    81.0770    90.0040     2.2180 
  225.2500   -32.9800    66.4220    25.6400    76.1890    86.0620    96.9910     2.2130 
  225.3750   -33.0710    65.7070    25.6400    87.0760    92.2920   105.4310     2.2070 
  225.5000   -33.1960    66.1800    25.6400   105.4990    99.2350   114.6260     2.2000 
  225.6250   -33.3140    66.6910    25.6400   121.8940   105.6660   122.9650     2.1930 
  225.7500   -33.4040    66.4480    25.6400   120.0060   110.1780   128.6870     2.1880 
  225.8750   -33.5120    66.1850    25.6390   114.3000   111.8930   130.7420     2.1840 
  226.0000   -33.5440    65.6850    25.6420   111.3890   110.7770   129.2330     2.1840 
  226.1250   -33.6090    64.6710    25.6390   110.2760   107.4150   125.0990     2.1880 
  226.2500   -33.6600    64.4030    25.6130   103.4670   103.3180   120.2620     2.1930 
  226.3750   -33.6460    65.2740    25.5650    97.9740    99.1850   115.5280     2.1970 
  226.5000   -33.5930    66.3330    25.5150    90.0670    95.2530   111.0980     2.2000 
  226.6250   -33.4600    66.7570    25.4740    79.9780    91.3110   106.5630     2.2040 
