~V
VERS. 2.00: Ver 2.00
~W
STRT.M 62.0000:
STOP.M 250.0000:
STEP.M 0.1250:
NULL. -999.2500:
UWI. DF5059:
~C
DEPT.M :
SP.MV :
GR.API :
RML.OHMM :
RI. :
RXO.OHMM :
CALI.CM :
DEN.GM/CC :
~A
# ...
  242.0000    -9.6700    74.4040    12.4930    11.6810    13.9720    23.5930     2.3920 
  242.1250    -9.7380    74.4040    12.6730    11.8680    14.0050    23.5870     2.4140 
  242.2500    -9.8060    74.4040    12.7590    11.9650    13.5510    23.5850     2.4370 
  242.3750    -9.8740    74.4040    12.7900    12.0060    13.0650    23.5720     2.4520 
  242.5000    -9.9910    74.4040    12.7950    12.0190    12.5730    23.5490     2.4570 
  242.6250   -10.0840    74.4040    12.7900    12.0200    11.8650    23.5340     2.4530 
  242.7500   -10.1670    74.4040    12.7820    12.0200    11.1900    23.5290     2.4450 
  242.8750   -10.2970    74.4040    12.7740    12.0200    10.5660    23.5270     2.4380 
  243.0000   -10.4780    74.4040    12.7660    12.0200    10.1440    23.5440     2.4320 
  243.1250   -10.6160    74.4040    12.7610    12.0200    10.1140    23.5910     2.4250 
  243.2500   -10.7300    74.4040    12.7570    12.0190    10.0300    23.6460     2.4130 
  243.3750   -10.7890    74.4040    12.7550    12.0190     9.4960    23.6730     2.3970 
  243.5000   -10.7810    74.4040    12.7530    12.0190     8.5780    23.6490     2.3780 
  243.6250   -10.6580    74.4040    12.7500    12.0190     7.7390    23.5640     2.3650 
  243.7500   -10.4350    74.4040    12.7460    12.0190     7.3710    23.5190     2.3620 
  243.8750   -10.1430    74.4040    12.7410    12.0190     7.3580    23.5110     2.3670 
  244.0000    -9.8210    74.4040    12.7370    12.0190     7.1730    23.5240     2.3740 
  244.1250    -9.4690    74.4040    12.7370    12.0190     7.0070    23.5510     2.3730 
  244.2500    -9.1180    74.4040    12.7390    12.0190     6.7490    23.5570     2.3640 
  244.3750    -8.8030    74.4040    12.7430    12.0190     6.4070    23.4860     2.3510 
  244.5000    -8.5430    74.4040    12.7450    12.0190     6.1440    23.3700     2.3430 
  244.6250    -8.4230    74.4040    12.7450    12.0200     6.4630    23.2970     2.3450 
  244.7500    -8.3590    74.4040    12.7430    12.0210     7.0150    23.3500     2.3540 
  244.8750    -8.2990    74.4040    12.7410    12.0220     7.7750    23.3930     2.3610 
  245.0000    -8.2660    74.4040    12.7380    12.0220     9.0550    23.3150     2.3630 
  245.1250    -8.2460    74.4040    12.7340    12.0220    10.4730    23.1700     2.3600 
  245.2500    -8.2200    74.4040    12.7270    12.0220    11.5540    23.0550     2.3570 
  245.3750    -8.2110    74.4040    12.7180    12.0220    11.9440    23.0380     2.3590 
  245.5000    -8.2030    74.4040    12.7070    12.0210    12.1820    23.0500     2.3650 
  245.6250    -8.1710    74.4040    12.6980    12.0210    12.7520    23.1110     2.3740 
  245.7500    -8.1660    74.4040    12.6920    12.0210    13.8920    23.3010     2.3870 
  245.8750    -8.2020    74.4040    12.6890    12.0210    15.5520    23.4790     2.4070 
  246.0000    -8.2260    74.4040    12.6890    12.0210    17.0030    23.5730     2.4340 
  246.1250    -8.2920    74.4040    12.6890    12.0210    17.4470    23.4360     2.4600 
  246.2500    -8.3650    74.4040    12.6890    12.0210    17.0160    22.9730     2.4750 
  246.3750    -8.4560    74.4040    12.6890    12.0210    16.6360    22.3210     2.4720 
  246.5000    -8.5530    74.4040    12.6890    12.0210    16.5050    22.0690     2.4490 
  246.6250    -8.6510    74.4040    12.6890    12.0210    16.0310    22.2750     2.4030 
  246.7500    -8.7480    74.4040    12.6890    12.0210    14.5100    22.0310     2.3340 
  246.8750    -8.8490    74.4040    12.6890    12.0210    11.9040    19.9870     2.2470 
  247.0000    -8.9360    74.4040    12.6890    12.0210     8.7260    15.0570     2.1550 
  247.1250    -8.9570    74.4040    12.6890    12.0210     6.3920    11.6020     2.0760 
  247.2500    -8.9670    74.4040    12.6890    12.0210     5.4370     9.8760     2.0190 
  247.3750    -8.9760    74.4040    12.6890    12.0210     5.0910     9.4520     1.9860 
  247.5000  -999.2500    74.4040    12.6890    12.0210     5.0730     9.4480     1.9700 
  247.6250  -999.2500    74.4040    12.6890    12.0210     5.0730     9.4490     1.9640 
  247.7500  -999.2500    74.4040    12.6890    12.0210     5.0730     9.4510     1.9600 
  247.8750  -999.2500    74.4040    12.6890    12.0210     5.0720     9.4490     1.9580 
  248.0000  -999.2500    74.4040    12.6890    12.0210     5.0710     9.4480     1.9570 
  248.1250  -999.2500    74.4040    12.6890    12.0210     5.0700     9.4550     1.9580 
  248.2500  -999.2500    74.4040    12.6890    12.0210     5.0690     9.4560     1.9600 
  248.3750  -999.2500    74.4040    12.6890    12.0210     5.0690     9.4500     1.9610 
  248.5000  -999.2500    74.4040    12.6890    12.0210     5.0680     9.4480     1.9610 
  248.6250  -999.2500    74.4040    12.6890    12.0210     5.0690     9.4490     1.9600 
  248.7500  -999.2500    74.4040    12.6890    12.0210     5.0680     9.4450     1.9580 
  248.8750  -999.2500    74.4040    12.6890    12.0210     5.0680     9.4520     1.9570 
  249.0000  -999.2500    74.4040    12.6890    12.0210     5.0670     9.4530     1.9570 
  249.1250  -999.2500    74.4040    12.6890    12.0210     5.0670     9.4510     1.9580 
  249.2500  -999.2500    74.4040    12.6890    12.0210     5.0670     9.4490     1.9590 
  249.3750  -999.2500    74.4040    12.6890    12.0210     5.0670     9.4480     1.9610 
  249.5000  -999.2500    74.4040    12.6890    12.0210     5.0660     9.4440     1.9640 
  249.6250  -999.2500    74.4040    12.6890    12.0210     5.0660     9.4390     1.9660 
  249.7500  -999.2500    74.4040    12.6890    12.0210     5.0660     9.4360     1.9670 
  249.8750  -999.2500    74.4040    12.6890    12.0210     5.0660     9.4150     1.9670 
  250.0000  -999.2500    74.4040    12.6890    12.0210     5.0660     9.4020     1.9600 
