~V
VERS. 2.00: Ver 2.00
~W
STRT.M 55.0000:
STOP.M 278.0000:
STEP.M 0.1250:
NULL. -999.2500:
UWI. DF5019:
~C
DEPT.M :
DEN.GM/CC :
GR.API :
CALI.CM :
RXO.OHMM :
RI. :
RML.OHMM :
SP.MV :
~A
# ...
  235.0000     2.2180    68.9140    24.9080    96.9250    79.8910    85.6490   -19.7150 
  235.1250     2.2280    70.8110    24.9070    90.3960    73.6850    75.8190   -20.0260 
  235.2500     2.2350    72.7320    24.9060    87.5240    68.2710    68.8080   -20.3250 
  235.3750     2.2310    75.4560    24.9080    82.0920    64.4560    65.2370   -20.6010 
  235.5000     2.2140    76.4700    24.9230    71.4330    62.9200    64.7840   -20.9410 
  235.6250     2.1920    73.9610    24.9670    72.3010    64.4620    67.3020   -21.1910 
  235.7500     2.1740    70.6980    25.0250    82.3480    68.0810    71.3600   -21.5240 
  235.8750     2.1700    68.2340    25.0510    89.4860    72.2170    75.0850   -21.8330 
  236.0000     2.1810    66.5280    25.0550    84.2160    74.7610    76.1680   -22.1370 
  236.1250     2.1960    66.3960    25.0250    79.0650    73.6460    72.9880   -22.4170 
  236.2500     2.2050    69.4940    24.9520    83.2700    70.0330    68.0110   -22.6610 
  236.3750     2.2040    74.3370    24.8680    87.2000    65.9390    63.8720   -22.9010 
  236.5000     2.1920    77.4890    24.8280    76.3210    63.4840    62.2290   -23.0580 
  236.6250     2.1720    76.4010    24.8390    71.6660    64.8470    64.3880   -23.2700 
  236.7500     2.1520    72.1370    24.8660    83.2980    70.2890    70.2950   -23.3510 
  236.8750     2.1400    67.6440    24.8910   100.7220    79.9250    80.2250   -23.4090 
  237.0000     2.1450    65.5350    24.9010   110.1760    92.7580    98.1680   -23.4360 
  237.1250     2.1610    64.4890    24.8940   119.6140   104.9890   110.8880   -23.4830 
  237.2500     2.1810    64.9180    24.8720   134.8080   111.5170   117.6770   -23.5120 
  237.3750     2.1970    68.6840    24.8410   145.5910   110.0220   116.1220   -23.5140 
  237.5000     2.2090    73.1690    24.8150   141.7160   102.1870   107.9740   -23.4970 
  237.6250     2.2170    73.2260    24.7770   118.7610    92.2210    97.6100   -23.4360 
  237.7500     2.2200    71.0320    24.7240    93.8320    84.1830    89.2510   -23.3480 
  237.8750     2.2140    70.9240    24.6850    83.1040    79.6100    84.4950   -23.2140 
  238.0000     2.2040    72.3340    24.6690    85.3150    78.5090    83.3490   -23.0640 
  238.1250     2.1980    71.5750    24.6380    87.4060    79.7580    84.6490   -22.8250 
  238.2500     2.2000    69.6490    24.5910    87.0690    80.6880    85.6160   -22.5700 
  238.3750     2.2120    68.1550    24.5710    88.8110    79.4740    84.3530   -22.2330 
  238.5000     2.2340    67.9890    24.6190    92.4220    75.6680    80.3950   -21.9230 
  238.6250     2.2530    70.6530    24.6550    91.3970    70.5410    75.0630   -21.5160 
  238.7500     2.2610    73.3870    24.6660    82.5200    66.1220    70.4670   -21.1400 
  238.8750     2.2530    73.0170    24.6680    70.8220    63.1680    67.3950   -20.7860 
  239.0000     2.2330    70.7600    24.6710    64.9830    61.6330    65.7990   -20.4350 
  239.1250     2.2130    71.2730    24.6730    69.4550    61.1130    65.2570   -20.1730 
  239.2500     2.1990    73.6270    24.6740    72.8260    60.7940    64.9260   -19.9070 
  239.3750     2.1950    75.6150    24.6740    70.8580    60.2480    64.3580   -19.7470 
  239.5000     2.2000    77.1970    24.6740    65.9770    59.3340    63.4070   -19.5570 
  239.6250     2.2040    78.4100    24.6740    63.3680    58.2940    62.3260   -19.4120 
  239.7500     2.2020    77.4710    24.6740    63.4300    57.5640    61.5670   -19.2640 
  239.8750     2.1980    74.5800    24.6740    64.3830    57.4070    61.4030   -19.1070 
  240.0000     2.1970    72.7290    24.6780    66.5910    57.8490    61.8630   -18.9830 
  240.1250     2.1960    72.5690    24.6890    69.6360    58.7740    62.8250   -18.7740 
  240.2500     2.1980    71.9460    24.7010    70.6890    60.0720    64.1750   -18.5990 
  240.3750     2.2070    71.3010    24.6990    69.6530    62.0300    66.2110   -18.3640 
  240.5000     2.2280    72.0470    24.6940    68.6480    64.9430    69.2410   -18.1840 
  240.6250     2.2510    74.5430    24.6980    73.1640    69.1820    73.6490   -18.0100 
  240.7500     2.2660    76.0990    24.6980    85.3280    74.5210    79.2020   -17.8790 
  240.8750     2.2710    75.3310    24.6770    99.9160    80.7050    85.6330   -17.7530 
  241.0000     2.2710    72.4110    24.6230   110.9660    87.3350    92.5280   -17.5860 
  241.1250     2.2630    70.7640    24.6510   116.1930    94.0970    99.5610   -17.4810 
  241.2500     2.2410    71.8140    24.6760   116.4270   100.9920   106.7320   -17.3360 
  241.3750     2.2090    72.9410    24.7010   117.2820   107.7820   113.7930   -17.2100 
  241.5000     2.1970    71.7540    24.7400   126.5950   112.5290   118.7300   -16.9820 
  241.6250     2.2160    69.8750    24.8000   142.0280   109.3040   115.3760   -16.7640 
  241.7500     2.2530    70.2360    24.9440   152.7660    95.5100   101.0300   -16.4910 
  241.8750     2.2830    73.2020    25.0370   139.7720    74.1160    78.7810   -16.2280 
  242.0000     2.2970    77.6450    24.9890    98.5460    52.4460    56.2440   -16.0130 
  242.1250     2.3100    84.3640    24.8030    51.4450    37.0840    40.2670   -15.7360 
  242.2500     2.3300    93.1770    24.7040    27.3600    27.7380    30.5480   -15.5610 
  242.3750     2.3520   100.0940    24.6880    19.4810    22.8450    25.4590   -15.3900 
  242.5000     2.3620   100.3560    24.6880    18.3520    20.8860    23.4220   -15.2560 
  242.6250     2.3530    94.7590    24.6900    20.2480    21.0720    23.6150   -15.2290 
  242.7500     2.3300    89.8760    24.6670    23.1070    22.3100    24.9020   -15.2440 
  242.8750     2.3000    85.7110    24.7100    26.2020    23.9430    26.6010   -15.2500 
  243.0000     2.2660    81.6660    24.7570    28.4390    25.3850    28.1000   -15.2740 
  243.1250     2.2350    79.6280    24.7710    28.8710    26.2840    29.0350   -15.3490 
  243.2500     2.2210    81.0980    24.7940    29.0520    26.9390    29.7170   -15.4090 
  243.3750     2.2410    84.0930    24.8100    29.2350    27.7660    30.5770   -15.4730 
  243.5000     2.3030    84.9760    24.8210    29.5920    29.1800    32.0470   -15.6040 
  243.6250     2.3750    84.8110    24.8550    31.3770    31.6740    34.6410   -15.7350 
  243.7500     2.4180    85.3690    24.8440    37.2130    35.2450    38.3550   -15.8170 
  243.8750     2.4070    85.9590    24.6770    44.8740    39.5790    42.8620   -15.9320 
  244.0000     2.3610    83.8130    24.4480    48.5500    43.8600    47.3140   -16.0800 
  244.1250     2.3330    80.3330    24.3120    42.8140    46.9320    50.5100   -16.2410 
  244.2500     2.3390    79.9150    24.2140    38.6600    48.6510    52.2980   -16.3330 
  244.3750     2.3720    81.0050    24.1610    36.6570    49.3380    53.0120   -16.4560 
  244.5000     2.4180    80.3800    24.2650    35.8990    49.3020    52.9740   -16.6220 
  244.6250     2.4440    77.5970    24.3850    37.3530    48.3230    51.9560   -16.6650 
  244.7500     2.4280    75.2110    24.4720    39.8410    46.3290    49.8820   -16.7260 
  244.8750     2.3870    74.3230    24.5210    38.9990    43.5640    47.0070   -16.8330 
  245.0000     2.3680    74.5830    24.6010    34.1370    40.8000    44.1320   -16.8910 
  245.1250     2.3810    74.8830    24.6300    29.7960    39.2100    42.4790   -16.8890 
  245.2500     2.4090    75.8900    24.6330    32.0380    39.2980    42.5700   -16.8910 
  245.3750     2.4470    78.3620    24.6390    40.1410    41.2620    44.6120   -16.8830 
  245.5000     2.4880    80.6510    24.6200    48.9210    44.9710    48.4700   -16.7930 
  245.6250     2.5090    79.2550    24.4480    52.0570    49.9520    53.6500   -16.7310 
  245.7500     2.5050    76.6450    24.1530    48.1770    54.8970    58.7930   -16.6560 
  245.8750     2.4940    75.2710    23.8580    40.2540    59.0900    63.1540   -16.5080 
  246.0000     2.5090    76.1740    23.7580    34.6130    62.9170    67.1340   -16.3790 
  246.1250     2.5440    79.4090    23.8910    41.4490    68.1560    72.5820   -16.2890 
