~V
VERS. 2.00: Ver 2.00
~W
STRT.M 55.0000:
STOP.M 274.0000:
STEP.M 0.1250:
NULL. -999.2500:
UWI. DF5018:
~C
DEPT.M :
SP.MV :
GR.API :
CALI.CM :
RXO.OHMM :
RI. :
RML.OHMM :
DEN.GM/CC :
~A
   55.0000    94.3080  -999.2500  -999.2500  -999.2500  -999.2500  -999.2500  -999.2500 
   55.1250    95.1680  -999.2500  -999.2500  -999.2500  -999.2500  -999.2500  -999.2500 
   55.2500    95.7870    54.7510    26.3780    26.4920    -0.0120     4.3130  -999.2500 
   55.3750    96.2420    54.7510    26.3780    26.4920    -0.0120     4.3130  -999.2500 
   55.5000    96.3760    52.1440    25.3780    26.4920    -0.0120     5.3600  -999.2500 
   55.6250    96.2420    50.8170    25.3780    17.6360    -0.0060     5.4750  -999.2500 
   55.7500    95.9030    51.2300    25.3780    16.3600     0.0100     5.4920  -999.2500 
   55.8750    95.3820    50.9160    25.3780    19.2670     0.0160     5.4700  -999.2500 
   56.0000    94.7290    47.5960    25.3780    22.2450     0.0010     5.4580  -999.2500 
   56.1250    93.9420    44.6800    25.3780    23.6040    -0.0180     5.4050  -999.2500 
   56.2500    93.1980    45.9060    25.3750    23.5530    -0.0170     5.1920  -999.2500 
   56.3750    92.4260    49.1950    25.3640    21.3980     0.0040     4.8050  -999.2500 
   56.5000    91.7830    51.1630    25.3380    17.0760     0.0210     4.3640  -999.2500 
   56.6250    91.1930    51.5880    25.3250    11.3430     0.0040     4.0960  -999.2500 
   56.7500    90.7120    51.8620    25.3210     6.8210    -0.0420     4.0840  -999.2500 
   56.8750    90.3320    53.1790    25.3210     4.0770    -0.0930     4.3060  -999.2500 
   57.0000    90.0990    56.6880    25.3200     2.8280    -0.1230     4.6630     1.9700 
   57.1250    90.0150    58.9400    25.3160     2.4050    -0.1050     4.9720     1.9700 
   57.2500    89.9440    57.4110    25.3020     2.1610    -0.0520     5.0860     1.9770 
   57.3750    90.0000    53.9430    25.2740     1.8370     0.0180     5.0740     1.9940 
   57.5000    90.0560    51.6460    25.2550     1.4870     0.0740     5.0900     2.0050 
   57.6250    90.2180    50.1700    25.2480     1.3410     0.0880     5.2460     2.0220 
   57.7500    90.4040    47.8640    25.2480     1.4440     0.0690     5.4360     2.0680 
   57.8750    90.5030    46.3200    25.2480     1.6440     0.0410     5.4860     2.1460 
   58.0000    90.4960    46.5990    25.2480     1.7280     0.0250     5.3550     2.2250 
   58.1250    90.2010    47.8540    25.2480     1.6550     0.0180     5.1260     2.2660 
   58.2500    89.7360    48.9720    25.2480     1.5540     0.0000     4.8870     2.2640 
   58.3750    89.0190    49.1690    25.2480     1.4400    -0.0360     4.5830     2.2220 
   58.5000    88.1040    47.5520    25.2480     1.3110    -0.0700     4.1440     2.1480 
   58.6250    87.0080    44.7630    25.2450     1.2000    -0.0680     3.6280     2.0680 
   58.7500    85.7350    43.0830    25.2310     1.1300    -0.0340     3.2170     2.0200 
   58.8750    84.4750    43.8430    25.2020     1.0650     0.0040     2.9960     2.0260 
   59.0000    83.1940    46.3520    25.1750     0.9940     0.0210     2.9530     2.0870 
   59.1250    82.1400    49.2460    25.1440     0.9240     0.0040     3.1800     2.1820 
   59.2500    81.2270    51.0220    25.0930     0.8720    -0.0230     3.7530     2.2540 
   59.3750    80.5140    52.0220    25.0270     0.8650    -0.0360     4.5750     2.2630 
   59.5000    80.0460    52.6350    24.9770     0.9130    -0.0270     5.3560     2.2030 
   59.6250    79.7870    53.1770    24.9590     0.9690    -0.0120     5.7780     2.1150 
   59.7500    79.7810    53.3940    24.9560     0.9900    -0.0120     5.9550     2.0560 
   59.8750    79.9030    52.3160    24.9560     1.0220    -0.0300     6.0270     2.0380 
   60.0000    80.2350    50.6890    24.9560     1.1040    -0.0480     6.0160     2.0350 
   60.1250    80.6240    49.4060    24.9560     1.2030    -0.0440     5.7320     2.0130 
   60.2500    81.0890    49.6980    24.9560     1.2680    -0.0230     5.0790     1.9750 
   60.3750    81.4540    51.0960    24.9580     1.2910    -0.0090     4.2480     1.9440 
   60.5000    81.6200    51.0010    24.9880     1.2650    -0.0140     3.5330     1.9340 
   60.6250    81.4580    49.0370    25.0760     1.2180    -0.0300     3.2640     1.9420 
   60.7500    80.8150    47.6770    25.1860     1.2350    -0.0320     3.4820     1.9580 
   60.8750    79.7320    48.5090    25.2330     1.2980    -0.0160     4.0110     1.9770 
   61.0000    78.0150    51.0170    25.2340     1.3150     0.0030     4.3740     1.9930 
   61.1250    75.4360    52.7300    25.2010     1.2310     0.0010     3.5160     2.0010 
   61.2500    71.8970    52.8290    25.1280     1.1150    -0.0200     1.7480     2.0090 
   61.3750    67.2360    52.0980    25.0200     0.9970    -0.0460     0.2340     2.0180 
   61.5000    61.3990    53.3330    24.8880     0.9050    -0.0650    -0.5680     2.0110 
   61.6250    54.0360    58.9060    24.7410     0.8760    -0.0710    -0.7900     1.9950 
   61.7500    45.5970    64.7560    24.5470     1.0130    -0.0610    -0.7790     2.0320 
   61.8750    36.2470    68.4960    24.2650     1.6170    -0.0080    -0.6400     2.1370 
   62.0000    26.4940    70.6650    23.9110     3.2360     0.1480    -0.3560     2.2450 
   62.1250    16.8870    71.1000    23.4880     6.0370     0.5640     0.2700     2.2580 
   62.2500     7.8310    69.7230    23.1830     8.5750     1.3380     1.4620     2.2130 
   62.3750    -0.2310    68.7870    23.0410    10.0650     2.5010     3.3040     2.1720 
   62.5000    -7.2320    69.3170    23.0030    10.7360     3.8680     5.2000     2.1610 
   62.6250   -12.6480    70.5680    22.9950    10.9520     5.0500     6.0680     2.1690 
   62.7500   -16.8060    71.4660    22.9920    10.8100     5.9000     6.1550     2.1730 
   62.8750   -19.8310    72.1830    22.9910    10.5490     6.4660     6.0080     2.1700 
   63.0000   -22.0490    72.0340    22.9930    10.2700     6.8180     5.9440     2.1620 
   63.1250   -23.7190    70.2840    22.9920     9.9990     6.9840     6.1010     2.1530 
   63.2500   -25.0350    69.3250    22.9910     9.8210     7.0580     6.4460     2.1530 
   63.3750   -26.1680    68.8560    22.9920     9.8240     7.1150     6.8800     2.1560 
   63.5000   -27.0150    67.1610    22.9940     9.9590     7.1950     7.2490     2.1530 
   63.6250   -27.6920    65.0270    22.9930    10.1030     7.2950     7.3690     2.1390 
   63.7500   -28.1370    64.4910    22.9930    10.2190     7.3920     7.1900     2.1250 
   63.8750   -28.4640    64.8280    22.9920    10.3200     7.4760     6.7230     2.1250 
   64.0000   -28.6430    64.6660    22.9900    10.4000     7.5470     6.1050     2.1370 
   64.1250   -28.6470    65.1250    22.9910    10.3540     7.6070     5.6350     2.1520 
   64.2500   -28.6620    67.2450    22.9900    10.1880     7.6760     5.5980     2.1640 
   64.3750   -28.5900    68.6300    22.9900     9.9740     7.7850     6.1000     2.1810 
   64.5000   -28.5520    67.0150    22.9910     9.8490     7.9400     6.9690     2.2030 
   64.6250   -28.5210    65.3180    22.9890     9.9580     8.1030     7.7680     2.2110 
   64.7500   -28.5150    66.1490    22.9880    10.1830     8.2020     8.1610     2.2020 
   64.8750   -28.5550    68.7980    22.9880    10.3280     8.1640     8.1720     2.1870 
   65.0000   -28.6370    70.5990    22.9880    10.2870     7.9600     8.0100     2.1810 
   65.1250   -28.8340    69.9150    22.9880    10.1830     7.6180     7.7100     2.1840 
   65.2500   -28.9730    68.2990    22.9880    10.1410     7.2280     7.2090     2.1820 
   65.3750   -29.1390    67.3440    22.9880    10.1240     6.8410     6.5860     2.1710 
   65.5000   -29.3020    68.0450    22.9880    10.0950     6.5340     6.1660     2.1590 
   65.6250   -29.3910    69.3760    23.0010    10.0680     6.5070     6.3950     2.1710 
   65.7500   -29.4880    69.6100    23.0440    10.4030     6.9020     7.3030     2.2270 
   65.8750   -29.4900    69.5910    23.1230    12.4880     7.8600     8.8330     2.3330 
   66.0000   -29.4980    70.2690    23.2360    20.7890     9.4390    10.8150     2.4720 
   66.1250   -29.3760    70.6530    23.4210    39.4920    11.3980    12.8020     2.5870 
