~V
VERS. 2.00: Ver 2.00
~W
STRT.M 61.0000:
STOP.M 267.0000:
STEP.M 0.1250:
NULL. -999.2500:
UWI. DF5036:
~C
DEPT.M :
SP.MV :
GR.API :
RML.OHMM :
RI. :
RXO.OHMM :
CALI.CM :
DEN.GM/CC :
~A
# ...
   94.7500   -22.6790    76.1870     6.6900     5.7920     7.1600    23.8900     2.3700 
   94.8750   -22.9990    72.0510     7.8850     6.6840     9.0520    23.8740     2.4110 
   95.0000   -23.4020    67.4070     9.0820     7.6930    11.8220    23.7940     2.4320 
   95.1250   -23.8930    65.7840     9.8000     8.4560    14.3760    23.7550     2.4140 
   95.2500   -24.4050    68.1770     9.8950     8.7510    15.0350    23.6940     2.3700 
   95.3750   -24.8900    70.2150     9.4710     8.5540    13.2970    23.4830     2.3180 
   95.5000   -25.3410    69.0290     8.8160     8.0360    10.2360    23.0920     2.2740 
   95.6250   -25.7510    67.8020     8.2530     7.4530     8.4710    22.7790     2.2500 
   95.7500   -26.1190    68.2210     7.9150     6.9980     7.8540    22.5420     2.2400 
   95.8750   -26.4040    69.4770     7.8000     6.7290     7.6690    22.3690     2.2390 
   96.0000   -26.5910    70.4380     7.8410     6.6350     7.5930    22.2760     2.2400 
   96.1250   -26.6870    71.0170     7.9480     6.6740     7.5440    22.2080     2.2420 
   96.2500   -26.7070    71.6860     8.0350     6.7580     7.4500    22.0860     2.2430 
   96.3750   -26.7080    71.7810     8.0760     6.8420     7.3090    21.9210     2.2440 
   96.5000   -26.7240    70.5150     8.0770     6.9060     7.1850    21.7890     2.2450 
   96.6250   -26.7560    68.3430     8.0560     6.9450     7.2120    21.7440     2.2440 
   96.7500   -26.8120    66.8960     8.0370     6.9730     7.3820    21.7360     2.2410 
   96.8750   -26.9000    66.4690     8.0340     7.0040     7.6910    21.7340     2.2360 
   97.0000   -27.0280    66.8140     8.0600     7.0460     8.1370    21.7330     2.2310 
   97.1250   -27.1620    67.6240     8.1240     7.1120     8.6610    21.7630     2.2280 
   97.2500   -27.3420    67.2590     8.2110     7.1960     9.1300    21.8560     2.2260 
   97.3750   -27.5440    64.8960     8.3030     7.2940     9.5110    22.0240     2.2260 
   97.5000   -27.7410    64.0270     8.3830     7.3950     9.8210    22.2200     2.2270 
   97.6250   -27.9330    67.7580     8.4370     7.4840    10.1080    22.3830     2.2270 
   97.7500   -28.0910    70.3380     8.4720     7.5540    10.3280    22.4980     2.2250 
   97.8750   -28.1810    67.3260     8.4780     7.6020    10.4780    22.5870     2.2220 
   98.0000   -28.2030    60.9460     8.4660     7.6270    10.4850    22.6490     2.2200 
   98.1250   -28.1500    57.9920     8.4620     7.6350    10.1940    22.6890     2.2180 
   98.2500   -28.0230    58.6990     8.5320     7.6540     9.8330    22.7530     2.2170 
   98.3750   -27.8410    59.3720     8.7290     7.7240     9.4880    22.8430     2.2160 
   98.5000   -27.6040    59.0470     9.1150     7.8830     9.1970    22.9270     2.2120 
   98.6250   -27.2820    60.2250     9.6900     8.1610     9.0080    22.9950     2.2080 
   98.7500   -26.8770    62.1480    10.2720     8.4770     8.9560    23.0680     2.2040 
   98.8750   -26.3950    61.4310    10.5790     8.7050     8.9570    23.1200     2.2020 
   99.0000   -25.8270    58.2370    10.5320     8.6960     8.8540    23.1630     2.2060 
   99.1250   -25.1780    60.5680     9.9420     8.2930     8.4440    23.2280     2.2200 
   99.2500   -24.4650    69.7940     8.9920     7.5900     7.6800    23.3320     2.2420 
   99.3750   -23.7340    79.9420     7.9160     6.7370     6.5810    23.5120     2.2650 
   99.5000   -23.0670    85.3400     6.9450     5.9050     5.3500    23.7950     2.2850 
   99.6250   -22.5660    86.1150     6.2450     5.2550     4.6400    24.1370     2.2950 
   99.7500   -22.2480    86.2040     5.7560     4.7960     4.3820    24.3360     2.2970 
   99.8750   -22.1410    87.0730     5.4030     4.5060     4.4240    24.3800     2.2930 
  100.0000   -22.2780    87.8850     5.1370     4.3540     4.6210    24.2990     2.2840 
  100.1250   -22.6880    85.5990     5.0050     4.3540     5.0180    24.1440     2.2700 
  100.2500   -23.3330    82.6720     5.0940     4.5270     5.4430    24.0300     2.2560 
  100.3750   -24.1750    80.1340     5.5100     4.9320     5.9640    23.9030     2.2490 
  100.5000   -25.1210    76.6900     6.2910     5.6120     6.9720    23.6800     2.2600 
  100.6250   -26.0390    70.3810     7.3940     6.5710     8.6110    23.5000     2.2890 
  100.7500   -26.9120    63.6040     8.5760     7.6430    10.1540    23.3960     2.3170 
  100.8750   -27.7380    60.1880     9.6330     8.6530    11.0660    23.2190     2.3270 
  101.0000   -28.4760    59.3760    10.4090     9.4330    11.3060    22.9490     2.3150 
  101.1250   -29.1090    57.9440    10.8020     9.8240    10.3600    22.8960     2.2900 
  101.2500   -29.6050    57.1500    10.9480     9.9170     9.9930    22.9180     2.2690 
  101.3750   -29.9270    59.5560    10.9570     9.8180     9.9080    22.9580     2.2570 
  101.5000   -30.1110    63.4150    10.9110     9.6390     9.8600    23.0130     2.2510 
  101.6250   -30.2400    63.7440    10.8580     9.4660     9.7660    23.0450     2.2420 
  101.7500   -30.3300    61.6800    10.8010     9.3260     9.6740    23.0570     2.2310 
  101.8750   -30.3460    60.4960    10.7230     9.2080     9.6170    23.0580     2.2200 
  102.0000   -30.2870    59.4600    10.6090     9.0930     9.6270    23.0510     2.2130 
  102.1250   -30.1670    59.2800    10.4500     8.9690     9.6740    23.0220     2.2130 
  102.2500   -30.0540    60.0720    10.2730     8.8450     9.6500    22.9700     2.2150 
  102.3750   -29.9640    61.1060    10.1090     8.7390     9.5760    22.9060     2.2200 
  102.5000   -29.8890    62.9180     9.9900     8.6650     9.5000    22.7950     2.2240 
  102.6250   -29.8330    65.2490     9.9450     8.6370     9.5790    22.6580     2.2260 
  102.7500   -29.7960    67.8790     9.9570     8.6400     9.8320    22.6720     2.2230 
  102.8750   -29.8010    69.1420    10.0020     8.6560    10.1500    22.8640     2.2160 
  103.0000   -29.8450    69.3940    10.0540     8.6720    10.3770    23.0900     2.2070 
  103.1250   -29.9070    68.8130    10.0850     8.6740    10.4200    23.1760     2.1990 
  103.2500   -29.9540    68.0270    10.0870     8.6560    10.3760    23.1920     2.1940 
  103.3750   -30.0190    68.6310    10.0570     8.6180    10.3130    23.1780     2.1910 
  103.5000   -30.1180    70.3510    10.0000     8.5610    10.2920    23.1470     2.1880 
  103.6250   -30.2180    70.4740     9.9250     8.4900    10.1740    23.1300     2.1830 
  103.7500   -30.2940    67.6440     9.8500     8.4180    10.0420    23.1100     2.1780 
  103.8750   -30.3290    63.6070     9.7930     8.3560     9.9590    23.0700     2.1740 
  104.0000   -30.3240    59.6750     9.7690     8.3170    10.0000    23.0230     2.1730 
  104.1250   -30.2760    56.7890     9.7890     8.3140    10.0780    23.0020     2.1780 
  104.2500   -30.1890    57.1420     9.8290     8.3370    10.0900    22.9980     2.1870 
  104.3750   -30.0330    60.0290     9.8640     8.3730    10.0660    23.0030     2.2000 
  104.5000   -29.7800    62.2840     9.8610     8.3990     9.9960    23.0350     2.2140 
  104.6250   -29.4280    63.3510     9.7870     8.3830     9.8940    23.1190     2.2280 
  104.7500   -29.0040    65.2160     9.6560     8.3210     9.7240    23.2010     2.2390 
  104.8750   -28.5200    66.8350     9.5100     8.2310     9.4410    23.2200     2.2430 
  105.0000   -27.9960    66.5040     9.4180     8.1530     9.0630    23.1770     2.2380 
  105.1250   -27.4400    65.5460     9.4740     8.1520     8.6710    23.1520     2.2280 
  105.2500   -26.8600    65.5180     9.6590     8.2320     8.5300    23.1460     2.2160 
  105.3750   -26.2570    65.6370     9.8710     8.3450     8.5180    23.1500     2.2080 
  105.5000   -25.6390    66.5070     9.9380     8.3830     8.6190    23.1540     2.2080 
  105.6250   -24.9820    69.6570     9.6270     8.1780     8.5880    23.1660     2.2200 
  105.7500   -24.3110    73.8840     8.9600     7.7090     8.2040    23.1940     2.2430 
  105.8750   -23.6620    79.7710     8.0720     7.0390     7.3710    23.2740     2.2740 
