~V
VERS. 2.00: Ver 2.00
~W
STRT.M 64.0000:
STOP.M 243.0000:
STEP.M 0.1250:
NULL. -999.2500:
UWI. DF5061:
~C
DEPT.M :
GR.API :
RML.OHMM :
RI. :
RXO.OHMM :
CALI.CM :
DEN.GM/CC :
SP.MV :
~A
# ...
  210.2500    68.3630    75.7060    71.2820    66.1100    24.5840     2.2400   -15.5540 
  210.3750    70.1580    76.7060    71.6690    66.8340    24.5840     2.2390   -15.3110 
  210.5000    69.1750    77.4120    71.6480    66.8820    24.5840     2.2380   -15.1010 
  210.6250    65.1450    77.4770    71.1400    66.9420    24.5840     2.2370   -14.9270 
  210.7500    61.4810    77.0100    70.3970    67.3680    24.5840     2.2370   -14.8280 
  210.8750    60.6720    77.0040    70.2770    67.0950    24.5840     2.2370   -14.8390 
  211.0000    59.5660    78.9160    71.8220    66.7320    24.5840     2.2380   -14.9300 
  211.1250    55.8390    84.0980    76.0560    68.2330    24.5840     2.2400   -15.0720 
  211.2500    52.0680    93.2910    83.6190    74.3710    24.5840     2.2440   -15.2090 
  211.3750    52.0070   106.3190    94.5270    88.2890    24.5850     2.2510   -15.3260 
  211.5000    55.4300   119.9880   106.1930   105.9540    24.5880     2.2570   -15.4410 
  211.6250    59.2620   130.7600   115.6030   120.8670    24.5970     2.2590   -15.5530 
  211.7500    58.9920   135.2510   119.6840   127.7380    24.6140     2.2530   -15.6430 
  211.8750    55.0370   130.0090   115.4080   125.2080    24.6440     2.2430   -15.6640 
  212.0000    54.4990   117.6730   104.8350   114.6330    24.6690     2.2350   -15.6070 
  212.1250    57.9450   101.1860    90.6260    97.9310    24.6650     2.2320   -15.4820 
  212.2500    62.0050    84.3130    75.8770    80.4820    24.6290     2.2320   -15.3200 
  212.3750    63.6670    69.7250    63.6730    66.6480    24.5650     2.2350   -15.1350 
  212.5000    63.6930    59.2890    55.1680    53.7610    24.5250     2.2450   -14.9590 
  212.6250    63.2070    54.5660    50.8450    46.8540    24.5220     2.2760   -14.8170 
  212.7500    62.9070    55.0450    50.6460    50.0560    24.5570     2.3370   -14.7120 
  212.8750    62.9010    59.3650    54.3790    62.1870    24.5830     2.4220   -14.6780 
  213.0000    59.5050    65.1590    59.9190    79.1220    24.5640     2.4930   -14.6970 
  213.1250    54.3480    70.2590    65.2650    93.8710    24.5330     2.5170   -14.7530 
  213.2500    52.5390    72.5740    68.3350    95.3910    24.5190     2.4830   -14.8550 
  213.3750    56.6280    70.3800    67.1950    81.5870    24.5410     2.4110   -15.0100 
  213.5000    64.5740    65.2990    63.0140    70.1520    24.6030     2.3450   -15.1910 
  213.6250    71.8040    59.3770    57.5680    60.1590    24.6750     2.3000   -15.3860 
  213.7500    73.6140    54.3600    52.5680    50.9230    24.7160     2.2790   -15.5920 
  213.8750    68.6000    51.2040    49.0790    45.2590    24.7120     2.2740   -15.7850 
  214.0000    65.4200    49.3170    46.7270    42.8860    24.6580     2.2730   -15.9640 
  214.1250    69.2890    48.0710    44.9980    42.4140    24.5650     2.2750   -16.1430 
  214.2500    75.0690    46.8940    43.4210    42.9930    24.4290     2.2760   -16.2990 
  214.3750    75.5000    45.3720    41.7240    41.4590    24.2130     2.2770   -16.3990 
  214.5000    72.3480    43.5760    40.0150    38.7450    23.9460     2.2760   -16.4570 
  214.6250    68.9970    41.8840    38.6240    37.2040    23.7340     2.2770   -16.4720 
  214.7500    67.9940    40.9390    38.0180    37.9260    23.6150     2.2850   -16.4330 
  214.8750    68.4810    41.9760    39.1210    40.6240    23.5380     2.3070   -16.3570 
  215.0000    69.2820    45.8410    42.6260    43.0900    23.4930     2.3340   -16.2790 
  215.1250    67.7320    53.5370    49.5120    48.0110    23.5110     2.3570   -16.1890 
  215.2500    63.1040    65.5410    60.3600    60.5170    23.6460     2.3670   -16.0770 
  215.3750    60.1030    81.0720    74.6250    78.2020    23.9170     2.3580   -15.9570 
  215.5000    58.6120    95.7230    88.2830    98.5150    24.1390     2.3470   -15.8240 
  215.6250    57.5760   104.3080    96.4990   118.4770    24.1960     2.3440   -15.6770 
  215.7500    56.1340   101.9780    94.7590   127.0870    24.1600     2.3520   -15.5220 
  215.8750    56.1160    85.5920    80.0350   114.9680    24.1320     2.3660   -15.3450 
  216.0000    58.8880    62.8460    59.0910    89.4120    24.1410     2.3750   -15.1540 
  216.1250    64.4070    41.4100    39.0050    58.8190    24.2060     2.3720   -14.9690 
  216.2500    71.9180    25.7710    24.3070    30.9770    24.2950     2.3590   -14.8230 
  216.3750    79.2770    16.9470    16.1520    16.0800    24.2630     2.3420   -14.7300 
  216.5000    85.9270    12.1290    11.7770    10.1140    24.2010     2.3310   -14.6970 
  216.6250    94.1990     9.8890     9.7620     8.5090    24.2610     2.3290   -14.7140 
  216.7500   102.3300     9.2450     9.1980     8.8610    24.4120     2.3340   -14.7920 
  216.8750   104.5310     9.6250     9.5810     9.4870    24.5100     2.3380   -14.9490 
  217.0000   101.7570    10.3870    10.3030     9.5130    24.5550     2.3360   -15.1710 
  217.1250    99.5640    11.1850    11.0280     9.4740    24.5730     2.3290   -15.4520 
  217.2500   100.1580    11.7550    11.5250     9.5180    24.5770     2.3190   -15.7660 
  217.3750   104.1130    11.9320    11.6630     9.6150    24.5740     2.3150   -16.1040 
  217.5000   109.6390    11.8180    11.5470     9.7340    24.5710     2.3200   -16.4520 
  217.6250   113.3420    11.5600    11.2520     9.7590    24.5660     2.3330   -16.8080 
  217.7500   109.3800    11.1900    10.8360     9.5660    24.5590     2.3500   -17.1670 
  217.8750   102.3690    10.8650    10.3680     9.4480    24.5600     2.3650   -17.5150 
  218.0000   101.6780    10.6060     9.9710     9.4630    24.5630     2.3750   -17.8260 
  218.1250   103.7900    10.5640     9.7960     9.7060    24.5670     2.3790   -18.0960 
  218.2500   101.1470    11.0790    10.0300    10.3990    24.5710     2.3780   -18.3590 
  218.3750    94.2950    12.6410    10.9930    12.2770    24.5750     2.3700   -18.6500 
  218.5000    90.9690    15.1230    12.7290    15.4450    24.6000     2.3570   -18.9780 
  218.6250    89.6540    18.3170    15.2260    19.8400    24.6280     2.3390   -19.3570 
  218.7500    85.9490    21.8450    18.2770    24.8330    24.6330     2.3210   -19.7750 
  218.8750    81.7140    25.1510    21.4460    28.0240    24.6340     2.3090   -20.1970 
  219.0000    78.4950    27.8400    24.2110    29.6150    24.6390     2.3040   -20.6040 
  219.1250    75.0340    29.8090    26.3150    30.7490    24.6530     2.3060   -20.9720 
  219.2500    71.2360    31.2450    27.7930    32.1170    24.6880     2.3120   -21.2840 
  219.3750    70.3760    32.4990    28.8800    33.4250    24.7630     2.3180   -21.5230 
  219.5000    71.5510    33.8860    29.9240    34.9780    24.8970     2.3210   -21.7020 
  219.6250    71.0530    35.4980    31.0580    36.3800    25.0210     2.3210   -21.8210 
  219.7500    69.2470    37.3270    32.3270    37.3060    25.0820     2.3180   -21.8840 
  219.8750    68.7840    39.3770    33.7750    37.8210    25.1540     2.3130   -21.9080 
  220.0000    69.0100    41.5720    35.3640    38.6500    25.1640     2.3080   -21.9100 
  220.1250    68.4390    43.7660    36.9980    40.1260    25.1660     2.3050   -21.9030 
  220.2500    67.0970    45.6500    38.4720    41.4850    25.1590     2.3030   -21.8800 
  220.3750    66.4480    46.6100    39.3530    42.4310    25.1470     2.3020   -21.8180 
  220.5000    67.0220    46.4290    39.4260    42.8450    25.1240     2.3010   -21.7100 
  220.6250    67.5560    45.0910    38.6240    42.3890    25.0650     2.3020   -21.5480 
  220.7500    68.3400    42.8670    37.1080    40.3690    25.0390     2.3070   -21.3390 
  220.8750    69.6240    40.2910    35.2360    37.4220    25.0430     2.3170   -21.0950 
  221.0000    70.5440    38.0870    33.5550    35.1980    25.0610     2.3300   -20.8490 
  221.1250    71.2540    36.7780    32.4620    34.5490    25.0950     2.3430   -20.5990 
  221.2500    72.7540    36.7350    32.2820    34.9050    25.1840     2.3500   -20.3460 
  221.3750    76.2400    38.4630    33.5250    35.3990    25.2330     2.3480   -20.0870 
