~V
VERS. 2.00: Ver 2.00
~W
STRT.M 65.0000:
STOP.M 272.0000:
STEP.M 0.1250:
NULL. -999.2500:
UWI. DF5002:
~C
DEPT.M :
DEN.GM/CC :
GR.API :
CALI.CM :
RXO.OHMM :
RI. :
RML.OHMM :
SP.MV :
~A
# ...
  155.0000     2.1950    78.0060    24.5440    20.0550    15.2890    16.4570   -13.0720 
  155.1250     2.2200    78.4580    24.5440    17.8230    13.7840    14.7090   -12.9900 
  155.2500     2.2470    81.4350    24.5440    13.3750    12.3390    13.0500   -12.8650 
  155.3750     2.2840    81.2040    24.5440    10.4130    11.4340    12.1090   -12.6760 
  155.5000     2.3390    74.2250    24.5440    11.7200    11.3070    12.1520   -12.4200 
  155.6250     2.4140    65.7120    24.5440    15.9240    12.1660    13.3560   -12.2110 
  155.7500     2.4910    63.2670    24.5440    19.0700    13.8000    15.3680   -12.0750 
  155.8750     2.5510    64.5490    24.5660    19.9750    15.9510    17.7710   -12.0030 
  156.0000     2.5840    64.0090    24.6420    20.0230    18.1390    19.9410   -11.9320 
  156.1250     2.5880    62.1010    24.8050    20.7440    19.7340    21.2480   -11.8400 
  156.2500     2.5820    63.4720    24.8460    21.3670    20.6920    21.9170   -11.7550 
  156.3750     2.5810    67.5320    24.7270    21.7030    21.2320    22.3140   -11.7420 
  156.5000     2.5920    69.8390    24.5460    21.8240    21.5710    22.6430   -11.8160 
  156.6250     2.6080    69.3760    24.2820    21.9540    21.8050    22.9080   -11.8950 
  156.7500     2.6170    68.3400    23.9440    22.2270    21.9940    23.1140   -11.9350 
  156.8750     2.6120    66.7860    23.7060    22.4680    22.1480    23.2840   -11.9420 
  157.0000     2.6010    64.6100    23.6770    22.6120    22.2590    23.4280   -11.9560 
  157.1250     2.5910    61.7050    23.9290    23.2190    22.3060    23.5280   -12.0580 
  157.2500     2.5850    59.5870    24.2660    24.2440    22.3110    23.6070   -12.1820 
  157.3750     2.5780    59.1820    24.4580    25.3110    22.2880    23.6800   -12.2180 
  157.5000     2.5740    61.5790    24.5000    25.2210    22.2310    23.7100   -12.2000 
  157.6250     2.5780    65.8970    24.4980    24.8400    22.1040    23.6020   -12.1820 
  157.7500     2.5880    68.3760    24.5140    25.0040    21.9080    23.3450   -12.2060 
  157.8750     2.5950    67.1880    24.4960    25.4310    21.6710    22.9870   -12.2580 
  158.0000     2.5920    63.3140    24.4970    24.9390    21.4530    22.6420   -12.2610 
  158.1250     2.5790    59.0810    24.5350    23.9510    21.3360    22.4650   -12.1950 
  158.2500     2.5630    55.8010    24.5660    24.2020    21.3030    22.4410   -12.0840 
  158.3750     2.5470    54.7290    24.5250    25.4200    21.2940    22.4720   -12.0320 
  158.5000     2.5390    57.1150    24.4820    26.1810    21.2510    22.4490   -12.0660 
  158.6250     2.5400    63.6280    24.4710    24.8030    21.1310    22.2970   -12.0810 
  158.7500     2.5460    69.4670    24.4710    22.5720    20.9210    22.0270   -12.0380 
  158.8750     2.5520    70.5950    24.4690    21.0790    20.5850    21.6360   -11.9180 
  159.0000     2.5570    67.8210    24.4620    21.0580    20.0610    21.0880   -11.7910 
  159.1250     2.5660    66.3530    24.4510    21.5200    19.2180    20.2320   -11.7520 
  159.2500     2.5780    67.9400    24.4430    21.0550    18.0630    19.0420   -11.7790 
  159.3750     2.5840    68.6610    24.4420    19.6570    16.6830    17.5990   -11.7930 
  159.5000     2.5740    67.4050    24.4520    17.9000    15.2780    16.1270   -11.7060 
  159.6250     2.5540    67.6620    24.5350    16.1120    14.1630    14.9850   -11.5780 
  159.7500     2.5430    67.9920    24.5450    14.7480    13.5120    14.3520   -11.5350 
  159.8750     2.5460    65.4210    24.5230    14.6140    13.4070    14.3010   -11.6160 
  160.0000     2.5530    61.5320    24.4960    15.7260    13.8470    14.8160   -11.7000 
  160.1250     2.5570    61.5380    24.4950    17.9520    14.7930    15.8540   -11.7180 
  160.2500     2.5620    63.5000    24.5200    20.1160    15.9320    17.0870   -11.7180 
  160.3750     2.5750    63.7910    24.5220    21.2790    16.9430    18.1710   -11.7460 
  160.5000     2.5920    62.4730    24.5240    21.4420    17.5060    18.7530   -11.8030 
  160.6250     2.5990    59.9580    24.5140    21.0820    17.3460    18.5330   -11.8800 
  160.7500     2.5960    56.6220    24.4880    19.8270    16.6750    17.7530   -11.8800 
  160.8750     2.5880    54.8460    24.4740    17.7360    15.7380    16.7190   -11.8020 
  161.0000     2.5780    55.8170    24.4710    15.8080    14.7870    15.7450   -11.7670 
  161.1250     2.5680    57.8770    24.4710    15.3700    14.0410    15.0790   -11.8040 
  161.2500     2.5590    58.8090    24.4710    15.4160    13.5680    14.7320   -11.8550 
  161.3750     2.5490    59.7520    24.4710    15.4640    13.3960    14.6870   -11.8750 
  161.5000     2.5420    59.8750    24.4710    15.5180    13.5040    14.8960   -11.9070 
  161.6250     2.5460    57.6690    24.4710    15.7820    13.8500    15.3220   -11.9410 
  161.7500     2.5600    55.7500    24.4690    15.9790    14.3070    15.8740   -12.0690 
  161.8750     2.5770    55.0500    24.4590    16.1310    14.7970    16.4750   -12.2790 
  162.0000     2.5870    54.5240    24.4340    16.3380    15.2360    17.0000   -12.4810 
  162.1250     2.5860    55.0410    24.4140    16.5000    15.5300    17.2860   -12.6270 
  162.2500     2.5760    58.3970    24.4180    16.7080    15.6720    17.3490   -12.7220 
  162.3750     2.5650    63.3200    24.3900    16.3890    15.6960    17.2670   -12.8300 
  162.5000     2.5620    66.6970    24.2750    15.5390    15.6560    17.1550   -12.9750 
  162.6250     2.5670    67.3450    24.2410    15.3520    15.6000    17.1260   -13.1580 
  162.7500     2.5680    66.8030    24.2960    16.1540    15.5360    17.1660   -13.2400 
  162.8750     2.5650    65.8200    24.3330    17.2500    15.4330    17.1890   -13.2130 
  163.0000     2.5620    65.8240    24.3490    17.6510    15.2660    17.1010   -13.1210 
  163.1250     2.5580    66.1920    24.3800    17.1250    15.0420    16.8440   -13.0520 
  163.2500     2.5450    64.4070    24.4010    16.3640    14.8240    16.5170   -12.9930 
  163.3750     2.5230    62.4690    24.4380    16.0640    14.6840    16.2510   -12.9290 
  163.5000     2.5020    63.9170    24.4820    16.3880    14.6700    16.1600   -12.7800 
  163.6250     2.4950    70.3490    24.5240    17.0140    14.7960    16.2910   -12.6010 
  163.7500     2.4960    75.9880    24.5400    17.4300    14.9800    16.5080   -12.4650 
  163.8750     2.5010    77.3590    24.5440    17.4090    15.1540    16.6860   -12.4070 
  164.0000     2.5070    74.6930    24.5440    17.3260    15.2820    16.7590   -12.3650 
  164.1250     2.5150    71.0310    24.5440    17.3950    15.3640    16.7390   -12.2850 
  164.2500     2.5270    70.2220    24.5440    17.2610    15.4120    16.6970   -12.2240 
  164.3750     2.5420    71.0930    24.5440    16.8460    15.3860    16.6110   -12.1730 
  164.5000     2.5610    70.8520    24.5440    16.5110    15.1910    16.3700   -12.1940 
  164.6250     2.5790    69.3520    24.5440    16.4370    14.6800    15.7710   -12.2520 
  164.7500     2.5880    65.7130    24.5440    16.1740    13.9040    14.8370   -12.2820 
  164.8750     2.5840    60.0480    24.5440    15.2270    12.9910    13.7150   -12.2530 
  165.0000     2.5720    54.7020    24.5440    13.5040    12.1260    12.6340   -12.2310 
  165.1250     2.5550    52.5450    24.5440    11.8650    11.5140    11.8510   -12.2730 
  165.2500     2.5360    52.1670    24.5440    11.3060    11.1830    11.3990   -12.3280 
  165.3750     2.5190    51.2640    24.5440    11.4140    11.0900    11.2330   -12.3510 
  165.5000     2.5060    51.5670    24.5440    11.3860    11.1340    11.2530   -12.3400 
  165.6250     2.5000    54.9790    24.5440    10.9890    11.1990    11.3620   -12.3110 
  165.7500     2.5000    56.7480    24.5400    10.5380    11.2100    11.4800   -12.3620 
  165.8750     2.5080    55.5640    24.5260    10.2520    11.1670    11.5880   -12.5580 
  166.0000     2.5200    54.5450    24.4910    10.1400    11.0980    11.6780   -12.8470 
  166.1250     2.5230    57.5260    24.4810    10.0910    10.9830    11.6780   -13.1240 
