~V
VERS. 2.00: Ver 2.00
~W
STRT.M 58.0000:
STOP.M 261.0000:
STEP.M 0.1250:
NULL. -999.2500:
UWI. DF5035:
~C
DEPT.M :
DEN.GM/CC :
GR.API :
CALI.CM :
RXO.OHMM :
RI. :
RML.OHMM :
SP.MV :
~A
# ...
   69.2500     2.2610    87.3800    24.4030     7.1710     5.8450     6.6360   -53.5370 
   69.3750     2.2730    93.0690    24.4420     7.1140     5.6900     6.5100   -53.1800 
   69.5000     2.2730    95.0640    24.4230     7.0670     5.5200     6.3530   -52.9050 
   69.6250     2.2720    92.9640    24.4490     6.6150     5.3360     6.1750   -52.6860 
   69.7500     2.2780    90.4910    24.6220     5.9350     5.1830     6.0440   -52.5610 
   69.8750     2.2920    90.3170    24.8940     5.7610     5.1140     6.0210   -52.5230 
   70.0000     2.3110    92.5710    25.1540     6.0130     5.1660     6.1480   -52.5150 
   70.1250     2.3270    94.8080    25.3120     7.0680     5.3890     6.4810   -52.6980 
   70.2500     2.3350    94.2480    25.3500    10.8770     5.7860     7.0260   -52.9140 
   70.3750     2.3360    91.4330    25.2700    16.7070     6.3970     7.8380   -53.1580 
   70.5000     2.3340    87.8560    25.1360    19.8350     7.2620     8.9450   -53.3450 
   70.6250     2.3330    85.1570    25.0920    22.9730     8.4050    10.2900   -53.5030 
   70.7500     2.3240    82.8370    25.1900    28.9280     9.6100    11.5410   -53.7680 
   70.8750     2.2960    80.1220    25.3520    35.6240    10.5280    12.2870   -53.9330 
   71.0000     2.2520    76.8210    25.4440    37.9590    10.7640    12.1740   -54.1190 
   71.1250     2.2050    74.2120    25.3530    31.5270    10.0680    11.0890   -54.2920 
   71.2500     2.1700    73.9910    25.1610    19.5340     8.9240     9.6510   -54.3540 
   71.3750     2.1480    75.9400    24.9680    10.4950     7.7610     8.3490   -54.4300 
   71.5000     2.1360    76.8240    24.8290     8.0240     6.8610     7.4690   -54.3510 
   71.6250     2.1300    74.6680    24.7220     7.8070     6.3840     7.1240   -54.3780 
   71.7500     2.1250    73.7960    24.5960     7.7300     6.2250     7.1050   -54.3660 
   71.8750     2.1200    76.2830    24.4810     7.6850     6.2770     7.2520   -54.2030 
   72.0000     2.1160    78.9110    24.4260     7.7430     6.4140     7.4140   -54.0520 
   72.1250     2.1170    77.9080    24.4140     7.8360     6.4980     7.4520   -53.7410 
   72.2500     2.1290    74.7970    24.3950     7.7690     6.4500     7.3170   -53.4300 
   72.3750     2.1530    71.8410    24.4120     7.5850     6.2440     7.0070   -53.1100 
   72.5000     2.1840    72.0730    24.5600     7.2730     5.9000     6.5690   -52.8140 
   72.6250     2.2160    77.8570    24.8700     6.6290     5.4850     6.0990   -52.5730 
   72.7500     2.2380    84.4310    25.1670     6.0010     5.1040     5.7070   -52.2430 
   72.8750     2.2450    88.2380    25.3230     5.6340     4.8220     5.4550   -52.0790 
   73.0000     2.2370    89.8670    25.3200     5.4780     4.6790     5.3610   -51.9600 
   73.1250     2.2190    91.3640    25.2010     5.4250     4.7150     5.4410   -51.9140 
   73.2500     2.2000    91.8350    25.0400     5.9390     4.8950     5.6420   -52.0150 
   73.3750     2.1850    89.6120    24.8790     6.2030     5.1930     5.9390   -52.1110 
   73.5000     2.1760    85.8480    24.7380     6.5070     5.5840     6.3170   -52.3500 
   73.6250     2.1710    83.1940    24.6180     7.0040     6.0440     6.7580   -52.3850 
   73.7500     2.1680    81.9480    24.5270     7.7350     6.5130     7.1920   -52.4600 
   73.8750     2.1620    80.0530    24.4680     8.2070     6.9120     7.5250   -52.4750 
   74.0000     2.1550    76.6700    24.4250     8.4260     7.1240     7.6370   -52.3500 
   74.1250     2.1510    73.7240    24.3960     8.3460     6.9770     7.3730   -52.1470 
   74.2500     2.1560    73.2780    24.4240     7.9890     6.5070     6.8070   -51.7740 
   74.3750     2.1730    76.7170    24.5580     7.2680     5.8250     6.0710   -51.4000 
   74.5000     2.1970    86.6090    24.8190     6.0510     5.0860     5.3340   -50.8310 
   74.6250     2.2220   101.6580    25.1800     4.9340     4.4620     4.7800   -50.4790 
   74.7500     2.2430   110.8280    25.4920     4.5100     4.0450     4.4880   -50.1970 
   74.8750     2.2550   109.5040    25.6360     4.4710     3.8900     4.5060   -49.9790 
   75.0000     2.2560   103.1770    25.5750     4.5890     4.0310     4.8550   -49.9650 
   75.1250     2.2430    99.3250    25.3090     5.3400     4.5330     5.5770   -50.0220 
   75.2500     2.2170    95.7500    24.9390     7.2180     5.2980     6.5090   -50.3520 
   75.3750     2.1830    88.5200    24.5720     8.5830     6.1870     7.4320   -50.7340 
   75.5000     2.1510    78.8630    24.3210     8.3160     6.9630     8.0800   -51.1180 
   75.6250     2.1270    71.2740    24.2280     7.6930     7.3300     8.2040   -51.5210 
   75.7500     2.1140    67.7880    24.2010     7.7010     7.3070     7.9520   -51.8930 
   75.8750     2.1110    68.8980    24.2060     7.6550     7.0360     7.5370   -52.1820 
   76.0000     2.1190    71.9300    24.2250     7.0280     6.7030     7.1670   -52.3930 
   76.1250     2.1320    72.5100    24.2260     6.6710     6.4660     6.9920   -52.5530 
   76.2500     2.1430    71.8820    24.1980     6.7260     6.3590     6.9930   -52.5670 
   76.3750     2.1500    72.9580    24.1390     7.1160     6.3680     7.1200   -52.4480 
   76.5000     2.1530    74.2580    24.0280     7.3680     6.4490     7.2990   -52.4910 
   76.6250     2.1570    71.8040    23.8610     7.6970     6.5260     7.4180   -52.4200 
   76.7500     2.1660    68.0250    23.7230     7.9940     6.5300     7.4140   -52.3010 
   76.8750     2.1780    67.2930    23.6700     8.1260     6.4440     7.2940   -52.3010 
   77.0000     2.1880    72.5410    23.6840     7.8690     6.3090     7.1310   -52.1980 
   77.1250     2.1870    81.6420    23.7060     7.1050     6.2050     7.0520   -52.1790 
   77.2500     2.1740    86.6980    23.7330     6.8900     6.1890     7.1150   -52.1090 
   77.3750     2.1560    84.6800    23.8110     7.5300     6.2760     7.3150   -52.1490 
   77.5000     2.1400    78.6200    23.9420     8.2650     6.4540     7.6020   -52.2100 
   77.6250     2.1320    73.7610    24.0760     8.4230     6.6860     7.9100   -52.2600 
   77.7500     2.1310    70.2320    24.1970     8.5460     6.9180     8.1840   -52.4140 
   77.8750     2.1370    68.5250    24.3810     8.6500     7.1170     8.4060   -52.4220 
   78.0000     2.1460    69.3980    24.7350     8.5320     7.2660     8.5710   -52.4720 
   78.1250     2.1540    70.3420    25.1800     8.3380     7.3560     8.6760   -52.4260 
   78.2500     2.1550    69.0230    25.4170     8.1150     7.4090     8.7470   -52.3560 
   78.3750     2.1500    66.7610    25.4040     7.9440     7.4570     8.8280   -52.2820 
   78.5000     2.1460    65.1420    25.3600     7.9370     7.5390     8.9730   -52.0150 
   78.6250     2.1520    64.3720    25.4150     8.2480     7.6950     9.2140   -51.8070 
   78.7500     2.1670    64.3690    25.3720     8.6900     7.8900     9.4790   -51.5150 
   78.8750     2.1850    64.8210    25.1310     8.9930     8.0560     9.6620   -51.1760 
   79.0000     2.1940    64.8900    24.7950     8.9920     8.1060     9.6490   -50.8740 
   79.1250     2.1880    63.6440    24.5080     8.6910     7.9430     9.3580   -50.5310 
   79.2500     2.1720    62.7730    24.3240     8.4470     7.6230     8.9190   -50.2460 
   79.3750     2.1550    63.0180    24.2490     8.3460     7.2430     8.4830   -49.9060 
   79.5000     2.1420    63.9530    24.2390     8.4120     6.9150     8.1810   -49.5750 
   79.6250     2.1340    66.1790    24.2250     8.4720     6.7550     8.1120   -49.1950 
   79.7500     2.1330    69.4060    24.1870     8.3990     6.7710     8.2290   -48.7570 
   79.8750     2.1390    72.4960    24.1510     8.3040     6.9380     8.4790   -48.4660 
   80.0000     2.1490    74.6210    24.1380     8.3730     7.2140     8.8060   -48.0620 
   80.1250     2.1580    76.3910    24.1140     8.4180     7.5450     9.1510   -47.7570 
   80.2500     2.1610    76.6280    24.0260     8.3650     7.8460     9.4170   -47.4030 
   80.3750     2.1610    74.3150    23.8730     8.4300     8.0180     9.4900   -47.0360 
