~V
VERS. 2.00: Ver 2.00
~W
STRT.M 55.0000:
STOP.M 268.0000:
STEP.M 0.1250:
NULL. -999.2500:
UWI. DF5007:
~C
DEPT.M :
SP.MV :
GR.API :
RML.OHMM :
RI. :
RXO.OHMM :
CALI.CM :
DEN.GM/CC :
~A
# ...
  257.5000   -15.8600    54.9950     9.9130     8.8510     9.0090    23.9670     2.4420 
  257.6250   -15.5080    54.9950     9.9520     8.8860     9.0960    23.9670     2.4370 
  257.7500   -15.1580    54.9950     9.9850     8.9150     9.3320    23.9700     2.4320 
  257.8750   -14.7720    54.9950     9.9890     8.9180     9.2870    23.9700     2.4270 
  258.0000   -14.4750    54.9950     9.9520     8.8860     9.0280    23.9660     2.4230 
  258.1250   -14.0860    54.9950     9.8530     8.7980     8.8450    23.9650     2.4230 
  258.2500   -13.6940    54.9950     9.6840     8.6470     8.6940    23.9660     2.4300 
  258.3750   -13.3340    54.9950     9.4410     8.4290     8.3140    23.9650     2.4430 
  258.5000   -12.9250    54.9950     9.1290     8.1510     7.6450    23.9650     2.4560 
  258.6250   -12.5040    54.9950     8.7700     7.8300     6.7510    23.9690     2.4570 
  258.7500   -12.1470    54.9950     8.4180     7.5160     6.2970    23.9970     2.4440 
  258.8750   -11.8730    54.9950     8.1270     7.2560     6.1380    24.0690     2.4180 
  259.0000   -11.6930    54.9950     7.9440     7.0930     6.2090    24.1670     2.3870 
  259.1250   -11.5470    54.9950     7.9110     7.0630     6.5630    24.1720     2.3650 
  259.2500   -11.4730    54.9950     7.9950     7.1380     7.3770    24.0940     2.3560 
  259.3750   -11.4870    54.9950     8.1690     7.2930     8.7640    23.9830     2.3620 
  259.5000   -11.5410    54.9950     8.3960     7.4960    10.4360    23.8840     2.3770 
  259.6250   -11.7520    54.9950     8.6260     7.7020    10.4470    23.7920     2.3930 
  259.7500   -11.8460    54.9950     8.8100     7.8660     9.8520    23.7070     2.4040 
  259.8750   -11.9140    54.9950     8.9230     7.9670     9.3720    23.6380     2.4070 
  260.0000   -11.9140    54.9950     8.9630     8.0030     9.2740    23.6230     2.4060 
  260.1250   -11.9780    54.9950     8.9530     7.9930     9.1220    23.7070     2.4060 
  260.2500   -11.9690    54.9950     8.9310     7.9740     8.6270    23.7610     2.4090 
  260.3750   -11.8730    54.9950     8.9090     7.9540     7.8510    23.7710     2.4150 
  260.5000   -11.7430    54.9950     8.8870     7.9350     6.9890    23.7510     2.4210 
  260.6250   -11.4990    54.9950     8.8730     7.9220     6.5050    23.7150     2.4200 
  260.7500   -11.3530    54.9950     8.8680     7.9180     6.6580    23.7160     2.4130 
  260.8750   -11.2480    54.9950     8.8710     7.9200     7.0760    23.7500     2.4020 
  261.0000   -11.1030    54.9950     8.8760     7.9250     7.0160    23.7770     2.3920 
  261.1250   -10.9140    54.9950     8.8810     7.9300     7.0320    23.7830     2.3890 
  261.2500   -10.8070    54.9950     8.8870     7.9340     7.2510    23.7810     2.3920 
  261.3750   -10.8060    54.9950     8.8910     7.9380     7.7270    23.7760     2.3990 
  261.5000   -10.8110    54.9950     8.8930     7.9410     8.2910    23.7570     2.4030 
  261.6250   -10.8540    54.9950     8.8940     7.9410     8.5470    23.7160     2.4020 
  261.7500   -10.9030    54.9950     8.8940     7.9410     8.5640    23.7030     2.3940 
  261.8750   -10.9560    54.9950     8.8930     7.9410     8.3810    23.7050     2.3840 
  262.0000   -11.0430    54.9950     8.8930     7.9400     8.2750    23.6980     2.3740 
  262.1250   -11.1700    54.9950     8.8930     7.9400     8.4780    23.6960     2.3700 
  262.2500   -11.1900    54.9950     8.8930     7.9400     8.8060    23.7100     2.3720 
  262.3750   -11.1640    54.9950     8.8930     7.9400     9.1820    23.7440     2.3780 
  262.5000   -11.1900    54.9950     8.8930     7.9400     9.5360    23.7690     2.3880 
  262.6250   -11.2710    54.9950     8.8930     7.9400     9.8780    23.7720     2.3980 
  262.7500   -11.2760    54.9950     8.8940     7.9410    10.1480    23.7540     2.4070 
  262.8750   -11.2580    54.9950     8.8940     7.9420    10.7680    23.7250     2.4110 
  263.0000   -11.3070    54.9950     8.8950     7.9420    11.9790    23.7290     2.4080 
  263.1250   -11.3500    54.9950     8.8960     7.9430    13.3160    23.7880     2.3950 
  263.2500   -11.4600    54.9950     8.8960     7.9430    13.7400    23.8460     2.3790 
  263.3750   -11.5700    54.9950     8.8960     7.9430    13.0840    23.8670     2.3630 
  263.5000   -11.6000    54.9950     8.8960     7.9430    11.8410    23.8620     2.3510 
  263.6250   -11.6220    54.9950     8.8960     7.9430    10.4430    23.8350     2.3450 
  263.7500   -11.6620    54.9950     8.8960     7.9430     8.9720    23.7820     2.3440 
  263.8750   -11.6880    54.9950     8.8960     7.9430     8.4280    23.6660     2.3470 
  264.0000   -11.6800    54.9950     8.8960     7.9430     8.4170    23.3010     2.3550 
  264.1250   -11.6730    54.9950     8.8960     7.9430     8.3410    22.4590     2.3690 
  264.2500   -11.6380    54.9950     8.8960     7.9430     7.7900    21.1270     2.3860 
  264.3750   -11.6120    54.9950     8.8960     7.9430     6.9990    19.4380     2.4010 
  264.5000   -11.6630    54.9950     8.8960     7.9430     6.4520    18.0600     2.4100 
  264.6250   -11.6110    54.9950     8.8960     7.9430     6.2890    17.3500     2.3970 
  264.7500   -11.6540    54.9950     8.8960     7.9430     6.2320    17.1480     2.3550 
  264.8750   -11.7150    54.9950     8.8960     7.9430     6.2190    17.0810     2.2760 
  265.0000   -11.6750    54.9950     8.8960     7.9430     6.2160    17.0560     2.1680 
  265.1250   -11.6940    54.9950     8.8960     7.9430     6.2150    17.0490     2.0530 
  265.2500   -11.7460    54.9950     8.8960     7.9430     6.2140    17.0490     1.9560 
  265.3750   -11.7750    54.9950     8.8960     7.9430     6.2130    17.0490     1.8880 
  265.5000   -11.7980    54.9950     8.8960     7.9430     6.2120    17.0480     1.8470 
  265.6250  -999.2500    54.9950     8.8960     7.9430     6.2130    17.0450     1.8300 
  265.7500  -999.2500    54.9950     8.8960     7.9430     6.2140    17.0410     1.8240 
  265.8750  -999.2500    54.9950     8.8960     7.9430     6.2140    17.0400     1.8220 
  266.0000  -999.2500    54.9950     8.8960     7.9430     6.2130    17.0410     1.8220 
  266.1250  -999.2500    54.9950     8.8960     7.9430     6.2130    17.0420     1.8240 
  266.2500  -999.2500    54.9950     8.8960     7.9430     6.2120    17.0400     1.8270 
  266.3750  -999.2500    54.9950     8.8960     7.9430     6.2110    17.0390     1.8280 
  266.5000  -999.2500    54.9950     8.8960     7.9430     6.2110    17.0390     1.8260 
  266.6250  -999.2500    54.9950     8.8960     7.9430     6.2110    17.0390     1.8230 
  266.7500  -999.2500    54.9950     8.8960     7.9430     6.2110    17.0390     1.8210 
  266.8750  -999.2500    54.9950     8.8960     7.9430     6.2110    17.0390     1.8200 
  267.0000  -999.2500    54.9950     8.8960     7.9430     6.2120    17.0390  -999.2500 
  267.1250  -999.2500    54.9950     8.8990     7.9430     6.2130    17.0390  -999.2500 
  267.2500  -999.2500    54.9950     8.8990     7.9430     6.2140    17.0390  -999.2500 
  267.3750  -999.2500    54.9950     8.8810     7.9430     6.2140    17.0380  -999.2500 
  267.5000  -999.2500    54.9950     8.8700     7.9430     6.2120    17.0370  -999.2500 
  267.6250  -999.2500    54.9950     8.8620     7.9430     6.2110    17.0350  -999.2500 
  267.7500  -999.2500    54.9950     8.9670     7.9430     6.2100    17.0350  -999.2500 
  267.8750  -999.2500    54.9950     9.1340     7.9430     6.2100    17.0320  -999.2500 
  268.0000  -999.2500    54.9950     9.3950     7.9430     6.2090    17.0270  -999.2500 
