~V
VERS. 2.00: Ver 2.00
~W
STRT.M 60.0000:
STOP.M 257.0000:
STEP.M 0.1250:
NULL. -999.2500:
UWI. DF5064:
~C
DEPT.M :
SP.MV :
GR.API :
RML.OHMM :
RI. :
RXO.OHMM :
CALI.CM :
DEN.GM/CC :
~A
# ...
  240.0000    -3.9030    69.1770    14.8070     9.8600     9.7700    25.5270     2.4550 
  240.1250    -3.9230    66.6270    14.6650     9.8070    10.0830    25.3330     2.4580 
  240.2500    -3.9260    68.3730    14.4680     9.7110    11.1860    24.7490     2.4710 
  240.3750    -3.8990    70.2590    14.2380     9.5840    11.9490    24.1020     2.4830 
  240.5000    -3.8750    69.6470    13.9970     9.4400    11.0030    23.7840     2.4870 
  240.6250    -3.8690    71.0300    13.7680     9.2980    10.0770    23.7600     2.4800 
  240.7500    -3.8690    74.3160    13.5570     9.1710     8.7600    23.8280     2.4670 
  240.8750    -3.8650    76.3050    13.3730     9.0710     8.0300    23.9630     2.4520 
  241.0000    -3.8350    75.5280    13.2350     9.0180     7.9020    24.1880     2.4390 
  241.1250    -3.7780    74.2360    13.2000     9.0480     8.7940    24.3970     2.4320 
  241.2500    -3.7160    73.0610    13.3080     9.1830     9.5280    24.5550     2.4340 
  241.3750    -3.6240    71.2360    13.5960     9.4450     9.2880    24.6530     2.4450 
  241.5000    -3.5060    70.2080    14.0740     9.8440     9.4580    24.7010     2.4610 
  241.6250    -3.3880    69.5290    14.7240    10.3810    11.3640    24.7110     2.4780 
  241.7500    -3.2480    69.3830    15.4300    10.9850    14.6980    24.7190     2.4930 
  241.8750    -3.0990    69.3240    16.1010    11.5970    16.8620    24.7650     2.5040 
  242.0000    -2.9380    68.9920    16.6610    12.1570    17.1820    24.8600     2.5120 
  242.1250    -2.7680    69.3590    17.0560    12.6150    17.5290    24.9780     2.5160 
  242.2500    -2.6180    70.0290    17.3460    12.9850    17.8260    25.1000     2.5190 
  242.3750    -2.5270    70.4880    17.6020    13.3040    18.3330    25.2090     2.5230 
  242.5000    -2.4500    70.4310    17.9010    13.6160    19.8730    25.2760     2.5310 
  242.6250    -2.3380    70.8070    18.3020    13.9650    19.5280    25.2230     2.5410 
  242.7500    -2.1890    70.6730    18.7880    14.3590    19.2440    25.1950     2.5470 
  242.8750    -2.0100    69.5920    19.3230    14.7880    19.7030    25.2200     2.5470 
  243.0000    -1.8540    68.6570    19.8650    15.2310    19.3850    25.3230     2.5390 
  243.1250    -1.7480    67.7500    20.3570    15.6590    19.4890    25.4050     2.5290 
  243.2500    -1.6780    67.5020    20.7760    16.0530    19.3100    25.4750     2.5240 
  243.3750    -1.6210    68.2960    21.1090    16.4050    19.8300    25.5300     2.5250 
  243.5000    -1.5700    69.2140    21.3580    16.7140    20.4620    25.5760     2.5350 
  243.6250    -1.5650    70.5020    21.5390    16.9880    20.7090    25.6310     2.5520 
  243.7500    -1.6040    72.9140    21.7030    17.2520    20.6700    25.6770     2.5730 
  243.8750    -1.6740    75.4180    21.8950    17.5300    21.2580    25.7000     2.5900 
  244.0000    -1.7750    75.2350    22.1480    17.8430    23.5160    25.6940     2.6000 
  244.1250    -1.9000    73.1680    22.4800    18.2030    25.8420    25.6390     2.5980 
  244.2500    -1.9900    71.0690    22.8390    18.5820    25.6870    25.5590     2.5890 
  244.3750    -2.0340    69.8970    23.1580    18.9420    23.7300    25.4810     2.5780 
  244.5000    -2.1100    72.0190    23.3670    19.2360    23.5370    25.4220     2.5700 
  244.6250    -2.2370    76.5870    23.3920    19.4090    23.1390    25.3710     2.5650 
  244.7500    -2.3480    80.4450    23.2680    19.4710    21.9610    25.2830     2.5630 
  244.8750    -2.4030    80.8020    23.0420    19.4440    20.2310    25.1290     2.5610 
  245.0000    -2.4160    78.2820    22.7770    19.3680    21.1340    25.0160     2.5610 
  245.1250    -2.4450    75.6130    22.5460    19.2900    22.3600    24.9540     2.5630 
  245.2500    -2.5130    73.6340    22.3840    19.2490    25.3840    24.9090     2.5650 
  245.3750    -2.5980    73.0050    22.3120    19.2670    27.3450    24.8340     2.5650 
  245.5000    -2.6370    72.9390    22.3380    19.3560    28.0570    24.7820     2.5630 
  245.6250    -2.5940    73.6240    22.4740    19.5320    25.7690    24.8110     2.5620 
  245.7500    -2.5640    74.0950    22.6860    19.7730    21.2190    24.9130     2.5630 
  245.8750    -2.5850    74.4960    22.9430    20.0560    19.4400    25.0410     2.5650 
  246.0000    -2.6320    75.4290    23.2090    20.3590    19.7530    25.1540     2.5640 
  246.1250    -2.6800    77.1490    23.4480    20.6570    20.7890    25.2710     2.5550 
  246.2500    -2.7200    78.1910    23.6450    20.9360    21.7790    25.3450     2.5380 
  246.3750    -2.7470    77.5680    23.8040    21.1950    21.7510    25.3920     2.5180 
  246.5000    -2.7620    76.1680    23.9450    21.4420    22.5680    25.4150     2.5010 
  246.6250    -2.7840    75.7860    24.1100    21.7000    24.7380    25.4090     2.4950 
  246.7500    -2.8080    76.2640    24.3310    21.9850    26.0140    25.3600     2.4970 
  246.8750    -2.8570    76.2640    24.6030    22.2990    26.1730    25.2750     2.4940 
  247.0000    -2.9160    76.2640    24.8850    22.6160    26.1900    25.1880     2.4710 
  247.1250    -2.9060    76.2640    25.0620    22.8620    25.1720    25.1480     2.4250 
  247.2500    -2.8560    76.2640    25.0430    22.9690    23.3740    25.0730     2.3800 
  247.3750    -2.8320    76.2640    24.7760    22.8920    21.0570    24.9420     2.3670 
  247.5000    -2.8530    76.2640    24.2760    22.6290    19.4200    24.7270     2.4060 
  247.6250    -2.8770    76.2640    23.6290    22.2250    20.8490    24.5040     2.4900 
  247.7500    -2.8730    76.2640    23.0160    21.8110    22.5940    24.4140     2.5730 
  247.8750    -2.8390    76.2640    22.5770    21.4940    23.2060    24.4860     2.6200 
  248.0000    -2.8080    76.2640    22.4010    21.3500    21.9050    24.4990     2.6160 
  248.1250    -2.7840    76.2640    22.5400    21.4310    20.3370    24.4170     2.5660 
  248.2500    -2.7820    76.2640    22.8460    21.6480    21.6710    24.5090     2.5000 
  248.3750    -2.7600    76.2640    23.1590    21.8860    23.9600    24.7590     2.4370 
  248.5000    -2.7000    76.2640    23.2820    22.0010    24.2590    24.9500     2.3930 
  248.6250    -2.6460    76.2640    22.9520    21.7810    24.1640    25.0980     2.3820 
  248.7500    -2.6230    76.2640    22.1530    21.1890    23.9120    25.2700     2.3990 
  248.8750    -2.6350    76.2640    20.9760    20.2700    23.7380    25.2960     2.4350 
  249.0000    -2.6430    76.2640    19.6520    19.1850    23.7220    25.0740     2.4760 
  249.1250    -2.6550    76.2640    18.5490    18.2090    22.9740    24.9390     2.5100 
  249.2500    -2.6460    76.2640    17.9240    17.5640    20.9160    24.8840     2.5330 
  249.3750    -2.6290    76.2640    17.8970    17.3700    18.4700    24.8300     2.5480 
  249.5000    -2.6320    76.2640    18.4410    17.6450    17.2860    24.7960     2.5550 
  249.6250    -2.6300    76.2640    19.4300    18.3450    19.7140    24.8490     2.5540 
  249.7500    -2.6490    76.2640    20.5270    19.2220    21.5140    24.9290     2.5450 
  249.8750    -2.6590    76.2640    21.5080    20.0960    22.0510    25.0280     2.5320 
  250.0000    -2.6940    76.2640    22.2340    20.8260    21.4540    25.1410     2.5200 
  250.1250    -2.7620    76.2640    22.6400    21.3080    20.5000    25.2200     2.5130 
  250.2500    -2.8480    76.2640    22.8450    21.5970    20.5280    25.2990     2.5140 
  250.3750    -2.9450    76.2640    22.9120    21.7300    21.7300    25.4200     2.5210 
  250.5000    -3.0460    76.2640    22.8630    21.7260    26.0960    25.5610     2.5330 
  250.6250    -3.1630    76.2640    22.6580    21.5620    30.0220    25.5910     2.5450 
  250.7500    -3.2450    76.2640    22.3230    21.2710    30.0710    25.4330     2.5540 
  250.8750    -3.3230    76.2640    21.9030    20.8920    25.6540    25.1080     2.5600 
  251.0000    -3.3920    76.2640    21.4830    20.4960    24.0650    24.8960     2.5620 
  251.1250    -3.4080    76.2640    21.1740    20.1770    24.1850    25.0430     2.5610 
