~V
VERS. 2.00: Ver 2.00
~W
STRT.M 61.0000:
STOP.M 236.0000:
STEP.M 0.1250:
NULL. -999.2500:
UWI. DF5057:
~C
DEPT.M :
GR.API :
RML.OHMM :
RI. :
RXO.OHMM :
CALI.CM :
DEN.GM/CC :
SP.MV :
~A
# ...
   72.2500   100.8000     6.5230     5.8620     5.2590    25.0770     2.2840   -12.2330 
   72.3750    98.9520     6.7540     5.9660     5.5180    25.6060     2.2890   -12.0580 
   72.5000    94.1350     7.0130     6.0580     5.6980    25.9360     2.2840   -11.9010 
   72.6250    93.2920     7.1770     6.0730     5.6330    25.9400     2.2750   -11.7350 
   72.7500    96.6930     7.1320     5.9680     5.6580    25.7990     2.2710   -11.6140 
   72.8750   101.2770     6.8350     5.7280     5.5830    25.6960     2.2790   -11.5460 
   73.0000   103.6740     6.3490     5.3970     5.4940    25.6380     2.2960   -11.5510 
   73.1250   102.9040     5.8860     5.0990     5.3110    25.5630     2.3120   -11.7430 
   73.2500   101.0820     5.7310     4.9940     5.0820    25.4250     2.3150   -12.0900 
   73.3750    99.3050     6.0970     5.2150     5.1380    25.1240     2.3090   -12.5690 
   73.5000    97.1490     7.0780     5.8490     5.8010    24.7720     2.3100   -13.1490 
   73.6250    91.4740     8.6100     6.9370     7.8580    24.7390     2.3330   -13.7760 
   73.7500    82.6930    10.1320     8.1560    11.9550    24.9000     2.3660   -14.4180 
   73.8750    74.7410    11.0000     9.0260    18.2210    24.8800     2.3870   -15.0290 
   74.0000    73.4620    10.7490     9.0950    15.1020    24.6000     2.3810   -15.5320 
   74.1250    79.4980     9.4610     8.3040    10.2470    24.4590     2.3480   -15.7210 
   74.2500    86.1800     8.0410     7.2990     7.6970    24.6380     2.3100   -15.6810 
   74.3750    89.9490     7.0360     6.4810     6.4970    25.0250     2.2820   -15.5760 
   74.5000    91.7110     6.6830     6.0440     6.0180    25.2910     2.2630   -15.5200 
   74.6250    91.4090     7.0400     6.0830     6.3650    25.1250     2.2450   -15.5690 
   74.7500    88.1720     7.7590     6.4290     6.9550    24.7710     2.2250   -15.5950 
   74.8750    84.6950     8.5290     6.8970     7.4150    24.5160     2.2070   -15.5910 
   75.0000    83.3020     9.0240     7.2610     7.6920    24.4330     2.1970   -15.5950 
   75.1250    83.4710     8.9330     7.2700     7.7550    24.4620     2.2010   -15.6560 
   75.2500    83.0380     8.3750     6.9560     7.4620    24.5540     2.2160   -15.7120 
   75.3750    83.7760     7.5900     6.4580     6.7770    24.7660     2.2340   -15.6780 
   75.5000    87.3050     6.8830     5.9720     5.8580    25.1020     2.2450   -15.5550 
   75.6250    89.6450     6.6280     5.7380     5.5570    25.2400     2.2370   -15.3740 
   75.7500    88.5910     6.9210     5.8430     6.0710    25.0080     2.2220   -15.1880 
   75.8750    85.9050     7.7180     6.3030     7.0090    24.6390     2.2240   -14.9850 
   76.0000    83.7090     8.8140     7.0310     8.4660    24.5470     2.2610   -14.7640 
   76.1250    83.1650     9.7670     7.7770    10.4740    24.8270     2.3260   -14.6170 
   76.2500    85.2470    10.1500     8.1860    11.9310    24.9900     2.3810   -14.5700 
   76.3750    89.5290     9.8320     8.0890    10.2720    24.8020     2.3950   -14.6080 
   76.5000    91.4870     9.0470     7.5990     7.6770    24.4670     2.3620   -14.6610 
   76.6250    88.7920     8.2440     7.0090     6.7750    24.2170     2.2980   -14.6730 
   76.7500    85.3310     7.7190     6.5590     6.5310    24.0390     2.2380   -14.6640 
   76.8750    83.0300     7.5370     6.3310     6.5880    23.8960     2.1960   -14.6470 
   77.0000    81.1630     7.6510     6.3260     6.5920    23.8040     2.1780   -14.6500 
   77.1250    81.0060     7.9530     6.5020     6.7710    23.8630     2.1870   -14.6100 
   77.2500    84.9360     8.2950     6.7360     6.8770    24.0900     2.2210   -14.4580 
   77.3750    90.5560     8.6170     6.9600     7.1350    24.3520     2.2710   -14.2250 
   77.5000    94.5680     8.8740     7.1250     7.3090    24.5500     2.3210   -13.9970 
   77.6250    95.7110     8.9960     7.1790     7.6200    24.5880     2.3440   -13.8720 
   77.7500    93.4740     8.9800     7.1400     7.3200    24.4940     2.3380   -13.8740 
   77.8750    89.8720     8.8560     7.0520     7.0430    24.3970     2.3080   -14.0510 
   78.0000    88.7810     8.6840     6.9630     6.8440    24.3050     2.2700   -14.3980 
   78.1250    89.2350     8.5400     6.9120     6.9080    24.1760     2.2380   -14.8750 
   78.2500    85.8670     8.4570     6.9000     7.2730    24.0470     2.2160   -15.4350 
   78.3750    80.5120     8.4260     6.9110     7.4420    23.9750     2.2060   -15.9730 
   78.5000    80.2340     8.4050     6.9200     7.3800    23.9450     2.2060   -16.4370 
   78.6250    84.4070     8.3590     6.9060     7.2490    23.9100     2.2150   -16.7730 
   78.7500    85.6200     8.3080     6.8860     7.0810    23.8800     2.2270   -17.0380 
   78.8750    83.6220     8.2980     6.8850     7.0370    23.8920     2.2360   -17.2260 
   79.0000    82.5090     8.3650     6.9280     7.0860    23.9530     2.2370   -17.3020 
   79.1250    83.8910     8.5110     7.0260     7.1320    24.0110     2.2300   -17.3190 
   79.2500    84.5650     8.6740     7.1450     7.2660    24.0590     2.2180   -17.3250 
   79.3750    83.0180     8.7940     7.2500     7.4230    24.1170     2.2040   -17.3430 
   79.5000    81.1850     8.8270     7.3050     7.4540    24.2120     2.1920   -17.2960 
   79.6250    80.5420     8.7440     7.2830     7.2010    24.3020     2.1850   -17.1230 
   79.7500    80.8900     8.5870     7.2090     6.8010    24.3350     2.1830   -16.8550 
   79.8750    81.6040     8.3980     7.1160     6.6140    24.3220     2.1830   -16.5440 
   80.0000    82.1790     8.2160     7.0380     6.5220    24.2730     2.1860   -16.2760 
   80.1250    84.5450     8.0840     7.0110     6.4880    24.1690     2.1880   -16.0100 
   80.2500    88.3100     8.0200     7.0420     6.5240    24.0720     2.1890   -15.7550 
   80.3750    90.2730     8.0430     7.1330     6.6300    24.0130     2.1880   -15.5650 
   80.5000    87.4800     8.1640     7.2790     6.7090    23.9770     2.1840   -15.4750 
   80.6250    81.4490     8.3940     7.4730     6.8740    23.9200     2.1760   -15.4960 
   80.7500    77.0240     8.6710     7.6760     7.1550    23.8270     2.1680   -15.5380 
   80.8750    75.5630     8.9040     7.8240     7.3410    23.6800     2.1630   -15.4980 
   81.0000    78.5370     8.9710     7.8320     7.3230    23.4970     2.1630   -15.2860 
   81.1250    83.9860     8.7040     7.5780     7.1000    23.3420     2.1710   -14.9210 
   81.2500    87.9110     8.1030     7.0790     6.7250    23.3290     2.1890   -14.4490 
   81.3750    90.3980     7.2510     6.4060     6.1900    23.5870     2.2180   -13.8240 
   81.5000    93.6190     6.3840     5.7250     5.4370    24.0870     2.2540   -13.1030 
   81.6250    96.6570     5.9500     5.3180     5.1650    24.5060     2.2940   -12.3650 
   81.7500    97.7220     6.2190     5.3440     5.1720    24.7240     2.3380   -11.7000 
   81.8750    98.5270     7.3380     5.9160     5.4470    24.8450     2.3900   -11.2420 
   82.0000    99.0870     9.2590     7.0820     7.3070    24.8290     2.4470   -11.0760 
   82.1250    93.5660    11.5320     8.7390    13.8740    24.7170     2.4910   -11.2810 
   82.2500    81.3700    13.1320    10.2090    21.5860    24.3640     2.5010   -11.8030 
   82.3750    69.1600    13.3030    10.7970    16.6600    23.7980     2.4650   -12.5710 
   82.5000    65.1060    12.0890    10.3280    10.0460    23.3240     2.3930   -13.4360 
   82.6250    68.9940    10.3490     9.2920     8.4850    22.9980     2.3100   -14.3290 
   82.7500    72.9080     9.0260     8.3910     8.0540    22.7890     2.2460   -15.1970 
   82.8750    73.9740     8.3840     7.8570     7.7860    22.6720     2.2070   -15.9830 
   83.0000    74.8850     8.3120     7.6930     7.5910    22.6030     2.1890   -16.6260 
   83.1250    75.9480     8.5390     7.7870     7.5830    22.5430     2.1830   -17.1060 
   83.2500    74.2930     8.7660     7.9310     7.5250    22.4670     2.1790   -17.4620 
   83.3750    71.1190     8.9010     8.0370     7.4960    22.3830     2.1790   -17.7500 
