~V
VERS. 2.00: Ver 2.00
~W
STRT.M 62.0000:
STOP.M 250.0000:
STEP.M 0.1250:
NULL. -999.2500:
UWI. DF5059:
~C
DEPT.M :
SP.MV :
GR.API :
RML.OHMM :
RI. :
RXO.OHMM :
CALI.CM :
DEN.GM/CC :
~A
# ...
  219.5000   -21.4900    85.7220    56.7560    48.5310    46.6360    22.5080     2.3090 
  219.6250   -21.3290    76.7430    60.5710    51.6170    57.9400    23.1300     2.3110 
  219.7500   -21.1710    69.8750    63.9750    54.6130    70.5830    23.5340     2.3110 
  219.8750   -20.9680    70.9240    65.9240    56.6470    76.7410    23.6800     2.3090 
  220.0000   -20.6940    77.5590    65.9870    57.2190    75.2030    23.6920     2.3050 
  220.1250   -20.3630    80.6450    64.6560    56.4780    69.5320    23.6590     2.2990 
  220.2500   -20.0250    80.5330    63.5410    55.6440    61.9190    23.6080     2.2930 
  220.3750   -19.6410    83.0850    63.4610    55.5270    56.9620    23.5630     2.2870 
  220.5000   -19.1850    87.5780    64.2850    56.2260    59.0480    23.5430     2.2820 
  220.6250   -18.6730    85.8780    64.7750    56.9080    66.4010    23.5870     2.2770 
  220.7500   -18.1340    79.2830    63.7490    56.4760    73.4730    23.6680     2.2720 
  220.8750   -17.5490    75.5030    60.8940    54.4740    75.2170    23.7290     2.2680 
  221.0000   -16.9060    79.5610    56.9920    51.2200    68.4250    23.7370     2.2690 
  221.1250   -16.2270    90.1810    53.0980    47.6460    56.4900    23.6990     2.2860 
  221.2500   -15.5260    98.2880    49.7710    44.5960    48.4950    23.6740     2.3180 
  221.3750   -14.8200    97.8410    46.6050    42.1460    46.7040    23.6440     2.3600 
  221.5000   -14.1090    88.9570    43.6320    39.8940    47.4730    23.5990     2.3990 
  221.6250   -13.3870    77.2280    40.0610    37.1950    44.9640    23.6060     2.4180 
  221.7500   -12.7280    70.0030    35.7740    33.8810    37.1910    23.6380     2.4160 
  221.8750   -12.1940    70.2030    31.1700    30.1850    30.0010    23.6570     2.4000 
  222.0000   -11.7510    76.2130    26.8420    26.5780    25.6910    23.6610     2.3810 
  222.1250   -11.3440    86.1070    23.5860    23.6410    23.9750    23.6420     2.3630 
  222.2500   -10.9690    90.8660    21.4070    21.4980    22.4620    23.6060     2.3470 
  222.3750   -10.7120    89.0160    20.2770    20.1290    20.5250    23.5710     2.3300 
  222.5000   -10.5890    82.8820    19.9600    19.4380    18.8140    23.5620     2.3150 
  222.6250   -10.5230    77.3310    20.0120    19.4110    18.1680    23.5690     2.3050 
  222.7500   -10.4390    75.2580    20.3990    19.8300    18.2650    23.5710     2.3010 
  222.8750   -10.3540    73.3940    20.9820    20.5300    18.9180    23.5690     2.3010 
  223.0000   -10.3370    73.2760    21.5220    21.2660    19.7870    23.5580     2.3040 
  223.1250   -10.3640    74.7830    21.5780    21.6680    20.4960    23.5510     2.3090 
  223.2500   -10.3880    74.8410    21.2730    21.5400    20.4740    23.5200     2.3160 
  223.3750   -10.3930    70.6960    20.4330    20.8730    19.6000    23.4270     2.3240 
  223.5000   -10.4080    64.1790    19.2150    19.8710    18.2420    23.2650     2.3290 
  223.6250   -10.5010    64.4660    18.5160    18.9460    16.9860    23.2620     2.3290 
  223.7500   -10.6120    69.9080    18.4700    18.4760    16.9520    23.3560     2.3250 
  223.8750   -10.7130    74.7670    19.1890    18.6730    18.4540    23.4430     2.3180 
  224.0000   -10.7850    75.6880    20.7040    19.6060    21.1460    23.4990     2.3080 
  224.1250   -10.8910    72.6340    23.0010    21.3110    24.1750    23.5220     2.2930 
  224.2500   -11.0430    71.2710    25.7570    23.5100    26.9130    23.5370     2.2730 
  224.3750   -11.1720    75.6650    28.7760    26.0220    29.4870    23.5420     2.2510 
  224.5000   -11.2160    83.6050    31.8760    28.6700    32.0440    23.5530     2.2330 
  224.6250   -11.1700    86.3750    34.8060    31.2420    34.9680    23.5870     2.2230 
  224.7500   -11.1510    80.1430    37.2900    33.5020    38.3250    23.6300     2.2210 
  224.8750   -11.1410    72.7750    39.0130    35.1830    41.6830    23.6420     2.2230 
  225.0000   -11.0980    72.4580    39.7230    36.0460    43.9610    23.6210     2.2290 
  225.1250   -10.9800    78.4420    39.2000    35.8460    43.6720    23.5730     2.2360 
  225.2500   -10.8440    83.3450    37.8640    34.8840    41.1880    23.5510     2.2450 
  225.3750   -10.7580    83.8130    36.0820    33.4440    37.2600    23.5460     2.2530 
  225.5000   -10.7240    81.8130    34.1930    31.8300    33.4320    23.5470     2.2590 
  225.6250   -10.6740    78.4800    32.4040    30.2590    31.5930    23.5480     2.2610 
  225.7500   -10.6010    76.4220    30.7240    28.7830    29.2010    23.5470     2.2590 
  225.8750   -10.5640    78.7840    29.1490    27.4130    26.5140    23.5390     2.2550 
  226.0000   -10.5570    84.7670    27.7300    26.1820    25.3270    23.4990     2.2500 
  226.1250   -10.5600    87.9230    26.6280    25.2080    25.2840    23.3740     2.2460 
  226.2500   -10.5440    85.2400    25.9100    24.5400    25.5960    23.1590     2.2420 
  226.3750   -10.5100    78.0960    25.6080    24.2110    26.3860    22.9650     2.2390 
  226.5000   -10.4820    71.1840    25.6830    24.1970    27.4880    23.0670     2.2380 
  226.6250   -10.4610    69.8310    26.0860    24.4600    28.0600    23.3650     2.2430 
  226.7500   -10.4170    70.1770    26.6420    24.8570    27.9870    23.5160     2.2530 
  226.8750   -10.3490    72.0970    27.2120    25.2740    27.7140    23.5710     2.2660 
  227.0000   -10.3150    76.3280    27.6470    25.5870    27.6010    23.6450     2.2790 
  227.1250   -10.2760    80.9420    27.7840    25.6550    28.6970    23.7040     2.2850 
  227.2500   -10.2040    81.0220    27.6770    25.5020    29.5490    23.6960     2.2840 
  227.3750   -10.0950    76.3660    27.5190    25.2580    29.1350    23.6640     2.2750 
  227.5000    -9.9830    70.5150    27.6650    25.1920    28.2960    23.6380     2.2630 
  227.6250    -9.8880    64.7790    28.7050    25.7880    28.6340    23.6130     2.2530 
  227.7500    -9.7840    62.1000    30.7420    27.1970    30.4240    23.5580     2.2500 
  227.8750    -9.6300    61.7830    33.4900    29.3010    34.4070    23.4690     2.2600 
  228.0000    -9.4080    58.9100    36.2390    31.5890    40.2100    23.3280     2.2860 
  228.1250    -9.2320    58.6230    37.6310    32.9770    45.1240    23.2960     2.3260 
  228.2500    -9.1050    65.9940    36.8810    32.6590    47.3000    23.3260     2.3610 
  228.3750    -8.9550    72.1600    33.7850    30.3090    42.8390    23.2810     2.3770 
  228.5000    -8.7340    68.2420    29.0950    26.3230    33.2820    23.1930     2.3670 
  228.6250    -8.5040    64.2590    23.9540    21.7210    27.5710    23.2080     2.3410 
  228.7500    -8.3280    68.1700    19.4300    17.6370    22.7520    23.4040     2.3190 
  228.8750    -8.1740    73.9490    15.7780    14.5190    17.2300    23.6030     2.3110 
  229.0000    -8.0000    77.7210    13.4690    12.4310    11.9410    23.6550     2.3160 
  229.1250    -7.7940    79.5070    12.3320    11.3290     9.9800    23.6120     2.3260 
  229.2500    -7.6150    78.5350    11.8330    10.8150     9.6860    23.5060     2.3350 
  229.3750    -7.5000    77.6130    11.7100    10.6760     9.8410    23.3360     2.3420 
  229.5000    -7.4550    83.2880    11.7340    10.7240     9.7470    23.2570     2.3480 
  229.6250    -7.4070    88.4610    11.7480    10.8000     9.4310    23.3940     2.3530 
  229.7500    -7.3350    81.3600    11.6130    10.8140     9.1720    23.6230     2.3550 
  229.8750    -7.3040    72.2000    11.4210    10.7530     8.9920    23.7240     2.3500 
  230.0000    -7.3430    72.6190    11.2590    10.6400     8.8720    23.7560     2.3370 
  230.1250    -7.3680    82.5790    11.1280    10.4980     9.0510    23.9160     2.3230 
  230.2500    -7.3420    89.0860    10.9910    10.3510     9.4950    24.1370     2.3160 
  230.3750    -7.2880    87.1800    10.8640    10.2090     9.9740    24.2420     2.3250 
  230.5000    -7.2620    79.3500    10.7830    10.0770    10.2320    24.2270     2.3490 
  230.6250    -7.2870    72.1730    10.6950     9.9650    10.4380    24.1430     2.3800 
