~V
VERS. 2.00: Ver 2.00
~W
STRT.M 55.0000:
STOP.M 271.0000:
STEP.M 0.1250:
NULL. -999.2500:
UWI. DF5032:
~C
DEPT.M :
SP.MV :
GR.API :
CALI.CM :
RXO.OHMM :
RI. :
RML.OHMM :
DEN.GM/CC :
~A
# ...
   66.2500   -28.4230    69.5790    21.6210    10.1820    10.3670    10.7060     2.1920 
   66.3750   -27.6260    69.9050    21.7430    12.2240    11.2330    11.5460     2.2630 
   66.5000   -26.8190    70.1220    22.0380    16.7450    11.8720    12.1650     2.3450 
   66.6250   -26.0280    71.6290    22.4340    22.0680    11.9460    12.2370     2.4030 
   66.7500   -25.2790    74.8660    22.5990    23.2700    11.4720    11.7780     2.4140 
   66.8750   -24.5970    79.6830    22.4570    19.1210    10.6010    10.9330     2.3870 
   67.0000   -23.9930    85.4530    22.1570    13.2040     9.5870     9.9490     2.3490 
   67.1250   -23.4820    89.6480    22.0100     9.7990     8.6820     9.0720     2.3180 
   67.2500   -23.0400    90.4860    22.0220     8.3360     7.9840     8.3950     2.2840 
   67.3750   -22.6560    88.6330    22.0350     8.0450     7.4940     7.9190     2.2370 
   67.5000   -22.3140    87.8410    21.9840     8.2450     7.1590     7.5940     2.1960 
   67.6250   -22.0050    91.9790    22.0150     8.1490     6.9050     7.3480     2.1980 
   67.7500   -21.7130    98.7160    22.2520     7.4620     6.6620     7.1120     2.2390 
   67.8750   -21.4310   104.2550    22.7170     6.4490     6.4220     6.8800     2.2870 
   68.0000   -21.1640   106.8830    23.3190     5.6340     6.2150     6.6780     2.3110 
   68.1250   -20.9330   107.6140    23.6980     5.4320     6.0860     6.5540     2.2990 
   68.2500   -20.7540   108.3270    23.7480     5.5910     6.0310     6.5000     2.2710 
   68.3750   -20.6430   108.9840    23.5200     5.9380     6.0260     6.4950     2.2430 
   68.5000   -20.6080   109.1810    23.1810     6.2990     6.0400     6.5080     2.2300 
   68.6250   -20.6680   108.5330    23.0680     6.3610     6.0280     6.4970     2.2360 
   68.7500   -20.8060   107.2490    23.2360     6.2010     5.9780     6.4490     2.2500 
   68.8750   -21.0230   106.0480    23.4760     6.0970     5.9170     6.3890     2.2620 
   69.0000   -21.3180   106.2250    23.5500     6.2240     5.8870     6.3610     2.2660 
   69.1250   -21.6980   108.0030    23.4250     6.5220     5.9340     6.4060     2.2690 
   69.2500   -22.1450   108.6600    23.1980     6.8440     6.0670     6.5350     2.2760 
   69.3750   -22.6520   106.3080    22.9710     7.1030     6.3000     6.7610     2.2940 
   69.5000   -23.2100   100.9280    22.7510     7.5870     6.6330     7.0840     2.3170 
   69.6250   -23.8150    93.7180    22.5500     8.9400     7.0730     7.5110     2.3260 
   69.7500   -24.4440    87.3800    22.4640    10.5160     7.6040     8.0250     2.3170 
   69.8750   -25.0760    84.1580    22.4570    11.1170     8.2020     8.6060     2.3030 
   70.0000   -25.6880    83.7860    22.4860    10.5040     8.8190     9.2040     2.2970 
   70.1250   -26.2400    83.0150    22.4070     9.8810     9.3680     9.7370     2.3010 
   70.2500   -26.7130    80.5650    22.1550    10.0030     9.7690    10.1250     2.3060 
   70.3750   -27.0890    78.6170    21.8230    10.6800     9.9450    10.2960     2.3070 
   70.5000   -27.3570    79.1080    21.5710    11.3780     9.8780    10.2320     2.3010 
   70.6250   -27.4890    80.9250    21.4610    11.2500     9.6100     9.9720     2.2790 
   70.7500   -27.5050    80.8290    21.3920    10.4890     9.2720     9.6440     2.2470 
   70.8750   -27.4110    78.3360    21.3150     9.6810     8.9590     9.3400     2.2130 
   71.0000   -27.2210    75.4550    21.2970     9.1550     8.7470     9.1350     2.1800 
   71.1250   -26.9530    75.1330    21.2850     8.8600     8.6980     9.0870     2.1510 
   71.2500   -26.6560    77.2520    21.3150     8.6450     8.7650     9.1520     2.1300 
   71.3750   -26.3640    79.7000    21.3300     8.5260     8.8790     9.2620     2.1230 
   71.5000   -26.1010    80.1120    21.3460     8.5400     8.9490     9.3310     2.1330 
   71.6250   -25.8930    78.6500    21.4080     8.7440     8.8620     9.2460     2.1560 
   71.7500   -25.7420    79.3540    21.5540     9.0490     8.6020     8.9940     2.1760 
   71.8750   -25.6550    84.1000    21.7700     9.2880     8.1960     8.6000     2.1870 
   72.0000   -25.6380    90.2070    22.0320     9.2840     7.7130     8.1320     2.1920 
   72.1250   -25.7030    93.5570    22.3320     8.8810     7.2560     7.6890     2.1960 
   72.2500   -25.8260    94.5140    22.5910     8.2700     6.9400     7.3820     2.2010 
   72.3750   -25.9900    94.2590    22.6980     7.7630     6.8590     7.3040     2.2040 
   72.5000   -26.1740    92.4780    22.5900     7.6260     7.0720     7.5100     2.2040 
   72.6250   -26.3560    88.4790    22.3080     7.9930     7.6400     8.0610     2.2050 
   72.7500   -26.5170    83.8610    22.1050     8.9070     8.4490     8.8450     2.2180 
   72.8750   -26.6420    79.7710    22.0900    10.5840     9.3630     9.7320     2.2570 
   73.0000   -26.7200    77.0280    22.2700    13.0970    10.1750    10.5190     2.3240 
   73.1250   -26.7370    76.8390    22.5500    15.7130    10.5780    10.9110     2.3810 
   73.2500   -26.7080    78.4220    22.7760    16.6270    10.5080    10.8430     2.3840 
   73.3750   -26.6480    80.9330    22.7470    15.1010    10.0210    10.3710     2.3330 
   73.5000   -26.5790    84.1510    22.5220    12.2100     9.3070     9.6780     2.2710 
   73.6250   -26.5340    87.9330    22.4140     9.9170     8.6230     9.0140     2.2400 
   73.7500   -26.5320    90.4840    22.4280     8.6100     8.1350     8.5410     2.2340 
   73.8750   -26.5880    90.4940    22.3980     8.1750     7.9050     8.3180     2.2340 
   74.0000   -26.7030    89.0100    22.1860     8.2340     7.9290     8.3410     2.2290 
   74.1250   -26.8800    87.9660    21.8350     8.3860     8.1570     8.5620     2.2190 
   74.2500   -27.0960    87.3530    21.5130     8.5490     8.4540     8.8500     2.2150 
   74.3750   -27.3330    86.5640    21.2460     8.8320     8.7300     9.1180     2.2190 
   74.5000   -27.5740    85.9060    21.0920     9.2250     8.9290     9.3110     2.2250 
   74.6250   -27.7930    85.3620    21.0330     9.5700     9.0210     9.4000     2.2200 
   74.7500   -27.9790    83.8040    21.0280     9.7390     9.0380     9.4170     2.2030 
   74.8750   -28.1240    81.5890    21.0600     9.7770     9.0040     9.3840     2.1820 
   75.0000   -28.2250    80.7520    21.1200     9.7930     8.9380     9.3200     2.1680 
   75.1250   -28.2720    82.5060    21.1760     9.8630     8.8390     9.2240     2.1730 
   75.2500   -28.2750    84.2700    21.2390     9.9180     8.7200     9.1080     2.1890 
   75.3750   -28.2400    84.1340    21.2820     9.9060     8.5780     8.9710     2.2010 
   75.5000   -28.1770    82.2260    21.3420     9.8500     8.4220     8.8190     2.1970 
   75.6250   -28.1000    80.3410    21.4290     9.7920     8.2710     8.6730     2.1800 
   75.7500   -28.0230    79.7170    21.5300     9.7380     8.1560     8.5610     2.1680 
   75.8750   -27.9550    80.5590    21.5930     9.6400     8.1030     8.5100     2.1670 
   76.0000   -27.9010    82.3760    21.5940     9.5450     8.1280     8.5340     2.1720 
   76.1250   -27.8630    83.1770    21.5860     9.6110     8.2360     8.6390     2.1730 
   76.2500   -27.8380    82.0500    21.5930     9.7610     8.4040     8.8020     2.1690 
   76.3750   -27.8240    80.1220    21.6120     9.8580     8.6110     9.0020     2.1590 
   76.5000   -27.8140    78.7650    21.6440     9.8960     8.8290     9.2140     2.1440 
   76.6250   -27.7980    77.1990    21.6640     9.9350     9.0110     9.3910     2.1300 
   76.7500   -27.7660    74.2100    21.6500     9.8940     9.1250     9.5010     2.1220 
   76.8750   -27.7100    70.7540    21.5930     9.7210     9.1530     9.5280     2.1210 
   77.0000   -27.6300    68.7560    21.4900     9.4800     9.0970     9.4740     2.1240 
   77.1250   -27.5220    68.8140    21.4200     9.3040     8.9710     9.3510     2.1310 
   77.2500   -27.3960    69.6390    21.3800     9.1990     8.8180     9.2040     2.1400 
   77.3750   -27.2550    71.0780    21.3590     9.1690     8.6770     9.0660     2.1460 
