~V
VERS. 2.00: Ver 2.00
~W
STRT.M 59.0000:
STOP.M 277.0000:
STEP.M 0.1250:
NULL. -999.2500:
UWI. DF5027:
~C
DEPT.M :
GR.API :
RML.OHMM :
RI. :
RXO.OHMM :
CALI.CM :
DEN.GM/CC :
SP.MV :
~A
# ...
  171.5000    71.7830    79.4430    74.2930    73.8930    23.2550     2.2440   -27.6040 
  171.6250    74.0210    76.0160    69.5970    41.6080    23.3070     2.2710   -27.6450 
  171.7500    71.2720    79.3080    71.6270    32.4010    23.4140     2.2870   -27.7930 
  171.8750    68.0090    88.8930    80.0180    42.4620    23.5120     2.2880   -27.9230 
  172.0000    65.0890   103.6300    93.4550    68.0690    23.5630     2.2730   -28.1830 
  172.1250    61.2750   121.0700   109.4220   100.9880    23.5690     2.2520   -28.3590 
  172.2500    58.5810   136.6970   123.8020   128.6290    23.5510     2.2340   -28.5830 
  172.3750    58.8450   146.7800   133.3340   138.9930    23.4930     2.2230   -28.7530 
  172.5000    60.8340   149.0220   135.9500   142.3320    23.4040     2.2180   -28.9530 
  172.6250    62.2010   143.2660   131.0670   139.6620    23.3250     2.2160   -29.1590 
  172.7500    63.8940   134.9410   123.0460   135.1940    23.2780     2.2160   -29.2640 
  172.8750    65.3510   128.2450   115.6030   116.9040    23.2800     2.2200   -29.3650 
  173.0000    65.4580   125.8220   111.5330    84.1750    23.3780     2.2280   -29.4160 
  173.1250    65.8500   130.0290   113.3480    67.5750    23.5870     2.2370   -29.5160 
  173.2500    67.5030   140.5490   120.8020    72.1880    23.7850     2.2450   -29.5050 
  173.3750    68.8880   157.3940   133.6420    95.0880    23.9110     2.2470   -29.5770 
  173.5000    69.5690   180.1480   151.2450   127.8410    23.9860     2.2460   -29.5320 
  173.6250    68.1540   208.9490   173.5620   164.4830    24.0140     2.2400   -29.4550 
  173.7500    65.8930   242.2130   199.4150   201.0870    24.0390     2.2330   -29.3610 
  173.8750    63.6730   279.3770   228.4550   237.6830    24.0660     2.2260   -29.1860 
  174.0000    62.3140   319.4660   260.0040   289.1890    24.0720     2.2180   -29.0380 
  174.1250    59.9950   359.5270   291.8740   355.1390    24.0600     2.2080   -28.7280 
  174.2500    56.9550   393.4650   319.4670   402.1390    24.1200     2.1970   -28.4800 
  174.3750    56.3710   413.4300   337.2220   415.9640    24.2890     2.1820   -28.1900 
  174.5000    56.7380   412.2720   340.0570   415.1020    24.5490     2.1620   -27.8840 
  174.6250    55.1440   384.2990   322.9170   406.7740    24.8310     2.1400   -27.6560 
  174.7500    52.5000   340.0430   291.6720   388.8830    25.0380     2.1250   -27.3500 
  174.8750    51.1060   289.0960   252.4690   346.2710    25.0600     2.1310   -27.1050 
  175.0000    53.0090   240.4510   212.1190   269.4890    24.9280     2.1610   -26.7800 
  175.1250    57.4460   198.2130   176.6370   196.0650    24.8750     2.2100   -26.5980 
  175.2500    62.0470   163.4030   147.7620   160.9600    24.9090     2.2540   -26.4200 
  175.3750    63.7450   134.6670   125.4120   138.1600    24.9610     2.2790   -26.2040 
  175.5000    61.5080   111.1820   108.4340   134.1260    24.9940     2.2820   -26.0590 
  175.6250    58.1240    99.2770    96.2140   115.7020    25.0260     2.2720   -25.8260 
  175.7500    58.3040    90.6970    87.3420   117.9670    25.0370     2.2630   -25.7420 
  175.8750    63.2160    85.0110    81.3950    82.9370    24.9980     2.2590   -25.6260 
  176.0000    68.4400    81.8100    77.9270    56.8910    24.9100     2.2600   -25.5900 
  176.1250    69.8650    81.0600    76.8750    54.1090    24.8390     2.2630   -25.5250 
  176.2500    69.4090    81.9670    77.4320    60.7450    24.8480     2.2660   -25.5250 
  176.3750    68.3580    84.0920    79.1160    67.9480    24.8200     2.2690   -25.5210 
  176.5000    67.1720    87.0180    81.4710    70.4410    24.6350     2.2710   -25.5590 
  176.6250    66.2990    90.3450    84.0520    79.9430    24.4820     2.2730   -25.7330 
  176.7500    66.5340    93.6180    86.4280    91.1450    24.4190     2.2750   -25.8090 
  176.8750    67.5950    96.6640    88.4430    97.2930    24.4100     2.2760   -25.9720 
  177.0000    70.5440    99.5230    90.1560    95.3280    24.4080     2.2740   -26.0660 
  177.1250    74.0540   102.2980    91.6550    90.0690    24.3690     2.2690   -26.2400 
  177.2500    74.1530   105.0210    93.0420    88.6040    24.2780     2.2630   -26.3310 
  177.3750    70.5100   107.5410    94.2690    91.3090    24.1920     2.2580   -26.4000 
  177.5000    66.7450   109.5590    95.1440    95.6220    24.1970     2.2560   -26.4990 
  177.6250    67.8100   110.5580    95.2890    98.3900    24.2810     2.2550   -26.4940 
  177.7500    70.7140   110.5800    94.6970   102.4980    24.4670     2.2520   -26.5050 
  177.8750    71.6880   109.8220    93.4900   104.4400    24.7360     2.2460   -26.4650 
  178.0000    69.6160   108.6770    91.9470   104.9180    24.9770     2.2380   -26.4320 
  178.1250    66.3670   107.7630    90.5600   104.9280    25.1070     2.2290   -26.3650 
  178.2500    65.6010   107.4840    89.6970   100.7870    25.1440     2.2250   -26.2490 
  178.3750    67.3830   107.8720    89.4130    90.0900    25.1480     2.2260   -26.1740 
  178.5000    70.1100   108.6660    89.5250    84.7330    25.1510     2.2330   -25.9620 
  178.6250    71.2460   109.3670    89.6710    95.9090    25.1790     2.2430   -25.7670 
  178.7500    69.1900   109.4770    89.4450   106.1400    25.2700     2.2540   -25.5320 
  178.8750    66.4650   108.8200    88.6620   107.0630    25.4460     2.2610   -25.3150 
  179.0000    65.4150   107.6550    87.4620   104.8740    25.6360     2.2620   -25.0280 
  179.1250    65.6430   106.5510    86.2500    96.1180    25.5790     2.2590   -24.6760 
  179.2500    66.3910   106.0850    85.4800    88.2530    25.3080     2.2550   -24.3780 
  179.3750    68.7940   106.6740    85.5140    88.2240    25.1270     2.2520   -24.0760 
  179.5000    71.9460   108.4490    86.5280    90.2460    25.1100     2.2510   -23.8190 
  179.6250    71.8010   111.2510    88.4750    95.4900    25.1760     2.2470   -23.4560 
  179.7500    68.5310   114.3650    90.8120    99.8920    25.2110     2.2430   -23.2150 
  179.8750    66.0440   117.2840    93.1760   109.4180    25.1920     2.2390   -22.9240 
  180.0000    65.4220   119.5340    95.2170   116.4260    25.1390     2.2420   -22.6660 
  180.1250    67.2330   120.5690    96.5090   116.4250    25.0960     2.2520   -22.4190 
  180.2500    72.0040   120.3590    96.9380   119.2500    25.1080     2.2670   -22.1470 
  180.3750    75.5280   118.7550    96.3330   125.7510    25.1300     2.2810   -21.9210 
  180.5000    73.9700   115.5170    94.4760   130.9290    25.1220     2.2870   -21.6220 
  180.6250    69.5890   109.9450    90.7820   132.9550    25.0810     2.2830   -21.4270 
  180.7500    67.9420   102.0920    85.2360   132.0180    25.0720     2.2730   -21.1920 
  180.8750    68.1360    92.0510    77.8220   123.7260    25.0820     2.2620   -20.9070 
  181.0000    66.3260    80.3660    68.8700   105.3080    25.0580     2.2560   -20.6820 
  181.1250    63.6900    68.0190    59.0370    84.9760    25.0270     2.2610   -20.4320 
  181.2500    63.1340    56.4200    49.4930    68.7790    25.0180     2.2750   -20.2920 
  181.3750    64.7140    46.5980    41.1480    54.2250    25.0380     2.2910   -20.1240 
  181.5000    66.9630    39.1030    34.5570    42.5240    25.0700     2.3010   -20.0170 
  181.6250    69.3200    34.4820    30.2690    33.6160    25.1170     2.2950   -19.9480 
  181.7500    72.4640    32.1330    27.8810    28.1190    25.1600     2.2770   -19.8400 
  181.8750    77.1450    31.7200    27.1760    25.3700    25.1310     2.2590   -19.8460 
  182.0000    81.8470    32.7810    27.8030    29.3980    25.0680     2.2500   -19.8640 
  182.1250    83.2430    34.8240    29.4190    35.1500    25.0360     2.2570   -19.9970 
  182.2500    81.0070    37.0050    31.3160    39.3570    25.0270     2.2730   -20.0290 
  182.3750    77.6360    38.7290    32.9680    39.2840    25.0250     2.2870   -20.1160 
  182.5000    76.5770    39.5950    33.9660    36.2470    25.0250     2.2950   -20.2610 
  182.6250    77.3790    39.3670    34.0040    33.6960    25.0230     2.2970   -20.4430 
