~V
VERS. 2.00: Ver 2.00
~W
STRT.M 55.0000:
STOP.M 274.0000:
STEP.M 0.1250:
NULL. -999.2500:
UWI. DF5018:
~C
DEPT.M :
SP.MV :
GR.API :
CALI.CM :
RXO.OHMM :
RI. :
RML.OHMM :
DEN.GM/CC :
~A
# ...
  100.0000   -19.0240   108.0240    24.7920     5.5040     4.3900     6.5310     2.3680 
  100.1250   -18.4000   105.1770    24.8030     5.3590     4.0920     6.1840     2.3680 
  100.2500   -17.9080   101.4360    24.8030     5.1210     3.9360     6.0460     2.3590 
  100.3750   -17.5250   100.0590    24.8030     4.9600     3.8890     6.0560     2.3650 
  100.5000   -17.3650   101.0380    24.8020     5.0550     3.9190     6.1600     2.3860 
  100.6250   -17.2960    98.1790    24.7910     5.3120     4.0180     6.3370     2.3980 
  100.7500   -17.4440    90.5450    24.7680     5.5980     4.1720     6.5810     2.3830 
  100.8750   -17.6700    83.3230    24.7460     5.8950     4.3750     6.8870     2.3490 
  101.0000   -17.9500    80.2120    24.7380     6.1590     4.6100     7.2270     2.3110 
  101.1250   -18.3250    80.3510    24.7250     6.3600     4.8490     7.5540     2.2850 
  101.2500   -18.7100    81.8750    24.6590     6.6060     5.0750     7.8450     2.2690 
  101.3750   -19.1400    83.0800    24.5150     6.9250     5.2830     8.0800     2.2600 
  101.5000   -19.5060    82.5840    24.3710     7.2650     5.4760     8.2430     2.2620 
  101.6250   -19.8950    81.0740    24.2840     7.5060     5.6660     8.3620     2.2810 
  101.7500   -20.1280    80.1780    24.2070     7.8410     5.9000     8.5820     2.3090 
  101.8750   -20.2790    80.0170    24.1440     8.2140     6.2290     9.0470     2.3280 
  102.0000   -20.3600    79.8100    24.1180     8.3780     6.6640     9.8130     2.3310 
  102.1250   -20.2330    78.0850    24.1000     8.6550     7.1420    10.7670     2.3330 
  102.2500   -20.0360    77.2580    24.0310     9.5240     7.4790    11.4960     2.3540 
  102.3750   -19.7120    79.8430    23.9080    10.3370     7.4690    11.5410     2.3860 
  102.5000   -19.3840    83.6660    23.8220     9.8660     7.0100    10.6820     2.4010 
  102.6250   -18.9510    85.5620    23.8720     8.1950     6.1850     9.1730     2.3740 
  102.7500   -18.5630    89.8250    24.0270     6.8050     5.3310     7.7170     2.3320 
  102.8750   -18.2030    97.4460    24.1760     6.0890     4.6600     6.6850     2.3060 
  103.0000   -17.8830   101.3910    24.2370     5.8260     4.2930     6.2190     2.3100 
  103.1250   -17.6620    96.9330    24.2220     5.8910     4.2950     6.3660     2.3360 
  103.2500   -17.5140    90.7320    24.1860     6.3470     4.5260     6.8630     2.3690 
  103.3750   -17.5030    86.3040    24.1550     7.0990     4.8670     7.4800     2.3950 
  103.5000   -17.4560    83.0610    24.1280     7.4710     5.1850     7.9660     2.4010 
  103.6250   -17.5380    82.1790    24.1010     7.3540     5.3450     8.0900     2.3790 
  103.7500   -17.6180    84.4480    24.0700     7.0050     5.3460     7.9230     2.3480 
  103.8750   -17.7150    87.1620    24.0510     6.7050     5.2410     7.6200     2.3230 
  104.0000   -17.8220    87.2840    24.0430     6.4630     5.1080     7.3360     2.3090 
  104.1250   -17.9290    84.2570    24.0420     6.3770     5.0140     7.1640     2.3020 
  104.2500   -18.0940    83.1260    24.0300     6.5060     4.9660     7.0590     2.3010 
  104.3750   -18.1760    85.4930    24.0110     6.6070     4.9420     6.9630     2.3040 
  104.5000   -18.3340    88.1540    23.9970     6.6450     4.9170     6.8700     2.3120 
  104.6250   -18.5050    86.8160    23.9870     6.7190     4.9010     6.8650     2.3230 
  104.7500   -18.7430    84.1970    23.9580     6.8130     4.9350     7.0050     2.3320 
  104.8750   -19.0410    81.7780    23.9180     7.1130     5.0330     7.2640     2.3280 
  105.0000   -19.3590    78.4220    23.8770     7.6970     5.1540     7.5260     2.3060 
  105.1250   -19.7950    75.6160    23.8370     8.1210     5.2060     7.6090     2.2760 
  105.2500   -20.1950    76.9930    23.8240     7.9710     5.1670     7.4930     2.2630 
  105.3750   -20.7130    80.5820    23.8220     7.1910     5.0840     7.2890     2.2710 
  105.5000   -21.2500    81.5680    23.8220     6.4150     5.0430     7.1770     2.2920 
  105.6250   -21.8470    77.9610    23.8220     6.4320     5.1540     7.3400     2.3040 
  105.7500   -22.4760    74.0600    23.8220     7.2520     5.4170     7.7630     2.3010 
  105.8750   -23.0920    71.4610    23.8220     8.2930     5.7890     8.3700     2.2870 
  106.0000   -23.7210    70.5960    23.8230     8.8230     6.2040     9.0430     2.2680 
  106.1250   -24.2440    72.1860    23.8340     8.8170     6.5950     9.6430     2.2510 
  106.2500   -24.7940    74.4210    23.8570     9.0090     6.9360    10.1260     2.2380 
  106.3750   -25.2350    75.0680    23.8780     9.7280     7.2330    10.5220     2.2330 
  106.5000   -25.6670    73.1770    23.8870    10.5240     7.5000    10.8780     2.2340 
  106.6250   -26.0010    70.7510    23.8870    10.5740     7.7310    11.1900     2.2290 
  106.7500   -26.2800    67.1690    23.8870    10.3390     7.9020    11.4110     2.2180 
  106.8750   -26.5080    63.2990    23.8860    10.2070     7.9880    11.4950     2.2050 
  107.0000   -26.7220    60.7380    23.8870    10.2050     7.9880    11.4400     2.1940 
  107.1250   -26.9600    59.4620    23.9040    10.1610     7.9100    11.2850     2.1840 
  107.2500   -27.0880    60.5680    23.9340    10.0580     7.7970    11.1150     2.1730 
  107.3750   -27.2710    64.4280    23.9660    10.0250     7.6830    10.9780     2.1650 
  107.5000   -27.3810    68.3610    23.9820    10.1150     7.5950    10.9000     2.1640 
  107.6250   -27.4430    67.9680    23.9840    10.2980     7.5570    10.8850     2.1670 
  107.7500   -27.4630    65.9130    23.9840    10.3750     7.5480    10.8800     2.1740 
  107.8750   -27.4330    66.7380    23.9840    10.3100     7.5470    10.8280     2.1830 
  108.0000   -27.3930    70.3210    23.9850    10.1950     7.5340    10.7090     2.1910 
  108.1250   -27.2500    72.8970    23.9880    10.1570     7.5100    10.5620     2.1940 
  108.2500   -27.1830    73.0650    23.9910    10.1560     7.4940    10.4630     2.1940 
  108.3750   -27.0610    70.4570    23.9920    10.1310     7.5040    10.4530     2.1970 
  108.5000   -26.9540    66.6450    23.9920    10.0950     7.5410    10.5280     2.2060 
  108.6250   -26.9030    64.5250    23.9920    10.1180     7.6020    10.6450     2.2090 
  108.7500   -26.8470    63.8960    23.9920    10.2470     7.6770    10.7460     2.2030 
  108.8750   -26.8460    64.0570    23.9920    10.3710     7.7700    10.8210     2.1940 
  109.0000   -26.8010    65.7500    23.9900    10.4140     7.8850    10.8960     2.1930 
  109.1250   -26.8500    69.6060    23.9860    10.4540     8.0190    10.9890     2.2050 
  109.2500   -26.8320    72.9540    23.9820    10.5770     8.1450    11.0740     2.2200 
  109.3750   -26.8320    72.8760    23.9750    10.6830     8.2260    11.1060     2.2260 
  109.5000   -26.7830    70.8640    23.9730    10.6600     8.2350    11.0430     2.2170 
  109.6250   -26.6700    71.6730    23.9760    10.4950     8.1820    10.8900     2.1950 
  109.7500   -26.5150    73.4020    23.9800    10.2810     8.1310    10.7390     2.1770 
  109.8750   -26.2860    72.7900    23.9800    10.0740     8.1090    10.6610     2.1700 
  110.0000   -26.0140    69.7630    23.9770     9.9100     8.1000    10.6520     2.1710 
  110.1250   -25.6300    68.0540    23.9770     9.7880     8.0360    10.5940     2.1740 
  110.2500   -25.2150    68.3670    23.9810     9.6830     7.8370    10.3180     2.1820 
  110.3750   -24.6680    69.0920    23.9880     9.4710     7.4320     9.7010     2.1990 
  110.5000   -24.1230    70.1990    24.0170     8.9890     6.8370     8.7760     2.2250 
  110.6250   -23.4830    74.0570    24.0930     8.1500     6.1910     7.7980     2.2540 
  110.7500   -22.8910    80.1310    24.1540     7.2320     5.6790     7.0730     2.2820 
  110.8750   -22.3360    84.6720    24.1750     6.4610     5.4070     6.7430     2.3020 
  111.0000   -21.7990    83.8060    24.1760     6.2260     5.4020     6.8070     2.3030 
  111.1250   -21.4070    80.4630    24.1730     7.1610     5.6040     7.1370     2.2860 
