~V
VERS. 2.00: Ver 2.00
~W
STRT.M 60.0000:
STOP.M 277.0000:
STEP.M 0.1250:
NULL. -999.2500:
UWI. DF5010:
~C
DEPT.M :
GR.API :
CALI.CM :
RXO.OHMM :
RI. :
RML.OHMM :
SP.MV :
DEN.GM/CC :
~A
# ...
  183.7500    70.9750    24.2590    44.9260    79.2410    87.3640   -52.6280     2.2810 
  183.8750    66.8920    24.2590    51.4880    84.3560    94.6990   -52.5060     2.2690 
  184.0000    66.9480    24.2590    72.3020    91.1460   104.2620   -52.3690     2.2590 
  184.1250    67.6420    24.2590    88.3950    99.1380   115.4760   -52.1350     2.2480 
  184.2500    67.4810    24.2590    88.1290   106.5860   126.1140   -51.8590     2.2340 
  184.3750    68.1820    24.2590    79.5210   111.7410   133.8890   -51.5330     2.2190 
  184.5000    69.1640    24.2590    75.1410   113.3680   137.1350   -51.1970     2.2140 
  184.6250    67.3870    24.2590    68.8320   111.0340   135.2760   -50.8390     2.2240 
  184.7500    65.1200    24.2590    62.7180   106.8420   131.1020   -50.5350     2.2380 
  184.8750    66.2640    24.2590    56.1300   102.5880   126.9840   -50.1270     2.2430 
  185.0000    69.8770    24.2590    56.3860    99.8050   124.9020   -49.6540     2.2340 
  185.1250    72.1390    24.2590    63.3710    99.9840   126.7090   -49.2710     2.2230 
  185.2500    73.8380    24.2590    67.7070   102.9960   132.0790   -48.8790     2.2210 
  185.3750    75.5860    24.2590    63.9460   108.4050   140.2710   -48.4830     2.2260 
  185.5000    77.1100    24.2590    57.5400   115.0750   149.6360   -48.0800     2.2310 
  185.6250    76.5340    24.2590    55.7310   120.9900   157.3370   -47.7170     2.2250 
  185.7500    75.3420    24.2590    58.3880   124.8400   161.8410   -47.3450     2.2140 
  185.8750    74.2880    24.2600    66.4800   126.7380   163.5550   -46.9500     2.2040 
  186.0000    73.8780    24.2510    73.1500   127.9120   164.3960   -46.6590     2.1980 
  186.1250    74.2750    24.1860    68.4590   130.3840   167.2710   -46.3840     2.1990 
  186.2500    73.5450    24.0630    55.9700   135.3830   173.6520   -46.0550     2.2020 
  186.3750    70.1290    23.9320    47.5600   142.5430   182.5750   -45.7580     2.2040 
  186.5000    66.2070    23.8520    44.8650   148.2670   188.4350   -45.4510     2.2020 
  186.6250    65.1390    23.8430    44.2340   143.3740   178.1910   -45.1870     2.2010 
  186.7500    65.9910    23.8740    44.2630   124.8370   150.0170   -44.9810     2.2090 
  186.8750    65.8010    23.9240    42.9470    97.1580   112.8440   -44.7710     2.2280 
  187.0000    64.8430    23.9690    37.3290    69.3050    78.7510   -44.6460     2.2610 
  187.1250    68.5370    23.9960    27.5780    49.0810    55.4710   -44.4460     2.3060 
  187.2500    75.7460    24.0180    20.7090    36.1790    40.7560   -44.2950     2.3500 
  187.3750    81.5150    24.0400    19.5670    28.6360    32.0410   -44.2400     2.3790 
  187.5000    83.5150    24.0500    18.3030    24.4210    27.1100   -44.2250     2.3830 
  187.6250    85.1200    24.0470    15.5400    22.4430    24.7580   -44.2330     2.3580 
  187.7500    88.2560    24.0490    14.3270    21.6540    23.7070   -44.2190     2.3250 
  187.8750    89.6220    24.1020    15.4520    21.7400    23.5610   -44.2230     2.3040 
  188.0000    88.0750    24.2340    17.5010    22.6180    24.2580   -44.2560     2.2980 
  188.1250    85.2850    24.4430    18.8640    24.5590    26.1240   -44.3420     2.2940 
  188.2500    84.9450    24.6750    20.3700    27.5380    29.0280   -44.4960     2.2790 
  188.3750    86.8000    24.8860    27.5260    31.2950    32.4940   -44.6280     2.2570 
  188.5000    87.5500    25.0290    39.8030    34.8510    35.3840   -44.6520     2.2400 
  188.6250    85.0410    25.0710    43.8340    36.0000    35.6490   -44.8140     2.2440 
  188.7500    84.3210    25.0680    39.1470    33.9220    32.9080   -44.9450     2.2640 
  188.8750    88.1810    25.0650    31.3650    29.4500    28.1150   -45.1310     2.2930 
  189.0000    91.9530    25.0650    22.2830    24.4380    23.0410   -45.4020     2.3220 
  189.1250    89.3640    25.0670    16.2530    20.6330    19.4230   -45.5870     2.3400 
  189.2500    84.6580    25.0680    13.4840    18.3190    17.5060   -45.8810     2.3480 
  189.3750    83.0160    25.0680    13.1780    17.2940    17.0230   -46.1430     2.3470 
  189.5000    84.3160    25.0680    14.2490    17.1730    17.4680   -46.3970     2.3400 
  189.6250    84.5490    25.0680    17.4030    17.4910    18.2160   -46.7240     2.3340 
  189.7500    84.3050    25.0680    21.6070    17.7100    18.6890   -47.1190     2.3330 
  189.8750    84.9960    25.0680    22.3500    17.7050    18.8310   -47.4500     2.3380 
  190.0000    84.4520    25.0670    18.2710    17.7510    19.0940   -47.7450     2.3470 
  190.1250    81.2860    25.0680    14.6860    18.6380    20.6890   -48.1150     2.3530 
  190.2500    78.2840    25.0670    14.1140    21.1870    24.7470   -48.5250     2.3460 
  190.3750    77.3230    25.0660    28.9600    26.5150    32.5420   -48.9770     2.3250 
  190.5000    75.7660    25.0640    61.7500    35.8960    45.2130   -49.4340     2.2980 
  190.6250    71.3260    25.0630    98.8770    51.0040    64.0310   -49.8570     2.2710 
  190.7500    67.8340    25.0630   120.6180    69.6380    86.2870   -50.2880     2.2460 
  190.8750    67.1350    25.0620   130.5100    87.9050   107.9170   -50.7840     2.2270 
  191.0000    67.5950    25.0600   131.3880   101.7940   124.7970   -51.2770     2.2200 
  191.1250    67.4430    25.0590   126.5970   109.7450   135.2880   -51.6640     2.2220 
  191.2500    67.2660    25.0590   126.5940   114.7760   142.7320   -51.9450     2.2210 
  191.3750    68.4350    25.0590   131.1920   118.2610   148.5100   -52.2070     2.2160 
  191.5000    70.1040    25.0600   141.7750   120.1610   152.1380   -52.4420     2.2160 
  191.6250    71.5940    25.0580   150.7020   119.3010   151.6450   -52.6930     2.2260 
  191.7500    72.8950    25.0430   138.6850   115.8290   147.3260   -52.9110     2.2350 
  191.8750    72.5770    25.0180   112.6020   110.7760   140.8610   -53.0150     2.2380 
  192.0000    70.9290    24.9960    97.0510   106.1290   135.1500   -53.0880     2.2400 
  192.1250    69.7750    24.9910    95.0790   104.7420   133.9690   -53.2580     2.2470 
  192.2500    70.5430    24.9910    93.0860   107.9890   138.8330   -53.4150     2.2560 
  192.3750    72.2520    24.9920    98.1220   116.8870   150.7750   -53.5210     2.2610 
  192.5000    72.4850    24.9920   123.1060   131.6320   169.8340   -53.6010     2.2600 
  192.6250    70.5850    24.9920   157.1850   151.3070   194.7590   -53.6600     2.2500 
  192.7500    68.3830    24.9920   185.3400   171.3340   219.7870   -53.6710     2.2340 
  192.8750    67.0580    24.9920   198.6750   187.1430   238.8950   -53.7000     2.2160 
  193.0000    65.5030    24.9920   205.1200   195.1280   247.3640   -53.7530     2.2010 
  193.1250    62.6210    24.9920   193.9390   193.5140   243.4200   -53.6820     2.1970 
  193.2500    61.4980    24.9920   176.2330   186.5880   233.2260   -53.5790     2.2050 
  193.3750    62.9340    24.9920   167.7950   177.2900   220.5960   -53.4950     2.2210 
  193.5000    65.7700    24.9920   172.8830   167.5380   207.7320   -53.4050     2.2350 
  193.6250    67.4230    24.9920   176.0000   158.9970   196.6180   -53.3540     2.2410 
  193.7500    67.4160    24.9920   169.8700   153.0140   188.8740   -53.2870     2.2410 
  193.8750    67.3430    24.9920   152.5390   150.8000   185.9260   -53.1460     2.2380 
  194.0000    69.5720    24.9920   129.8810   152.9750   188.3760   -53.0030     2.2350 
  194.1250    73.0260    24.9920   137.0470   159.3380   195.6240   -52.9660     2.2360 
  194.2500    71.8450    24.9920   164.0730   166.4800   203.1330   -52.8990     2.2330 
  194.3750    67.8460    24.9920   191.1980   170.6590   206.0300   -52.8500     2.2230 
  194.5000    66.4410    24.9920   198.9720   168.7590   200.6810   -52.8380     2.2110 
  194.6250    68.8060    24.9920   171.3360   159.2990   186.3560   -52.7920     2.2110 
  194.7500    69.7310    24.9940   135.6580   146.0100   168.5800   -52.6550     2.2250 
  194.8750    67.5450    24.9900   114.1260   131.9450   151.1360   -52.7100     2.2400 
