~V
VERS. 2.00: Ver 2.00
~W
STRT.M 60.0000:
STOP.M 251.0000:
STEP.M 0.1250:
NULL. -999.2500:
UWI. DF5053:
~C
DEPT.M :
GR.API :
RML.OHMM :
RI. :
RXO.OHMM :
CALI.CM :
DEN.GM/CC :
SP.MV :
~A
# ...
  161.2500    66.4130    75.0290    73.3420    57.7550    24.4430     2.2770   -21.5980 
  161.3750    65.5530    81.8330    79.7690    70.7370    24.4600     2.2830   -21.7110 
  161.5000    64.8390    89.3360    87.1340    84.6750    24.4270     2.2850   -21.8050 
  161.6250    64.7740    95.7150    93.4950    97.8050    24.3700     2.2840   -21.9090 
  161.7500    65.4380   100.0380    97.7640   107.7600    24.3370     2.2820   -22.0590 
  161.8750    66.7660   102.3640    99.7910   112.9210    24.3320     2.2780   -22.2600 
  162.0000    65.5330   104.0950   100.6760   115.2280    24.3350     2.2760   -22.4860 
  162.1250    60.7250   107.8410   102.9670   112.5550    24.3230     2.2750   -22.7180 
  162.2500    59.5290   116.2980   109.2950   112.1420    24.2950     2.2760   -22.9320 
  162.3750    69.1530   132.3740   122.4550   119.9090    24.2650     2.2740   -23.0970 
  162.5000    82.2130   160.8150   146.7390   142.9910    24.2310     2.2660   -23.1930 
  162.6250    82.8710   200.9960   181.4240   179.5760    24.2150     2.2540   -23.2070 
  162.7500    71.0660   250.6170   224.2720   226.4690    24.2730     2.2400   -23.1340 
  162.8750    59.9300   303.5610   269.7840   275.9510    24.3690     2.2250   -22.9820 
  163.0000    57.6920   348.3040   307.9620   328.3210    24.4200     2.2140   -22.8090 
  163.1250    58.5190   377.0470   332.3170   368.0080    24.4310     2.2070   -22.6340 
  163.2500    58.8830   388.5100   341.7780   371.9650    24.4600     2.2010   -22.4680 
  163.3750    56.3710   388.9200   341.4000   339.8170    24.4930     2.1970   -22.3110 
  163.5000    49.6070   389.0870   340.3090   309.4280    24.4590     2.1940   -22.1200 
  163.6250    44.4470   395.6330   345.0300   297.5840    24.3280     2.1900   -21.9080 
  163.7500    44.0140   407.0100   355.2280   321.0080    24.1110     2.1870   -21.6690 
  163.8750    45.3460   415.7230   365.0130   370.2020    23.8650     2.1830   -21.3960 
  164.0000    44.4310   408.2540   362.6810   422.4750    23.7240     2.1770   -21.0940 
  164.1250    48.7160   380.3170   343.0590   433.0070    23.6680     2.1720   -20.7880 
  164.2500    58.1230   334.8400   307.1440   406.4940    23.6290     2.1700   -20.4740 
  164.3750    63.4680   281.1400   261.8570   346.8120    23.5830     2.1730   -20.1630 
  164.5000    62.2560   230.8030   217.0040   248.2370    23.5220     2.1840   -19.8690 
  164.6250    63.0780   189.9130   179.2170   181.8340    23.4920     2.1960   -19.5710 
  164.7500    67.4300   160.5080   151.0430   150.8860    23.5050     2.2060   -19.2650 
  164.8750    69.7530   142.9310   133.3430   132.9850    23.5710     2.2120   -18.9490 
  165.0000    66.1030   137.8570   127.3640   118.6670    23.5940     2.2180   -18.5920 
  165.1250    62.2350   140.3940   129.0890   117.8500    23.4710     2.2260   -18.1830 
  165.2500    61.0820   145.6850   134.3130   132.4790    23.2780     2.2340   -17.7520 
  165.3750    58.9320   147.6290   137.4210   153.5750    23.1700     2.2370   -17.3320 
  165.5000    53.2710   138.9620   131.4060   161.6510    23.2220     2.2340   -16.9220 
  165.6250    49.1210   120.2040   115.8490   135.8810    23.4470     2.2290   -16.5510 
  165.7500    53.4200    95.9150    94.2000    87.5520    23.8070     2.2310   -16.2260 
  165.8750    64.5730    72.8840    72.5390    46.9680    24.1040     2.2450   -15.9410 
  166.0000    73.1060    57.1590    56.9970    28.9860    24.2330     2.2710   -15.7000 
  166.1250    76.8570    48.2240    47.8490    23.7170    24.2940     2.2970   -15.5020 
  166.2500    79.9970    44.3270    43.6740    23.4840    24.3390     2.3140   -15.3310 
  166.3750    85.3890    43.3260    42.5050    26.1160    24.3240     2.3210   -15.1970 
  166.5000    88.1900    43.1600    42.4330    30.1640    24.2760     2.3220   -15.1510 
  166.6250    84.9380    42.1150    41.7170    32.1810    24.2810     2.3220   -15.1760 
  166.7500    78.8940    39.6290    39.6730    27.5470    24.3420     2.3220   -15.2460 
  166.8750    77.8200    36.0500    36.4740    20.2670    24.3270     2.3190   -15.3250 
  167.0000    88.1320    32.6050    33.1440    20.6620    24.0890     2.3110   -15.4140 
  167.1250   100.3420    30.5510    30.8760    25.7140    23.8160     2.3000   -15.5090 
  167.2500   101.9300    30.5990    30.3620    32.8660    23.6960     2.2880   -15.5990 
  167.3750    91.0600    33.0120    31.9320    38.7140    23.7640     2.2750   -15.6800 
  167.5000    78.4690    37.8820    35.8570    44.5010    23.9650     2.2610   -15.7610 
  167.6250    71.4390    44.0580    41.2500    51.0020    24.1720     2.2480   -15.8510 
  167.7500    69.3110    50.4780    47.2260    52.3880    24.2920     2.2380   -15.9550 
  167.8750    71.4890    55.9630    52.6790    49.2870    24.3270     2.2350   -16.1080 
  168.0000    76.3010    59.1020    56.1650    47.9990    24.3180     2.2370   -16.3110 
  168.1250    78.1250    59.8200    57.3560    49.6100    24.2920     2.2430   -16.5230 
  168.2500    76.0210    58.4360    56.4010    51.4690    24.2690     2.2500   -16.7400 
  168.3750    74.5260    55.5930    53.8460    51.2880    24.2400     2.2560   -16.9440 
  168.5000    80.5930    51.8860    50.2180    47.9050    24.1640     2.2640   -17.1150 
  168.6250    90.9110    48.0230    46.2510    41.1520    24.0500     2.2720   -17.2400 
  168.7500    98.1060    44.3910    42.3660    35.2970    23.9150     2.2780   -17.3290 
  168.8750    97.6930    41.1950    38.8330    32.3530    23.8160     2.2820   -17.3900 
  169.0000    92.7190    38.6030    35.8850    31.1330    23.8390     2.2870   -17.4500 
  169.1250    87.6280    36.7040    33.6130    29.5150    23.9250     2.2940   -17.5340 
  169.2500    83.8310    36.0600    32.3190    28.0470    23.9740     2.3040   -17.6550 
  169.3750    83.8480    37.2790    32.4510    27.0790    23.9570     2.3130   -17.7930 
  169.5000    87.6790    41.3970    34.9520    28.0680    23.8880     2.3120   -17.9140 
  169.6250    86.5120    48.0940    39.9430    32.8310    23.8490     2.3000   -18.0070 
  169.7500    77.3290    56.8290    47.3860    42.2750    23.8200     2.2790   -18.0680 
  169.8750    66.0110    66.0040    56.6100    54.9930    23.7900     2.2550   -18.0930 
  170.0000    63.1200    74.2360    66.1230    66.1320    23.7560     2.2370   -18.0790 
  170.1250    66.1930    80.7730    74.1010    74.3990    23.7510     2.2290   -18.0600 
  170.2500    68.0700    86.1100    79.5120    80.2760    23.7870     2.2290   -18.0400 
  170.3750    65.1950    88.8890    82.3480    84.0520    23.8600     2.2340   -18.0260 
  170.5000    61.3530    90.3040    83.4790    87.1700    23.8480     2.2390   -18.0280 
  170.6250    58.5600    91.9950    84.4920    91.3340    23.7430     2.2430   -18.0570 
  170.7500    57.3260    94.6190    86.1150    97.1210    23.6520     2.2440   -18.0860 
  170.8750    59.2690    98.1860    88.5190   104.9620    23.5800     2.2420   -18.1060 
  171.0000    65.6180   102.1050    91.3520   113.3690    23.4480     2.2380   -18.0960 
  171.1250    67.1420   105.3450    93.7780   117.1940    23.3040     2.2350   -18.0480 
  171.2500    60.4280   107.1750    95.1570   115.7700    23.2100     2.2340   -17.9550 
  171.3750    53.7220   107.3600    95.2150   114.7670    23.1710     2.2360   -17.8080 
  171.5000    57.2400   106.1940    94.1040   116.5060    23.1790     2.2380   -17.6660 
  171.6250    65.3500   104.8210    92.7370   116.6390    23.2040     2.2390   -17.5240 
  171.7500    70.8880   104.0520    91.8110   113.2790    23.2560     2.2350   -17.4000 
  171.8750    72.0240   104.4820    91.8620   107.9720    23.3800     2.2290   -17.3010 
  172.0000    68.1700   106.8490    93.5570   107.3000    23.6010     2.2220   -17.2040 
  172.1250    62.1910   111.2350    96.9970   109.1360    23.8610     2.2180   -17.1000 
  172.2500    55.8180   117.7920   102.3550   112.6590    24.1040     2.2180   -16.9920 
  172.3750    52.1090   126.3240   109.5330   119.6950    24.2580     2.2220   -16.8750 
