~V
VERS. 2.00: Ver 2.00
~W
STRT.M 59.0000:
STOP.M 277.0000:
STEP.M 0.1250:
NULL. -999.2500:
UWI. DF5027:
~C
DEPT.M :
GR.API :
RML.OHMM :
RI. :
RXO.OHMM :
CALI.CM :
DEN.GM/CC :
SP.MV :
~A
# ...
  239.0000    74.1120    36.1100    38.0410    35.2200    24.7900     2.2860   -17.7220 
  239.1250    77.8720    34.4210    35.8390    26.6060    24.8060     2.2980   -17.7040 
  239.2500    79.6320    35.0580    36.0640    25.4560    24.8010     2.3000   -17.7070 
  239.3750    78.1980    37.5560    38.2660    28.9370    24.7660     2.2940   -17.7830 
  239.5000    72.9440    41.2560    41.6920    36.2130    24.6780     2.2850   -17.8870 
  239.6250    67.6340    45.4290    45.5180    50.3310    24.6380     2.2790   -18.0810 
  239.7500    66.7380    49.3300    49.0540    66.7740    24.6520     2.2760   -18.2740 
  239.8750    69.6420    52.7040    52.1180    61.3940    24.6970     2.2740   -18.4870 
  240.0000    71.4670    55.7860    54.9990    52.7420    24.7200     2.2710   -18.7170 
  240.1250    69.0260    59.5160    58.6580    52.1450    24.7320     2.2660   -18.9920 
  240.2500    66.8940    64.7130    63.7270    52.8750    24.7640     2.2610   -19.2880 
  240.3750    66.0370    71.7370    70.2770    57.4410    24.7960     2.2550   -19.6160 
  240.5000    64.4970    80.2950    77.7720    73.2000    24.8080     2.2500   -19.9680 
  240.6250    61.6650    88.9050    84.7910    99.3970    24.8050     2.2460   -20.3110 
  240.7500    59.4560    95.3210    89.6350   122.8780    24.8020     2.2430   -20.6180 
  240.8750    58.1200    97.9810    91.2540   136.8680    24.8010     2.2440   -20.9020 
  241.0000    58.3750    96.5550    89.5100   136.5160    24.7950     2.2480   -21.1460 
  241.1250    62.6460    91.5820    84.7520   112.5180    24.8050     2.2570   -21.3400 
  241.2500    66.6270    85.3290    78.7260    91.9340    24.8120     2.2690   -21.4420 
  241.3750    66.8060    79.1100    72.5950    81.8150    24.8100     2.2870   -21.4570 
  241.5000    63.9400    73.5850    67.1060    74.1220    24.7660     2.3100   -21.3840 
  241.6250    63.2040    69.0530    62.6810    69.4080    24.6490     2.3380   -21.2390 
  241.7500    65.0410    65.3990    59.1790    61.7630    24.5500     2.3670   -21.0790 
  241.8750    66.9940    62.6020    56.5380    55.1700    24.5310     2.3930   -20.8780 
  242.0000    68.5240    60.6090    54.6700    56.1440    24.5180     2.4120   -20.6580 
  242.1250    69.9310    59.4820    53.6220    55.2990    24.5750     2.4210   -20.3770 
  242.2500    71.2800    59.0660    53.2030    56.1020    24.6130     2.4200   -20.1020 
  242.3750    71.9180    59.3630    53.3560    56.8960    24.5720     2.4060   -19.7640 
  242.5000    72.4260    60.4090    54.0230    56.2830    24.5100     2.3820   -19.4310 
  242.6250    72.5920    62.1870    55.1870    51.7060    24.4330     2.3530   -19.0310 
  242.7500    71.9210    64.4370    56.6820    52.2950    24.3760     2.3300   -18.6190 
  242.8750    70.6040    66.9940    58.3940    58.9750    24.4070     2.3220   -18.1890 
  243.0000    69.8660    69.6550    60.1400    66.1680    24.4700     2.3330   -17.7950 
  243.1250    70.8540    71.9050    61.5710    70.0250    24.5150     2.3570   -17.3440 
  243.2500    72.3710    73.4210    62.5190    76.7530    24.5270     2.3830   -16.9380 
  243.3750    72.4700    74.2280    63.0570    76.3780    24.5210     2.4020   -16.5640 
  243.5000    71.1790    74.7830    63.5810    64.8950    24.5070     2.4130   -16.2080 
  243.6250    70.5060    76.3150    64.9950    62.7330    24.4870     2.4180   -15.9020 
  243.7500    71.1150    79.5310    67.7860    71.8220    24.4360     2.4230   -15.6070 
  243.8750    71.0060    83.9720    71.7720    78.0960    24.3860     2.4300   -15.3400 
  244.0000    68.8300    87.8260    75.7410    71.8050    24.3690     2.4460   -15.0490 
  244.1250    65.0510    87.3460    76.8400    87.6220    24.3630     2.4810   -14.8140 
  244.2500    61.9710    80.5620    73.2350   110.1360    24.3740     2.5360   -14.5210 
  244.3750    59.7000    67.6950    64.4240   148.2850    24.4000     2.6010   -14.2550 
  244.5000    55.5490    51.6770    51.8010   175.8920    24.4380     2.6480   -13.9750 
  244.6250    51.3570    37.3530    38.2910   148.2140    24.4880     2.6370   -13.6940 
  244.7500    50.4890    26.4080    26.7150    94.0370    24.5460     2.5700   -13.4070 
  244.8750    52.5550    18.9310    18.0880    45.1150    24.6100     2.4690   -13.1290 
  245.0000    56.3290    14.1350    12.3750    14.8720    24.6750     2.3670   -12.9060 
  245.1250    62.4300    10.2780     9.2780     7.8170    24.7400     2.2990   -12.6730 
  245.2500    68.4680     8.6300     7.6300     6.4650    24.8040     2.2780   -12.5070 
  245.3750    69.7540     7.8560     6.8560     6.4220    24.8610     2.2980   -12.3310 
  245.5000    66.3620     7.5870     6.5870     6.5940    24.9030     2.3430   -12.2050 
  245.6250    63.9500     7.6320     6.6320     6.6800    24.9160     2.3850   -12.0610 
  245.7500    64.0030     7.7680     6.7680     6.9410    24.8970     2.4060   -11.9850 
  245.8750    64.1560     7.8930     6.8930     7.1620    24.8480     2.4030   -11.9360 
  246.0000    62.7650     7.9500     6.9500     7.4500    24.7730     2.3880   -11.8870 
  246.1250    61.2140     7.9220     6.9220     7.5870    24.6630     2.3750   -11.8510 
  246.2500    60.7580     7.8390     6.8390     7.7110    24.5320     2.3690   -11.7930 
  246.3750    61.2660     7.7250     6.7250     7.6910    24.3950     2.3680   -11.7390 
  246.5000    61.1460     7.6030     6.6030     7.1990    24.2630     2.3650   -11.6740 
  246.6250    60.5340     7.4850     6.4850     7.0180    24.1520     2.3530   -11.6400 
  246.7500    61.1310     7.3780     6.3780     6.9240    24.0650     2.3350   -11.6160 
  246.8750    62.2710     7.2830     6.2830     6.9430    24.0000     2.3150   -11.5680 
  247.0000    61.5420     7.2000     6.2000     6.8840    23.9560     2.3010   -11.4840 
  247.1250    59.8560     7.1240     6.1260     6.4920    23.9370     2.2980   -11.4280 
  247.2500    59.6810     7.0600     6.0630     6.3030    23.9330     2.3040   -11.3900 
  247.3750    60.9780     7.0130     6.0150     6.1890    23.9350     2.3160   -11.3470 
  247.5000    63.3220     6.9960     5.9870     6.0030    23.9420     2.3300   -11.3130 
  247.6250    64.8170     7.0090     5.9880     5.8960    23.9630     2.3420   -11.2370 
  247.7500    63.8360     7.0520     6.0150     5.8220    23.9970     2.3520   -11.1390 
  247.8750    61.1440     7.1100     6.0650     5.8440    24.0470     2.3580   -11.0650 
  248.0000    58.4130     7.1440     6.1300     5.7950    24.1140     2.3630   -11.0020 
  248.1250    56.4320     7.1880     6.2030     5.8200    24.1950     2.3680   -10.9500 
  248.2500    55.7520     7.2410     6.2630     5.8580    24.2800     2.3750   -10.9010 
  248.3750    57.0930     7.2940     6.2950     5.9940    24.3560     2.3830   -10.8750 
  248.5000    58.8900     7.3450     6.2930     6.1850    24.4180     2.3880   -10.8500 
  248.6250    58.3830     7.3870     6.2580     6.2510    24.4520     2.3830   -10.8750 
  248.7500    55.5780     7.4190     6.2030     6.0620    24.4550     2.3690   -10.9010 
  248.8750    54.6230     7.4380     6.1400     5.8870    24.4880     2.3520   -10.9270 
  249.0000    58.3190     7.4410     6.0820     5.7440    24.5110     2.3390   -10.9780 
  249.1250    62.2120     7.4200     6.0400     5.8270    24.5370     2.3390   -10.9870 
  249.2500    61.9410     7.3800     6.0160     6.0740    24.5820     2.3460   -11.0080 
  249.3750    60.0640     7.3260     6.0100     6.4960    24.6150     2.3550   -11.0070 
  249.5000    60.5230     7.2650     6.0150     7.0370    24.6110     2.3580   -11.0390 
  249.6250    61.0040     7.2040     6.0250     6.3280    24.5900     2.3540   -11.0810 
  249.7500    59.7060     7.1500     6.0410     6.1000    24.5800     2.3460   -11.1390 
  249.8750    57.4660     7.1050     6.0620     6.0780    24.5940     2.3390   -11.1840 
  250.0000    55.8300     7.0730     6.0860     6.0330    24.6040     2.3370   -11.2460 
  250.1250    57.4170     7.0550     6.1070     5.8830    24.5990     2.3450   -11.3390 
