~V
VERS. 2.00: Ver 2.00
~W
STRT.M 60.0000:
STOP.M 268.0000:
STEP.M 0.1250:
NULL. -999.2500:
UWI. DF5039:
~C
DEPT.M :
DEN.GM/CC :
GR.API :
CALI.CM :
RXO.OHMM :
RI. :
RML.OHMM :
SP.MV :
~A
# ...
  105.0000     2.2790    89.7360    24.3770     4.5680     4.1950     4.4600   -31.6440 
  105.1250     2.2780    87.4660    24.3760     4.2720     3.9910     4.3190   -31.6650 
  105.2500     2.2720    85.5030    24.3690     4.1560     3.9130     4.3110   -31.8470 
  105.3750     2.2590    84.1190    24.3480     4.3000     3.9380     4.4030   -32.1350 
  105.5000     2.2440    84.0150    24.3300     4.6940     4.0530     4.5800   -32.5370 
  105.6250     2.2320    86.4020    24.3380     4.9210     4.2660     4.8530   -33.0190 
  105.7500     2.2230    88.5840    24.3630     4.8810     4.5550     5.2140   -33.5530 
  105.8750     2.2150    87.0150    24.3240     4.9110     4.9130     5.6600   -34.1050 
  106.0000     2.2040    82.8580    24.1700     5.4960     5.3190     6.1580   -34.6710 
  106.1250     2.1890    79.9430    23.9590     6.2950     5.7160     6.6200   -35.2210 
  106.2500     2.1760    77.4190    23.7930     6.6780     6.0350     6.9600   -35.7410 
  106.3750     2.1680    73.4840    23.6990     6.7490     6.2300     7.1360   -36.2130 
  106.5000     2.1630    69.4450    23.6850     6.7930     6.2900     7.1580   -36.6200 
  106.6250     2.1580    68.2890    23.7830     6.8500     6.2410     7.0860   -36.9360 
  106.7500     2.1530    68.4850    23.9180     6.9200     6.1680     7.0250   -37.1920 
  106.8750     2.1460    67.6010    23.9910     6.8760     6.1140     7.0180   -37.3350 
  107.0000     2.1390    66.3440    23.9980     6.7280     6.0970     7.0760   -37.4280 
  107.1250     2.1300    67.0550    23.9970     6.7170     6.1200     7.1910   -37.4720 
  107.2500     2.1230    67.7650    24.0110     6.7160     6.1690     7.3270   -37.4890 
  107.3750     2.1190    67.8720    24.0060     6.7350     6.2330     7.4560   -37.4910 
  107.5000     2.1180    68.3010    23.9520     6.8270     6.2970     7.5500   -37.4600 
  107.6250     2.1210    69.7810    23.8560     6.9390     6.3360     7.5760   -37.4360 
  107.7500     2.1270    70.3160    23.7580     7.0150     6.3430     7.5470   -37.3820 
  107.8750     2.1350    70.1630    23.6800     7.1630     6.3220     7.4840   -37.3810 
  108.0000     2.1470    70.7430    23.6290     7.2990     6.2860     7.4260   -37.3980 
  108.1250     2.1580    73.5390    23.6140     7.4380     6.2720     7.4300   -37.4600 
  108.2500     2.1660    76.9260    23.6510     7.8890     6.3140     7.5250   -37.5620 
  108.3750     2.1700    77.1900    23.7310     7.8710     6.4250     7.7030   -37.7130 
  108.5000     2.1710    74.3230    23.8170     7.0950     6.5800     7.9080   -37.9010 
  108.6250     2.1700    72.4190    23.8680     7.0030     6.7120     8.0360   -38.1010 
  108.7500     2.1710    73.3540    23.8910     7.1510     6.7680     8.0420   -38.3260 
  108.8750     2.1760    74.0860    23.9030     7.2870     6.7400     7.9450   -38.5400 
  109.0000     2.1830    72.4960    23.9110     7.1260     6.6660     7.8160   -38.7440 
  109.1250     2.1840    70.9240    23.9350     6.6620     6.6140     7.7560   -38.9300 
  109.2500     2.1770    71.3380    23.9690     6.6730     6.6150     7.7820   -39.0930 
  109.3750     2.1620    72.2090    23.9890     7.2430     6.6530     7.8470   -39.2290 
  109.5000     2.1430    70.9990    23.9770     7.7280     6.6890     7.8850   -39.3420 
  109.6250     2.1300    69.1380    23.9440     7.5790     6.6770     7.8380   -39.4240 
  109.7500     2.1260    69.7120    23.9310     7.1500     6.6230     7.7430   -39.5020 
  109.8750     2.1290    70.7980    23.9530     6.8150     6.5650     7.6670   -39.5800 
  110.0000     2.1340    68.9350    23.9930     6.9010     6.5490     7.6740   -39.6390 
  110.1250     2.1380    65.4300    24.0080     7.1970     6.6120     7.7900   -39.6680 
  110.2500     2.1390    63.7120    23.9920     7.5380     6.7140     7.9360   -39.6550 
  110.3750     2.1400    63.5960    23.9670     7.7280     6.8000     8.0340   -39.6010 
  110.5000     2.1410    63.8440    23.9540     7.7990     6.8240     8.0330   -39.5200 
  110.6250     2.1410    64.4990    23.9660     7.7900     6.7700     7.9320   -39.4430 
  110.7500     2.1410    64.0880    23.9920     7.5270     6.6820     7.8130   -39.3560 
  110.8750     2.1390    62.8520    24.0170     7.2960     6.6030     7.7370   -39.2600 
  111.0000     2.1390    63.4440    24.0290     7.4000     6.5620     7.7290   -39.1730 
  111.1250     2.1400    68.2320    24.0160     7.5560     6.5660     7.7830   -39.1070 
  111.2500     2.1390    72.9560    23.9920     7.6270     6.5940     7.8560   -39.0350 
  111.3750     2.1340    73.5090    23.9870     7.6490     6.6350     7.9280   -38.9880 
  111.5000     2.1270    71.7970    24.0180     7.6070     6.6810     7.9970   -38.9820 
  111.6250     2.1210    70.7440    24.0590     7.5350     6.7390     8.0800   -38.9850 
  111.7500     2.1190    70.8450    24.0670     7.5700     6.8110     8.1780   -38.9930 
  111.8750     2.1200    70.3490    24.0450     7.7510     6.8910     8.2780   -39.0190 
  112.0000     2.1220    67.6810    24.0230     7.9290     6.9660     8.3510   -39.0080 
  112.1250     2.1220    63.7800    24.0170     7.9260     7.0120     8.3670   -38.9300 
  112.2500     2.1210    61.7410    24.0180     7.8160     7.0210     8.3310   -38.7990 
  112.3750     2.1180    64.0800    24.0190     7.7040     6.9980     8.2590   -38.6130 
  112.5000     2.1130    67.5920    24.0190     7.6560     6.9510     8.1760   -38.3540 
  112.6250     2.1070    66.8700    24.0190     7.5810     6.8960     8.1040   -38.0340 
  112.7500     2.1030    64.2900    24.0180     7.4420     6.8500     8.0540   -37.6450 
  112.8750     2.1060    64.1410    24.0200     7.2840     6.8220     8.0320   -37.1860 
  113.0000     2.1160    66.1550    24.0270     7.1160     6.8180     8.0330   -36.7170 
  113.1250     2.1290    67.0960    24.0350     6.9780     6.8330     8.0360   -36.2460 
  113.2500     2.1400    66.0010    24.0350     6.9210     6.8410     7.9950   -35.7690 
  113.3750     2.1440    64.1360    24.0340     6.9110     6.8020     7.8590   -35.2730 
  113.5000     2.1420    63.9010    24.0460     6.8030     6.6810     7.6020   -34.7820 
  113.6250     2.1400    65.9940    24.0540     6.6500     6.4610     7.2360   -34.2880 
  113.7500     2.1400    68.2990    24.0500     6.3630     6.2020     6.8580   -33.7790 
  113.8750     2.1440    70.2670    24.0510     5.9320     5.9660     6.5530   -33.2850 
  114.0000     2.1500    72.5770    24.0620     5.5620     5.8170     6.3910   -32.7910 
  114.1250     2.1540    76.3600    24.0460     5.7130     5.8180     6.4300   -32.3060 
  114.2500     2.1540    79.8550    23.9970     5.9760     5.9460     6.6100   -31.8270 
  114.3750     2.1530    80.7280    23.9400     6.3320     6.1510     6.8460   -31.3270 
  114.5000     2.1570    78.1140    23.8840     6.6470     6.3320     7.0070   -30.7900 
  114.6250     2.1740    74.7690    23.8440     6.9390     6.3210     6.9070   -30.2500 
  114.7500     2.2040    73.9120    23.8710     7.5900     6.0590     6.5180   -29.7560 
  114.8750     2.2400    77.5630    24.0280     7.7960     5.5750     5.9050   -29.2650 
  115.0000     2.2720    85.3310    24.2910     6.8670     4.9830     5.2120   -28.8150 
  115.1250     2.2880    93.8000    24.5180     4.7530     4.4310     4.6290   -28.4260 
  115.2500     2.2910   100.5580    24.6170     4.4150     4.0290     4.2710   -28.1130 
  115.3750     2.2910   104.3690    24.6230     4.4880     3.8510     4.2170   -27.9170 
  115.5000     2.3000   104.0290    24.6190     4.7480     3.9500     4.5120   -27.8480 
  115.6250     2.3260   100.5420    24.6120     5.3950     4.4030     5.2150   -27.8590 
  115.7500     2.3610    98.7020    24.5480     6.1460     5.1310     6.1940   -27.9380 
  115.8750     2.3900    99.9090    24.4320     9.0320     6.0350     7.2720   -28.0840 
  116.0000     2.3950   100.4590    24.3150    12.1650     6.9090     8.1670   -28.2450 
  116.1250     2.3670    97.4540    24.2310    11.5050     7.3910     8.4790   -28.4020 
