~V
VERS. 2.00: Ver 2.00
~W
STRT.M 50.0000:
STOP.M 276.0000:
STEP.M 0.1250:
NULL. -999.2500:
UWI. DF5011:
~C
DEPT.M :
DEN.GM/CC :
GR.API :
CALI.CM :
RXO.OHMM :
RI. :
RML.OHMM :
SP.MV :
~A
# ...
  117.5000     2.1690    65.0000    24.6170     7.6030     6.6530     7.4820   -31.6290 
  117.6250     2.1890    67.1820    24.6910     7.3900     6.1700     6.8450   -30.9700 
  117.7500     2.2200    71.2050    24.6800     6.5060     5.6320     6.1790   -30.4100 
  117.8750     2.2480    77.7120    24.6760     5.6010     5.1940     5.6780   -29.7680 
  118.0000     2.2600    84.1140    24.6690     5.1840     4.9520     5.4580   -29.1760 
  118.1250     2.2530    86.4010    24.6120     5.2640     4.9490     5.5590   -28.6640 
  118.2500     2.2410    83.6810    24.4590     5.7890     5.2000     5.9600   -28.2430 
  118.3750     2.2370    79.1100    24.2790     6.5980     5.5550     6.4300   -27.9750 
  118.5000     2.2340    73.4450    24.1570     7.1290     5.8390     6.7320   -27.6970 
  118.6250     2.2250    70.3060    24.1220     7.0900     5.8880     6.6800   -27.5840 
  118.7500     2.2200    73.0200    24.1830     6.6820     5.6340     6.2530   -27.4210 
  118.8750     2.2320    79.6450    24.3300     5.8130     5.2760     5.7570   -27.2980 
  119.0000     2.2610    86.8250    24.5240     5.0460     4.9860     5.4200   -27.1010 
  119.1250     2.2960    90.1020    24.6710     4.9050     4.8740     5.3560   -26.8890 
  119.2500     2.3310    87.8350    24.6380     5.5550     4.9800     5.5760   -26.7230 
  119.3750     2.3590    83.9320    24.4810     6.5530     5.1850     5.8840   -26.5140 
  119.5000     2.3700    82.9100    24.3230     6.9020     5.3630     6.1040   -26.3960 
  119.6250     2.3510    85.2270    24.2510     6.2390     5.4140     6.1220   -26.2420 
  119.7500     2.3080    86.9080    24.2550     5.6540     5.3040     5.9380   -26.2010 
  119.8750     2.2690    87.4480    24.2600     5.4010     5.1390     5.7170   -26.1660 
  120.0000     2.2480    87.7390    24.2660     5.3530     5.0060     5.5730   -26.1220 
  120.1250     2.2450    87.8570    24.2820     5.4420     4.9560     5.5480   -26.1570 
  120.2500     2.2490    85.8190    24.3190     5.6660     4.9880     5.6160   -26.1260 
  120.3750     2.2490    82.0270    24.3760     5.8120     5.0390     5.6850   -26.0650 
  120.5000     2.2440    79.1750    24.4310     5.8880     5.0620     5.7010   -26.0410 
  120.6250     2.2340    78.3660    24.4610     6.0690     5.0300     5.6400   -26.1200 
  120.7500     2.2290    79.0630    24.4690     5.8540     4.9450     5.5140   -26.1400 
  120.8750     2.2370    80.6880    24.4960     5.6100     4.8620     5.4010   -25.9830 
  121.0000     2.2530    83.5640    24.5550     5.4710     4.8270     5.3630   -25.9360 
  121.1250     2.2630    86.7780    24.6210     5.4410     4.8690     5.4310   -25.8520 
  121.2500     2.2560    89.1510    24.6570     5.3190     4.9840     5.5850   -25.8060 
  121.3750     2.2470    89.9980    24.6730     5.6400     5.0990     5.7240   -25.7360 
  121.5000     2.2510    89.8040    24.6910     6.1840     5.1410     5.7510   -25.6290 
  121.6250     2.2700    89.7210    24.7170     6.0530     5.0590     5.6070   -25.5900 
  121.7500     2.2900    91.1370    24.7350     5.4100     4.8470     5.3110   -25.3730 
  121.8750     2.3010    93.2980    24.7390     4.9140     4.6060     5.0100   -25.2420 
  122.0000     2.3070    94.6860    24.7380     4.6140     4.4250     4.8210   -25.0650 
  122.1250     2.3170    96.3370    24.7380     4.4590     4.3640     4.8100   -24.9120 
  122.2500     2.3300    99.5160    24.7380     4.6330     4.4440     4.9750   -24.7810 
  122.3750     2.3370   101.2730    24.7380     5.0180     4.5710     5.1710   -24.6260 
  122.5000     2.3390    98.7290    24.7380     5.9450     4.6410     5.2630   -24.6070 
  122.6250     2.3370    92.2360    24.7380     6.3380     4.5880     5.1790   -24.4790 
  122.7500     2.3290    88.2110    24.7380     5.7380     4.4230     4.9630   -24.4880 
  122.8750     2.3250    89.6920    24.7380     4.6740     4.2510     4.7630   -24.5650 
  123.0000     2.3400    93.9390    24.7380     4.3910     4.1580     4.6910   -24.7000 
  123.1250     2.3760    95.8620    24.7370     4.7540     4.2220     4.8460   -24.9060 
  123.2500     2.4110    94.0600    24.7350     6.3390     4.5590     5.3500   -25.1030 
  123.3750     2.4210    92.1840    24.7360     6.7870     5.1600     6.1640   -25.4830 
  123.5000     2.4130    90.4330    24.7410     6.2900     5.9920     7.2310   -25.7760 
  123.6250     2.4030    86.9830    24.7270     7.8700     6.9610     8.4120   -26.0650 
  123.7500     2.3940    80.6960    24.6530    10.4130     7.8330     9.3710   -26.4300 
  123.8750     2.3700    73.7410    24.5500    10.9660     8.3400     9.8000   -26.8610 
  124.0000     2.3220    68.5970    24.4740     9.4140     8.3470     9.5890   -27.3430 
  124.1250     2.2620    66.3630    24.4520     8.2860     7.9120     8.8760   -27.7060 
  124.2500     2.2180    66.1020    24.4590     8.2420     7.2320     7.9640   -28.1180 
  124.3750     2.2040    68.8620    24.4630     7.9260     6.5880     7.1880   -28.2980 
  124.5000     2.2190    75.3580    24.4640     7.0530     6.1220     6.6890   -28.3960 
  124.6250     2.2440    81.5450    24.4650     6.3810     5.8760     6.4780   -28.4570 
  124.7500     2.2630    81.9180    24.4640     6.2530     5.8530     6.5200   -28.3880 
  124.8750     2.2690    78.3770    24.4640     6.3620     5.9590     6.6870   -28.2460 
  125.0000     2.2660    75.8500    24.4650     6.7450     6.1260     6.8810   -28.0170 
  125.1250     2.2640    76.0290    24.4680     7.3660     6.2740     6.9960   -27.8040 
  125.2500     2.2690    78.6080    24.4680     7.7860     6.3070     6.9270   -27.5080 
  125.3750     2.2820    82.7160    24.4640     7.2950     6.2090     6.7030   -27.2980 
  125.5000     2.2950    85.4400    24.4590     6.3560     6.0070     6.3850   -27.0640 
  125.6250     2.3020    86.5680    24.4560     5.9160     5.7520     6.0430   -26.9680 
  125.7500     2.2910    88.1780    24.4560     5.9690     5.4890     5.7250   -26.8380 
  125.8750     2.2690    90.0640    24.4560     5.6420     5.2450     5.4410   -26.6720 
  126.0000     2.2560    90.9910    24.4570     5.1330     5.0260     5.1910   -26.4560 
  126.1250     2.2650    90.6440    24.4570     4.8270     4.8360     4.9750   -26.2730 
  126.2500     2.2920    91.2180    24.4470     4.6710     4.6790     4.8060   -26.2560 
  126.3750     2.3180    90.9880    24.4180     4.6830     4.5540     4.6780   -26.1870 
  126.5000     2.3380    90.1450    24.3760     4.7700     4.4530     4.5790   -26.2700 
  126.6250     2.3540    90.4890    24.3390     4.7190     4.3590     4.4840   -26.3030 
  126.7500     2.3650    91.0420    24.3220     4.5670     4.2520     4.3760   -26.3980 
  126.8750     2.3690    89.7880    24.3180     4.4720     4.1470     4.2760   -26.6450 
  127.0000     2.3690    88.3920    24.3190     4.3680     4.0780     4.2290   -27.0250 
  127.1250     2.3680    88.7530    24.3190     4.2990     4.0830     4.2860   -27.5110 
  127.2500     2.3650    87.8690    24.3190     4.2400     4.2160     4.5110   -27.8600 
  127.3750     2.3530    83.3930    24.3190     4.7340     4.4630     4.8780   -28.3920 
  127.5000     2.3300    78.0740    24.3190     5.6470     4.7810     5.3080   -28.9060 
  127.6250     2.3030    74.7540    24.3190     6.4100     5.0740     5.6650   -29.3170 
  127.7500     2.2800    72.1690    24.3190     6.3520     5.2280     5.7980   -29.8760 
  127.8750     2.2590    70.1740    24.3190     6.4530     5.2950     5.8220   -30.3380 
  128.0000     2.2410    71.0220    24.3190     6.7420     5.4440     6.0080   -30.7730 
  128.1250     2.2340    73.8040    24.3190     6.8390     5.9150     6.7270   -31.0180 
  128.2500     2.2680    72.7350    24.3180     7.5110     7.1440     8.5990   -31.2660 
  128.3750     2.3510    67.5290    24.3160    11.4170     9.3540    11.7860   -31.4610 
  128.5000     2.4720    62.8640    24.3150    21.5010    12.6370    16.1300   -31.5190 
  128.6250     2.5930    60.6000    24.3130    33.6870    16.4450    20.5760   -31.6960 
