~V
VERS. 2.00: Ver 2.00
~W
STRT.M 55.0000:
STOP.M 271.0000:
STEP.M 0.1250:
NULL. -999.2500:
UWI. DF5009:
~C
DEPT.M :
GR.API :
CALI.CM :
RXO.OHMM :
RI. :
RML.OHMM :
DEN.GM/CC :
SP.MV :
~A
   55.0000    49.6290    25.7540     0.4430     0.2290     8.3590     2.0800    53.2900 
   55.1250    47.3800    25.7400     0.4200     0.2290     7.6230     2.0850    54.5680 
   55.2500    48.2830    25.7330     0.4060     0.2270     7.0200     2.0870    55.7540 
   55.3750    50.5020    25.7340     0.4180     0.2250     6.6210     2.0900    56.8310 
   55.5000    50.7000    25.7370     0.4430     0.2230     6.4540     2.0990    57.8890 
   55.6250    50.5050    25.7440     0.4580     0.2220     6.4860     2.1140    58.9180 
   55.7500    52.5040    25.7540     0.4630     0.2230     6.6280     2.1270    59.9200 
   55.8750    53.9860    25.7570     0.4600     0.2240     6.9180     2.1370    60.8350 
   56.0000    53.3010    25.7440     0.4580     0.2260     7.3740     2.1460    61.5980 
   56.1250    54.2500    25.7180     0.4530     0.2270     7.9280     2.1550    62.2700 
   56.2500    55.3680    25.6990     0.4600     0.2270     8.4230     2.1650    62.9490 
   56.3750    53.0150    25.6910     0.4740     0.2240     8.7230     2.1760    63.5040 
   56.5000    49.4060    25.6890     0.4860     0.2190     8.7590     2.1870    63.8430 
   56.6250    50.9320    25.6910     0.4950     0.2130     8.5960     2.1980    63.9970 
   56.7500    56.0450    25.6950     0.4970     0.2110     8.4790     2.2100    64.1110 
   56.8750    58.5250    25.6980     0.4930     0.2140     8.4130     2.2210    64.0970 
   57.0000    55.7050    25.7010     0.4860     0.2210     8.1870     2.2300    63.9460 
   57.1250    51.1120    25.7040     0.4850     0.2270     7.5190     2.2400    63.8030 
   57.2500    48.7600    25.7050     0.4970     0.2300     6.5440     2.2550    63.5100 
   57.3750    48.9860    25.7020     0.5220     0.2260     5.5900     2.2740    63.2040 
   57.5000    50.2700    25.6810     0.5560     0.2200     4.9720     2.2950    62.9820 
   57.6250    52.3450    25.6290     0.5770     0.2140     4.8840     2.3180    62.7840 
   57.7500    55.0340    25.5740     0.5730     0.2140     5.1800     2.3430    62.4030 
   57.8750    55.6150    25.5390     0.5510     0.2180     5.6870     2.3710    61.8390 
   58.0000    52.6290    25.5250     0.5290     0.2250     6.1870     2.4030    61.3110 
   58.1250    49.7420    25.5120     0.5230     0.2330     6.4470     2.4310    60.7260 
   58.2500    50.2440    25.5000     0.5350     0.2370     6.4140     2.4480    60.0880 
   58.3750    52.1410    25.5050     0.5560     0.2380     6.0630     2.4490    59.2630 
   58.5000    51.9720    25.5430     0.5780     0.2360     5.4580     2.4350    58.1700 
   58.6250    49.7730    25.6120     0.5770     0.2320     4.8190     2.4080    56.8630 
   58.7500    48.4560    25.6800     0.5540     0.2280     4.3400     2.3770    55.4220 
   58.8750    47.9040    25.7260     0.5360     0.2270     4.0630     2.3470    54.0030 
   59.0000    47.1820    25.7470     0.5370     0.2290     3.9520     2.3220    52.4780 
   59.1250    46.3170    25.7520     0.5430     0.2340     3.9840     2.3040    50.7490 
   59.2500    46.0220    25.7520     0.5370     0.2390     4.1340     2.2950    48.8700 
   59.3750    47.0080    25.7450     0.5260     0.2410     4.4070     2.2950    46.9500 
   59.5000    48.0940    25.7280     0.5200     0.2380     4.7140     2.2990    44.9630 
   59.6250    49.0810    25.6920     0.5180     0.2250     4.5740     2.3040    42.7060 
   59.7500    49.3370    25.6430     0.5150     0.2030     3.5530     2.3060    40.2140 
   59.8750    48.5090    25.5900     0.5150     0.1740     1.9120     2.3050    37.4250 
   60.0000    47.5850    25.5460     0.5200     0.1400     0.5000     2.2900    34.3000 
   60.1250    47.5110    25.5310     0.5230     0.1100    -0.1910     2.2570    30.7210 
   60.2500    47.7870    25.5620     0.5340     0.0880    -0.4690     2.2280    26.5780 
   60.3750    47.5550    25.6620     0.5790     0.0800    -0.5170     2.2130    21.9680 
   60.5000    49.2540    25.7350     0.7580     0.0930    -0.3920     2.2090    16.9400 
   60.6250    54.9810    25.4670     1.8800     0.1710     0.0200     2.2050    11.6070 
   60.7500    62.3050    24.9030     4.5330     0.3720     0.8740     2.1930     6.3040 
   60.8750    68.6540    24.3660     7.3180     0.7840     2.3510     2.1780     1.2220 
   61.0000    71.5650    24.1210     8.6980     1.4910     4.3300     2.1610    -3.4830 
   61.1250    70.9470    24.1210     9.0200     2.4900     5.9750     2.1490    -7.6420 
   61.2500    68.6170    24.1340     9.2040     3.4930     6.6740     2.1460   -11.0500 
   61.3750    68.1860    24.1330     9.3860     4.3050     6.6860     2.1450   -13.7540 
   61.5000    71.1620    24.1330     9.4910     4.9060     6.6060     2.1450   -15.7500 
   61.6250    74.0740    24.1330     9.4870     5.3490     6.7880     2.1460   -17.0330 
   61.7500    74.4380    24.1330     9.3890     5.6830     7.1310     2.1470   -17.8670 
   61.8750    73.7190    24.1320     9.2180     5.8990     7.4630     2.1460   -18.4130 
   62.0000    74.4750    24.1320     9.0530     6.0040     7.6650     2.1420   -18.7880 
   62.1250    74.3490    24.1420     8.8000     6.0570     7.7680     2.1390   -19.0320 
   62.2500    72.2530    24.1620     8.5900     6.1740     7.9640     2.1450   -19.2880 
   62.3750    70.3910    24.1910     8.3800     6.4280     8.3790     2.1630   -19.4710 
   62.5000    69.1870    24.2250     8.4700     6.8280     9.0260     2.1890   -19.6790 
   62.6250    68.4470    24.2450     8.8050     7.2970     9.7470     2.2100   -19.8190 
   62.7500    70.6150    24.2530     9.4850     7.6580    10.2330     2.2150   -19.9620 
   62.8750    74.0560    24.3030    10.0930     7.7690    10.2720     2.2040   -20.0830 
   63.0000    74.7740    24.4450    10.1810     7.5980     9.8770     2.1840   -20.1850 
   63.1250    72.4750    24.6330     9.7330     7.2420     9.3040     2.1680   -20.3220 
   63.2500    70.7910    24.7530     9.4750     6.8980     8.8550     2.1570   -20.3190 
   63.3750    70.2220    24.7910     9.2590     6.6470     8.6120     2.1520   -20.2700 
   63.5000    71.4380    24.7980     9.0730     6.4870     8.5070     2.1530   -20.1420 
   63.6250    73.9490    24.8170     9.0580     6.3380     8.3570     2.1640   -19.9780 
   63.7500    74.9470    24.8330     8.8310     6.1050     8.0260     2.1850   -19.7610 
   63.8750    76.2750    24.8790     7.9230     5.7740     7.5320     2.2120   -19.5220 
   64.0000    82.8790    25.0500     6.5960     5.4120     7.0250     2.2340   -19.2760 
   64.1250    93.9090    25.3700     5.6090     5.1530     6.7320     2.2380   -19.0230 
   64.2500   101.7430    25.6340     5.5010     5.0710     6.7320     2.2260   -18.9280 
   64.3750   102.6950    25.6710     5.8210     5.1980     7.0250     2.2060   -18.9850 
   64.5000    98.6290    25.4330     6.7150     5.5160     7.5360     2.1860   -19.1300 
   64.6250    95.5800    25.0280     7.7680     5.9530     8.1120     2.1710   -19.3770 
   64.7500    94.9680    24.6830     8.4240     6.3570     8.5650     2.1630   -19.6450 
   64.8750    94.6590    24.5050     8.4710     6.6300     8.7980     2.1590   -19.9550 
   65.0000    91.8790    24.4700     8.2390     6.7320     8.8040     2.1590   -20.2760 
   65.1250    87.6890    24.4950     7.9910     6.6600     8.6170     2.1620   -20.5810 
   65.2500    84.5830    24.5460     7.7870     6.4840     8.3300     2.1690   -20.8010 
   65.3750    85.1090    24.6030     7.7360     6.2390     7.9850     2.1830   -20.9520 
   65.5000    90.2600    24.6330     7.6980     5.9530     7.6150     2.2030   -21.0630 
   65.6250    98.9320    24.7100     7.2490     5.6560     7.2550     2.2280   -21.1200 
   65.7500   105.3140    24.9060     6.4330     5.3790     6.9340     2.2480   -21.2340 
   65.8750   107.1970    25.1450     5.9170     5.1500     6.6860     2.2580   -21.4490 
   66.0000   106.0500    25.2870     6.0690     5.0070     6.5680     2.2580   -21.7590 
   66.1250   105.8860    25.3040     6.3600     5.0190     6.6760     2.2490   -22.1320 
