~V
VERS. 2.00: Ver 2.00
~W
STRT.M 50.0000:
STOP.M 245.0000:
STEP.M 0.1250:
NULL. -999.2500:
UWI. DF5062:
~C
DEPT.M :
DEN.GM/CC :
GR.API :
RML.OHMM :
RI. :
RXO.OHMM :
CALI.CM :
SP.MV :
~A
# ...
  196.2500     2.3270    83.2760     7.8200     6.6200     6.1390    23.5370   -13.6780 
  196.3750     2.3720    84.5820     7.9060     6.7060     6.3130    23.7790   -13.9360 
  196.5000     2.3990    81.6620     7.9470     6.7470     6.3990    24.0740   -14.2460 
  196.6250     2.4090    81.1480     7.9500     6.7500     6.4600    24.2430   -14.5830 
  196.7500     2.4110    85.2810     7.9440     6.7440     6.4360    24.3060   -14.9720 
  196.8750     2.4070    89.5010     7.9560     6.7560     6.3700    24.3250   -15.3500 
  197.0000     2.4020    91.5080     8.0070     6.8070     6.3890    24.3760   -15.7500 
  197.1250     2.3980    90.6220     8.1130     6.9130     6.4890    24.3870   -16.1360 
  197.2500     2.3950    87.5460     8.2500     7.0500     6.6620    24.3350   -16.4980 
  197.3750     2.3930    83.4010     8.3810     7.1810     6.9910    24.2540   -16.8080 
  197.5000     2.3900    79.9830     8.4590     7.2590     7.3090    24.2890   -17.1140 
  197.6250     2.3830    80.3250     8.4260     7.2260     7.1960    24.3700   -17.3930 
  197.7500     2.3770    82.1450     8.3050     7.1050     7.1660    24.3180   -17.6570 
  197.8750     2.3720    82.9530     8.1630     6.9560     7.2200    24.0920   -17.9580 
  198.0000     2.3670    84.3370     8.1130     6.8920     7.3770    23.7960   -18.1460 
  198.1250     2.3610    88.2410     8.2950     7.1350     7.4560    23.8580   -18.4160 
  198.2500     2.3510    88.7000     8.9420     7.8290     8.0730    24.0530   -18.6770 
  198.3750     2.3390    81.6970    10.2020     9.1110     9.4180    24.1460   -18.9640 
  198.5000     2.3270    73.6360    12.4270    11.0490    11.4510    24.1910   -19.3110 
  198.6250     2.3150    73.8090    15.5050    13.6590    14.8280    24.1170   -19.5770 
  198.7500     2.3030    76.5500    19.3060    16.5810    18.9730    24.0610   -19.9400 
  198.8750     2.2900    77.1390    23.2120    19.4810    21.8460    24.1900   -20.2470 
  199.0000     2.2750    77.3890    25.9310    22.0510    23.1210    24.4210   -20.5780 
  199.1250     2.2640    79.7600    27.8030    24.0380    24.4110    24.6840   -20.9820 
  199.2500     2.2580    79.2070    29.2180    25.5360    26.0370    24.8070   -21.3380 
  199.3750     2.2610    74.7620    30.2460    26.6070    27.7090    24.8380   -21.6320 
  199.5000     2.2710    71.9170    30.9370    27.2890    28.8950    24.7430   -22.0000 
  199.6250     2.2870    75.1750    31.2510    27.5930    29.6750    24.6140   -22.4270 
  199.7500     2.3010    79.1690    31.3490    27.7590    30.5810    24.6680   -22.7360 
  199.8750     2.3090    78.6830    31.7830    28.1060    30.5520    24.8850   -23.1350 
  200.0000     2.3090    73.6840    33.0330    29.0600    29.7640    25.0690   -23.5500 
  200.1250     2.3010    69.0890    36.7780    31.3390    30.0580    25.1000   -23.8600 
  200.2500     2.2950    67.5480    42.9580    35.2200    34.1690    25.1390   -24.2490 
  200.3750     2.2940    68.4670    52.0950    40.9170    40.3380    25.1380   -24.6430 
  200.5000     2.3020    69.7920    63.8960    48.3310    46.9430    25.0740   -24.9660 
  200.6250     2.3130    69.2740    74.8540    57.0180    53.9230    24.9250   -25.2390 
  200.7500     2.3190    67.0320    85.7610    65.7620    63.9130    24.8200   -25.5800 
  200.8750     2.3120    64.5210    95.5090    73.6430    74.1350    24.8080   -25.8930 
  201.0000     2.2920    64.2970   103.4610    80.1300    75.6270    24.8550   -26.1260 
  201.1250     2.2650    67.4020   109.5930    85.1680    72.2100    24.8390   -26.3730 
  201.2500     2.2420    72.4720   115.1350    89.6860    71.4050    24.7280   -26.5380 
  201.3750     2.2280    74.9300   120.9950    94.3860    74.0540    24.5240   -26.7440 
  201.5000     2.2230    72.0370   127.6180    99.6510    77.6920    24.3070   -26.9530 
  201.6250     2.2240    66.0790   134.7250   105.3770    82.5580    24.2050   -27.1390 
  201.7500     2.2270    63.1810   141.2590   110.8510    87.9480    24.2390   -27.3560 
  201.8750     2.2300    63.4670   146.2410   115.3820    92.4060    24.2520   -27.4720 
  202.0000     2.2310    64.3830   148.9840   118.4360    96.0610    24.2020   -27.6400 
  202.1250     2.2310    65.1040   148.9140   119.4960    98.3340    24.2220   -27.8760 
  202.2500     2.2310    64.5910   146.8670   119.0150    97.7570    24.3670   -28.0700 
  202.3750     2.2290    61.7940   143.5900   117.4310    93.5050    24.4670   -28.2500 
  202.5000     2.2250    58.5030   140.0010   115.3660    83.5350    24.3200   -28.4090 
  202.6250     2.2200    58.7640   137.2990   113.7110    56.2820    23.6660   -28.5450 
  202.7500     2.2140    62.0520   136.1840   113.1660    28.5400    22.5420   -28.6680 
  202.8750     2.2090    64.1500   136.9490   114.1240    15.4230    21.6280   -28.8360 
  203.0000     2.2050    63.9280   139.4610   116.6380    14.0000    21.4790   -28.9180 
  203.1250     2.2040    63.5780   143.4060   120.5820    19.1910    21.7540   -28.9370 
  203.2500     2.2050    64.9620   147.9960   125.2490    29.5170    22.5160   -29.0650 
  203.3750     2.2080    66.5820   152.9390   130.3110    46.6710    23.4810   -29.1240 
  203.5000     2.2110    66.9300   158.2680   135.6760    67.3300    24.1230   -29.1690 
  203.6250     2.2090    65.1040   163.8530   141.3630    82.1930    24.2800   -29.2170 
  203.7500     2.1940    62.4550   168.7400   146.8990    89.3050    24.2780   -29.2360 
  203.8750     2.1610    60.1550   172.0300   151.2690    93.1980    24.2800   -29.2620 
  204.0000     2.1110    59.8920   171.9150   153.0470    95.5300    24.3210   -29.3330 
  204.1250     2.0560    61.8890   168.1790   150.1840    98.0170    24.3840   -29.3960 
  204.2500     2.0110    62.4520   160.8110   143.1560    98.6440    24.4670   -29.3030 
  204.3750     1.9810    60.6610   152.3260   133.2240    97.3640    24.5040   -29.3360 
  204.5000     1.9700    59.0880   144.7970   122.5010    93.7740    24.4000   -29.3240 
  204.6250     1.9780    61.6640   133.9620   113.6510    89.1410    24.1570   -29.3760 
  204.7500     1.9980    66.4100   127.7130   108.1060    84.3760    23.9020   -29.4310 
  204.8750     2.0260    69.9020   126.5910   106.6550    81.4610    23.6040   -29.3470 
  205.0000     2.0550    69.9570   130.5590   109.5190    82.3160    23.0020   -29.4010 
  205.1250     2.0750    65.9060   139.4130   116.7730    83.0080    22.8820   -29.4130 
  205.2500     2.0830    60.8110   150.4450   126.2680    82.6470    23.3110   -29.4430 
  205.3750     2.0810    58.1000   161.0030   135.8660    88.9710    23.9550   -29.4920 
  205.5000     2.0760    59.4500   168.3010   143.2020   102.8770    24.3380   -29.5040 
  205.6250     2.0750    61.5110   169.6770   145.8160   111.1150    24.3880   -29.5490 
  205.7500     2.0820    61.2590   166.6710   144.4970   108.1540    24.3520   -29.5900 
  205.8750     2.0970    61.7390   161.6250   140.8640   100.0120    24.3740   -29.6160 
  206.0000     2.1180    64.4510   156.8490   136.8340    94.3820    24.4950   -29.6390 
  206.1250     2.1400    66.7780   153.6100   133.7700    99.2860    24.6350   -29.7070 
  206.2500     2.1590    65.8240   151.1640   131.4680   111.4840    24.8100   -29.7300 
  206.3750     2.1700    64.4950   148.6100   129.3040   127.2370    24.9060   -29.7530 
  206.5000     2.1750    64.8100   145.5550   126.8910   133.4880    24.9230   -29.8190 
  206.6250     2.1740    64.4560   142.6930   124.6000   115.9830    24.8870   -29.8160 
  206.7500     2.1750    63.2980   141.2980   123.3500    99.0990    24.8000   -29.7910 
  206.8750     2.1780    62.8720   142.1580   123.8230    98.0920    24.6600   -29.7580 
  207.0000     2.1840    64.0140   145.1070   126.0370   108.6960    24.4480   -29.6870 
  207.1250     2.1890    66.1280   148.8800   129.1470   118.2990    24.3850   -29.5490 
  207.2500     2.1920    67.5340   151.4950   131.5370   121.4910    24.4750   -29.4490 
  207.3750     2.1920    67.0820   151.7640   132.1280   121.7300    24.5120   -29.3070 
