~V
VERS. 2.00: Ver 2.00
~W
STRT.M 59.0000:
STOP.M 243.0000:
STEP.M 0.1250:
NULL. -999.2500:
UWI. DF5058:
~C
DEPT.M :
GR.API :
CALI.CM :
RXO.OHMM :
RI. :
RML.OHMM :
DEN.GM/CC :
SP.MV :
~A
   59.0000    55.2410    25.8050     2.1200     0.2190     1.0380     2.0910    69.9910 
   59.1250    56.6690    25.8070     3.0440     0.2120     0.6030     2.1090    66.6490 
   59.2500    58.8340    25.8170     3.7400     0.1930     0.2190     2.1390    62.9760 
   59.3750    59.5050    25.7450     3.2270     0.1610    -0.0950     2.1890    58.8590 
   59.5000    57.3850    25.4410     1.9210     0.1210    -0.2800     2.2560    54.3650 
   59.6250    53.7720    24.9270     1.6800     0.0860    -0.3470     2.3280    49.4470 
   59.7500    52.0690    24.5190     2.6510     0.0640    -0.3680     2.3730    44.1580 
   59.8750    51.5350    24.3530     3.2890     0.0550    -0.3600     2.3570    38.3080 
   60.0000    49.7940    24.3190     2.8030     0.0660    -0.3190     2.2520    31.7790 
   60.1250    49.4150    24.5930     1.7800     0.1340    -0.2000     2.0930    24.6230 
   60.2500    53.3620    25.8540     2.5910     0.3180     0.0630     1.9570    16.7020 
   60.3750    57.2830    28.0180     4.0570     0.7220     0.5850     1.8630     8.3690 
   60.5000    55.8690    29.7660     4.5510     1.4630     1.5660     1.8080     0.0090 
   60.6250    53.8520    29.5910     4.8670     2.5490     3.2120     1.7870    -7.9880 
   60.7500    57.4640    28.2470     5.5610     3.5570     4.5220     1.7980   -15.3540 
   60.8750    65.2970    26.8090     6.2730     4.1820     4.7270     1.8530   -21.8990 
   61.0000    74.0830    25.7400     7.0300     4.4240     4.2880     1.9540   -27.2690 
   61.1250    85.0170    25.0860     6.1350     4.4140     3.8500     2.0860   -31.4580 
   61.2500    96.0140    24.7540     4.7840     4.3070     3.5530     2.2050   -34.3110 
   61.3750   101.9240    24.5940     3.8830     4.1730     3.3570     2.2770   -36.1970 
   61.5000   102.6920    24.5170     3.8410     4.0740     3.2460     2.3000   -37.4190 
   61.6250   101.7950    24.5340     3.8480     4.0530     3.2470     2.2960   -38.3420 
   61.7500   101.2200    24.6040     3.7770     4.0870     3.3640     2.2850   -39.2280 
   61.8750    99.1520    24.6730     3.8400     4.1410     3.5760     2.2770   -39.9430 
   62.0000    97.7870    24.7120     3.9660     4.1800     3.8040     2.2730   -40.7880 
   62.1250    99.6220    24.7200     3.9260     4.1860     3.9430     2.2770   -41.7420 
   62.2500   101.9730    24.7100     3.7440     4.1960     4.0140     2.2830   -42.7340 
   62.3750   104.5450    24.6630     3.7850     4.2620     4.0960     2.2830   -43.7550 
   62.5000   107.1240    24.5420     4.1040     4.4340     4.2920     2.2690   -44.7300 
   62.6250   103.8390    24.2880     5.0150     4.7540     4.6360     2.2390   -45.6370 
   62.7500    92.3940    23.9540     6.3770     5.1710     5.0370     2.2040   -46.5900 
   62.8750    77.5950    23.6480     7.8270     5.6070     5.4070     2.1720   -47.6840 
   63.0000    67.5850    23.4750     9.0080     5.9650     5.6720     2.1460   -48.6340 
   63.1250    65.0960    23.4690     9.5850     6.1420     5.7700     2.1300   -49.6050 
   63.2500    63.8790    23.5390    10.2420     6.1680     5.7550     2.1200   -50.4900 
   63.3750    61.4630    23.6590    10.4170     6.0970     5.6960     2.1130   -51.0690 
   63.5000    58.9990    23.8130    10.4350     5.9950     5.6640     2.1100   -51.5970 
   63.6250    58.8290    23.9430    10.4430     5.9220     5.6970     2.1090   -52.1370 
   63.7500    59.6450    24.0010    10.5410     5.8860     5.7670     2.1080   -52.3560 
   63.8750    61.4000    24.0080    10.3030     5.8700     5.8360     2.1070   -52.2530 
   64.0000    65.9140    24.0040     9.8680     5.8360     5.8600     2.1060   -52.0970 
   64.1250    70.6230    24.0050     9.5590     5.7360     5.7870     2.1060   -51.6700 
   64.2500    71.7040    23.9960     9.2690     5.5670     5.6300     2.1080   -51.2290 
   64.3750    71.6140    23.9610     8.7280     5.3540     5.4270     2.1140   -50.8620 
   64.5000    74.7280    23.8920     7.6270     5.1440     5.2400     2.1210   -50.3140 
   64.6250    77.5770    23.8110     6.8750     5.0020     5.1340     2.1270   -49.7490 
   64.7500    74.6360    23.7620     6.7200     4.9440     5.1120     2.1300   -49.2420 
   64.8750    69.7880    23.7740     7.1160     4.9650     5.1580     2.1290   -48.9400 
   65.0000    69.8920    23.8260     7.9110     5.0440     5.2380     2.1260   -48.6310 
   65.1250    73.0820    23.8800     8.5380     5.1470     5.3090     2.1240   -48.4130 
   65.2500    73.8790    23.9340     8.4360     5.2380     5.3560     2.1260   -48.2540 
   65.3750    72.4980    24.0120     8.1530     5.3150     5.3960     2.1300   -47.9830 
   65.5000    70.6640    24.1050     8.4880     5.3920     5.4560     2.1360   -47.8360 
   65.6250    68.6540    24.1950     9.3510     5.4770     5.5420     2.1440   -47.6260 
   65.7500    68.8020    24.2670     9.8790     5.5460     5.6090     2.1510   -47.2920 
   65.8750    71.9850    24.2710    10.1350     5.5620     5.6080     2.1570   -46.8720 
   66.0000    74.0400    24.1680    10.0940     5.4860     5.4990     2.1610   -46.3070 
   66.1250    75.3270    24.0190     9.4070     5.2800     5.2530     2.1640   -45.6520 
   66.2500    80.3840    23.9280     7.9540     4.9840     4.9280     2.1690   -44.9250 
   66.3750    86.9430    23.9030     6.8290     4.6500     4.5850     2.1780   -44.1580 
   66.5000    89.5600    23.9010     6.3790     4.3320     4.2810     2.1930   -43.4270 
   66.6250    87.9160    24.0050     5.6480     4.0900     4.0790     2.2150   -42.7610 
   66.7500    88.5810    24.2670     4.4760     3.9580     4.0040     2.2380   -42.1360 
   66.8750    90.8680    24.5230     4.1870     3.9620     4.0780     2.2540   -41.5040 
   67.0000    90.3110    24.5280     4.6230     4.1160     4.3050     2.2550   -41.1450 
   67.1250    86.4170    24.2590     5.4210     4.4400     4.6910     2.2370   -40.8760 
   67.2500    82.1630    24.0310     6.3290     4.8800     5.1610     2.2090   -40.7180 
   67.3750    78.8340    23.9590     7.6030     5.3790     5.6430     2.1840   -40.8270 
   67.5000    75.7510    23.9650     8.8430     5.8560     6.0500     2.1690   -40.7950 
   67.6250    73.6410    23.9750     9.2070     6.1940     6.2650     2.1690   -40.6170 
   67.7500    74.7330    23.9880     9.4320     6.3240     6.2480     2.1790   -40.5850 
   67.8750    78.2480    24.0000     9.9370     6.2060     5.9820     2.1960   -40.6320 
   68.0000    81.7490    24.0050     9.9180     5.8540     5.5080     2.2170   -40.3790 
   68.1250    84.8110    24.0020     8.5280     5.3320     4.9190     2.2380   -40.1320 
   68.2500    91.0240    24.0330     6.2020     4.7880     4.3640     2.2570   -39.7520 
   68.3750   102.6260    24.1540     4.2300     4.3180     3.9310     2.2740   -39.2470 
   68.5000   113.9240    24.3710     3.2810     3.9810     3.6640     2.2890   -38.8710 
   68.6250   117.7960    24.6390     3.2140     3.8160     3.5820     2.3020   -38.4910 
   68.7500   115.7790    24.8760     3.1670     3.7750     3.6140     2.3110   -38.0790 
   68.8750   113.9700    25.0100     3.0620     3.8130     3.7010     2.3170   -37.7530 
   69.0000   115.7430    24.9790     3.1480     3.8720     3.7810     2.3190   -37.5270 
   69.1250   115.6660    24.8850     3.2410     3.8890     3.7790     2.3250   -37.3290 
   69.2500   109.0810    24.9760     3.2140     3.8290     3.6810     2.3330   -37.2590 
   69.3750   100.3380    25.3200     3.1050     3.6940     3.5130     2.3380   -37.1550 
   69.5000    96.9790    25.7640     3.0640     3.5350     3.3570     2.3340   -37.1310 
   69.6250    98.6720    26.0040     2.9530     3.4690     3.3810     2.3290   -37.3320 
   69.7500    99.1500    25.9640     2.9490     3.6060     3.7390     2.3310   -37.5150 
   69.8750    99.6170    25.6830     3.3770     4.0860     4.6270     2.3450   -37.5450 
   70.0000   101.1610    25.2480     5.4610     5.0770     6.2260     2.3720   -37.8230 
   70.1250    97.8530    24.8390     9.4670     6.8540     8.6590     2.4090   -38.1100 
