~V
VERS. 2.00: Ver 2.00
~W
STRT.M 50.0000:
STOP.M 258.0000:
STEP.M 0.1250:
NULL. -999.2500:
UWI. DF5038:
~C
DEPT.M :
GR.API :
CALI.CM :
RXO.OHMM :
RI. :
RML.OHMM :
DEN.GM/CC :
SP.MV :
~A
# ...
  162.5000    59.7740    25.4550    10.5850    12.3230    13.6490     2.4420   -33.0920 
  162.6250    63.3740    25.4360     9.7340    11.7090    12.9780     2.4300   -33.5190 
  162.7500    62.9860    25.4320     9.1980    11.0710    12.3320     2.4210   -33.9130 
  162.8750    60.3410    25.4330     9.1270    10.5310    11.8350     2.4140   -34.2650 
  163.0000    59.4580    25.4320     9.5290    10.1780    11.5780     2.4030   -34.6540 
  163.1250    62.1500    25.4290    10.5020    10.1680    11.7600     2.3760   -35.1440 
  163.2500    65.0650    25.4250    11.5100    10.5960    12.5320     2.3360   -35.5750 
  163.3750    67.2880    25.4230    12.5340    11.6350    14.1770     2.2950   -35.9560 
  163.5000    69.6500    25.4240    14.5040    13.5620    17.1170     2.2660   -36.5390 
  163.6250    70.1910    25.4260    20.8840    17.1060    22.2960     2.2560   -36.9870 
  163.7500    68.2450    25.4260    29.4750    22.6300    29.9190     2.2500   -37.2620 
  163.8750    65.5120    25.4250    35.7630    30.4990    40.0880     2.2370   -37.6870 
  164.0000    64.5670    25.4230    38.1370    40.5710    52.3090     2.2170   -38.2470 
  164.1250    65.8110    25.4230    37.4120    51.8580    65.2330     2.1990   -38.5520 
  164.2500    66.0690    25.4230    35.7870    62.4050    76.9370     2.1910   -38.7750 
  164.3750    64.8930    25.4230    35.1950    71.0700    86.3780     2.1910   -39.1480 
  164.5000    64.1180    25.4230    34.5230    77.5470    93.3550     2.1930   -39.3450 
  164.6250    65.1750    25.4240    32.2520    81.6300    97.6880     2.2000   -39.4760 
  164.7500    66.6140    25.4220    30.2460    83.8840    99.9780     2.2050   -39.7870 
  164.8750    68.1120    25.4060    29.3710    84.6720   100.5890     2.2060   -40.0070 
  165.0000    68.7810    25.3760    28.3560    84.4020    99.9330     2.2040   -40.0280 
  165.1250    67.5080    25.3330    26.9710    83.2420    98.1660     2.2060   -40.2400 
  165.2500    66.1560    25.2790    26.0800    81.5660    95.7810     2.2120   -40.5220 
  165.3750    65.7810    25.2140    25.8430    79.7820    93.3640     2.2220   -40.6350 
  165.5000    65.1600    25.1360    25.6690    78.6150    91.8780     2.2300   -40.8940 
  165.6250    62.9870    25.0550    25.2600    79.3710    92.9510     2.2300   -41.1990 
  165.7500    60.7910    24.9830    24.4700    82.7070    97.3040     2.2200   -41.3030 
  165.8750    59.3380    24.9300    24.4540    89.2580   105.6190     2.2020   -41.4070 
  166.0000    58.2240    24.8970    25.7560    99.3830   118.1950     2.1850   -41.7360 
  166.1250    58.4230    24.8840    27.2570   113.1880   135.0880     2.1810   -41.9820 
  166.2500    59.8890    24.8830    27.5290   128.7560   154.0630     2.1910   -42.0470 
  166.3750    61.1380    24.8830    27.5350   144.5980   173.3460     2.2040   -42.2410 
  166.5000    61.9250    24.8830    28.2630   159.7810   191.7660     2.2080   -42.3950 
  166.6250    62.4670    24.8830    28.7270   174.0950   209.0210     2.1980   -42.4680 
  166.7500    62.9600    24.8830    28.8200   187.5280   225.0730     2.1870   -42.6910 
  166.8750    63.3870    24.8830    29.2490   198.2950   237.4070     2.1830   -42.9000 
  167.0000    63.8210    24.8830    30.0270   202.5530   240.6160     2.1900   -42.9870 
  167.1250    64.1230    24.8830    30.5330   194.3360   226.9600     2.2050   -42.9880 
  167.2500    63.7450    24.8830    29.8350   175.5990   200.5390     2.2220   -43.0970 
  167.3750    63.0020    24.8830    28.5290   150.9150   168.7010     2.2360   -43.1360 
  167.5000    63.5410    24.8830    27.4270   126.1640   139.0840     2.2480   -43.1820 
  167.6250    65.1460    24.8830    26.3380   106.9470   117.6540     2.2580   -43.2410 
  167.7500    66.2760    24.8830    24.8060    94.2380   104.1590     2.2640   -43.2490 
  167.8750    66.5460    24.8830    23.1010    87.6580    97.5980     2.2600   -43.2200 
  168.0000    65.5920    24.8830    22.5370    86.0330    96.4080     2.2490   -43.1700 
  168.1250    64.2650    24.8830    24.7910    88.1380    99.0800     2.2420   -43.0660 
  168.2500    62.9160    24.8830    26.6320    91.6230   103.0310     2.2420   -43.0930 
  168.3750    62.5480    24.8830    26.0310    95.2460   106.9300     2.2460   -43.0800 
  168.5000    63.5320    24.8830    24.4790    98.2410   110.0190     2.2510   -42.8590 
  168.6250    65.4660    24.8830    23.8260   100.2100   112.0160     2.2530   -42.7500 
  168.7500    68.1920    24.8830    23.8320   101.7010   113.6710     2.2520   -42.6420 
  168.8750    70.3780    24.8830    24.4710   103.4410   115.8110     2.2490   -42.4830 
  169.0000    70.1520    24.8830    25.7790   106.0010   119.0140     2.2440   -42.3830 
  169.1250    68.2460    24.8830    26.7610   109.7500   123.6700     2.2480   -42.3020 
  169.2500    67.5210    24.8830    27.3550   114.4610   129.4830     2.2540   -42.1360 
  169.3750    68.4570    24.8830    27.9310   119.8080   136.0100     2.2520   -42.0430 
  169.5000    68.0790    24.8830    28.3140   125.0380   142.2860     2.2390   -41.9920 
  169.6250    64.9250    24.8830    27.5930   128.6940   146.4810     2.2250   -41.8600 
  169.7500    63.0220    24.8830    27.0210   129.7530   147.4210     2.2210   -41.7330 
  169.8750    65.2810    24.8830    26.9470   127.6070   144.5630     2.2300   -41.6200 
  170.0000    68.6590    24.8830    27.4060   122.6180   138.5930     2.2420   -41.5290 
  170.1250    69.2360    24.8840    28.1320   116.0490   131.1850     2.2430   -41.3780 
  170.2500    68.9240    24.8810    28.9340   109.6420   124.1500     2.2350   -41.1690 
  170.3750    69.7380    24.8660    28.9960   104.1600   118.1500     2.2300   -40.9280 
  170.5000    70.1920    24.8310    28.5380   100.0160   113.4970     2.2370   -40.7720 
  170.6250    70.0000    24.7700    27.5000    97.8590   110.7970     2.2530   -40.6380 
  170.7500    71.6500    24.7050    26.6150    97.8280   110.2430     2.2680   -40.4800 
  170.8750    74.1940    24.6590    25.7230   100.3990   112.3930     2.2750   -40.3390 
  171.0000    74.5790    24.6420    24.8470   106.0860   117.8240     2.2700   -40.1750 
  171.1250    72.2000    24.6450    24.3370   115.9730   127.7210     2.2540   -40.1060 
  171.2500    68.9780    24.6450    24.2140   129.8090   141.8370     2.2370   -40.0190 
  171.3750    66.7610    24.6450    25.1680   147.3180   159.7430     2.2230   -39.9500 
  171.5000    65.3790    24.6450    26.6800   166.0940   178.3950     2.2080   -39.8270 
  171.6250    64.3150    24.6450    27.0150   176.5860   186.2370     2.1910   -39.7110 
  171.7500    63.5000    24.6450    25.8540   168.5740   172.5600     2.1800   -39.5310 
  171.8750    62.4650    24.6450    24.7360   140.3380   138.3640     2.1850   -39.4470 
  172.0000    61.6680    24.6460    24.3250   102.8880    98.0810     2.2090   -39.3020 
  172.1250    62.3110    24.6430    22.5250    71.8050    67.4590     2.2510   -39.2410 
  172.2500    66.1610    24.6310    18.4760    51.7130    48.5410     2.2930   -39.1800 
  172.3750    71.4940    24.6080    15.2560    41.3120    39.2560     2.3190   -39.1100 
  172.5000    74.7540    24.5830    15.6700    38.1230    37.1570     2.3170   -39.0340 
  172.6250    74.7060    24.5690    18.0310    41.3080    41.5120     2.2840   -38.9680 
  172.7500    72.6180    24.5650    20.0350    49.5260    50.7040     2.2420   -38.9700 
  172.8750    70.2650    24.5650    22.0280    62.4530    64.0080     2.2090   -39.0080 
  173.0000    68.7560    24.5590    23.7650    78.3380    79.5580     2.1930   -39.0340 
  173.1250    67.9750    24.5430    23.5700    92.8650    93.4790     2.1960   -39.0800 
  173.2500    66.6570    24.5270    22.4900   102.6470   102.9910     2.2030   -39.1650 
  173.3750    65.8700    24.5210    21.2300   107.4370   108.0840     2.2040   -39.2870 
  173.5000    66.2000    24.5240    20.7200   109.1300   110.7800     2.2010   -39.4670 
  173.6250    66.3380    24.5250    20.8790   110.1940   113.6640     2.1990   -39.6900 
