~V
VERS. 2.00: Ver 2.00
~W
STRT.M 72.0000:
STOP.M 259.0000:
STEP.M 0.1250:
NULL. -999.2500:
UWI. DF5020:
~C
DEPT.M :
DEN.GM/CC :
GR.API :
RML.OHMM :
RI. :
RXO.OHMM :
CALI.CM :
SP.MV :
~A
# ...
  252.0000     2.3370    75.9370     6.6650     5.6650     7.5260    24.3710   -15.0760 
  252.1250     2.3450    75.9370     6.6710     5.6710     7.4370    24.3840   -15.0270 
  252.2500     2.3610    75.9370     6.6740     5.6740     7.1280    24.3370   -14.9780 
  252.3750     2.3810    75.9370     6.6730     5.6730     6.6390    24.2830   -14.9470 
  252.5000     2.4020    75.9370     6.6710     5.6710     6.2430    24.2550   -14.9290 
  252.6250     2.4200    75.9370     6.6710     5.6710     6.3970    24.2440   -14.9470 
  252.7500     2.4320    75.9370     6.6750     5.6750     6.9750    24.2870   -14.8960 
  252.8750     2.4400    75.9370     6.6810     5.6810     7.7330    24.3600   -14.8440 
  253.0000     2.4420    75.9370     6.6870     5.6870     8.6610    24.4200   -14.7700 
  253.1250     2.4370    75.9370     6.6920     5.6920     8.9160    24.4410   -14.7920 
  253.2500     2.4290    75.9370     6.6960     5.6960     8.4280    24.4490   -14.7670 
  253.3750     2.4160    75.9370     6.6970     5.6970     7.9500    24.4490   -14.7430 
  253.5000     2.4010    75.9370     6.6970     5.6970     7.8250    24.4210   -14.7160 
  253.6250     2.3840    75.9370     6.6980     5.6980     7.0060    24.3480   -14.6120 
  253.7500     2.3680    75.9370     6.6990     5.6990     6.4930    24.3060   -14.5690 
  253.8750     2.3570    75.9370     6.7000     5.7000     6.1220    24.4090   -14.5220 
  254.0000     2.3550    75.9370     6.7010     5.7010     6.0250    24.5220   -14.5140 
  254.1250     2.3640    75.9370     6.7010     5.7010     6.2920    24.5620   -14.5170 
  254.2500     2.3770    75.9370     6.7010     5.7010     6.5500    24.5540   -14.5140 
  254.3750     2.3820    75.9370     6.7010     5.7010     6.5230    24.5300   -14.5290 
  254.5000     2.3880    75.9370     6.7010     5.7010     6.2410    24.5730   -14.5320 
  254.6250     2.3840    75.9370     6.7010     5.7010     6.2310    24.6720   -14.5280 
  254.7500     2.3840    75.9370     6.7010     5.7010     7.5770    24.7350   -14.4960 
  254.8750     2.3920    75.9370     6.7010     5.7010     8.3090    24.7150   -14.5000 
  255.0000     2.4040    75.9370     6.7010     5.7010     8.3210    24.7220   -14.4780 
  255.1250     2.4060    75.9370     6.7010     5.7010     7.7190    24.7650   -14.4100 
  255.2500     2.3920    75.9370     6.7010     5.7010     6.8660    24.8670   -14.3680 
  255.3750     2.3670    75.9370     6.7010     5.7010     6.2280    24.9770   -14.3390 
  255.5000     2.3410    75.9370     6.7010     5.7010     5.8230    24.9430   -14.2390 
  255.6250     2.3250    75.9370     6.7010     5.7010     5.5600    24.6140   -14.1680 
  255.7500     2.3130    75.9370     6.7010     5.7010     5.2960    24.1430   -14.1720 
  255.8750     2.2950    75.9370     6.7010     5.7010     5.1970    23.9370   -14.0850 
  256.0000     2.2640    75.9370     6.7010     5.7010     5.2000    23.9360   -13.9590 
  256.1250     2.2210    75.9370     6.7010     5.7010     5.1870    23.9430   -13.9590 
  256.2500     2.1800    75.9370     6.7010     5.7010     5.1110    23.5500   -13.9590 
  256.3750     2.1490    75.9370     6.7010     5.7010     5.0490    22.4230  -999.2500 
  256.5000     2.1300    75.9370     6.7010     5.7010     4.9330    21.1370  -999.2500 
  256.6250     2.1210    75.9370     6.7010     5.7010     4.8890    20.5810  -999.2500 
  256.7500     2.1170    75.9370     6.7010     5.7010     4.8840    20.4970  -999.2500 
  256.8750     2.1130    75.9370     6.7010     5.7010     4.9350    20.4990  -999.2500 
  257.0000     2.1090    75.9370     6.7010     5.7010     4.9920    20.5000  -999.2500 
  257.1250     2.1050    75.9370     6.7010     5.7010     4.9950    20.5010  -999.2500 
  257.2500     2.1010    75.9370     6.7010     5.7010     4.9700    20.5010  -999.2500 
  257.3750     2.0970    75.9370     6.7010     5.7010     5.0030    20.5010  -999.2500 
  257.5000     2.0950    75.9370     6.7010     5.7010     5.0210    20.5010  -999.2500 
  257.6250     2.0970    75.9370     6.7010     5.7010     5.0010    20.5010  -999.2500 
  257.7500     2.1000    75.9370     6.7010     5.7010     5.0020    20.5010  -999.2500 
  257.8750     2.1040    75.9370     6.7010     5.7010     5.0260    20.5010  -999.2500 
  258.0000     2.1060    75.9370     6.7010     5.7010     4.9820    20.5010  -999.2500 
  258.1250     2.1050    75.9370     6.7010     5.7010     4.9620    20.5000  -999.2500 
  258.2500     2.1030    75.9370     6.6990     5.7010     5.0050    20.4980  -999.2500 
  258.3750     2.1020    75.9370     6.6980     5.7010     5.0720    20.4940  -999.2500 
  258.5000     2.1020    75.9370     6.7020     5.7010     5.0720    20.4920  -999.2500 
  258.6250  -999.2500    75.9370     6.7100     5.7010     5.0380    20.4910  -999.2500 
  258.7500  -999.2500    75.9370     6.7300     5.7010     5.0030    20.4910  -999.2500 
  258.8750  -999.2500    75.9370     6.7570     5.7050     5.0320    20.4910  -999.2500 
  259.0000  -999.2500  -999.2500  -999.2500  -999.2500  -999.2500  -999.2500  -999.2500 
