~V
VERS. 2.00: Ver 2.00
~W
STRT.M 60.0000:
STOP.M 249.0000:
STEP.M 0.1250:
NULL. -999.2500:
UWI. DF5060:
~C
DEPT.M :
GR.API :
CALI.CM :
RXO.OHMM :
RI. :
RML.OHMM :
DEN.GM/CC :
SP.MV :
~A
# ...
   93.7500    72.2390    23.6340     7.1010     6.3940     7.3660     2.2300   -28.7340 
   93.8750    72.2470    23.5700     7.1140     6.4160     7.4550     2.2300   -28.7630 
   94.0000    72.0070    23.3910     7.7900     6.5460     7.7060     2.2160   -28.7980 
   94.1250    69.7260    23.1650     8.2340     6.7740     8.0780     2.1920   -28.8440 
   94.2500    67.8250    23.2010     8.4910     7.0380     8.4560     2.1710   -28.9230 
   94.3750    67.8830    23.5420     8.7680     7.2800     8.7340     2.1590   -28.9110 
   94.5000    69.8530    23.7460     9.1130     7.4310     8.8170     2.1580   -28.9200 
   94.6250    71.8570    23.3600     8.8990     7.4100     8.6320     2.1640   -28.8850 
   94.7500    71.5630    22.8230     8.1940     7.2630     8.3130     2.1680   -28.8070 
   94.8750    68.2210    22.5760     7.6980     7.1030     8.0630     2.1670   -28.6750 
   95.0000    64.6120    22.6280     7.7330     7.0980     8.1160     2.1600   -28.5360 
   95.1250    65.4070    22.7820     8.1920     7.4670     8.7150     2.1530   -28.2920 
   95.2500    67.2120    23.0140     9.2310     8.2150     9.7380     2.1580   -28.0600 
   95.3750    66.9610    23.2650    11.4860     9.2300    10.9220     2.1840   -27.8010 
   95.5000    66.8090    23.4910    14.0030    10.2110    11.8350     2.2330   -27.5110 
   95.6250    68.3940    23.6390    14.3100    10.6010    11.8960     2.2900   -27.2200 
   95.7500    68.2460    23.6590    12.2580    10.2490    11.1460     2.3230   -26.9530 
   95.8750    66.6150    23.5360    10.0210     9.3390     9.9060     2.3080   -26.6860 
   96.0000    65.9480    23.3380     8.8190     8.2220     8.5950     2.2510   -26.4010 
   96.1250    68.0640    23.1850     8.3630     7.2050     7.5280     2.1810   -26.1000 
   96.2500    71.3230    23.1680     7.8950     6.3780     6.7090     2.1270   -25.8000 
   96.3750    74.1350    23.3300     7.0810     5.7370     6.0910     2.1020   -25.5220 
   96.5000    76.5760    23.6220     6.1230     5.2910     5.6970     2.1070   -25.3090 
   96.6250    80.4980    23.8730     5.7060     5.1560     5.7380     2.1380   -25.1530 
   96.7500    83.0040    23.9660     5.7790     5.3960     6.3190     2.1790   -25.0340 
   96.8750    80.5620    23.9450     5.8950     6.0840     7.5010     2.2240   -24.9890 
   97.0000    73.5930    23.9090     6.6660     7.2330     9.1860     2.2730   -25.0530 
   97.1250    66.4310    23.8780    11.2510     8.6720    10.9220     2.3250   -25.3970 
   97.2500    62.7070    23.7890    14.6250     9.8090    11.9730     2.3690   -25.6960 
   97.3750    62.7760    23.6280    13.3130    10.1620    11.9360     2.3810   -26.0770 
   97.5000    66.3560    23.4100     9.6950     9.7190    11.0250     2.3450   -26.5170 
   97.6250    69.1080    23.1440     8.2110     8.9160     9.9080     2.2780   -26.7960 
   97.7500    69.1160    22.8840     8.2090     8.2540     9.1380     2.2130   -27.0320 
   97.8750    69.0010    22.6920     8.3240     7.8920     8.8270     2.1630   -27.2180 
   98.0000    69.9770    22.6000     8.3100     7.8110     8.8520     2.1340   -27.3950 
   98.1250    70.5560    22.5810     8.1890     7.9000     9.0130     2.1230   -27.4120 
   98.2500    71.4530    22.5820     8.0050     8.0100     9.1560     2.1230   -27.3800 
   98.3750    73.9930    22.5970     7.8850     8.0970     9.2620     2.1280   -27.3110 
   98.5000    77.7040    22.6190     7.9640     8.1500     9.3320     2.1350   -27.1270 
   98.6250    78.3830    22.6360     8.1680     8.1580     9.3470     2.1430   -27.0410 
   98.7500    77.2510    22.6490     8.1900     8.1290     9.3040     2.1500   -26.9160 
   98.8750    77.2980    22.6570     8.0860     8.0700     9.2130     2.1530   -26.8280 
   99.0000    77.4040    22.6470     7.9180     7.9870     9.1030     2.1500   -26.7910 
   99.1250    75.6040    22.6270     7.8980     7.8900     9.0180     2.1440   -26.6370 
   99.2500    72.4730    22.6220     8.0310     7.8020     8.9780     2.1400   -26.5040 
   99.3750    69.2910    22.6350     8.1560     7.7440     8.9900     2.1370   -26.3540 
   99.5000    68.1770    22.6460     8.1330     7.7330     9.0460     2.1360   -26.2060 
   99.6250    68.4840    22.6450     8.0640     7.7760     9.1250     2.1360   -26.0240 
   99.7500    68.4150    22.6440     8.1160     7.8360     9.1740     2.1350   -25.8820 
   99.8750    68.2360    22.6440     8.2100     7.8650     9.1390     2.1340   -25.7360 
  100.0000    68.2430    22.6440     8.2310     7.8240     8.9860     2.1320   -25.4370 
  100.1250    68.2690    22.6440     8.1880     7.6840     8.7100     2.1300   -25.2740 
  100.2500    67.4020    22.6440     7.9730     7.4830     8.3960     2.1270   -25.0590 
  100.3750    67.7540    22.6450     7.5600     7.2720     8.1270     2.1260   -24.8250 
  100.5000    70.5590    22.6450     7.2450     7.1180     7.9830     2.1260   -24.6260 
  100.6250    74.4050    22.6360     7.1810     7.1000     8.0550     2.1270   -24.4140 
  100.7500    77.7150    22.6170     7.3360     7.2170     8.3010     2.1270   -24.1990 
  100.8750    78.5690    22.5960     7.4940     7.4180     8.6080     2.1260   -23.9520 
  101.0000    76.5250    22.5860     7.6150     7.5760     8.7790     2.1240   -23.7110 
  101.1250    72.9500    22.5890     7.6290     7.4680     8.5250     2.1200   -23.3780 
  101.2500    70.8560    22.5630     7.4690     7.0320     7.8430     2.1160   -23.0430 
  101.3750    72.5020    22.5520     6.8970     6.3400     6.8840     2.1160   -22.7260 
  101.5000    79.5280    22.9730     5.8440     5.5570     5.9040     2.1260   -22.4480 
  101.6250    90.0270    23.6910     5.0190     4.8950     5.1890     2.1500   -22.2250 
  101.7500    97.3980    23.9470     4.7870     4.4580     4.8220     2.1810   -22.1000 
  101.8750    98.4240    23.5390     4.8580     4.2890     4.8260     2.2080   -22.0260 
  102.0000    95.0430    22.9290     5.0290     4.3950     5.1900     2.2220   -22.0820 
  102.1250    91.8030    22.6150     5.4590     4.7960     5.9100     2.2210   -22.2880 
  102.2500    89.2950    22.3780     6.1210     5.3900     6.8090     2.2110   -22.6220 
  102.3750    86.5400    22.1730     6.8590     6.0810     7.7100     2.1960   -22.9700 
  102.5000    82.7100    22.0250     7.4860     6.7460     8.4310     2.1770   -23.3200 
  102.6250    76.9610    21.9180     7.7970     7.2200     8.8020     2.1580   -23.6020 
  102.7500    72.4820    21.8800     7.8670     7.4710     8.8990     2.1400   -23.7870 
  102.8750    71.9160    21.8960     7.8270     7.5360     8.8320     2.1250   -23.9390 
  103.0000    74.0600    21.9300     7.9110     7.4960     8.7180     2.1140   -23.9490 
  103.1250    73.4310    21.9890     8.5520     7.4340     8.6450     2.1100   -23.8820 
  103.2500    70.1900    22.0890     9.0260     7.4030     8.6330     2.1130   -23.7470 
  103.3750    67.2170    22.2010     8.7590     7.4120     8.6720     2.1210   -23.5860 
  103.5000    66.7820    22.2660     8.1160     7.4560     8.7410     2.1330   -23.3450 
  103.6250    68.3680    22.2590     7.9100     7.5340     8.8230     2.1430   -23.0870 
  103.7500    69.2320    22.2310     7.9090     7.6280     8.9010     2.1500   -22.7620 
  103.8750    68.0510    22.2050     7.8610     7.7100     8.9440     2.1510   -22.3920 
  104.0000    66.6770    22.1810     7.7320     7.7320     8.8970     2.1480   -21.9910 
  104.1250    67.9460    22.1670     7.7010     7.6090     8.6540     2.1440   -21.5380 
  104.2500    70.0480    22.1750     7.6350     7.3100     8.1860     2.1470   -21.0330 
  104.3750    70.7880    22.2020     7.2050     6.8350     7.5100     2.1610   -20.4960 
  104.5000    72.4710    22.2320     6.4290     6.2410     6.7150     2.1870   -19.9900 
  104.6250    80.7840    22.2390     5.7670     5.6340     5.9600     2.2230   -19.4970 
  104.7500    93.9480    22.2320     5.3740     5.1170     5.3700     2.2570   -19.0990 
  104.8750   104.3980    22.2600     5.1310     4.7490     5.0060     2.2820   -18.7700 
