~V
VERS. 2.00: Ver 2.00
~W
STRT.M 55.0000:
STOP.M 270.0000:
STEP.M 0.1250:
NULL. -999.2500:
UWI. DF5017:
~C
DEPT.M :
SP.MV :
GR.API :
CALI.CM :
RXO.OHMM :
RI. :
RML.OHMM :
DEN.GM/CC :
~A
# ...
  257.5000    -9.0400    76.2350    23.6170     9.5430     7.3840     9.1920     2.4060 
  257.6250    -9.1610    75.9430    23.6170     9.6000     7.4410     9.1990     2.4270 
  257.7500    -9.2570    76.0620    23.6170     9.7550     7.4980     9.2070     2.4470 
  257.8750    -9.3070    76.9740    23.6170     9.8900     7.5480     9.2160     2.4550 
  258.0000    -9.3210    77.1040    23.6170     9.9170     7.5830     9.2200     2.4500 
  258.1250    -9.3360    76.6310    23.6170     9.8680     7.5940     9.2030     2.4380 
  258.2500    -9.3510    76.6310    23.6170     9.8000     7.5840     9.1570     2.4310 
  258.3750    -9.3620    76.6310    23.6170     9.8190     7.5560     9.0880     2.4320 
  258.5000    -9.3510    76.6310    23.6170    10.1360     7.5190     9.0120     2.4390 
  258.6250    -9.2700    76.6310    23.6170    10.5290     7.4900     8.9680     2.4500 
  258.7500    -9.1650    76.6310    23.6180    10.7630     7.4990     8.9940     2.4700 
  258.8750    -9.0650    76.6310    23.6210    10.9090     7.5800     9.1260     2.4930 
  259.0000    -8.9850    76.6310    23.6240    11.1400     7.7740     9.3860     2.5030 
  259.1250    -8.9530    76.6310    23.6250    11.3260     8.1250     9.7930     2.4870 
  259.2500    -8.9430    76.6310    23.6250    11.2560     8.5820    10.2760     2.4590 
  259.3750    -8.9180    76.6310    23.6250    11.0630     9.0590    10.7420     2.4340 
  259.5000    -8.8510    76.6310    23.6250    10.9530     9.4380    11.0750     2.4190 
  259.6250    -8.8080    76.6310    23.6250    11.0650     9.5740    11.1270     2.4150 
  259.7500    -8.7810    76.6310    23.6250    11.4720     9.4710    10.9270     2.4170 
  259.8750    -8.7440    76.6310    23.6250    12.0540     9.1850    10.5570     2.4230 
  260.0000    -8.6990    76.6310    23.6250    12.3390     8.8070    10.1390     2.4310 
  260.1250    -8.6010    76.6310    23.6250    12.1450     8.4300     9.7910     2.4430 
  260.2500    -8.4910    76.6310    23.6250    11.7430     8.1120     9.5450     2.4510 
  260.3750    -8.4130    76.6310    23.6250    11.3340     7.8800     9.3930     2.4540 
  260.5000    -8.3940    76.6310    23.6270    10.7370     7.7330     9.3010     2.4570 
  260.6250    -8.3910    76.6310    23.6310     9.9870     7.6620     9.2380     2.4610 
  260.7500    -8.4150    76.6310    23.6320     9.4870     7.6290     9.1850     2.4610 
  260.8750    -8.4480    76.6310    23.6330     9.3760     7.6180     9.1500     2.4560 
  261.0000    -8.4670    76.6310    23.6330     9.5940     7.6190     9.1360     2.4550 
  261.1250    -8.4880    76.6310    23.6330     9.8500     7.6270     9.1380     2.4640 
  261.2500    -8.4940    76.6310    23.6320    10.0650     7.6370     9.1350     2.4710 
  261.3750    -8.4820    76.6310    23.6290    10.4720     7.6400     9.1050     2.4710 
  261.5000    -8.4300    76.6310    23.6220    11.2750     7.6330     9.0350     2.4690 
  261.6250    -8.3190    76.6310    23.6210    12.0180     7.6140     8.9310     2.4730 
  261.7500    -8.1680    76.6310    23.6230    11.7940     7.5950     8.8300     2.4760 
  261.8750    -7.9800    76.6310    23.6280    10.4330     7.5920     8.7580     2.4730 
  262.0000    -7.8320    76.6310    23.6400     8.7180     7.6140     8.7180     2.4650 
  262.1250    -7.6770    76.6310    23.6750     7.8460     7.6610     8.6930     2.4550 
  262.2500    -7.5060    76.6310    23.7320     8.0570     7.7060     8.6370     2.4440 
  262.3750    -7.3120    76.6310    23.7890     9.2740     7.7080     8.5190     2.4340 
  262.5000    -7.1000    76.6310    23.8270    10.7470     7.6210     8.3470     2.4330 
  262.6250    -6.9070    76.6310    23.8400    10.9880     7.4170     8.1700     2.4440 
  262.7500    -6.7620    76.6310    23.8450     9.9770     7.1610     8.0340     2.4550 
  262.8750    -6.6950    76.6310    23.8480     8.6690     6.9250     7.9520     2.4530 
  263.0000    -6.6060    76.6310    23.8450     7.9420     6.7650     7.9100     2.4370 
  263.1250    -6.5010    76.6310    23.8330     7.9830     6.7070     7.8790     2.4170 
  263.2500    -6.4510    76.6310    23.8290     8.2480     6.7010     7.8380     2.4070 
  263.3750    -6.4100    76.6310    23.8520     8.4080     6.7020     7.7900     2.4080 
  263.5000    -6.3680    76.6310    23.8950     8.1520     6.6870     7.7470     2.4150 
  263.6250    -6.4100    76.6310    23.9080     7.4510     6.6600     7.7080     2.4160 
  263.7500    -6.4140    76.6310    23.9090     6.7650     6.6380     7.6640     2.4120 
  263.8750    -6.4000    76.6310    23.9080     6.4080     6.6320     7.6160     2.4120 
  264.0000    -6.3500    76.6310    23.9080     6.3260     6.6410     7.5780     2.4190 
  264.1250    -6.2740    76.6310    23.9070     6.2700     6.6530     7.5680     2.4320 
  264.2500    -6.2340    76.6310    23.9060     6.1920     6.6530     7.5680     2.4400 
  264.3750    -6.2080    76.6310    23.9060     6.1410     6.6530     7.5680     2.4430 
  264.5000    -6.2040    76.6310    23.9070     6.1080     6.6530     7.5680     2.4430 
  264.6250    -6.1180    76.6310    23.9080     6.0370     6.6530     7.5680     2.4430 
  264.7500    -5.9870    76.6310    23.9090     6.0040     6.6530     7.5680     2.4430 
  264.8750    -5.8100    76.6310    23.9100     6.0370     6.6530     7.5680     2.4380 
  265.0000    -5.6610    76.6310    23.9150     6.0960     6.6530     7.5680     2.4250 
  265.1250    -5.5820    76.6310    23.9200     6.1360     6.6530     7.5680     2.4070 
  265.2500    -5.4320    76.6310    23.9280     6.1820     6.6530     7.5680     2.3890 
  265.3750    -5.2780    76.6310    23.9360     6.2300     6.6530     7.5680     2.3790 
  265.5000    -5.1240    76.6310    23.9400     6.3110     6.6530     7.5680     2.3820 
  265.6250    -4.9940    76.6310    23.9410     6.5220     6.6530     7.5680     2.4010 
  265.7500    -4.9230    76.6310    23.9410     6.9010     6.6530     7.5680     2.4210 
  265.8750    -4.8460    76.6310    23.9390     7.5060     6.6530     7.5680     2.4320 
  266.0000    -4.7820    76.6310    23.9330     8.2040     6.6530     7.5680     2.4390 
  266.1250    -4.7230    76.6310    23.9230     8.7060     6.6530     7.5680     2.4500 
  266.2500    -4.7120    76.6310    23.9090     9.1090     6.6530     7.5680     2.4560 
  266.3750    -4.7110    76.6310    23.8630     9.8990     6.6530     7.5680     2.4480 
  266.5000    -4.6790    76.6310    23.7460    11.3990     6.6530     7.5680     2.4340 
  266.6250    -4.6330    76.6310    23.6730    12.0620     6.6530     7.5680     2.4360 
  266.7500    -4.5930    76.6310    23.6260    11.4730     6.6530     7.5680     2.4540 
  266.8750    -4.5630    76.6310    23.5850    10.3180     6.6530     7.5680     2.4650 
  267.0000    -4.5260    76.6310    23.5270     9.6450     6.6530     7.5680     2.4610 
  267.1250    -4.5030    76.6310    23.4780     9.7330     6.6530     7.5680     2.4510 
  267.2500    -4.4840    76.6310    23.4570    10.0290     6.6530     7.5680     2.3930 
  267.3750    -4.4640    76.6310    23.4520    10.1430     6.6530     7.5680     2.2240 
  267.5000    -4.4710    76.6310    23.4170     9.6720     6.6530     7.5680     1.9680 
  267.6250    -4.4700    76.6310    22.8880     8.5150     6.6530     7.5680     1.7780 
  267.7500    -4.4380    76.6310    21.2720     7.4030     6.6530     7.5680     1.7270 
  267.8750    -4.4330    76.6310    18.7940     6.7840     6.6530     7.5680     1.7560 
  268.0000    -4.4590    76.6310    17.1850     6.6020     6.6530     7.5680     1.7880 
  268.1250    -4.4910    76.6310    16.7570     6.5940     6.6530     7.5680     1.7950 
  268.2500    -4.4800    76.6310    16.7470     6.5950     6.6530     7.5680     1.7950 
  268.3750    -4.4190    76.6310    16.7470     6.5960     6.6530     7.5680     1.7960 
  268.5000    -4.4040    76.6310    16.7460     6.5960     6.6530     7.5680     1.7960 
  268.6250    -4.4040    76.6310    16.7440     6.5950     6.6530     7.5680     1.7950 
