~V
VERS. 2.00: Ver 2.00
~W
STRT.M 58.0000:
STOP.M 276.0000:
STEP.M 0.1250:
NULL. -999.2500:
UWI. DF5012:
~C
DEPT.M :
SP.MV :
GR.API :
CALI.CM :
RXO.OHMM :
RI. :
RML.OHMM :
DEN.GM/CC :
~A
# ...
  260.5000   -30.9030    64.6130    25.3180    13.0450    14.7560    14.5940     2.4980 
  260.6250   -30.7260    64.4760    25.3370    12.8330    14.8860    14.6830     2.4970 
  260.7500   -30.6280    64.8100    25.3360    13.2190    14.9470    14.7180     2.4950 
  260.8750   -30.5810    64.4370    25.3630    13.8780    14.9610    14.7180     2.4960 
  261.0000   -30.5370    64.2260    25.4080    14.4040    14.9390    14.6880     2.4980 
  261.1250   -30.4040    66.5020    25.4410    14.6840    14.8750    14.6180     2.4990 
  261.2500   -30.2220    69.6930    25.4470    14.8900    14.7860    14.5220     2.5010 
  261.3750   -30.0500    70.6810    25.4530    15.2440    14.7030    14.4410     2.5020 
  261.5000   -30.0060    68.8050    25.4800    15.8330    14.6660    14.4240     2.5050 
  261.6250   -30.0780    65.8060    25.5180    16.9000    14.7280    14.5170     2.5090 
  261.7500   -30.0670    65.3570    25.5420    16.5530    14.8810    14.6980     2.5120 
  261.8750   -30.0380    67.6730    25.5460    15.5140    15.1030    14.9260     2.5120 
  262.0000   -29.9510    70.3030    25.5450    14.5740    15.3500    15.1510     2.5070 
  262.1250   -29.8310    71.2190    25.5460    14.4080    15.5610    15.3030     2.5000 
  262.2500   -29.7950    72.1950    25.5470    15.4580    15.6920    15.3600     2.4940 
  262.3750   -29.8790    74.8310    25.5470    18.0660    15.7310    15.3300     2.4910 
  262.5000   -29.9020    75.9700    25.5470    19.0330    15.7010    15.2470     2.4920 
  262.6250   -29.8290    72.3760    25.5470    17.9220    15.6450    15.1650     2.4940 
  262.7500   -29.8290    68.0500    25.5470    16.5580    15.6090    15.1240     2.4940 
  262.8750   -29.8200    66.4890    25.5470    16.4710    15.6010    15.1250     2.4920 
  263.0000   -29.8290    67.3630    25.5470    16.6840    15.5950    15.1330     2.4860 
  263.1250   -29.8490    67.6900    25.5500    16.7570    15.5350    15.0810     2.4800 
  263.2500   -29.9480    66.9070    25.5420    16.3290    15.4020    14.9450     2.4770 
  263.3750   -29.9690    65.2380    25.4980    15.7650    15.2080    14.7410     2.4790 
  263.5000   -30.0120    63.6480    25.4210    15.8210    14.9910    14.5170     2.4860 
  263.6250   -30.0560    63.5010    25.3570    16.3200    14.8120    14.3460     2.4970 
  263.7500   -30.1250    64.0810    25.3290    16.7360    14.7060    14.2590     2.5050 
  263.8750   -30.1390    65.1110    25.3230    17.3350    14.6800    14.2530     2.5090 
  264.0000   -30.1830    67.5040    25.3210    16.4940    14.7220    14.3080     2.5090 
  264.1250   -30.2790    70.4390    25.3180    14.7870    14.8140    14.3940     2.5070 
  264.2500   -30.3140    69.9940    25.3170    14.1410    14.9210    14.4800     2.5050 
  264.3750   -30.4680    66.5880    25.3140    15.4760    15.0150    14.5470     2.5020 
  264.5000   -30.6040    64.2780    25.3060    16.5530    15.0720    14.5740     2.4960 
  264.6250   -30.6270    65.6080    25.2940    16.7830    15.0500    14.5330     2.4860 
  264.7500   -30.6650    68.3420    25.2840    15.9830    14.9450    14.4240     2.4720 
  264.8750   -30.8680    69.3190    25.2820    14.0880    14.7710    14.2610     2.4560 
  265.0000   -31.0370    67.4490    25.2860    12.4800    14.5580    14.0730     2.4440 
  265.1250   -31.1690    65.4060    25.2940    12.0300    14.3440    13.8920     2.4390 
  265.2500   -31.2780    65.2130    25.2980    12.2380    14.1420    13.7140     2.4400 
  265.3750   -31.2720    65.7020    25.2970    12.1050    13.9390    13.5180     2.4450 
  265.5000   -31.2140    65.2510    25.2930    12.0700    13.7300    13.3070     2.4530 
  265.6250   -31.1630    66.4500    25.2960    12.0180    13.5580    13.1430     2.4620 
  265.7500   -31.1220    67.6670    25.2890    12.6420    13.4820    13.1020     2.4680 
  265.8750   -31.0760    67.6670    25.2420    12.6030    13.5420    13.2240     2.4720 
  266.0000   -31.0190    67.6670    25.1360    11.7590    13.7430    13.4940     2.4770 
  266.1250   -30.8640    67.6670    24.9990    11.3010    14.0410    13.8230     2.4830 
  266.2500   -30.7410    67.6670    24.8860    12.4430    14.3020    14.0660     2.4900 
  266.3750   -30.6360    67.6670    24.8150    13.2900    14.4230    14.1350     2.4940 
  266.5000   -30.4760    67.6670    24.7780    13.5370    14.3560    14.0120     2.4930 
  266.6250   -30.3990    67.6670    24.7550    13.3380    14.1230    13.7590     2.4860 
  266.7500   -30.3110    67.6670    24.7360    12.9600    13.8780    13.5450     2.4800 
  266.8750   -30.0900    67.6670    24.7160    12.1250    13.7500    13.4970     2.4770 
  267.0000   -29.8470    67.6670    24.6730    11.7430    13.8230    13.6800     2.4770 
  267.1250   -29.8320    67.6670    24.6550    13.1530    14.1440    14.1050     2.4810 
  267.2500   -29.8110    67.6670    24.7180    15.0150    14.6130    14.6380     2.4860 
  267.3750   -29.7340    67.6670    24.8310    16.0720    15.1260    15.1670     2.4910 
  267.5000   -29.7620    67.6670    24.9060    16.3990    15.5720    15.5930     2.4940 
  267.6250   -29.8530    67.6670    24.9050    16.5880    15.8510    15.8420     2.4950 
  267.7500   -29.9300    67.6670    24.8990    17.6460    15.9900    15.9600     2.4940 
  267.8750   -29.9510    67.6670    24.9000    18.6940    16.0390    15.9970     2.4920 
  268.0000   -29.9940    67.6670    24.9000    18.7130    16.0510    16.0040     2.4910 
  268.1250   -29.9390    67.6670    24.9000    16.8780    16.0580    16.0070     2.4910 
  268.2500   -29.8960    67.6670    24.9000    16.0090    16.0610    16.0090     2.4910 
  268.3750   -29.9270    67.6670    24.8980    15.5110    16.0610    16.0090     2.4920 
  268.5000   -29.9450    67.6670    24.8950    15.4790    16.0600    16.0050     2.4930 
  268.6250   -29.9310    67.6670    24.8930    15.4090    16.0610    15.9960     2.4960 
  268.7500   -29.8470    67.6670    24.8920    15.0600    16.0630    15.9850     2.5010 
  268.8750   -29.7590    67.6670    24.8920    14.8630    16.0630    15.9730     2.5070 
  269.0000   -29.6030    67.6670    24.8920    14.8770    16.0620    15.9640     2.5120 
  269.1250   -29.4650    67.6670    24.8920    15.0280    16.0620    15.9640     2.5120 
  269.2500   -29.3070    67.6670    24.8920    14.8310    16.0640    15.9660     2.5090 
  269.3750   -29.1960    67.6670    24.8920    14.6280    16.0660    15.9650     2.5030 
  269.5000   -29.1030    67.6670    24.8930    14.8880    16.0630    15.9570     2.4990 
  269.6250   -28.9490    67.6670    24.8920    15.0720    16.0560    15.9500     2.4990 
  269.7500   -28.9260    67.6670    24.8810    15.2150    16.0500    15.9500     2.5030 
  269.8750   -29.0270    67.6670    24.8610    15.5910    16.0520    15.9570     2.5080 
  270.0000   -29.1340    67.6670    24.8440    16.0620    16.0650    15.9640     2.5120 
  270.1250   -29.0920    67.6670    24.8350    16.0810    16.0820    15.9660     2.5130 
  270.2500   -29.1760    67.6670    24.8080    17.1900    16.0990    15.9630     2.5120 
  270.3750   -29.2780    67.6670    24.7630    18.6900    16.1110    15.9620     2.5120 
  270.5000   -29.4020    67.6670    24.7260    18.6570    16.1140    15.9660     2.5140 
  270.6250   -29.4600    67.6670    24.7170    17.1400    16.1050    15.9720     2.5160 
  270.7500   -29.3810    67.6670    24.7190    17.1270    16.0890    15.9720     2.5170 
  270.8750   -29.3240    67.6670    24.7180    16.8220    16.0690    15.9580     2.5150 
  271.0000   -29.4020    67.6670    24.7030    16.2650    16.0490    15.9330     2.5120 
  271.1250   -29.5090    67.6670    24.6640    16.2070    16.0370    15.9070     2.5100 
  271.2500   -29.4570    67.6670    24.6260    15.8820    16.0380    15.8910     2.5080 
  271.3750   -29.3230    67.6670    24.6150    15.1460    16.0510    15.8870     2.5040 
  271.5000   -29.2430    67.6670    24.6270    14.5370    16.0770    15.8930     2.4940 
  271.6250   -29.2880    67.6670    24.6290    13.7250    16.0770    15.8930     2.4780 
