~V
VERS. 2.00: Ver 2.00
~W
STRT.M 55.0000:
STOP.M 261.0000:
STEP.M 0.1250:
NULL. -999.2500:
UWI. DF5033:
~C
DEPT.M :
SP.MV :
GR.API :
CALI.CM :
RXO.OHMM :
RI. :
RML.OHMM :
DEN.GM/CC :
~A
# ...
  133.7500   -17.9060   104.1500    25.6530     4.5650     4.5610     5.4920     2.3060 
  133.8750   -17.8710   101.8100    25.6650     4.5610     4.5430     5.4530     2.3000 
  134.0000   -17.7930   101.6750    25.6780     4.4790     4.4720     5.3240     2.2950 
  134.1250   -17.6860   104.1180    25.6880     4.3600     4.3340     5.1090     2.2960 
  134.2500   -17.5500   102.5110    25.6940     4.2700     4.1530     4.8560     2.3050 
  134.3750   -17.4100   101.3610    25.7020     4.1810     3.9510     4.5900     2.3160 
  134.5000   -17.2980   106.7810    25.7250     4.0610     3.7640     4.3460     2.3240 
  134.6250   -17.2220   113.3120    25.7870     3.9700     3.6460     4.2020     2.3210 
  134.7500   -17.2060   112.5870    25.8920     3.9710     3.6290     4.2060     2.3130 
  134.8750   -17.2540   106.3070    26.0310     4.1180     3.7320     4.3880     2.3070 
  135.0000   -17.3700   100.3400    26.1830     4.4940     3.9530     4.7360     2.3150 
  135.1250   -17.5430    96.0720    26.3060     5.1120     4.2710     5.1990     2.3360 
  135.2500   -17.7590    93.5460    26.3720     5.6730     4.6050     5.6510     2.3550 
  135.3750   -17.9910    93.0740    26.3770     5.9580     4.8900     6.0080     2.3580 
  135.5000   -18.2070    92.9750    26.3390     6.0050     5.0840     6.2280     2.3450 
  135.6250   -18.4170    90.5610    26.2930     6.0130     5.1650     6.2930     2.3300 
  135.7500   -18.5980    86.4530    26.2760     6.1200     5.1740     6.2640     2.3190 
  135.8750   -18.7510    83.8820    26.3010     6.3550     5.1470     6.1860     2.3120 
  136.0000   -18.8730    85.0300    26.3620     6.5970     5.1190     6.1150     2.3070 
  136.1250   -18.9850    88.1670    26.4420     6.5350     5.1440     6.1440     2.3190 
  136.2500   -19.0930    88.4550    26.5150     6.3140     5.2710     6.3500     2.3510 
  136.3750   -19.1950    84.8570    26.5690     6.4180     5.5320     6.7710     2.3920 
  136.5000   -19.2960    80.4230    26.5990     7.1860     5.9120     7.3630     2.4250 
  136.6250   -19.3660    78.2420    26.6060     8.3660     6.3240     7.9460     2.4390 
  136.7500   -19.4090    80.0290    26.6000     9.1350     6.6170     8.2780     2.4420 
  136.8750   -19.4400    85.8760    26.5940     9.0020     6.6810     8.2090     2.4410 
  137.0000   -19.4630    92.9700    26.5930     8.0490     6.5000     7.7730     2.4330 
  137.1250   -19.4780    95.8020    26.5970     6.9300     6.1610     7.1920     2.4120 
  137.2500   -19.4900    94.1800    26.5960     6.2350     5.8370     6.7240     2.3810 
  137.3750   -19.5060    92.7940    26.5760     5.9680     5.6050     6.4500     2.3440 
  137.5000   -19.5180    93.7710    26.5260     5.9140     5.4810     6.3490     2.3030 
  137.6250   -19.5620    95.1150    26.4480     5.9340     5.4480     6.3510     2.2720 
  137.7500   -19.6420    96.3510    26.3620     5.9500     5.4400     6.3450     2.2630 
  137.8750   -19.7570    97.4280    26.2860     5.9030     5.4240     6.2910     2.2750 
  138.0000   -19.8940    97.4990    26.2330     5.7970     5.3980     6.2070     2.2900 
  138.1250   -20.0250    93.9450    26.2120     5.7320     5.3810     6.1470     2.2880 
  138.2500   -20.1420    91.7220    26.2150     5.7340     5.3850     6.1340     2.2790 
  138.3750   -20.2320    91.4600    26.2330     5.7400     5.4090     6.1540     2.2740 
  138.5000   -20.3000    89.4980    26.2580     5.7120     5.4450     6.1730     2.2720 
  138.6250   -20.3350    86.6320    26.2800     5.7180     5.4920     6.1750     2.2730 
  138.7500   -20.3270    87.4810    26.2910     5.8390     5.5790     6.2370     2.2870 
  138.8750   -20.2810    89.8200    26.2920     6.1150     5.7540     6.4560     2.3230 
  139.0000   -20.2060    86.6240    26.2850     6.6230     6.0390     6.8600     2.3740 
  139.1250   -20.1290    78.6930    26.2800     7.9050     6.3780     7.3240     2.4170 
  139.2500   -20.0750    75.8990    26.2850     9.9170     6.6240     7.5930     2.4390 
  139.3750   -20.0700    78.5610    26.3000    11.2140     6.6820     7.5400     2.4370 
  139.5000   -20.1160    81.6580    26.3190    10.2430     6.5900     7.2910     2.4090 
  139.6250   -20.1960    81.7700    26.3300     7.6470     6.5550     7.2470     2.3710 
  139.7500   -20.2970    78.3390    26.3250     6.2150     6.7680     7.6590     2.3580 
  139.8750   -20.3920    70.9890    26.3050     7.1690     7.2690     8.5150     2.3590 
  140.0000   -20.4620    64.1980    26.2730    10.2410     7.9290     9.5150     2.4000 
  140.1250   -20.4810    64.3070    26.2360    12.7060     8.3880     9.9940     2.4490 
  140.2500   -20.4510    68.8830    26.2030    12.0270     8.4000     9.6790     2.4560 
  140.3750   -20.3670    73.8670    26.1810     9.0850     8.0290     8.8540     2.4250 
  140.5000   -20.2530    77.5500    26.1760     6.7310     7.5650     8.0860     2.3980 
  140.6250   -20.1170    76.6000    26.2010     7.1030     7.3930     7.9340     2.4190 
  140.7500   -19.9810    70.9470    26.2560     9.3730     7.6840     8.5020     2.4740 
  140.8750   -19.8750    65.3080    26.3330    11.6530     8.5270     9.8270     2.5290 
  141.0000   -19.8090    61.8500    26.4170    12.3550     9.9480    11.8890     2.5610 
  141.1250   -19.7830    58.6740    26.4880    12.7180    11.9320    14.6260     2.5710 
  141.2500   -19.7700    56.5440    26.5340    15.4350    14.1170    17.5150     2.5840 
  141.3750   -19.7800    56.9920    26.5550    19.8710    16.0870    19.9270     2.6070 
  141.5000   -19.7870    58.2260    26.5600    22.6410    17.4410    21.2860     2.6250 
  141.6250   -19.7990    58.6990    26.5590    21.2100    17.9200    21.3560     2.6160 
  141.7500   -19.8040    61.2700    26.5600    18.3760    17.9120    20.9110     2.5920 
  141.8750   -19.7870    64.9000    26.5630    16.9060    17.8250    20.6330     2.5750 
  142.0000   -19.7620    66.0260    26.5640    17.9530    18.0090    20.9740     2.5730 
  142.1250   -19.7350    64.5060    26.5520    20.9280    18.6720    22.1030     2.5810 
  142.2500   -19.7340    64.6280    26.5260    23.1830    19.6000    23.5670     2.5870 
  142.3750   -19.7360    66.4750    26.4880    23.5360    20.5190    24.9010     2.5880 
  142.5000   -19.7440    67.3680    26.4440    22.7710    21.1740    25.7340     2.5870 
  142.6250   -19.7530    65.9540    26.3990    22.2730    21.4030    25.8740     2.5910 
  142.7500   -19.7550    65.6470    26.3570    21.9100    21.3120    25.5530     2.6030 
  142.8750   -19.7600    66.1450    26.3180    21.3550    20.9720    24.9110     2.6140 
  143.0000   -19.7620    65.9660    26.2820    21.0520    20.4610    24.0860     2.6190 
  143.1250   -19.7540    65.1790    26.2560    21.1420    19.9260    23.3310     2.6210 
  143.2500   -19.7340    64.4370    26.2460    20.5440    19.5810    22.9380     2.6210 
  143.3750   -19.7140    63.1450    26.2570    19.2480    19.5890    23.0990     2.6150 
  143.5000   -19.7020    60.5800    26.2920    18.7620    20.0060    23.8320     2.6030 
  143.6250   -19.6950    58.3230    26.3490    20.9110    20.7440    24.9300     2.5990 
  143.7500   -19.7060    59.6160    26.4140    24.2140    21.4570    25.8590     2.6020 
  143.8750   -19.7140    64.7580    26.4730    25.9510    21.8470    26.1960     2.6010 
  144.0000   -19.7270    71.5180    26.5160    24.6730    21.7540    25.7960     2.5920 
  144.1250   -19.7480    74.2890    26.5390    21.8800    21.2560    24.9310     2.5790 
  144.2500   -19.7620    71.6200    26.5490    20.1220    20.7430    24.2070     2.5680 
  144.3750   -19.7590    66.5390    26.5500    19.8710    20.4460    23.9030     2.5650 
  144.5000   -19.7360    62.7550    26.5400    20.7360    20.4270    24.0210     2.5780 
  144.6250   -19.6880    61.6860    26.5140    22.1000    20.5960    24.3440     2.6000 
  144.7500   -19.6190    60.9670    26.4800    22.5520    20.6900    24.4740     2.6130 
  144.8750   -19.5460    60.9410    26.4540    21.3190    20.4680    24.0840     2.6100 
