~V
VERS. 2.00: Ver 2.00
~W
STRT.M 55.0000:
STOP.M 271.0000:
STEP.M 0.1250:
NULL. -999.2500:
UWI. DF5016:
~C
DEPT.M :
SP.MV :
GR.API :
CALI.CM :
RXO.OHMM :
RI. :
RML.OHMM :
DEN.GM/CC :
~A
# ...
  201.2500   -21.2190    93.8880    20.7020     9.6890     8.7380     9.4820     2.2330 
  201.3750   -21.5470    89.2430    20.6150    10.5000     9.1120     9.8690     2.2540 
  201.5000   -21.8100    87.3990    21.0580    11.0480     9.3420    10.1070     2.2730 
  201.6250   -22.0220    88.8820    21.7990    11.0340     9.3760    10.1430     2.2850 
  201.7500   -22.2090    91.5560    22.4060    10.7180     9.2580    10.0200     2.2860 
  201.8750   -22.3730    94.4090    22.8080    10.0910     9.0220     9.7760     2.2740 
  202.0000   -22.5080    97.7810    23.0460     9.2180     8.7190     9.4610     2.2550 
  202.1250   -22.6110   102.3190    23.0990     8.4230     8.4030     9.1340     2.2390 
  202.2500   -22.7120   106.8650    23.0400     7.8300     8.1160     8.8370     2.2310 
  202.3750   -22.8340   109.8730    22.9500     7.5520     7.8650     8.5760     2.2350 
  202.5000   -22.9850   110.8970    22.9130     7.5860     7.6490     8.3520     2.2550 
  202.6250   -23.1550   112.1630    22.9080     7.7760     7.4860     8.1830     2.2950 
  202.7500   -23.3280   115.1790    22.8830     7.8470     7.4040     8.0980     2.3370 
  202.8750   -23.5100   117.9190    22.9780     7.8880     7.4480     8.1440     2.3590 
  203.0000   -23.7170   116.9040    23.3450     8.0740     7.6740     8.3780     2.3580 
  203.1250   -23.9600   110.8480    23.8800     8.4420     8.1830     8.9060     2.3530 
  203.2500   -24.2140   103.5950    24.2310     9.0660     8.9810     9.7330     2.3610 
  203.3750   -24.4520    97.6560    24.3570    10.5410    10.0580    10.8500     2.3760 
  203.5000   -24.6550    93.0710    24.4110    13.3690    11.3480    12.1880     2.3810 
  203.6250   -24.8150    88.1580    24.4620    17.3920    12.7350    13.6270     2.3680 
  203.7500   -24.9290    83.0060    24.4480    20.9080    14.0570    14.9970     2.3450 
  203.8750   -24.9760    80.7000    24.4350    22.7990    15.2270    16.2110     2.3260 
  204.0000   -24.9230    83.3790    24.4610    23.1260    16.1950    17.2140     2.3200 
  204.1250   -24.7290    89.1690    24.4270    22.8680    16.8230    17.8650     2.3430 
  204.2500   -24.4190    92.9660    24.3120    22.7990    17.0160    18.0650     2.3910 
  204.3750   -24.0100    93.4180    24.1600    22.9890    16.6320    17.6680     2.4580 
  204.5000   -23.5090    91.4250    24.0030    23.4240    15.5860    16.5830     2.5310 
  204.6250   -22.8840    86.8920    23.8940    24.0750    13.8410    14.7730     2.6020 
  204.7500   -22.1440    80.1190    23.8220    23.4860    11.7680    12.6230     2.6610 
  204.8750   -21.3080    72.4860    23.7720    20.1760     9.7000    10.4790     2.6890 
  205.0000   -20.4130    66.4230    23.7150    14.3130     7.9110     8.6230     2.6620 
  205.1250   -19.5070    63.6770    23.8030     8.9450     6.6260     7.2910     2.5730 
  205.2500   -18.6220    62.5410    24.1160     5.8770     5.7900     6.4240     2.4670 
  205.3750   -17.7760    61.7570    24.5230     4.8140     5.3430     5.9600     2.3820 
  205.5000   -16.9970    62.1360    24.7690     4.6230     5.2010     5.8130     2.3320 
  205.6250   -16.3510    66.9160    24.7540     4.6430     5.2860     5.9020     2.3160 
  205.7500   -15.8540    75.6780    24.6430     4.7270     5.4620     6.0840     2.3100 
  205.8750   -15.5110    85.2800    24.5530     4.8340     5.6550     6.2840     2.3060 
  206.0000   -15.2960    92.7930    24.4920     4.9370     5.8220     6.4570     2.3010 
  206.1250   -15.1910    97.1040    24.3450     5.0710     5.9500     6.5900     2.3020 
  206.2500   -15.1570    98.5720    24.0460     5.3690     6.0390     6.6830     2.3170 
  206.3750   -15.1850    96.8190    23.7250     5.8420     6.0890     6.7340     2.3480 
  206.5000   -15.2590    93.1350    23.6360     6.3580     6.0990     6.7440     2.3900 
  206.6250   -15.3600    90.9830    23.9170     6.5700     6.0630     6.7080     2.4190 
  206.7500   -15.4670    91.5270    24.2590     6.2980     6.0060     6.6480     2.4250 
  206.8750   -15.5860    93.3270    24.3680     5.9550     5.9500     6.5900     2.4150 
  207.0000   -15.7350    94.5070    24.2550     6.2420     5.9250     6.5640     2.4030 
  207.1250   -15.9360    95.0060    24.1770     7.4550     5.9700     6.6110     2.3970 
  207.2500   -16.1710    96.0220    24.1310     8.6760     6.0830     6.7280     2.3880 
  207.3750   -16.4230    97.8080    24.1280     9.3760     6.2640     6.9160     2.3680 
  207.5000   -16.6840    99.9740    24.1500     9.7500     6.5240     7.1860     2.3440 
  207.6250   -16.9660   100.7730    24.1810    10.0690     6.9080     7.5840     2.3290 
  207.7500   -17.2730    98.7900    24.1650    10.3460     7.4660     8.1620     2.3230 
  207.8750   -17.5950    94.1420    24.1570    10.3690     8.2840     9.0110     2.3220 
  208.0000   -17.9100    88.7250    24.2020    10.2820     9.4840    10.2550     2.3220 
  208.1250   -18.2080    83.9740    24.2640    11.2110    11.3240    12.1630     2.3130 
  208.2500   -18.5070    78.9210    24.3330    14.7530    13.8530    14.7860     2.2900 
  208.3750   -18.8300    73.8940    24.4020    21.5640    17.1170    18.1710     2.2690 
  208.5000   -19.1850    70.8920    24.4520    29.5530    21.0240    22.2870     2.2750 
  208.6250   -19.5600    71.7080    24.4090    35.4580    25.2840    26.9130     2.3210 
  208.7500   -19.9310    73.9020    24.3180    38.9280    29.3060    31.3870     2.3820 
  208.8750   -20.2950    75.0420    24.2570    41.7650    32.6410    35.0300     2.4360 
  209.0000   -20.6590    74.7710    24.2340    44.5190    35.1060    37.6680     2.4600 
  209.1250   -21.0310    74.3560    24.2310    45.1020    36.8300    39.5040     2.4370 
  209.2500   -21.3940    73.6480    24.2560    45.0300    38.4690    41.2490     2.3870 
  209.3750   -21.7230    72.2130    24.3100    46.2420    40.5780    43.4950     2.3310 
  209.5000   -22.0040    70.9940    24.3960    49.2420    43.6600    46.7770     2.2810 
  209.6250   -22.2370    71.2440    24.4320    54.9470    48.3160    51.7370     2.2390 
  209.7500   -22.4480    71.5370    24.4760    62.9680    54.4220    58.2390     2.2050 
  209.8750   -22.6390    70.7410    24.5290    72.5750    61.7710    66.0670     2.1860 
  210.0000   -22.7970    69.4240    24.5980    79.4590    69.8270    74.6460     2.1830 
  210.1250   -22.9020    68.2420    24.6990    77.8700    77.6230    82.9480     2.1890 
  210.2500   -22.9730    66.9670    24.7800    73.1380    84.2430    89.9990     2.1940 
  210.3750   -23.0320    66.0630    24.7910    70.4520    89.0830    95.1540     2.1930 
  210.5000   -23.0970    66.6870    24.7510    72.8810    91.8810    98.1330     2.1870 
  210.6250   -23.1670    68.7180    24.7520    79.8590    92.6090    98.9080     2.1810 
  210.7500   -23.2280    70.1150    24.7680    85.4140    92.2960    98.5760     2.1830 
  210.8750   -23.2820    70.5960    24.7500    88.5260    91.5890    97.8220     2.1900 
  211.0000   -23.3470    71.0530    24.7490    91.6840    90.9530    97.1450     2.1960 
  211.1250   -23.4480    71.6840    24.7960    95.5370    90.7610    96.9410     2.1940 
  211.2500   -23.5770    71.6110    24.8030    98.5340    91.0470    97.2450     2.1900 
  211.3750   -23.7120    70.4470    24.7690   100.0470    91.7580    98.0020     2.1910 
  211.5000   -23.8360    68.4910    24.7560   101.2400    92.7810    99.0920     2.1970 
  211.6250   -23.9460    67.3390    24.7770   103.1500    93.7530   100.1270     2.2010 
  211.7500   -24.0590    68.4420    24.7700   104.8720    94.0100   100.4010     2.2040 
  211.8750   -24.1770    70.9480    24.7340   106.7510    92.9690    99.2920     2.2030 
  212.0000   -24.2840    72.1210    24.6990   108.2790    90.4100    96.5670     2.1970 
  212.1250   -24.3530    70.9350    24.6050   107.6610    86.3450    92.2380     2.1860 
  212.2500   -24.3850    70.6440    24.5410   103.7270    81.5860    87.1690     2.1840 
  212.3750   -24.3970    72.4630    24.5090    95.3670    76.8880    82.1650     2.1960 
