~V
VERS. 2.00: Ver 2.00
~W
STRT.M 60.0000:
STOP.M 268.0000:
STEP.M 0.1250:
NULL. -999.2500:
UWI. DF5039:
~C
DEPT.M :
DEN.GM/CC :
GR.API :
CALI.CM :
RXO.OHMM :
RI. :
RML.OHMM :
SP.MV :
~A
# ...
  183.7500     2.2040    67.9600    24.0580    36.1560    74.1840    79.9220   -35.3850 
  183.8750     2.1910    68.6460    24.2510    43.4880    80.4290    86.8040   -35.2340 
  184.0000     2.1830    68.5270    24.4910    50.1520    84.4600    91.0430   -35.1150 
  184.1250     2.1860    68.3280    24.6310    51.0760    85.1150    91.7450   -34.9350 
  184.2500     2.1930    68.6790    24.6380    48.1230    84.0520    90.9280   -34.8160 
  184.3750     2.1990    68.6890    24.5900    45.1100    83.0020    90.4260   -34.6270 
  184.5000     2.1990    68.4920    24.5480    44.1830    83.1750    91.3240   -34.4470 
  184.6250     2.1930    69.3320    24.5180    44.9130    85.0380    93.8210   -34.2030 
  184.7500     2.1890    71.1500    24.4830    45.9270    87.6940    96.7950   -34.0640 
  184.8750     2.1890    73.4530    24.4440    46.0200    90.1550    99.1580   -33.8670 
  185.0000     2.1920    73.5000    24.4120    45.1590    91.4900   100.0380   -33.6610 
  185.1250     2.1950    70.0330    24.3460    42.9100    91.1470    99.0790   -33.4040 
  185.2500     2.1970    66.2660    24.2050    40.5850    89.8940    97.2510   -33.1230 
  185.3750     2.1990    65.4000    24.0310    39.5890    88.3490    95.1570   -32.7780 
  185.5000     2.2010    67.3120    23.9030    38.1600    86.6920    92.8400   -32.4890 
  185.6250     2.2020    67.4480    23.8890    39.6530    84.4520    89.6540   -32.2450 
  185.7500     2.2010    66.7180    23.9740    44.7460    81.2270    85.3020   -32.0130 
  185.8750     2.1970    67.1550    24.1040    49.3680    77.0640    80.0630   -31.7930 
  186.0000     2.1940    68.3890    24.1990    46.4490    72.6070    74.8220   -31.5830 
  186.1250     2.1950    68.7710    24.1810    39.9110    69.0870    71.0040   -31.4520 
  186.2500     2.1980    68.4820    24.1080    36.5250    67.2940    69.2840   -31.2810 
  186.3750     2.2010    68.1700    24.0430    36.9050    67.6330    69.9080   -31.3200 
  186.5000     2.2020    67.7670    24.0040    38.1380    70.0650    72.5990   -31.4010 
  186.6250     2.2020    67.7540    23.9850    38.8110    74.0390    76.4570   -31.5370 
  186.7500     2.2010    69.4960    23.9650    39.3540    77.7740    79.5830   -31.6250 
  186.8750     2.2000    70.8740    23.9460    39.0570    79.5730    80.3750   -31.7470 
  187.0000     2.2010    70.2290    23.9240    37.1220    78.2430    77.9640   -31.8740 
  187.1250     2.2030    69.7900    23.8370    33.7680    73.5330    72.5810   -32.0310 
  187.2500     2.2050    71.6650    23.6950    30.5120    67.5380    66.4960   -32.2520 
  187.3750     2.2070    74.2670    23.5680    28.4120    62.0050    61.4730   -32.4520 
  187.5000     2.2070    74.5860    23.5340    26.8930    58.3590    58.8780   -32.6430 
  187.6250     2.2070    74.0040    23.6210    27.3590    58.1490    60.2170   -32.7940 
  187.7500     2.2030    74.9580    23.7500    29.2610    61.4580    65.3470   -32.9450 
  187.8750     2.1930    75.4570    23.8670    31.9530    68.5260    74.3280   -33.0590 
  188.0000     2.1780    75.6220    23.9420    36.2340    79.3330    86.8890   -33.2100 
  188.1250     2.1610    74.5730    23.9780    42.8230    93.4010   102.2550   -33.3180 
  188.2500     2.1500    71.4130    23.9940    48.3840   108.1050   117.8300   -33.4840 
  188.3750     2.1490    66.2730    23.9960    50.3890   121.1880   131.4090   -33.5530 
  188.5000     2.1540    61.7380    23.9950    50.3660   130.9750   141.2660   -33.5670 
  188.6250     2.1640    59.7340    23.9950    49.5750   135.6420   145.3240   -33.5500 
  188.7500     2.1720    58.1980    23.9940    47.2910   135.2790   143.7030   -33.5590 
  188.8750     2.1790    57.2480    23.9910    44.9440   129.9410   136.6870   -33.5800 
  189.0000     2.1840    58.3350    23.9880    44.7660   120.6650   125.9000   -33.5840 
  189.1250     2.1840    60.3060    23.9890    43.1470   109.9800   114.7880   -33.5560 
  189.2500     2.1770    61.2760    23.9920    40.3960   101.6550   107.2730   -33.4680 
  189.3750     2.1640    63.4090    23.9940    37.5490    98.3540   105.8330   -33.3550 
  189.5000     2.1470    67.2500    23.9960    36.3780   101.9300   111.9360   -33.2650 
  189.6250     2.1330    67.4140    23.9940    39.3930   115.1280   127.7190   -33.2080 
  189.7500     2.1240    62.6730    23.9920    44.8390   136.4010   150.9160   -33.1470 
  189.8750     2.1200    57.7400    23.9910    49.9500   162.1540   177.2830   -33.1020 
  190.0000     2.1200    57.8580    23.9900    52.4920   184.4340   198.1120   -33.0150 
  190.1250     2.1250    61.3510    23.9890    51.4930   190.7650   200.3880   -32.9220 
  190.2500     2.1310    63.5120    23.9900    49.8740   181.1360   186.3910   -32.8850 
  190.3750     2.1390    63.3660    23.9920    47.2790   162.1910   164.8360   -32.8700 
  190.5000     2.1440    62.6380    23.9950    42.7030   142.1330   144.2580   -32.8770 
  190.6250     2.1460    65.0840    23.9960    39.2600   126.9650   129.8220   -32.8420 
  190.7500     2.1450    69.2440    23.9960    39.9620   117.1560   121.0260   -32.7780 
  190.8750     2.1430    72.1290    23.9950    41.3880   112.1460   117.0910   -32.7080 
  191.0000     2.1420    72.7190    23.9930    42.2080   111.2910   117.3100   -32.6560 
  191.1250     2.1410    70.2350    23.9910    44.1770   114.8100   121.8350   -32.7080 
  191.2500     2.1380    67.9670    23.9750    47.8430   121.8130   129.7390   -32.6790 
  191.3750     2.1350    67.9540    23.9390    50.9690   131.8610   140.5960   -32.6990 
  191.5000     2.1310    68.8680    23.8970    53.7070   144.0970   153.5300   -32.6370 
  191.6250     2.1290    67.6960    23.8750    60.1470   156.2750   166.0700   -32.5860 
  191.7500     2.1280    64.9340    23.8710    66.6250   164.5590   174.0460   -32.5070 
  191.8750     2.1300    63.0340    23.8710    66.8900   165.4340   173.5410   -32.4460 
  192.0000     2.1350    62.3140    23.8750    63.1930   157.3400   163.0020   -32.3710 
  192.1250     2.1450    61.7730    23.8980    60.8390   141.0520   144.0240   -32.2320 
  192.2500     2.1570    63.0860    23.9610    57.7740   122.0180   123.0650   -32.0040 
  192.3750     2.1710    66.3150    24.0720    52.5910   103.8350   103.9260   -31.7080 
  192.5000     2.1860    68.6860    24.2120    47.0120    88.5880    88.3900   -31.3710 
  192.6250     2.1990    67.6330    24.3290    44.5430    77.3500    77.2310   -30.9940 
  192.7500     2.2080    65.1050    24.4040    42.1950    69.2210    69.3100   -30.5790 
  192.8750     2.2130    64.5720    24.4510    39.8780    63.7770    64.0870   -30.0790 
  193.0000     2.2170    66.3330    24.4870    37.9840    60.5150    60.9800   -29.5650 
  193.1250     2.2210    67.8920    24.5100    35.7820    58.9920    59.5260   -28.9260 
  193.2500     2.2250    67.7690    24.5200    36.1520    58.2750    58.8370   -28.3650 
  193.3750     2.2290    66.2840    24.5180    37.9910    57.9090    58.5120   -27.7550 
  193.5000     2.2290    66.2520    24.5030    38.5650    57.6950    58.4150   -27.2870 
  193.6250     2.2230    69.3460    24.4860    37.7500    57.8210    58.8270   -26.8280 
  193.7500     2.2160    72.6140    24.4840    36.8880    58.5750    60.0270   -26.4330 
  193.8750     2.2110    73.8310    24.5000    37.0210    60.1290    62.1260   -25.9710 
  194.0000     2.2080    72.8000    24.5160    39.2780    62.2580    64.8050   -25.5000 
  194.1250     2.2120    71.1500    24.5200    43.3810    64.1210    67.1350   -25.0950 
  194.2500     2.2180    69.6040    24.5200    47.3290    64.9280    68.3720   -24.7550 
  194.3750     2.2260    67.7170    24.5200    48.0010    64.6040    68.6080   -24.4120 
  194.5000     2.2300    66.4590    24.5160    45.0840    63.8870    68.8020   -23.9910 
  194.6250     2.2270    67.3900    24.5000    39.3760    64.4210    70.8630   -23.5580 
  194.7500     2.2170    69.1070    24.4830    39.1320    67.5500    76.0180   -23.0960 
  194.8750     2.2060    68.9750    24.4730    49.0250    74.1700    85.0520   -22.7070 
