~V
VERS. 2.00: Ver 2.00
~W
STRT.M 55.0000:
STOP.M 247.0000:
STEP.M 0.1250:
NULL. -999.2500:
UWI. DF5063:
~C
DEPT.M :
SP.MV :
GR.API :
RML.OHMM :
RI. :
RXO.OHMM :
CALI.CM :
DEN.GM/CC :
~A
# ...
  133.7500   -11.9250    86.3390     5.9050     5.5050     6.6670    23.1100     2.3070 
  133.8750   -11.7660    86.2620     5.3440     5.0100     5.9660    23.1330     2.3170 
  134.0000   -11.6920    85.8670     5.1270     4.7680     5.7500    23.0930     2.3040 
  134.1250   -11.6840    83.6970     5.4750     4.9720     5.9020    22.9390     2.2650 
  134.2500   -11.6580    82.8000     6.3700     5.6510     7.0150    22.7850     2.2290 
  134.3750   -11.6380    82.7700     7.7560     6.8050     9.3570    22.7270     2.2070 
  134.5000   -11.7130    79.5980     9.4260     8.2980    13.0880    22.8380     2.1930 
  134.6250   -11.8380    73.2080    10.9150     9.7560    15.3600    23.1270     2.1830 
  134.7500   -11.8940    70.2040    11.7250    10.6880    15.3810    23.4080     2.1810 
  134.8750   -11.7860    71.2470    11.5510    10.7580    13.7660    23.5570     2.1950 
  135.0000   -11.5760    76.4130    10.4310     9.9360    12.1630    23.5880     2.2260 
  135.1250   -11.2870    86.1970     8.7640     8.5220     9.2910    23.6850     2.2630 
  135.2500   -10.9810    96.1740     7.2010     7.1140     6.6100    23.9190     2.2960 
  135.3750   -10.6860   100.1600     6.0430     5.9950     5.3480    24.1910     2.3180 
  135.5000   -10.3870    94.9330     5.3610     5.2560     5.0220    24.3660     2.3260 
  135.6250   -10.1170    88.8980     5.1290     4.9160     5.1830    24.3250     2.3200 
  135.7500    -9.8740    89.2660     5.1390     4.8270     5.6050    24.2430     2.3150 
  135.8750    -9.6770    92.9580     5.2770     4.9020     5.5650    24.2670     2.3190 
  136.0000    -9.5320    94.8910     5.4470     5.0560     5.4040    24.3450     2.3260 
  136.1250    -9.4420    95.3000     5.5610     5.2070     5.3730    24.4450     2.3270 
  136.2500    -9.3720    97.4290     5.5850     5.3010     5.4960    24.4830     2.3220 
  136.3750    -9.3630    98.8870     5.5170     5.3230     5.7070    24.4300     2.3120 
  136.5000    -9.4360    98.2050     5.4000     5.2900     5.8220    24.3190     2.3000 
  136.6250    -9.5420    97.8780     5.3370     5.2610     5.5890    24.3480     2.2930 
  136.7500    -9.6650    98.7190     5.4230     5.3120     5.3830    24.3700     2.3000 
  136.8750    -9.7890    99.5880     5.7050     5.4900     5.3450    24.2580     2.3190 
  137.0000    -9.8740    97.9220     6.1410     5.7840     5.3470    24.0680     2.3440 
  137.1250    -9.9100    90.0440     6.5690     6.1040     5.5440    23.9360     2.3730 
  137.2500    -9.9590    81.1500     6.7920     6.3040     6.2980    23.9150     2.4020 
  137.3750    -9.9730    78.7440     6.6990     6.2870     7.2470    24.0100     2.4150 
  137.5000    -9.9150    84.8940     6.3150     6.0480     6.3320    24.2380     2.4000 
  137.6250    -9.7900    91.4080     5.8460     5.7170     5.7950    24.4060     2.3720 
  137.7500    -9.6110    93.6390     5.6800     5.5610     5.7480    24.4560     2.3650 
  137.8750    -9.4470    93.8790     6.1200     5.8210     6.1940    24.4730     2.3870 
  138.0000    -9.3000    90.6740     7.4250     6.6940     7.3270    24.4880     2.4300 
  138.1250    -9.1460    79.5250     9.6930     8.3940    11.2240    24.4250     2.4840 
  138.2500    -8.9890    65.8030    12.5360    10.6670    16.4670    24.2980     2.5310 
  138.3750    -8.8570    57.2750    15.3950    13.1560    19.0940    24.2030     2.5590 
  138.5000    -8.7600    56.2040    17.5010    15.3700    20.0010    24.1440     2.5620 
  138.6250    -8.6740    57.2540    18.4370    16.7200    19.2260    24.1400     2.5460 
  138.7500    -8.6200    57.1220    18.5350    17.2480    17.1630    24.1790     2.5240 
  138.8750    -8.5500    56.3410    18.2400    17.2410    16.5590    24.1740     2.5140 
  139.0000    -8.4660    54.3710    18.0000    17.0900    17.9340    24.0830     2.5220 
  139.1250    -8.3790    51.1570    18.0990    17.0960    19.8210    24.0730     2.5270 
  139.2500    -8.2780    50.3700    18.4540    17.2920    18.3220    24.0280     2.5150 
  139.3750    -8.1410    53.0050    18.9240    17.6080    17.3150    24.0600     2.5010 
  139.5000    -7.9740    55.8950    19.3380    17.9250    18.1270    24.1680     2.5060 
  139.6250    -7.9240    56.3730    19.4720    18.0700    18.5510    24.1990     2.5260 
  139.7500    -7.9500    56.3880    19.2700    17.9720    17.9710    24.1690     2.5400 
  139.8750    -7.9600    57.8680    18.7880    17.6530    17.8090    24.1780     2.5400 
  140.0000    -7.9530    60.7820    18.2030    17.2360    17.8270    24.1630     2.5310 
  140.1250    -7.9530    62.7430    17.8390    16.9580    16.0900    24.1530     2.5260 
  140.2500    -7.9530    64.2160    17.9200    17.0140    15.6280    24.1430     2.5350 
  140.3750    -7.9630    64.8730    18.5210    17.5060    16.9640    24.1260     2.5590 
  140.5000    -7.9870    63.5460    19.5280    18.4010    19.2480    24.0440     2.5930 
  140.6250    -7.8980    61.1840    20.6040    19.4880    19.8470    23.8460     2.6270 
  140.7500    -7.7170    61.2550    21.3210    20.3690    20.2930    23.6720     2.6560 
  140.8750    -7.5260    63.4500    21.4130    20.7390    22.3370    23.6580     2.6740 
  141.0000    -7.3520    63.0620    20.8410    20.4520    23.9380    23.7740     2.6750 
  141.1250    -7.2170    58.9460    19.7780    19.5440    20.8190    23.9180     2.6470 
  141.2500    -7.1360    55.3290    18.6510    18.4270    17.1290    24.0220     2.6060 
  141.3750    -7.0760    53.4660    17.6970    17.3770    15.4250    24.0560     2.5720 
  141.5000    -7.0510    53.5790    17.0180    16.5650    16.0080    24.0590     2.5570 
  141.6250    -7.0830    54.8720    16.6680    16.1200    16.7640    24.0710     2.5500 
  141.7500    -7.1740    55.4620    16.5700    15.9900    16.2790    24.0870     2.5400 
  141.8750    -7.3310    55.4970    16.6970    16.1430    15.2110    24.1240     2.5260 
  142.0000    -7.4810    55.5540    17.0190    16.5210    15.3630    24.1180     2.5140 
  142.1250    -7.5990    56.7760    17.5030    17.0610    16.8270    24.0690     2.5070 
  142.2500    -7.7040    59.0930    18.0170    17.6260    18.5790    24.0500     2.5040 
  142.3750    -7.8130    60.6690    18.4260    18.0910    19.2560    24.1190     2.5010 
  142.5000    -7.9260    58.6120    18.6060    18.3470    19.7940    24.1850     2.4990 
  142.6250    -8.0440    55.7260    18.4890    18.3150    20.1580    24.1720     2.4990 
  142.7500    -8.1790    57.6610    18.2330    18.1140    18.9640    24.1670     2.5060 
  142.8750    -8.2880    61.3140    17.9890    17.8730    17.8320    24.1820     2.5150 
  143.0000    -8.3970    60.8140    17.8770    17.7180    17.3080    24.1840     2.5250 
  143.1250    -8.4730    57.0760    17.9730    17.7620    18.8970    24.1940     2.5330 
  143.2500    -8.4970    53.9170    18.2160    17.9830    19.2470    24.1880     2.5340 
  143.3750    -8.4950    51.7760    18.5440    18.3290    18.6640    24.1840     2.5270 
  143.5000    -8.4450    49.7390    18.8800    18.7090    17.7580    24.1770     2.5200 
  143.6250    -8.3440    50.0250    19.0840    18.9590    18.3000    24.1640     2.5210 
  143.7500    -8.2610    51.5270    19.0340    18.9510    19.0090    24.1370     2.5290 
  143.8750    -8.2080    52.9540    18.6590    18.6150    19.1930    24.0910     2.5410 
  144.0000    -8.1920    54.5910    17.9860    17.9770    18.7390    24.0650     2.5500 
  144.1250    -8.2400    57.7500    17.1380    17.1540    16.7510    24.0960     2.5420 
  144.2500    -8.3150    62.0370    16.3470    16.3630    14.5770    24.1540     2.5180 
  144.3750    -8.3910    65.6130    15.7750    15.7500    13.9600    24.2330     2.4900 
  144.5000    -8.4450    68.5860    15.5030    15.3910    14.3760    24.2710     2.4670 
  144.6250    -8.4880    71.8300    15.5510    15.3180    14.5140    24.2900     2.4540 
  144.7500    -8.4690    74.0550    15.7760    15.4250    14.5260    24.3000     2.4420 
  144.8750    -8.3790    74.3410    16.0860    15.6440    14.9330    24.2790     2.4310 
