~V
VERS. 2.00: Ver 2.00
~W
STRT.M 60.0000:
STOP.M 248.0000:
STEP.M 0.1250:
NULL. -999.2500:
UWI. DF5054:
~C
DEPT.M :
SP.MV :
GR.API :
CALI.CM :
RXO.OHMM :
RI. :
RML.OHMM :
DEN.GM/CC :
~A
# ...
  228.7500   -17.3000    73.5810    23.9560    49.5300    36.1800    38.9060     2.4060 
  228.8750   -16.8300    76.1160    24.0140    45.1650    34.7560    37.1940     2.3860 
  229.0000   -16.4220    74.2260    24.0970    42.7970    33.6640    35.8900     2.3470 
  229.1250   -16.0900    69.4340    24.1410    42.1390    32.8040    34.8660     2.3110 
  229.2500   -15.8140    67.3160    24.1420    41.6290    32.0070    33.9130     2.2970 
  229.3750   -15.5870    70.9700    24.1170    40.1210    31.1750    32.9300     2.3000 
  229.5000   -15.4050    78.5740    24.1230    37.8820    30.2540    31.8580     2.3050 
  229.6250   -15.2740    82.8170    24.1420    35.8890    29.2380    30.6870     2.2980 
  229.7500   -15.1780    80.6780    24.1600    34.3660    28.2030    29.4990     2.2900 
  229.8750   -15.1070    75.2910    24.1710    33.4040    27.2180    28.3860     2.2930 
  230.0000   -15.0550    71.5240    24.1700    32.7430    26.3490    27.4320     2.3070 
  230.1250   -15.0270    72.0330    24.1490    31.5620    25.6770    26.7410     2.3180 
  230.2500   -15.0280    75.6960    24.1170    29.9540    25.1830    26.2790     2.3150 
  230.3750   -15.0580    80.7050    24.1020    28.9490    24.8260    25.9860     2.3010 
  230.5000   -15.1060    83.8070    24.1210    29.2680    24.5340    25.7680     2.2870 
  230.6250   -15.1620    82.3650    24.1470    30.1500    24.2390    25.5320     2.2870 
  230.7500   -15.2140    79.1640    24.1650    30.3420    23.9280    25.2570     2.2990 
  230.8750   -15.2560    76.2750    24.1670    29.9450    23.6310    24.9750     2.3090 
  231.0000   -15.2880    72.9750    24.1510    29.4100    23.4060    24.7490     2.3110 
  231.1250   -15.3060    68.7420    24.1070    28.4530    23.3640    24.7040     2.3040 
  231.2500   -15.3020    66.9510    24.0520    27.2280    23.5650    24.9130     2.2940 
  231.3750   -15.2660    69.5860    24.0350    26.9230    24.0580    25.4360     2.2840 
  231.5000   -15.1940    74.2850    24.0730    28.7750    24.8290    26.2660     2.2780 
  231.6250   -15.0880    76.6180    24.1230    31.6960    25.7310    27.2440     2.2760 
  231.7500   -14.9590    76.3060    24.1600    33.2000    26.4300    28.0200     2.2720 
  231.8750   -14.8100    75.1990    24.1540    32.9600    26.6320    28.2920     2.2640 
  232.0000   -14.6360    74.8130    24.0960    32.7580    26.1200    27.8410     2.2570 
  232.1250   -14.4270    75.9680    24.0020    34.4280    24.7110    26.4530     2.2600 
  232.2500   -14.1960    78.5480    23.9590    36.9500    22.7200    24.4000     2.2800 
  232.3750   -13.9540    82.8080    23.9760    37.0300    20.5030    22.0180     2.3170 
  232.5000   -13.7130    88.3510    24.0070    32.2510    18.4390    19.7240     2.3650 
  232.6250   -13.4910    92.3070    24.0470    24.4530    16.8780    17.9550     2.4180 
  232.7500   -13.2980    92.2380    24.0640    19.0150    15.8350    16.7920     2.4690 
  232.8750   -13.1410    89.1390    24.0790    16.9810    15.2660    16.2020     2.5090 
  233.0000   -13.0250    85.9270    24.0430    16.4270    15.0490    16.0400     2.5300 
  233.1250   -12.9610    84.5680    24.0040    16.8050    14.9930    16.0700     2.5280 
  233.2500   -12.9380    83.8600    23.9730    18.6000    14.8640    16.0090     2.5170 
  233.3750   -12.9540    82.6710    23.9510    21.1910    14.5670    15.7380     2.4960 
  233.5000   -13.0050    81.3370    23.9800    22.2470    14.1300    15.2780     2.4640 
  233.6250   -13.0810    81.6640    24.0580    20.2910    13.7260    14.8350     2.4240 
  233.7500   -13.1680    83.2800    24.0720    17.8010    13.5540    14.6650     2.3840 
  233.8750   -13.2630    83.5000    24.0330    15.8590    13.7340    14.9240     2.3470 
  234.0000   -13.3620    80.4380    24.0020    14.8250    14.3160    15.6540     2.3120 
  234.1250   -13.4640    75.3000    24.0190    16.0010    15.3280    16.8490     2.2820 
  234.2500   -13.5620    71.4560    24.0720    19.3780    16.5690    18.2600     2.2650 
  234.3750   -13.6440    71.7060    24.1240    23.2580    17.8300    19.6570     2.2640 
  234.5000   -13.7010    77.2160    24.1480    25.8160    18.9090    20.8280     2.2780 
  234.6250   -13.7220    82.9340    24.1420    26.6040    19.6530    21.6130     2.2910 
  234.7500   -13.7100    81.9250    24.1300    26.4770    20.1390    22.1140     2.2890 
  234.8750   -13.6670    74.7620    24.1250    26.0380    20.4920    22.4740     2.2750 
  235.0000   -13.5930    68.0720    24.1300    25.8730    20.8660    22.8750     2.2610 
  235.1250   -13.4810    67.3000    24.1390    26.3550    21.4060    23.4900     2.2530 
  235.2500   -13.3450    69.3290    24.1330    26.8380    22.0910    24.2900     2.2470 
  235.3750   -13.2010    70.6460    24.1050    27.5790    22.8460    25.1770     2.2390 
  235.5000   -13.0580    70.1300    24.0700    28.5890    23.5620    26.0250     2.2320 
  235.6250   -12.9270    70.0880    24.0960    29.9270    24.1000    26.6660     2.2290 
  235.7500   -12.8120    72.1390    24.1140    31.5880    24.4330    27.0620     2.2310 
  235.8750   -12.7120    74.3000    24.1050    33.0350    24.5920    27.2510     2.2370 
  236.0000   -12.6220    73.8750    24.0600    33.7320    24.6720    27.3410     2.2430 
  236.1250   -12.5440    71.2140    23.9900    33.5440    24.8150    27.4780     2.2380 
  236.2500   -12.4780    69.2790    23.9850    33.0040    25.0890    27.7500     2.2270 
  236.3750   -12.4220    68.2940    24.0430    32.2150    25.5020    28.1670     2.2180 
  236.5000   -12.3790    67.5380    24.1000    31.6210    26.0350    28.6930     2.2140 
  236.6250   -12.3480    69.1040    24.1140    32.5220    26.6520    29.2730     2.2070 
  236.7500   -12.3190    73.2780    24.0800    35.1510    27.2560    29.8160     2.1970 
  236.8750   -12.2890    76.5780    24.0090    38.3690    27.7370    30.2360     2.1920 
  237.0000   -12.2640    75.5610    23.9590    39.8230    27.9660    30.4180     2.1960 
  237.1250   -12.2560    70.9760    23.9940    37.8800    27.7550    30.1690     2.2020 
  237.2500   -12.2620    67.0820    24.1130    35.8530    27.1390    29.4980     2.2080 
  237.3750   -12.2540    65.4000    24.2400    36.7610    26.1680    28.4400     2.2160 
  237.5000   -12.2040    65.7250    24.2730    39.8530    24.9540    27.0970     2.2280 
  237.6250   -12.1060    67.0800    24.1970    40.4100    23.7240    25.6920     2.2410 
  237.7500   -12.0040    67.9610    24.0760    36.2760    22.7540    24.5490     2.2460 
  237.8750   -11.9200    68.2420    23.9780    29.7420    22.1920    23.8620     2.2440 
  238.0000   -11.8470    68.2670    23.9340    25.7830    22.0150    23.6410     2.2500 
  238.1250   -11.7530    68.2670    23.9330    27.4240    22.0260    23.6890     2.2770 
  238.2500   -11.6400    68.2670    23.9520    31.4390    21.8340    23.5700     2.3150 
  238.3750   -11.5430    68.2670    23.9840    34.3450    21.1140    22.9260     2.3520 
  238.5000   -11.4930    68.2670    23.9810    35.2080    19.6810    21.5200     2.3840 
  238.6250   -11.4860    68.2670    23.9220    33.8760    17.5330    19.2620     2.4160 
  238.7500   -11.4840    68.2670    23.8670    29.2150    15.1480    16.6300     2.4430 
  238.8750   -11.4710    68.2670    23.8170    22.0780    12.9150    14.0760     2.4540 
  239.0000   -11.4550    68.2670    23.7280    15.3140    11.1040    11.9890     2.4400 
  239.1250   -11.4520    68.2670    23.6020    11.5570     9.9060    10.6640     2.4110 
  239.2500   -11.4520    68.2670    23.5400     9.7350     9.1980     9.9380     2.3920 
  239.3750   -11.4390    68.2670    23.5100     8.9700     8.8960     9.6740     2.3920 
  239.5000   -11.4160    68.2670    23.4470     8.8470     8.9000     9.7290     2.3990 
  239.6250   -11.4010    68.2670    23.3740     9.0890     9.1170     9.9880     2.4040 
  239.7500   -11.3930    68.2670    23.2690     9.3750     9.3980    10.2990     2.4160 
  239.8750   -11.3840    68.2670    23.1900     9.7680     9.6700    10.5960     2.4350 
