~V
VERS. 2.00: Ver 2.00
~W
STRT.M 64.0000:
STOP.M 271.0000:
STEP.M 0.1250:
NULL. -999.2500:
UWI. DF5037:
~C
DEPT.M :
SP.MV :
GR.API :
RML.OHMM :
RI. :
RXO.OHMM :
CALI.CM :
DEN.GM/CC :
~A
   64.0000    43.3550    41.4540     7.4080     0.1710   980.2150    25.1740     2.3230 
   64.1250    42.5620    39.7110     2.8990     0.1160   118.7190    25.1400     2.4340 
   64.2500    41.1020    39.9960     0.6550     0.0740    -0.0790    25.0990     2.4780 
   64.3750    38.6200    40.3890     0.4090     0.0620     0.0980    24.9910     2.4470 
   64.5000    34.7470    42.7100     0.7440     0.1190     0.8700    24.5690     2.3670 
   64.6250    29.4540    46.5460     1.4930     0.3100     2.4820    23.4890     2.2760 
   64.7500    23.0410    50.1160     2.7220     0.7560     4.8050    21.8760     2.2070 
   64.8750    16.0730    55.2630     3.9810     1.4660     7.3810    20.7540     2.1640 
   65.0000     8.8210    63.1200     5.2040     2.4050     8.3380    20.3890     2.1460 
   65.1250     1.5200    70.9050     6.0730     3.4470     8.5050    20.4850     2.1410 
   65.2500    -5.3920    72.9130     6.3460     4.3830     8.4420    20.5660     2.1420 
   65.3750   -11.4760    69.6560     6.3160     5.1090     8.3750    20.3510     2.1420 
   65.5000   -16.3940    65.5880     6.2770     5.6320     8.4160    19.9660     2.1450 
   65.6250   -20.0660    66.7490     6.3600     6.0000     8.5740    19.6150     2.1500 
   65.7500   -22.6470    74.1700     6.5350     6.2340     8.7750    19.5840     2.1570 
   65.8750   -24.6460    76.2300     6.7100     6.3710     8.8700    19.8450     2.1630 
   66.0000   -26.2550    68.9970     6.8480     6.4280     8.8660    20.3090     2.1670 
   66.1250   -27.5720    61.4490     6.9510     6.4250     8.7660    20.8230     2.1670 
   66.2500   -28.6380    62.5410     7.0250     6.3790     8.5950    21.1680     2.1650 
   66.3750   -29.5730    66.2610     7.0750     6.3130     8.3770    21.3710     2.1630 
   66.5000   -30.3660    68.2320     7.0930     6.2380     8.1290    21.5040     2.1610 
   66.6250   -31.0430    68.5120     7.0800     6.1630     7.8770    21.6220     2.1580 
   66.7500   -31.6200    67.8290     7.0480     6.1000     7.6940    21.7560     2.1550 
   66.8750   -32.1220    68.4680     7.0230     6.0600     7.5380    21.8830     2.1510 
   67.0000   -32.5820    71.3050     7.0150     6.0440     7.4820    21.9840     2.1490 
   67.1250   -33.0360    70.2270     7.0220     6.0500     7.5390    22.0700     2.1490 
   67.2500   -33.4560    60.5670     7.0300     6.0680     7.7340    22.0890     2.1510 
   67.3750   -33.8020    52.5950     7.0210     6.0820     8.0360    22.0070     2.1520 
   67.5000   -34.0970    53.8430     6.9860     6.0820     8.3750    21.9460     2.1480 
   67.6250   -34.3770    62.1190     6.9300     6.0640     8.6980    22.0330     2.1390 
   67.7500   -34.6640    68.1770     6.8690     6.0330     8.9020    22.1300     2.1300 
   67.8750   -34.9470    70.4600     6.8220     5.9990     9.0140    22.1490     2.1270 
   68.0000   -35.2120    68.7650     6.7950     5.9730     9.0160    22.1410     2.1300 
   68.1250   -35.4130    65.1790     6.7790     5.9600     8.9900    22.1570     2.1360 
   68.2500   -35.5390    62.4520     6.7600     5.9630     8.9830    22.2030     2.1410 
   68.3750   -35.6620    60.0100     6.7280     5.9760     9.0270    22.2390     2.1430 
   68.5000   -35.7400    59.9350     6.6870     5.9980     9.1360    22.2240     2.1440 
   68.6250   -35.7410    62.6010     6.6480     6.0270     9.2630    22.1200     2.1480 
   68.7500   -35.6760    65.1060     6.6210     6.0560     9.3590    21.9480     2.1570 
   68.8750   -35.6090    64.9240     6.6020     6.0730     9.3850    21.8500     2.1680 
   69.0000   -35.4910    62.9220     6.5750     6.0620     9.3420    21.8770     2.1780 
   69.1250   -35.2930    61.2500     6.5300     6.0150     9.2140    21.9560     2.1830 
   69.2500   -34.9830    62.0900     6.4820     5.9320     8.9300    22.1240     2.1830 
   69.3750   -34.5540    68.8340     6.4730     5.8480     8.5690    22.3780     2.1800 
   69.5000   -34.0970    76.9530     6.5500     5.8020     8.1690    22.5550     2.1800 
   69.6250   -33.6250    77.1480     6.7490     5.8310     7.9130    22.5010     2.1850 
   69.7500   -33.0770    73.6950     7.0710     5.9650     8.1590    22.2890     2.1990 
   69.8750   -32.4250    78.1380     7.4150     6.1540     8.8200    22.2960     2.2190 
   70.0000   -31.7270    89.8140     7.6730     6.3310     9.5510    22.5790     2.2410 
   70.1250   -31.0780    97.6870     7.7710     6.4320    10.3460    22.9780     2.2600 
   70.2500   -30.6050    97.0520     7.7450     6.4460    10.5510    23.2190     2.2740 
   70.3750   -30.3080    94.7160     7.8340     6.4950     9.7390    23.1850     2.2830 
   70.5000   -30.1170    92.2610     8.2750     6.7330     8.4710    22.9010     2.2920 
   70.6250   -30.0260    88.9770     9.1770     7.2650     9.0590    22.5530     2.3080 
   70.7500   -30.0850    84.2600    10.4080     8.0830    12.2600    22.4020     2.3360 
   70.8750   -30.3150    80.9840    11.4700     8.9030    16.2240    22.4290     2.3630 
   71.0000   -30.7560    78.9940    11.9080     9.4270    19.4320    22.4300     2.3730 
   71.1250   -31.3370    77.5310    11.4600     9.4140    19.6240    22.2020     2.3520 
   71.2500   -31.9740    80.7650    10.1970     8.7720    14.9080    21.9110     2.3060 
   71.3750   -32.6180    85.4740     8.7900     7.8740    10.8070    21.7200     2.2590 
   71.5000   -33.2880    86.7480     7.6750     7.0280     9.0880    21.6040     2.2270 
   71.6250   -33.9840    82.9560     7.0200     6.4230     8.6540    21.5060     2.2110 
   71.7500   -34.6730    75.5560     6.8130     6.1390     8.6550    21.4180     2.2060 
   71.8750   -35.2650    71.1100     6.8160     6.0550     8.6560    21.3900     2.2000 
   72.0000   -35.6460    70.8060     6.8970     6.0790     8.6770    21.4550     2.1900 
   72.1250   -35.8250    73.1420     6.9740     6.1340     8.7350    21.6080     2.1790 
   72.2500   -35.8520    74.8430     7.0170     6.1720     8.7640    21.7900     2.1670 
   72.3750   -35.7840    75.6380     7.0420     6.1840     8.7160    21.8640     2.1580 
   72.5000   -35.6070    75.4410     7.0630     6.1800     8.6220    21.8360     2.1510 
   72.6250   -35.3040    72.2330     7.0880     6.1730     8.5070    21.7140     2.1500 
   72.7500   -34.8890    69.2640     7.1210     6.1750     8.4160    21.6230     2.1550 
   72.8750   -34.4490    72.8440     7.1600     6.1890     8.4020    21.5900     2.1630 
   73.0000   -34.0640    77.9190     7.1990     6.2110     8.4270    21.5810     2.1720 
   73.1250   -33.7460    79.7470     7.2280     6.2310     8.4390    21.5440     2.1780 
   73.2500   -33.4110    79.2850     7.2220     6.2340     8.3640    21.4090     2.1790 
   73.3750   -33.0040    81.7800     7.1730     6.2100     8.2130    21.2090     2.1800 
   73.5000   -32.5040    85.1050     7.0910     6.1560     8.0340    21.0720     2.1830 
   73.6250   -31.9500    89.4990     7.0040     6.0880     7.8570    21.0890     2.1900 
   73.7500   -31.4050    98.8760     6.9630     6.0360     7.7150    21.3150     2.1980 
   73.8750   -30.8500   105.7780     6.9920     6.0250     7.6050    21.5890     2.2060 
   74.0000   -30.2450   101.4350     7.0860     6.0610     7.5480    21.7350     2.2130 
   74.1250   -29.5610    90.4300     7.2090     6.1330     7.6730    21.7770     2.2230 
   74.2500   -28.8360    91.4460     7.2810     6.2010     7.7840    21.9040     2.2410 
   74.3750   -28.1630   101.5400     7.2390     6.2180     7.7190    22.2110     2.2650 
   74.5000   -27.6130   108.2160     7.0650     6.1570     7.5350    22.6340     2.2860 
   74.6250   -27.1490   105.6620     6.8020     6.0280     7.2910    22.9180     2.2950 
   74.7500   -26.7250   102.4750     6.5530     5.8840     6.9310    23.1470     2.2840 
   74.8750   -26.3760   104.2750     6.4140     5.7980     6.4830    23.2660     2.2630 
   75.0000   -26.1720   106.8480     6.4190     5.8090     6.1540    23.1970     2.2440 
   75.1250   -26.1030   104.5580     6.5320     5.9150     6.2150    22.8710     2.2350 
