~V
VERS. 2.00: Ver 2.00
~W
STRT.M 60.0000:
STOP.M 261.0000:
STEP.M 0.1250:
NULL. -999.2500:
UWI. DF5055:
~C
DEPT.M :
SP.MV :
GR.API :
RML.OHMM :
RI. :
RXO.OHMM :
CALI.CM :
DEN.GM/CC :
~A
# ...
  240.0000    -9.3730    73.7270    15.1110    14.4660    13.7670    25.2000     2.4460 
  240.1250    -9.1390    74.6680    15.5690    14.8010    13.8740    25.3810     2.4380 
  240.2500    -8.9580    74.5810    15.9870    15.1420    13.6440    25.4620     2.4360 
  240.3750    -8.8570    72.7550    16.2910    15.4200    13.6250    25.4450     2.4440 
  240.5000    -8.7760    72.5500    16.4150    15.5630    13.6940    25.3850     2.4580 
  240.6250    -8.7950    75.9040    16.3060    15.4940    14.2750    25.3280     2.4680 
  240.7500    -8.8600    76.8990    16.0440    15.2610    15.0530    25.4040     2.4670 
  240.8750    -8.9510    73.3470    15.7100    14.9390    15.6420    25.5100     2.4570 
  241.0000    -9.0640    68.5770    15.3910    14.6240    15.3180    25.6250     2.4440 
  241.1250    -9.1580    67.6070    15.1730    14.4140    14.9840    25.6290     2.4360 
  241.2500    -9.2320    69.8090    15.0670    14.3240    15.0750    25.6000     2.4320 
  241.3750    -9.2640    72.5210    15.0590    14.3330    15.7580    25.5590     2.4310 
  241.5000    -9.2390    75.3680    15.1160    14.3990    16.3240    25.4680     2.4310 
  241.6250    -9.0710    77.4510    15.2050    14.4830    15.7460    25.3650     2.4280 
  241.7500    -8.9230    76.5150    15.3000    14.5680    14.1140    25.3750     2.4230 
  241.8750    -8.7810    73.2070    15.4040    14.6600    13.7860    25.5310     2.4150 
  242.0000    -8.5580    70.9390    15.5190    14.7590    14.5440    25.7170     2.4070 
  242.1250    -8.3850    71.2720    15.6150    14.8400    14.8250    25.7700     2.4060 
  242.2500    -8.2990    70.2600    15.6440    14.8660    14.8830    25.7400     2.4120 
  242.3750    -8.2180    67.9630    15.5690    14.8120    14.8990    25.6950     2.4250 
  242.5000    -8.1580    67.8200    15.3950    14.6770    14.8750    25.5960     2.4380 
  242.6250    -8.2020    70.3150    15.1910    14.5090    15.2690    25.5340     2.4430 
  242.7500    -8.2740    73.2630    15.0700    14.3990    15.3120    25.5440     2.4390 
  242.8750    -8.3720    74.2400    15.1020    14.4140    15.1800    25.5900     2.4330 
  243.0000    -8.5790    73.1410    15.2960    14.5720    15.3100    25.6090     2.4320 
  243.1250    -8.7900    73.0020    15.5900    14.8340    14.3820    25.6380     2.4400 
  243.2500    -8.9200    75.4780    15.8500    15.0770    13.6990    25.6240     2.4520 
  243.3750    -9.0550    77.6430    15.9790    15.2100    13.9200    25.5250     2.4620 
  243.5000    -9.1760    76.8840    15.9450    15.2000    13.5830    25.3870     2.4670 
  243.6250    -9.2110    75.1320    15.8000    15.0870    13.4410    25.3830     2.4690 
  243.7500    -9.2710    74.9880    15.6810    14.9850    13.3570    25.4010     2.4690 
  243.8750    -9.3460    75.7590    15.6550    14.9520    13.8400    25.3550     2.4680 
  244.0000    -9.3300    76.3090    15.7040    14.9860    14.1280    25.3160     2.4660 
  244.1250    -9.3090    76.4320    15.7210    15.0110    14.5480    25.3430     2.4640 
  244.2500    -9.2810    76.1650    15.5970    14.9350    15.3760    25.4260     2.4620 
  244.3750    -9.1950    75.1860    15.3010    14.7160    16.0300    25.4810     2.4580 
  244.5000    -9.1690    74.1620    14.8810    14.3760    14.8550    25.4990     2.4500 
  244.6250    -9.1790    72.0510    14.4390    13.9840    13.3410    25.5020     2.4390 
  244.7500    -9.1060    70.0100    14.0700    13.6350    12.2100    25.5390     2.4300 
  244.8750    -9.0010    69.2410    13.8270    13.3850    11.5660    25.6430     2.4250 
  245.0000    -8.8950    69.6300    13.7340    13.2640    11.5000    25.7940     2.4180 
  245.1250    -8.7760    69.8770    13.8060    13.2960    11.8980    25.8450     2.4060 
  245.2500    -8.6950    69.7870    13.9670    13.4220    12.7710    25.8340     2.3920 
  245.3750    -8.6460    69.4280    14.1410    13.5870    13.7110    25.7860     2.3800 
  245.5000    -8.5370    68.4770    14.2660    13.7370    13.2500    25.6740     2.3780 
  245.6250    -8.4040    69.3270    14.3180    13.8460    12.3550    25.4630     2.3900 
  245.7500    -8.3020    71.9920    14.3550    13.9410    12.3550    25.3980     2.4100 
  245.8750    -8.1850    72.2630    14.4440    14.0620    13.5180    25.3620     2.4350 
  246.0000    -8.0460    69.0540    14.6380    14.2450    14.5630    25.3070     2.4590 
  246.1250    -7.9270    68.4300    14.9380    14.5020    13.7670    25.2760     2.4750 
  246.2500    -7.7550    70.6160    15.2560    14.7770    13.6610    25.3340     2.4790 
  246.3750    -7.5410    70.2640    15.5200    15.0190    15.5380    25.4010     2.4690 
  246.5000    -7.3720    66.6480    15.6930    15.1930    18.4880    25.4640     2.4490 
  246.6250    -7.1860    64.7980    15.7810    15.2890    19.0220    25.5550     2.4240 
  246.7500    -7.0000    66.4780    15.8530    15.3580    16.5570    25.6130     2.4010 
  246.8750    -6.8350    69.9740    15.9650    15.4490    14.3830    25.6330     2.3830 
  247.0000    -6.6980    73.2460    16.1410    15.5960    14.1230    25.6270     2.3710 
  247.1250    -6.5540    73.3750    16.3840    15.8220    15.1350    25.5560     2.3700 
  247.2500    -6.3610    71.9290    16.6600    16.0970    15.5710    25.4990     2.3790 
  247.3750    -6.2050    72.6170    16.9410    16.3900    15.6320    25.4620     2.3970 
  247.5000    -6.0740    73.7900    17.1940    16.6620    16.3490    25.4310     2.4200 
  247.6250    -5.9310    70.7490    17.3810    16.8700    19.6200    25.3780     2.4430 
  247.7500    -5.7300    66.5140    17.4970    17.0130    20.5670    25.3130     2.4630 
  247.8750    -5.5380    64.5220    17.5490    17.1000    19.3650    25.2760     2.4820 
  248.0000    -5.3930    64.3140    17.5680    17.1590    18.3520    25.2470     2.4990 
  248.1250    -5.2080    64.8810    17.6140    17.2320    18.0900    25.1910     2.5130 
  248.2500    -5.1050    67.0260    17.7240    17.3500    18.8820    25.1840     2.5220 
  248.3750    -5.0440    69.4970    17.8970    17.5170    19.4830    25.2190     2.5240 
  248.5000    -4.9220    69.6030    18.0900    17.7050    18.6610    25.2340     2.5190 
  248.6250    -4.9000    67.8490    18.2230    17.8510    17.9310    25.2720     2.5090 
  248.7500    -4.9540    67.5080    18.2510    17.9110    17.6650    25.3300     2.4990 
  248.8750    -4.9660    68.5130    18.1760    17.8790    17.6010    25.3970     2.4890 
  249.0000    -5.0000    68.7540    18.0430    17.7870    16.9400    25.4310     2.4820 
  249.1250    -5.0750    67.0100    17.9310    17.7010    16.2720    25.4560     2.4810 
  249.2500    -5.1300    65.6440    17.8660    17.6520    17.5500    25.4500     2.4840 
  249.3750    -5.1790    66.2630    17.8160    17.6180    19.3590    25.4210     2.4890 
  249.5000    -5.2380    67.8110    17.7280    17.5600    20.7570    25.3930     2.4890 
  249.6250    -5.2730    67.4360    17.5910    17.4650    16.9300    25.3590     2.4740 
  249.7500    -5.2730    65.7040    17.4760    17.3850    16.4600    25.3550     2.4450 
  249.8750    -5.3050    65.1760    17.4710    17.3880    16.2710    25.3410     2.4150 
  250.0000    -5.3440    65.1760    17.6470    17.5310    15.0050    25.3560     2.4010 
  250.1250    -5.3630    65.1760    18.0240    17.8410    14.0410    25.3470     2.4180 
  250.2500    -5.4210    65.1760    18.4490    18.2080    13.3490    25.2550     2.4570 
  250.3750    -5.4470    65.1760    18.7770    18.5180    13.3550    25.1510     2.5000 
  250.5000    -5.4700    65.1760    18.9090    18.6800    13.6980    25.0770     2.5320 
  250.6250    -5.4400    65.1760    18.8260    18.6510    15.3290    25.0680     2.5450 
  250.7500    -5.4100    65.1760    18.6760    18.5400    17.1760    25.1010     2.5450 
  250.8750    -5.3960    65.1760    18.5810    18.4450    18.7960    25.1310     2.5340 
  251.0000    -5.3720    65.1760    18.6020    18.4320    20.7250    25.1420     2.5120 
  251.1250    -5.3510    65.1760    18.7180    18.5180    22.8920    25.1550     2.4830 
