~V
VERS. 2.00: Ver 2.00
~W
STRT.M 58.0000:
STOP.M 261.0000:
STEP.M 0.1250:
NULL. -999.2500:
UWI. DF5035:
~C
DEPT.M :
DEN.GM/CC :
GR.API :
CALI.CM :
RXO.OHMM :
RI. :
RML.OHMM :
SP.MV :
~A
# ...
  249.2500     2.4870    73.5700    24.8990    16.1760    16.9240    17.6210   -26.5050 
  249.3750     2.4970    74.2460    24.8290    16.0050    17.3100    17.8340   -26.3230 
  249.5000     2.5000    75.3010    24.7330    16.2720    17.4110    17.7670   -26.1080 
  249.6250     2.4940    75.6930    24.6230    16.9530    17.2450    17.5030   -26.1000 
  249.7500     2.4840    76.2130    24.5500    18.3030    17.0010    17.2510   -26.1230 
  249.8750     2.4680    76.6180    24.5670    18.1190    16.8410    17.1600   -26.0180 
  250.0000     2.4480    75.9500    24.6550    16.5720    16.8850    17.3130   -25.9250 
  250.1250     2.4280    74.0310    24.7130    16.3010    17.2040    17.7200   -25.8170 
  250.2500     2.4160    72.3560    24.7560    18.1190    17.6720    18.2000   -25.8400 
  250.3750     2.4180    70.3170    24.8220    19.9100    18.1210    18.5700   -25.8530 
  250.5000     2.4300    68.6000    24.8700    20.9390    18.3650    18.6690   -25.9190 
  250.6250     2.4440    71.8180    24.8570    19.4540    18.2390    18.3930   -25.8750 
  250.7500     2.4510    75.4930    24.8240    17.7440    17.8610    17.9220   -25.8030 
  250.8750     2.4530    75.4930    24.7930    16.1290    17.4220    17.4770   -25.7630 
  251.0000     2.4570    75.4930    24.7530    15.7090    17.1440    17.2820   -25.6570 
  251.1250     2.4720    75.4930    24.7170    16.0210    17.2560    17.5360   -25.5710 
  251.2500     2.4910    75.4930    24.7030    17.3210    17.7190    18.1230   -25.5220 
  251.3750     2.5050    75.4930    24.7080    19.5730    18.4010    18.8510   -25.4600 
  251.5000     2.5100    75.4930    24.7250    22.7570    19.0800    19.4750   -25.3760 
  251.6250     2.5060    75.4930    24.7480    25.2480    19.4610    19.7180   -25.2570 
  251.7500     2.4950    75.4930    24.7630    24.7140    19.4670    19.5740   -25.2270 
  251.8750     2.4780    75.4930    24.7670    21.7780    19.1660    19.1610   -25.2100 
  252.0000     2.4570    75.4930    24.7590    19.3990    18.7440    18.6930   -25.1080 
  252.1250     2.4410    75.4930    24.7390    18.8860    18.4560    18.4300   -25.1430 
  252.2500     2.4370    75.4930    24.7190    18.6330    18.4350    18.4630   -25.0250 
  252.3750     2.4500    75.4930    24.7030    18.1580    18.6910    18.7670   -24.9400 
  252.5000     2.4780    75.4930    24.6640    18.2090    19.1300    19.2180   -24.9250 
  252.6250     2.5090    75.4930    24.5790    18.4280    19.5590    19.6070   -25.0050 
  252.7500     2.5300    75.4930    24.4970    16.7890    19.7910    19.7670   -24.9090 
  252.8750     2.5310    75.4930    24.4600    14.7330    19.7410    19.6410   -24.7490 
  253.0000     2.5150    75.4930    24.4660    14.8570    19.4350    19.2730   -24.7540 
  253.1250     2.4870    75.4930    24.4880    16.8560    18.9600    18.7750   -24.7540 
  253.2500     2.4590    75.4930    24.5110    17.9370    18.4640    18.2960   -24.7320 
  253.3750     2.4390    75.4930    24.5170    18.8970    18.0280    17.9100   -24.7250 
  253.5000     2.4330    75.4930    24.5020    20.8550    17.7050    17.6600   -24.6810 
  253.6250     2.4410    75.4930    24.4970    20.6870    17.5680    17.6040   -24.5560 
  253.7500     2.4570    75.4930    24.5230    19.2360    17.6320    17.7440   -24.5590 
  253.8750     2.4770    75.4930    24.5550    19.7600    17.9140    18.0770   -24.6900 
  254.0000     2.4970    75.4930    24.5340    21.2590    18.3800    18.5490   -24.6810 
  254.1250     2.5160    75.4930    24.4470    24.2700    18.9310    19.0510   -24.6780 
  254.2500     2.5280    75.4930    24.3610    24.9170    19.4190    19.4650   -24.8090 
  254.3750     2.5310    75.4930    24.3110    21.9220    19.7620    19.7340   -24.8900 
  254.5000     2.5240    75.4930    24.2990    17.4210    19.9350    19.8410   -24.9120 
  254.6250     2.5090    75.4930    24.3050    16.3950    19.9510    19.8030   -24.9520 
  254.7500     2.4970    75.4930    24.3060    17.1810    19.8870    19.7110   -24.9800 
  254.8750     2.4920    75.4930    24.3010    18.5690    19.7900    19.6100   -24.9890 
  255.0000     2.4910    75.4930    24.3280    18.8100    19.6930    19.5320   -25.1080 
  255.1250     2.4870    75.4930    24.4080    17.0430    19.6310    19.5490   -25.0500 
  255.2500     2.4760    75.4930    24.4720    17.0950    19.6200    19.6900   -25.0100 
  255.3750     2.4610    75.4930    24.4880    18.1810    19.6630    19.9140   -24.9470 
  255.5000     2.4500    75.4930    24.4870    17.9360    19.7470    20.1180   -24.8330 
  255.6250     2.4470    75.4930    24.5020    17.2200    19.8500    20.1900   -24.7460 
  255.7500     2.4520    75.4930    24.5170    16.7400    19.9440    20.1450   -24.6960 
  255.8750     2.4610    75.4930    24.5210    17.1860    20.0160    20.0400   -24.6410 
  256.0000     2.4710    75.4930    24.5140    18.6700    20.0590    19.9470   -24.5590 
  256.1250     2.4760    75.4930    24.4900    18.1340    20.0740    19.9140   -24.5140 
  256.2500     2.4780    75.4930    24.4700    16.3690    20.0760    19.9140   -24.4060 
  256.3750     2.4750    75.4930    24.4870    15.3960    20.0740    19.9280   -24.4080 
  256.5000     2.4710    75.4930    24.5380    15.5360    20.0700    19.9450   -24.4670 
  256.6250     2.4680    75.4930    24.5640    14.6870    20.0700    19.9450   -24.4340 
  256.7500     2.4670    75.4930    24.5350    14.5060    20.0700    19.9450   -24.3540 
  256.8750     2.4680    75.4930    24.4910    15.0980    20.0700    19.9450   -24.2890 
  257.0000     2.4710    75.4930    24.5090    16.1810    20.0700    19.9450   -24.2960 
  257.1250     2.4750    75.4930    24.5980    16.8100    20.0700    19.9450   -24.3770 
  257.2500     2.4790    75.4930    24.6590    17.3080    20.0700    19.9450   -24.3660 
  257.3750     2.4830    75.4930    24.6580    18.2680    20.0700    19.9450   -24.2920 
  257.5000     2.4850    75.4930    24.6460    19.5810    20.0700    19.9450   -24.1990 
  257.6250     2.4860    75.4930    24.6430    20.5100    20.0700    19.9450   -24.2890 
  257.7500     2.4860    75.4930    24.5880    20.1170    20.0700    19.9450   -24.3450 
  257.8750     2.4850    75.4930    24.4710    19.0170    20.0700    19.9450   -24.3150 
  258.0000     2.4830    75.4930    24.3460    17.1610    20.0700    19.9450   -24.0950 
  258.1250     2.4810    75.4930    24.2590    15.0900    20.0700    19.9450   -23.7960 
  258.2500     2.4820    75.4930    24.1900    14.9300    20.0700    19.9450   -23.5980 
  258.3750     2.4840    75.4930    24.1220    15.4560    20.0700    19.9450   -23.4000 
  258.5000     2.4860    75.4930    24.0430    15.6190    20.0700    19.9450   -23.1980 
  258.6250     2.4770    75.4930    23.9460    15.1480    20.0700    19.9450   -22.8960 
  258.7500     2.4270    75.4930    23.8220    14.8480    20.0700    19.9450   -22.6280 
  258.8750     2.3000    75.4930    23.6660    14.8370    20.0700    19.9450   -22.3820 
  259.0000     2.1160    75.4930    23.4710    13.6370    20.0700    19.9450   -22.3320 
  259.1250     1.9610    75.4930    23.1080    11.1830    20.0700    19.9450  -999.2500 
  259.2500     1.8770    75.4930    22.4390     8.9090    20.0700    19.9450  -999.2500 
  259.3750     1.8530    75.4930    21.5800     7.8580    20.0700    19.9450  -999.2500 
  259.5000     1.8620    75.4930    20.8880     7.5770    20.0700    19.9450  -999.2500 
  259.6250     1.8750    75.4930    20.6530     7.5420    20.0700    19.9450  -999.2500 
  259.7500     1.8820    75.4930    20.6450     7.5460    20.0700    19.9450  -999.2500 
  259.8750     1.8840    75.4930    20.6590     7.5520    20.0700    19.9450  -999.2500 
  260.0000     1.8870    75.4930    20.6580     7.5480    20.0700    19.9450  -999.2500 
  260.1250     1.8890    75.4930    20.6580     7.5440    20.0700    19.9450  -999.2500 
  260.2500     1.8860    75.4930    20.6580     7.5430    20.0700    19.9450  -999.2500 
  260.3750     1.8800    75.4930    20.6580     7.5450    20.0700    19.9450  -999.2500 
