~V
VERS. 2.00: Ver 2.00
~W
STRT.M 58.0000:
STOP.M 276.0000:
STEP.M 0.1250:
NULL. -999.2500:
UWI. DF5012:
~C
DEPT.M :
SP.MV :
GR.API :
CALI.CM :
RXO.OHMM :
RI. :
RML.OHMM :
DEN.GM/CC :
~A
   58.0000   -11.4130    46.2530    25.6450     1.2530     0.8860     0.3230     1.9610 
   58.1250   -17.4570    50.6630    25.6850     1.2410     0.9100     0.5400     1.8880 
   58.2500   -23.5280    52.6130    26.0590     2.2230     0.9950     1.1340     1.8240 
   58.3750   -29.3290    51.5200    27.1770     5.0070     1.1990     2.3020     1.7830 
   58.5000   -34.6540    51.0350    28.8680     8.7030     1.6200     4.2370     1.7610 
   58.6250   -39.0830    54.4400    29.9050    10.2950     2.4180     6.7480     1.7540 
   58.7500   -42.8310    60.0520    29.4750    10.1000     3.4760     8.6720     1.7630 
   58.8750   -45.7200    64.0150    27.8140     9.1200     4.5010     9.1470     1.7870 
   59.0000   -47.7390    64.8600    25.8530     8.8140     5.2310     8.5610     1.8400 
   59.1250   -48.8500    64.1730    24.5650     9.4230     5.6150     7.9730     1.9310 
   59.2500   -49.5260    63.8540    24.0590     9.7700     5.8330     7.7910     2.0230 
   59.3750   -49.9270    64.6570    24.0090     9.8730     5.9600     7.9260     2.0840 
   59.5000   -50.2400    66.6990    24.0320     9.7630     6.0380     8.2080     2.1080 
   59.6250   -50.6240    71.3990    24.0290     9.6640     6.0980     8.4970     2.1100 
   59.7500   -50.8370    75.2260    24.0290     9.5870     6.1580     8.7280     2.1100 
   59.8750   -51.0920    74.9320    24.0290     9.3790     6.2220     8.9110     2.1120 
   60.0000   -51.3130    70.9410    24.0280     9.2300     6.2910     9.0790     2.1190 
   60.1250   -51.5970    67.3370    24.0350     9.6720     6.3680     9.2510     2.1290 
   60.2500   -51.8100    68.1120    24.0480    10.0300     6.4510     9.4270     2.1370 
   60.3750   -52.1060    71.4710    24.0650    10.0960     6.5390     9.5990     2.1430 
   60.5000   -52.3750    71.7480    24.0870    10.1050     6.6300     9.7620     2.1480 
   60.6250   -52.5180    68.3840    24.1350    10.0690     6.7160     9.9010     2.1520 
   60.7500   -52.6250    67.2820    24.2010    10.0390     6.7900    10.0100     2.1520 
   60.8750   -52.7090    68.1970    24.2520    10.0480     6.8460    10.0840     2.1480 
   61.0000   -52.6980    66.5460    24.2710    10.1330     6.8810    10.1160     2.1390 
   61.1250   -52.5970    63.9030    24.2690    10.1560     6.8840    10.0910     2.1280 
   61.2500   -52.5450    66.6190    24.2680     9.9280     6.8590    10.0260     2.1210 
   61.3750   -52.4710    73.2890    24.2680     9.5370     6.8160     9.9460     2.1190 
   61.5000   -52.3200    77.1110    24.2680     9.2000     6.7750     9.8860     2.1220 
   61.6250   -52.2620    76.7220    24.2680     9.3230     6.7660     9.8980     2.1300 
   61.7500   -52.2430    78.2040    24.2680     9.6790     6.8090     9.9970     2.1390 
   61.8750   -52.1930    80.3070    24.2680    10.0100     6.9050    10.1600     2.1480 
   62.0000   -52.1860    80.0700    24.2670    10.1520     7.0270    10.3160     2.1550 
   62.1250   -52.2310    76.5340    24.2610    10.3880     7.1050    10.3330     2.1580 
   62.2500   -52.2280    72.6190    24.2550    11.0060     7.0990    10.1730     2.1620 
   62.3750   -52.1840    69.2040    24.2770    11.4210     7.0080     9.8780     2.1670 
   62.5000   -52.2160    67.5140    24.3800    10.7750     6.8700     9.5480     2.1750 
   62.6250   -52.2070    70.1730    24.6130     9.1870     6.7530     9.3280     2.1830 
   62.7500   -52.2250    72.3250    24.7940     8.4240     6.7100     9.2810     2.1860 
   62.8750   -52.1570    71.7150    24.6900     8.9560     6.7490     9.3850     2.1850 
   63.0000   -52.1860    70.7110    24.2960     9.8910     6.8390     9.5540     2.1800 
   63.1250   -52.1530    70.9500    23.9270    10.1060     6.9070     9.6200     2.1740 
   63.2500   -52.1520    70.7160    23.7830    10.0410     6.8690     9.4600     2.1690 
   63.3750   -52.1550    68.8660    23.7870    10.0120     6.6830     9.0580     2.1660 
   63.5000   -52.2470    68.4220    23.8480     9.9730     6.3850     8.5250     2.1660 
   63.6250   -52.3400    73.5440    23.9830     9.6220     6.0770     8.0660     2.1710 
   63.7500   -52.4690    80.9800    24.1260     8.4100     5.8600     7.8210     2.1790 
   63.8750   -52.7680    84.6790    24.1780     7.5820     5.7870     7.8470     2.1890 
   64.0000   -53.1190    83.4620    24.1110     8.4180     5.8810     8.1390     2.1940 
   64.1250   -53.4040    79.7920    24.0000    10.6960     6.1430     8.6260     2.1900 
   64.2500   -53.6560    75.9160    23.9540    11.8460     6.4800     9.1210     2.1790 
   64.3750   -53.9210    70.8900    23.9950    12.0740     6.8120     9.4970     2.1670 
   64.5000   -54.0640    65.0050    24.0730    12.8520     7.0800     9.7170     2.1570 
   64.6250   -54.1180    61.8180    24.1210    14.2350     7.2860     9.8730     2.1520 
   64.7500   -54.0460    61.1170    24.1320    13.9520     7.5090    10.1320     2.1510 
   64.8750   -53.8140    61.3800    24.1290    12.6330     7.7980    10.5430     2.1560 
   65.0000   -53.4060    60.3710    24.1290    12.1910     8.1370    11.0240     2.1680 
   65.1250   -53.0000    58.3710    24.1290    12.7310     8.4120    11.3390     2.1870 
   65.2500   -52.5550    58.4940    24.1290    12.7810     8.5050    11.3130     2.2050 
   65.3750   -52.0860    60.8850    24.1290    11.7300     8.3680    10.9170     2.2150 
   65.5000   -51.5940    63.4030    24.1290    10.3440     8.0510    10.2950     2.2120 
   65.6250   -51.1270    65.1410    24.1290     9.8050     7.6910     9.7210     2.1990 
   65.7500   -50.6820    68.1780    24.1280     9.6510     7.4270     9.3850     2.1810 
   65.8750   -50.2690    73.4480    24.1350     9.5740     7.3180     9.3170     2.1640 
   66.0000   -49.8550    79.2960    24.1700     9.5880     7.3430     9.4190     2.1510 
   66.1250   -49.4390    83.3180    24.2560     9.7640     7.3970     9.4750     2.1420 
   66.2500   -48.9560    84.4680    24.3570     9.9940     7.3360     9.3110     2.1400 
   66.3750   -48.4680    83.2900    24.4600     9.9150     7.0910     8.8870     2.1450 
   66.5000   -48.0070    85.0320    24.6420     8.6730     6.6860     8.2800     2.1620 
   66.6250   -47.5980    94.5810    25.0170     6.9650     6.2150     7.6370     2.1900 
   66.7500   -47.2230   104.9200    25.4450     5.9630     5.7820     7.0900     2.2220 
   66.8750   -47.0080   111.7740    25.7250     5.8360     5.4510     6.7290     2.2480 
   67.0000   -46.8720   118.3510    25.7050     5.8620     5.2860     6.6600     2.2610 
   67.1250   -46.9320   125.3340    25.3750     5.9160     5.4110     7.0830     2.2620 
   67.2500   -47.1960   125.4020    24.9940     6.1940     5.8550     8.0140     2.2680 
   67.3750   -47.5880   118.2610    24.7570     7.0000     6.6460     9.4270     2.2890 
   67.5000   -48.0440   108.8540    24.6960    10.2710     7.7330    11.1210     2.3260 
   67.6250   -48.6290    98.6880    24.6380    14.0270     8.8790    12.5600     2.3660 
   67.7500   -49.2480    88.8220    24.5010    15.7320     9.6580    13.2040     2.3860 
   67.8750   -49.7620    81.3940    24.3700    14.4580     9.8110    12.8710     2.3670 
   68.0000   -50.2640    78.2000    24.3120    12.6670     9.4080    11.8670     2.3130 
   68.1250   -50.6850    77.0280    24.3170    11.6810     8.7700    10.8010     2.2480 
   68.2500   -51.0140    77.4560    24.3220    11.0990     8.2360    10.1020     2.1940 
   68.3750   -51.2480    78.9070    24.3200    10.0760     7.9030     9.8080     2.1540 
   68.5000   -51.4050    79.5280    24.3170     8.9010     7.7300     9.7390     2.1280 
   68.6250   -51.4150    79.0110    24.3140     8.3560     7.5850     9.6230     2.1140 
   68.7500   -51.3710    78.9590    24.3170     8.2660     7.3730     9.3520     2.1080 
   68.8750   -51.3540    80.3860    24.3550     8.2180     7.1170     9.0140     2.1110 
   69.0000   -51.3860    83.6780    24.4510     7.9950     6.9120     8.8040     2.1240 
   69.1250   -51.4470    88.7380    24.5760     7.3140     6.9080     8.9870     2.1470 
