~V
VERS. 2.00: Ver 2.00
~W
STRT.M 55.0000:
STOP.M 270.0000:
STEP.M 0.1250:
NULL. -999.2500:
UWI. DF5017:
~C
DEPT.M :
SP.MV :
GR.API :
CALI.CM :
RXO.OHMM :
RI. :
RML.OHMM :
DEN.GM/CC :
~A
# ...
  190.0000   -42.1570    65.3790    24.1290   165.3550   253.4500   268.3570     2.2080 
  190.1250   -42.3220    69.4250    24.1330   149.2570   239.3940   253.4580     2.2130 
  190.2500   -42.4960    70.4850    24.1390   140.6150   221.2550   234.2310     2.2190 
  190.3750   -42.6880    68.1670    24.1220   136.4320   201.3510   213.1320     2.2310 
  190.5000   -42.8400    64.8090    24.0770   132.3940   180.0320   190.5340     2.2490 
  190.6250   -42.9520    64.1660    24.0660   124.4250   157.5540   166.7070     2.2650 
  190.7500   -42.9870    66.9370    24.0760   115.7990   135.6580   143.4980     2.2740 
  190.8750   -43.0540    71.0580    24.0750   101.1430   116.6150   123.3110     2.2810 
  191.0000   -43.1700    73.9130    24.0520    83.9540   102.5700   108.4240     2.2900 
  191.1250   -43.2050    73.3790    24.0240    74.9850    96.0620   101.5260     2.2910 
  191.2500   -43.1270    71.7840    23.9990    73.9780    96.9230   102.4380     2.2750 
  191.3750   -42.9300    70.8590    23.9980    85.8270   106.2420   112.3170     2.2470 
  191.5000   -42.6880    70.7310    24.0120   120.3470   125.3930   132.6160     2.2220 
  191.6250   -42.4180    68.9760    24.0190   176.8210   156.6630   165.7630     2.2120 
  191.7500   -42.2270    66.6400    24.0140   226.2850   195.8480   207.2990     2.2100 
  191.8750   -42.0320    65.5490    24.0010   254.2040   236.9100   250.8240     2.2110 
  192.0000   -41.7790    66.4300    23.9830   268.9170   271.6290   287.6260     2.2120 
  192.1250   -41.5180    67.1680    23.9750   276.4480   291.6080   308.8040     2.2130 
  192.2500   -41.2630    66.4330    23.9750   266.6830   299.8830   317.5760     2.2120 
  192.3750   -41.0000    65.0050    23.9740   250.6570   300.6380   318.3760     2.2080 
  192.5000   -40.8150    64.0870    23.9660   243.1930   296.6430   314.1420     2.2040 
  192.6250   -40.6850    64.4450    23.9600   247.4050   289.3700   306.4330     2.2030 
  192.7500   -40.5130    64.9370    23.9490   251.9590   282.7330   299.3970     2.2020 
  192.8750   -40.2580    64.6120    23.9420   250.6640   280.5430   297.0750     2.1980 
  193.0000   -39.9250    63.9170    23.9410   248.7210   285.0750   301.8800     2.1950 
  193.1250   -39.5540    62.4770    23.9410   275.1680   296.1760   313.6470     2.1980 
  193.2500   -39.1130    60.9820    23.9410   334.3650   306.8700   324.9820     2.2060 
  193.3750   -38.6450    59.3180    23.9410   396.8480   307.5850   325.7400     2.2130 
  193.5000   -38.0580    57.0730    23.9420   411.5130   289.6170   306.6940     2.2190 
  193.6250   -37.3380    56.1600    23.9460   353.6740   250.6210   265.3580     2.2350 
  193.7500   -36.4600    58.4020    23.9460   278.4830   205.9440   218.0010     2.2650 
  193.8750   -35.4530    63.7150    23.9370   211.9280   167.5690   177.3230     2.3050 
  194.0000   -34.4160    68.4230    23.9370   157.9820   141.5600   149.7540     2.3490 
  194.1250   -33.3490    67.8480    23.9470   139.0060   130.0970   137.6020     2.4100 
  194.2500   -32.1960    63.2140    23.9790   157.3130   127.6220   134.9800     2.4940 
  194.3750   -30.9420    57.0020    24.0410   193.6120   129.8360   137.3260     2.5880 
  194.5000   -29.5850    55.0500    24.1550   196.4760   132.5370   140.1900     2.6660 
  194.6250   -28.0810    60.4160    24.1300   149.5820   131.8210   139.4300     2.7130 
  194.7500   -26.5660    66.3700    24.1050   115.0830   125.7020   132.9440     2.7340 
  194.8750   -25.0540    66.9300    24.0760   100.1950   111.3690   117.7510     2.7310 
  195.0000   -23.4790    62.6560    24.2190    84.1180    87.5020    92.4520     2.7080 
  195.1250   -21.8090    59.1960    24.2980    69.5710    59.4770    62.7460     2.6740 
  195.2500   -20.1330    58.4800    24.2370    51.4930    36.5620    38.4550     2.6410 
  195.3750   -18.5260    59.9580    23.9920    28.9410    21.4030    22.3870     2.6170 
  195.5000   -17.0370    62.2560    23.6640    11.7190    12.6900    13.1510     2.6070 
  195.6250   -15.7460    62.1130    23.5340     6.3400     8.4990     8.7090     2.6070 
  195.7500   -14.6460    59.2490    23.5450     5.2080     6.3250     6.4040     2.5980 
  195.8750   -13.7070    57.4770    23.4810     5.0710     5.3180     5.3380     2.5690 
  196.0000   -12.9560    59.6730    23.3650     5.0910     5.0300     5.0310     2.5270 
  196.1250   -12.3920    62.7600    23.2120     5.1490     5.2130     5.2260     2.4860 
  196.2500   -11.9800    63.2630    23.0450     5.2340     5.5850     5.6200     2.4530 
  196.3750   -11.6740    62.8700    22.9900     5.3860     6.0300     6.0920     2.4330 
  196.5000   -11.4920    62.6690    22.9730     5.7100     6.4870     6.5760     2.4260 
  196.6250   -11.3780    62.2730    22.9460     6.2620     6.8860     6.9990     2.4230 
  196.7500   -11.2610    61.9610    22.9850     6.6210     7.1720     7.3020     2.4140 
  196.8750   -11.1570    62.3960    23.0810     6.5320     7.3030     7.4410     2.4050 
  197.0000   -11.0170    62.4650    23.0890     6.2170     7.2670     7.4030     2.4110 
  197.1250   -10.9010    59.7140    23.0970     6.0980     7.0880     7.2130     2.4380 
  197.2500   -10.8280    55.9370    23.0770     6.1470     6.8690     6.9810     2.4670 
  197.3750   -10.8180    52.6700    23.1180     6.2720     6.6630     6.7630     2.4840 
  197.5000   -10.7850    50.8480    23.1940     6.4050     6.4960     6.5850     2.4860 
  197.6250   -10.7620    52.1830    23.2690     6.4580     6.3800     6.4630     2.4820 
  197.7500   -10.7390    55.4220    23.1620     6.3900     6.3110     6.3900     2.4820 
  197.8750   -10.7620    59.4090    23.1200     6.3410     6.2980     6.3240     2.4910 
  198.0000   -10.9070    63.8230    23.1260     6.4480     6.3530     6.6520     2.5080 
  198.1250   -11.1770    69.5590    23.1430     6.8200     6.4830     7.2550     2.5310 
  198.2500   -11.4860    77.3270    23.2560     7.3750     6.6260     7.9580     2.5450 
  198.3750   -11.7910    85.5440    23.5350     7.9560     6.7080     8.6120     2.5400 
  198.5000   -12.1880    94.7780    23.8180     8.2780     6.6730     9.0370     2.5170 
  198.6250   -12.6670   104.0410    23.9710     8.1240     6.5100     9.1090     2.4920 
  198.7500   -13.2370   111.1980    24.0050     7.7750     6.3240     9.0370     2.4790 
  198.8750   -13.8810   115.6920    24.0090     7.5480     6.2250     9.0600     2.4680 
  199.0000   -14.5790   117.9390    24.0250     7.7060     6.3050     9.3500     2.4440 
  199.1250   -15.2470   117.8140    24.1010     8.6230     6.6390    10.0020     2.4110 
  199.2500   -15.9240   115.7440    24.2240    10.0620     7.1460    10.8380     2.3910 
  199.3750   -16.6330   112.0530    24.2720    11.3540     7.7130    11.6060     2.3880 
  199.5000   -17.3000   105.7390    24.2030    11.9260     8.1920    12.0220     2.3940 
  199.6250   -17.9130    96.3300    23.9970    11.7140     8.4330    11.8570     2.3990 
  199.7500   -18.5040    90.3190    23.9050    11.2760     8.4760    11.3360     2.4040 
  199.8750   -18.9910    93.5060    23.8870    10.9280     8.4150    10.7190     2.4080 
  200.0000   -19.3550   101.0430    23.8990    10.8650     8.3620    10.2300     2.4100 
  200.1250   -19.6300   102.0740    23.9930    11.0790     8.4130    10.0230     2.4130 
  200.2500   -19.8890    98.4320    24.0990    11.2920     8.5740    10.0530     2.4170 
  200.3750   -20.1250    96.5500    24.2010    11.5790     8.8310    10.2660     2.4210 
  200.5000   -20.3190    96.7130    24.2630    12.1650     9.1690    10.6080     2.4230 
  200.6250   -20.4650    94.5630    24.2010    12.7620     9.5690    11.0310     2.4240 
  200.7500   -20.5360    93.5500    24.1380    13.6120     9.9870    11.4690     2.4260 
  200.8750   -20.5650    94.6170    24.0950    14.6410    10.3820    11.8680     2.4310 
  201.0000   -20.5810    94.1190    24.1250    15.4880    10.7120    12.1700     2.4410 
  201.1250   -20.5660    92.7220    24.0960    15.6300    10.9140    12.3090     2.4510 
