~V
VERS. 2.00: Ver 2.00
~W
STRT.M 60.0000:
STOP.M 249.0000:
STEP.M 0.1250:
NULL. -999.2500:
UWI. DF5060:
~C
DEPT.M :
GR.API :
CALI.CM :
RXO.OHMM :
RI. :
RML.OHMM :
DEN.GM/CC :
SP.MV :
~A
# ...
  161.2500    62.1430    25.1230    49.4390   121.9250   131.9620     2.1960   -27.4620 
  161.3750    65.7520    25.1100    49.7190   122.6840   133.2370     2.1970   -27.3190 
  161.5000    68.0560    25.1080    50.2050   125.2630   136.1390     2.2000   -27.1760 
  161.6250    66.8010    25.1190    48.8510   129.2160   140.0280     2.2030   -26.9350 
  161.7500    65.0010    25.1570    45.0320   133.0310   143.2270     2.2040   -26.6720 
  161.8750    64.5810    25.2150    44.8560   134.9730   143.8860     2.2040   -26.4100 
  162.0000    63.8170    25.2510    50.0460   133.5130   140.6370     2.2030   -26.2000 
  162.1250    60.8680    25.2300    53.0520   127.9530   133.3370     2.2060   -26.0680 
  162.2500    60.7320    25.1920    52.2240   120.6170   124.7870     2.2110   -25.8670 
  162.3750    64.3840    25.1730    48.5980   113.3780   116.8440     2.2160   -25.6470 
  162.5000    67.6370    25.1670    44.4620   107.0990   110.0730     2.2170   -25.3520 
  162.6250    65.6110    25.1390    45.2770   101.3190   103.7390     2.2140   -25.1400 
  162.7500    60.4950    25.0950    46.9340    95.0280    96.8210     2.2140   -24.9430 
  162.8750    57.4370    25.0500    46.2230    87.9600    89.1490     2.2180   -24.8010 
  163.0000    59.7110    25.0130    41.0490    80.4520    81.1730     2.2250   -24.6140 
  163.1250    66.0890    25.0080    34.0200    73.4620    73.9930     2.2280   -24.5110 
  163.2500    71.0280    25.0400    30.3060    67.9250    68.4980     2.2270   -24.3390 
  163.3750    72.1650    25.0230    29.5000    64.3390    65.1100     2.2220   -24.2080 
  163.5000    71.1150    24.7960    25.9730    62.6970    63.7660     2.2160   -24.1010 
  163.6250    70.1760    24.3620    21.6970    62.9900    64.4350     2.2100   -24.0110 
  163.7500    69.1660    24.0630    23.7950    64.6930    66.5320     2.2060   -23.9120 
  163.8750    68.3400    24.1510    29.3370    67.5990    69.8050     2.2030   -23.7760 
  164.0000    66.5390    24.5720    34.2190    71.4810    73.9440     2.2000   -23.7050 
  164.1250    63.3730    25.0340    38.1260    75.8100    78.1010     2.1960   -23.5730 
  164.2500    59.6950    25.3410    43.1550    78.8290    80.3040     2.1890   -23.4850 
  164.3750    57.3440    25.4950    46.1320    78.1850    78.2690     2.1820   -23.3600 
  164.5000    57.9830    25.5590    46.3980    72.4940    71.0420     2.1800   -23.2170 
  164.6250    60.0590    25.5750    42.8310    62.7060    60.1800     2.1920   -23.0610 
  164.7500    61.6010    25.5820    40.7830    52.7170    49.6980     2.2100   -22.9700 
  164.8750    63.5320    25.5660    35.8990    44.7230    41.6450     2.2310   -22.9010 
  165.0000    65.3070    25.4960    30.1090    39.5290    36.5560     2.2470   -22.7770 
  165.1250    65.9110    25.4300    30.3150    37.1630    34.1840     2.2570   -22.6810 
  165.2500    66.3390    25.4250    33.2360    36.3080    33.1240     2.2630   -22.5700 
  165.3750    67.8220    25.4390    34.9690    36.1700    32.5960     2.2670   -22.4860 
  165.5000    69.5080    25.4270    32.4740    36.0800    31.9990     2.2670   -22.4110 
  165.6250    71.6580    25.4140    26.3590    35.3310    30.7710     2.2660   -22.3950 
  165.7500    74.3040    25.4140    23.9250    33.6540    28.7990     2.2670   -22.3660 
  165.8750    75.5140    25.3960    25.4300    31.0070    26.1430     2.2730   -22.3370 
  166.0000    73.5210    25.3610    24.3230    27.5920    23.0190     2.2820   -22.3630 
  166.1250    71.4590    25.3370    18.9600    23.8540    19.8070     2.2930   -22.3720 
  166.2500    72.9570    25.3100    15.1850    20.4690    17.0200     2.3060   -22.3840 
  166.3750    79.1160    25.2650    13.5470    17.9190    15.0840     2.3200   -22.4420 
  166.5000    86.2350    25.2120    11.8190    16.4960    14.2940     2.3320   -22.5640 
  166.6250    86.3940    25.1680    10.2960    16.5470    15.0420     2.3370   -22.7060 
  166.7500    81.7760    25.1440    11.3960    17.9440    17.2030     2.3310   -22.8480 
  166.8750    78.9340    25.1440    15.0210    20.7850    20.7970     2.3170   -23.0310 
  167.0000    80.3700    25.1570    20.1110    25.0860    25.6720     2.2970   -23.1980 
  167.1250    81.1060    25.1860    23.8820    30.6920    31.4690     2.2760   -23.3600 
  167.2500    78.8250    25.2280    25.4540    36.6570    37.3690     2.2550   -23.5760 
  167.3750    76.2600    25.2650    28.5570    42.2210    42.8500     2.2350   -23.7750 
  167.5000    76.0750    25.2830    32.3040    46.9210    47.6650     2.2180   -23.9850 
  167.6250    77.6900    25.2810    33.9170    50.5960    51.8130     2.2100   -24.1880 
  167.7500    78.1200    25.2680    34.6680    53.6200    55.6420     2.2090   -24.4030 
  167.8750    75.4410    25.2460    35.9920    56.1330    59.3250     2.2110   -24.5860 
  168.0000    71.2550    25.2240    35.0760    58.2510    62.9910     2.2140   -24.6930 
  168.1250    70.7250    25.2200    35.3280    60.1920    66.7890     2.2160   -24.8240 
  168.2500    72.4280    25.2350    37.0390    62.2010    70.6970     2.2190   -24.9550 
  168.3750    71.6720    25.2580    38.7870    64.2800    74.5370     2.2240   -25.1230 
  168.5000    66.8180    25.2760    39.4090    66.3310    78.0860     2.2270   -25.2480 
  168.6250    64.0710    25.2810    40.2290    68.1740    81.0520     2.2260   -25.3170 
  168.7500    66.6170    25.2800    40.5880    69.5790    83.2260     2.2220   -25.2940 
  168.8750    70.7220    25.2790    40.3560    70.2050    84.2500     2.2170   -25.2300 
  169.0000    72.6200    25.2840    39.9360    69.8210    83.9200     2.2130   -25.2050 
  169.1250    72.1430    25.3030    39.6030    68.4360    82.3420     2.2110   -25.1340 
  169.2500    70.7410    25.3250    39.0190    66.7640    80.4930     2.2100   -25.0280 
  169.3750    68.8470    25.3370    37.9500    65.4330    79.2130     2.2110   -24.8860 
  169.5000    67.4280    25.3380    36.0730    64.9580    79.1210     2.2120   -24.6810 
  169.6250    66.7370    25.3360    36.1510    65.7630    80.6060     2.2130   -24.4370 
  169.7500    65.2660    25.3380    37.6700    67.4970    83.0500     2.2110   -24.2200 
  169.8750    65.7270    25.3410    38.3770    69.7360    85.8230     2.2060   -23.9850 
  170.0000    68.7100    25.3440    37.8860    71.9710    88.3090     2.1990   -23.7410 
  170.1250    70.1850    25.3320    37.4260    73.6600    89.9900     2.1910   -23.5120 
  170.2500    68.2890    25.2970    37.0750    74.7510    90.9800     2.1850   -23.3420 
  170.3750    66.0430    25.2600    36.6360    75.3240    91.4000     2.1810   -23.1110 
  170.5000    65.5380    25.2490    36.0670    75.3740    91.1710     2.1780   -22.9060 
  170.6250    65.6560    25.2610    35.7780    74.5510    89.8510     2.1750   -22.7350 
  170.7500    66.8770    25.2580    35.8830    72.8880    87.6160     2.1730   -22.5820 
  170.8750    69.0230    25.2410    35.8000    70.6940    84.9920     2.1730   -22.4570 
  171.0000    69.9600    25.2380    34.9210    68.5080    82.6860     2.1780   -22.3500 
  171.1250    68.8560    25.2670    34.4210    66.8380    81.2180     2.1870   -22.3110 
  171.2500    67.7450    25.3090    34.5560    65.5190    80.1850     2.1970   -22.1890 
  171.3750    68.7270    25.3510    34.5510    64.2000    79.0990     2.2050   -22.1350 
  171.5000    70.8910    25.3840    34.1060    62.7320    77.8200     2.2090   -22.0520 
  171.6250    71.7580    25.3850    32.3730    61.5410    77.0630     2.2100   -21.9600 
  171.7500    71.4930    25.3540    29.9550    61.4600    77.9860     2.2090   -21.8780 
  171.8750    71.1030    25.3050    29.0420    63.4480    81.7150     2.2040   -21.8230 
  172.0000    71.0540    25.2730    31.3520    68.2030    88.7470     2.1960   -21.7830 
  172.1250    70.8270    25.2850    35.9470    75.6040    98.2310     2.1890   -21.7190 
  172.2500    71.2210    25.3150    39.9520    83.0310   106.6020     2.1860   -21.7680 
  172.3750    70.9450    25.3300    43.0290    87.9870   110.7230     2.1890   -21.7750 
