~V
VERS. 2.00: Ver 2.00
~W
STRT.M 55.0000:
STOP.M 247.0000:
STEP.M 0.1250:
NULL. -999.2500:
UWI. DF5063:
~C
DEPT.M :
SP.MV :
GR.API :
RML.OHMM :
RI. :
RXO.OHMM :
CALI.CM :
DEN.GM/CC :
~A
# ...
  223.7500   -18.2450    71.0750    38.2990    33.2370    37.3180    24.5970     2.3190 
  223.8750   -18.0960    68.7670    38.8460    33.7940    36.0360    24.6030     2.3240 
  224.0000   -17.9750    64.9570    39.1580    34.1420    36.7210    24.5940     2.3300 
  224.1250   -17.8000    62.9200    39.3680    34.3780    39.8530    24.5850     2.3370 
  224.2500   -17.5680    65.1490    39.5610    34.5990    43.0340    24.5740     2.3440 
  224.3750   -17.3100    69.9540    39.6960    34.8030    41.9820    24.5270     2.3470 
  224.5000   -17.0040    71.3400    39.7050    34.9480    39.1630    24.4690     2.3500 
  224.6250   -16.6950    67.4520    39.5270    34.9710    36.5890    24.4670     2.3560 
  224.7500   -16.3950    64.5930    39.1860    34.8670    36.0410    24.4690     2.3620 
  224.8750   -16.0090    65.6010    38.6590    34.6120    38.0570    24.4570     2.3680 
  225.0000   -15.4860    68.9790    37.8870    34.1670    38.4590    24.4360     2.3750 
  225.1250   -14.8800    72.4810    36.7720    33.4320    35.5400    24.3740     2.3870 
  225.2500   -14.3070    75.1650    35.3990    32.4330    32.4080    24.2520     2.3920 
  225.3750   -13.7090    76.0990    33.8970    31.2320    30.1800    24.1970     2.3850 
  225.5000   -13.0390    75.5340    32.4300    29.9540    28.5630    24.2840     2.3770 
  225.6250   -12.2410    75.1120    31.1730    28.7600    26.7910    24.4090     2.3890 
  225.7500   -11.3980    75.2780    30.1390    27.7390    27.2070    24.4760     2.4180 
  225.8750   -10.5920    75.2290    29.2900    26.9150    29.0390    24.5230     2.4500 
  226.0000    -9.8120    74.6850    28.5690    26.2740    27.8740    24.5600     2.4710 
  226.1250    -9.0310    74.5340    27.9650    25.8100    25.3550    24.5820     2.4690 
  226.2500    -8.3150    73.5970    27.4700    25.4680    24.1040    24.5840     2.4460 
  226.3750    -7.7630    71.6340    27.0660    25.2040    24.5980    24.5680     2.4030 
  226.5000    -7.3790    70.6540    26.6870    24.9560    24.9360    24.5540     2.3500 
  226.6250    -7.0920    70.9880    26.2110    24.6320    25.7250    24.5640     2.3050 
  226.7500    -6.8180    70.3180    25.5870    24.1860    24.1670    24.5560     2.2770 
  226.8750    -6.5810    68.6250    24.8390    23.6000    22.3690    24.5540     2.2660 
  227.0000    -6.4770    68.8780    24.0490    22.8870    22.2010    24.5320     2.2660 
  227.1250    -6.5110    73.0190    23.3230    22.1050    24.2120    24.4480     2.2700 
  227.2500    -6.5110    76.5950    22.7080    21.3660    25.0030    24.3830     2.2670 
  227.3750    -6.4180    74.8850    22.2500    20.7850    21.8820    24.4020     2.2570 
  227.5000    -6.2920    70.7100    22.0540    20.4900    21.0090    24.3780     2.2450 
  227.6250    -6.1960    70.1570    22.3750    20.6980    21.0870    24.2380     2.2420 
  227.7500    -6.1420    71.8680    23.2610    21.4070    20.8700    24.1520     2.2490 
  227.8750    -6.0870    71.7330    24.6360    22.5350    23.8540    24.1800     2.2640 
  228.0000    -5.9300    69.3230    26.1920    23.8430    27.3950    24.4230     2.2810 
  228.1250    -5.6650    69.5380    27.3040    24.8440    27.5620    24.6300     2.2920 
  228.2500    -5.4370    73.5050    27.5110    25.1280    24.4940    24.6750     2.2940 
  228.3750    -5.2970    77.8710    26.6450    24.4920    22.0390    24.6410     2.2940 
  228.5000    -5.2120    78.3010    24.9180    23.0410    20.7300    24.6390     2.2950 
  228.6250    -5.2220    73.8230    22.8470    21.1550    18.9650    24.6510     2.3000 
  228.7500    -5.2150    69.9610    21.0840    19.4150    17.8920    24.6640     2.3050 
  228.8750    -5.1420    69.4340    19.9950    18.1620    18.0860    24.6580     2.3050 
  229.0000    -5.0820    70.1080    19.7650    17.5960    19.4940    24.6510     2.2990 
  229.1250    -5.1370    72.1760    20.5740    17.9210    21.7340    24.6720     2.2900 
  229.2500    -5.1670    75.5500    22.1610    18.9620    25.3420    24.6700     2.2870 
  229.3750    -5.1160    79.3120    24.2850    20.5500    27.6210    24.5990     2.2930 
  229.5000    -5.0070    82.4300    26.5650    22.3880    27.0490    24.5190     2.3030 
  229.6250    -4.8290    83.7480    28.3480    23.9710    28.1190    24.5180     2.3050 
  229.7500    -4.6820    83.0950    29.1460    24.8670    29.8110    24.5140     2.2960 
  229.8750    -4.6480    81.0770    28.7200    24.8400    31.7420    24.5170     2.2860 
  230.0000    -4.7060    79.5370    27.2030    23.9280    29.3210    24.5710     2.2830 
  230.1250    -4.6770    79.5630    25.0440    22.3700    24.1740    24.5800     2.2860 
  230.2500    -4.6000    78.0490    22.9580    20.6940    21.1240    24.5980     2.2880 
  230.3750    -4.4870    74.5140    21.3310    19.1950    19.3920    24.6120     2.2880 
  230.5000    -4.3300    71.7600    20.2180    17.9890    18.4250    24.6330     2.2880 
  230.6250    -4.1920    73.0730    19.3910    17.0110    17.6140    24.6690     2.2930 
  230.7500    -4.0290    76.3210    18.3880    16.0040    17.8720    24.6890     2.3030 
  230.8750    -3.7950    79.4940    16.9420    14.7920    16.2720    24.6460     2.3180 
  231.0000    -3.4550    81.4380    14.8870    13.3170    12.9790    24.5730     2.3420 
  231.1250    -3.1220    80.6870    12.5700    11.6900     8.8450    24.5230     2.3810 
  231.2500    -2.8190    76.8220    10.5840    10.1850     7.3340    24.5130     2.4260 
  231.3750    -2.5480    71.6060     9.3890     8.9930     7.6290    24.4970     2.4550 
  231.5000    -2.3270    66.9210     8.6310     8.2070     8.3510    24.4820     2.4570 
  231.6250    -2.1140    64.7540     8.3250     7.8660     8.9650    24.4860     2.4370 
  231.7500    -1.9650    64.8240     8.2750     7.8020     8.9940    24.5030     2.4190 
  231.8750    -1.8520    66.3860     8.3610     7.8970     8.7970    24.5010     2.4110 
  232.0000    -1.7670    66.8880     8.4930     8.0440     8.7620    24.4830     2.4100 
  232.1250    -1.6910    65.8980     8.6260     8.1650     8.3850    24.4770     2.4120 
  232.2500    -1.6300    66.9870     8.7390     8.2310     8.1510    24.4910     2.4120 
  232.3750    -1.6400    70.2600     8.8120     8.2370     8.0750    24.5020     2.4090 
  232.5000    -1.6570    72.4450     8.8120     8.1780     8.0630    24.4890     2.4070 
  232.6250    -1.6520    70.3190     8.6890     8.0340     7.8400    24.4710     2.4070 
  232.7500    -1.6260    67.8460     8.4670     7.8240     7.1660    24.4710     2.4050 
  232.8750    -1.6160    67.7470     8.1900     7.5700     6.2100    24.4880     2.4000 
  233.0000    -1.6570    69.4130     7.9240     7.3120     5.6050    24.4870     2.3970 
  233.1250    -1.7220    71.4040     7.7520     7.1050     5.4850    24.4770     2.3990 
  233.2500    -1.7800    73.1510     7.7020     6.9780     5.6180    24.5110     2.3970 
  233.3750    -1.7820    73.8770     7.7720     6.9450     6.0220    24.5560     2.3860 
  233.5000    -1.7940    73.0520     7.9390     7.0000     7.0710    24.5650     2.3730 
  233.6250    -1.8200    71.5680     8.1780     7.1340     8.4210    24.5540     2.3710 
  233.7500    -1.8140    70.5910     8.4460     7.3140     9.5810    24.5540     2.3760 
  233.8750    -1.7430    69.8500     8.7230     7.5270    10.4650    24.5440     2.3800 
  234.0000    -1.5820    69.1200     8.9970     7.7670    11.0320    24.5120     2.3850 
  234.1250    -1.3840    67.1700     9.2640     8.0250    12.4050    24.4750     2.4010 
  234.2500    -1.2130    66.1170     9.5140     8.2770    12.9740    24.4170     2.4220 
  234.3750    -1.0570    67.4240     9.7280     8.4940    11.2800    24.3110     2.4380 
  234.5000    -0.9530    69.2460     9.8870     8.6510     9.3320    24.2210     2.4500 
  234.6250    -0.8930    68.6870     9.9770     8.7250     8.0550    24.1420     2.4630 
  234.7500    -0.8680    68.0120    10.0220     8.7460     7.3610    24.1180     2.4790 
  234.8750    -0.8980    69.0080    10.0560     8.7490     6.9650    24.1290     2.4940 
