~V
VERS. 2.00: Ver 2.00
~W
STRT.M 55.0000:
STOP.M 271.0000:
STEP.M 0.1250:
NULL. -999.2500:
UWI. DF5016:
~C
DEPT.M :
SP.MV :
GR.API :
CALI.CM :
RXO.OHMM :
RI. :
RML.OHMM :
DEN.GM/CC :
~A
# ...
  133.7500   -24.3050    80.9520    22.1140     8.2930     7.2370     7.8750     2.2010 
  133.8750   -24.3530    78.9390    22.0870     9.2200     7.5900     8.2480     2.1960 
  134.0000   -24.3670    75.9970    22.0620    10.1680     7.9100     8.5850     2.1850 
  134.1250   -24.3340    73.7840    22.0300    10.7180     8.1210     8.8080     2.1730 
  134.2500   -24.2650    72.6090    21.9860    10.8190     8.2460     8.9400     2.1630 
  134.3750   -24.1540    71.5400    21.8990    10.6600     8.3610     9.0610     2.1530 
  134.5000   -23.9860    70.5670    21.8130    10.4920     8.5950     9.3070     2.1420 
  134.6250   -23.7280    70.6700    21.7070    10.5490     9.1600     9.9040     2.1390 
  134.7500   -23.3940    71.8740    21.5470    10.9720    10.0970    10.8920     2.1500 
  134.8750   -23.0090    73.2230    21.3620    12.3850    11.3410    12.2050     2.1890 
  135.0000   -22.6030    73.9670    21.3060    15.6920    12.6490    13.5840     2.2670 
  135.1250   -22.2030    74.0110    21.5020    21.0610    13.5100    14.4650     2.3820 
  135.2500   -21.8190    74.4930    21.9620    25.7090    13.5700    14.3110     2.4990 
  135.3750   -21.4700    76.4240    22.6470    27.6340    12.7360    12.9050     2.5790 
  135.5000   -21.1910    79.6010    23.2580    26.2620    11.2500    10.8510     2.5960 
  135.6250   -21.0460    82.8530    23.5950    21.7290     9.6010     9.0050     2.5440 
  135.7500   -21.0390    85.8060    23.8420    15.6100     8.2650     7.7980     2.4630 
  135.8750   -21.1520    88.2730    23.9270    10.2330     7.4480     7.2590     2.3790 
  136.0000   -21.3490    89.0610    23.6400     7.6820     7.1860     7.3080     2.3020 
  136.1250   -21.5980    86.7380    23.0550     8.3180     7.4280     7.8030     2.2370 
  136.2500   -21.8610    83.0890    22.5470     9.6250     7.8720     8.3880     2.1950 
  136.3750   -22.1130    80.4230    22.2150    10.3420     8.2520     8.7780     2.1800 
  136.5000   -22.3150    80.2110    22.0250    10.4380     8.3300     8.7420     2.1890 
  136.6250   -22.4200    82.9850    21.9510    10.2390     7.9530     8.1870     2.2080 
  136.7500   -22.4370    87.9450    21.9590     9.6600     7.3260     7.4500     2.2280 
  136.8750   -22.3960    93.8890    22.0010     8.5130     6.6920     6.8390     2.2500 
  137.0000   -22.3390    98.3060    22.1130     7.0600     6.2680     6.5610     2.2750 
  137.1250   -22.3100    97.5550    22.4420     6.0960     6.2460     6.7630     2.3100 
  137.2500   -22.3270    92.1390    22.8670     6.3700     6.5880     7.3240     2.3540 
  137.3750   -22.4070    84.9100    23.1970     8.3830     7.2080     8.1040     2.4040 
  137.5000   -22.5670    79.7610    23.3230    12.0500     7.9420     8.9100     2.4430 
  137.6250   -22.8280    79.2840    23.2140    15.2470     8.5220     9.4450     2.4350 
  137.7500   -23.1560    80.8970    22.9510    15.7150     8.7510     9.5460     2.3750 
  137.8750   -23.5070    82.3610    22.6740    13.6570     8.5600     9.1810     2.2890 
  138.0000   -23.8430    83.6760    22.5010    11.1310     8.0160     8.4830     2.2240 
  138.1250   -24.1410    85.7570    22.4180     9.5150     7.2810     7.6850     2.2170 
  138.2500   -24.4140    88.4560    22.3600     8.2970     6.5770     7.0040     2.2500 
  138.3750   -24.6710    92.0350    22.3440     7.2620     6.0250     6.5500     2.2980 
  138.5000   -24.9130    96.7210    22.4060     6.5100     5.6900     6.3650     2.3340 
  138.6250   -25.1420   101.1690    22.4360     6.0990     5.6340     6.4900     2.3430 
  138.7500   -25.3800   102.7060    22.4380     5.8480     5.8300     6.9020     2.3370 
  138.8750   -25.6550   100.0910    22.4730     5.8820     6.2840     7.5920     2.3240 
  139.0000   -25.9870    93.7540    22.4740     6.4520     6.9730     8.5130     2.3060 
  139.1250   -26.3710    85.7610    22.4540     7.8170     7.8420     9.5710     2.2810 
  139.2500   -26.7730    79.6810    22.4460     9.7500     8.7080    10.5480     2.2710 
  139.3750   -27.1780    77.3870    22.5240    11.8460     9.4110    11.2600     2.2880 
  139.5000   -27.5920    78.8770    22.7290    13.3980     9.8200    11.5800     2.3240 
  139.6250   -28.0280    82.1150    22.9880    13.8170     9.8240    11.4260     2.3380 
  139.7500   -28.4760    84.2060    23.1160    12.9870     9.5610    11.0120     2.3180 
  139.8750   -28.9190    84.4510    23.0460    11.4200     9.1640    10.5240     2.2760 
  140.0000   -29.3450    83.8140    22.9010     9.8650     8.7710    10.1140     2.2350 
  140.1250   -29.7610    83.6860    22.7370     9.1010     8.4970     9.9020     2.2080 
  140.2500   -30.1780    83.7910    22.5220     9.0180     8.3570     9.8550     2.1920 
  140.3750   -30.5870    83.2060    22.2860     9.2220     8.3360     9.9330     2.1800 
  140.5000   -30.9630    82.1640    22.1430     9.3560     8.4010    10.0810     2.1710 
  140.6250   -31.2710    82.4590    22.1140     9.3140     8.5210    10.2370     2.1680 
  140.7500   -31.5160    84.3290    22.1140     9.2460     8.6680    10.3860     2.1720 
  140.8750   -31.7060    85.7560    22.1060     9.2220     8.8360    10.5210     2.1790 
  141.0000   -31.8450    84.8240    22.0810     9.2900     9.0230    10.6480     2.1810 
  141.1250   -31.9100    82.1760    22.0280     9.4860     9.2250    10.7950     2.1760 
  141.2500   -31.9020    80.1670    21.9870     9.7800     9.4230    10.9490     2.1710 
  141.3750   -31.8280    79.0850    22.0210    10.0060     9.6050    11.1040     2.1660 
  141.5000   -31.7110    78.4930    22.0470    10.0510     9.7590    11.2570     2.1590 
  141.6250   -31.5710    78.8380    21.9850    10.0260     9.8690    11.3800     2.1540 
  141.7500   -31.4120    79.7770    21.8990    10.2350     9.9420    11.4830     2.1580 
  141.8750   -31.2270    80.3010    21.9180    10.8480     9.9780    11.5520     2.1800 
  142.0000   -31.0140    80.0830    22.0550    12.2800     9.9760    11.5630     2.2190 
  142.1250   -30.7870    79.8230    22.2070    14.6040     9.9320    11.4920     2.2540 
  142.2500   -30.5640    79.2240    22.3070    16.1740     9.8460    11.3360     2.2650 
  142.3750   -30.3330    77.1290    22.3380    15.2080     9.7200    11.1180     2.2540 
  142.5000   -30.0670    73.9690    22.3150    12.2950     9.5940    10.9030     2.2340 
  142.6250   -29.7310    72.1690    22.3290    10.4650     9.5550    10.7950     2.2090 
  142.7500   -29.3340    71.8260    22.3670     9.8330     9.6440    10.8310     2.1830 
  142.8750   -28.8900    71.5180    22.3620     9.9390     9.8380    10.9730     2.1650 
  143.0000   -28.4030    70.8260    22.3080    10.2100    10.0720    11.1330     2.1680 
  143.1250   -27.8560    71.4920    22.3150    10.6590    10.2270    11.1710     2.1990 
  143.2500   -27.2570    74.3290    22.3650    11.7800    10.1770    10.9520     2.2480 
  143.3750   -26.6250    79.1360    22.4200    13.6880     9.8410    10.4210     2.3040 
  143.5000   -25.9910    85.5660    22.5160    14.9780     9.2090     9.6110     2.3480 
  143.6250   -25.3910    92.3100    22.7020    13.3150     8.3280     8.6060     2.3540 
  143.7500   -24.8290    97.3010    22.9630     9.9710     7.3850     7.6040     2.3280 
  143.8750   -24.3070    99.7670    23.2720     7.2400     6.5140     6.7360     2.2930 
  144.0000   -23.8350   100.8540    23.5760     6.0040     5.8110     6.0810     2.2720 
  144.1250   -23.4500   102.4330    23.8510     5.7100     5.3650     5.7240     2.2740 
  144.2500   -23.1560   104.0710    24.0920     5.4370     5.1610     5.6230     2.2870 
  144.3750   -22.9480   103.6630    24.2340     5.1070     5.2050     5.7790     2.3030 
  144.5000   -22.8060   100.2810    24.3260     5.0490     5.4940     6.1850     2.3210 
  144.6250   -22.7200    95.2850    24.3630     5.9200     6.0500     6.8660     2.3350 
  144.7500   -22.6800    90.7230    24.3130     7.7320     6.8080     7.7580     2.3330 
  144.8750   -22.6870    87.0710    24.2680     9.8860     7.7010     8.7590     2.3140 
