~V
VERS. 2.00: Ver 2.00
~W
STRT.M 50.0000:
STOP.M 245.0000:
STEP.M 0.1250:
NULL. -999.2500:
UWI. DF5062:
~C
DEPT.M :
DEN.GM/CC :
GR.API :
RML.OHMM :
RI. :
RXO.OHMM :
CALI.CM :
SP.MV :
~A
# ...
  151.2500     2.4230    96.0040     9.9830     8.8700     9.3770    25.0440   -29.2170 
  151.3750     2.4240    94.8580     9.9360     8.8240     9.3740    25.1500   -29.2190 
  151.5000     2.4240    88.3340     9.8840     8.7820     9.2850    25.2430   -29.1630 
  151.6250     2.4270    83.9620     9.8360     8.7450     9.2810    25.2750   -29.1790 
  151.7500     2.4340    85.7400     9.8200     8.7310     9.3470    25.2690   -29.2240 
  151.8750     2.4440    90.6130     9.8650     8.7600     9.3900    25.2490   -29.1930 
  152.0000     2.4500    92.7540     9.9900     8.8500     9.3740    25.2830   -29.2720 
  152.1250     2.4410    91.9760    10.2190     9.0220     9.3900    25.4120   -29.3110 
  152.2500     2.4160    90.9260    10.5260     9.2640     9.6890    25.5560   -29.2970 
  152.3750     2.3830    89.9290    10.8820     9.5640    10.2530    25.6160   -29.3170 
  152.5000     2.3540    88.7500    11.2470     9.9000    10.6320    25.5370   -29.3580 
  152.6250     2.3440    86.9180    11.5900    10.2500    11.0700    25.2530   -29.3440 
  152.7500     2.3550    86.7930    11.9270    10.6080    11.5720    24.9110   -29.3330 
  152.8750     2.3800    90.2810    12.3280    11.0080    12.4780    24.7170   -29.4070 
  153.0000     2.4110    94.9100    12.9040    11.5240    13.0260    24.6570   -29.3550 
  153.1250     2.4320    95.0390    13.8090    12.2910    13.3960    24.6510   -29.3440 
  153.2500     2.4380    90.8840    14.9730    13.3080    14.1810    24.6440   -29.3520 
  153.3750     2.4280    87.1080    16.2320    14.4940    15.5350    24.6230   -29.3260 
  153.5000     2.4090    85.7710    17.3180    15.6780    17.8190    24.5750   -29.3490 
  153.6250     2.3900    85.7550    17.9290    16.5850    22.2970    24.5350   -29.3030 
  153.7500     2.3790    85.9200    18.0680    17.1040    25.1040    24.5250   -29.3090 
  153.8750     2.3780    85.7150    17.9740    17.2910    22.4200    24.5250   -29.2770 
  154.0000     2.3840    84.8140    17.9410    17.3780    17.7440    24.5750   -29.2450 
  154.1250     2.3890    83.3600    18.4690    17.7100    17.6640    24.6790   -29.2770 
  154.2500     2.3900    81.2680    19.4640    18.4080    18.4030    24.7780   -29.2300 
  154.3750     2.3850    79.0450    20.5660    19.3660    19.3890    24.8410   -29.1960 
  154.5000     2.3760    77.9190    21.4690    20.2690    20.6620    24.8810   -29.1720 
  154.6250     2.3670    80.2040    21.7740    20.5740    21.4810    24.9300   -29.1290 
  154.7500     2.3610    83.9750    21.2730    20.0730    21.5770    24.9550   -29.0530 
  154.8750     2.3610    86.7670    20.0160    18.8160    21.9150    24.9560   -29.0220 
  155.0000     2.3690    88.2590    18.3130    17.1130    19.1760    24.9460   -28.9820 
  155.1250     2.3870    91.6310    16.6770    15.4770    14.9850    24.9240   -28.8740 
  155.2500     2.4090    97.5210    15.5490    14.3490    13.4310    24.8920   -28.8630 
  155.3750     2.4280   102.8330    15.2060    14.0060    12.7640    24.8660   -28.8450 
  155.5000     2.4380   105.1410    15.8120    14.6120    12.9190    24.8570   -28.8150 
  155.6250     2.4340   102.6140    17.4870    16.2870    14.9670    24.8570   -28.8340 
  155.7500     2.4180    96.9310    19.7410    18.5410    18.4630    24.8570   -28.8510 
  155.8750     2.3940    88.9100    22.0230    20.8230    21.7060    24.8580   -28.8450 
  156.0000     2.3710    81.4040    23.7370    22.5370    25.5270    24.8590   -28.8510 
  156.1250     2.3590    79.0720    24.3670    23.1670    29.6750    24.8520   -28.9080 
  156.2500     2.3630    82.0280    24.2970    23.0970    27.0660    24.8480   -28.8700 
  156.3750     2.3780    87.2440    24.1120    22.9120    21.6250    24.8520   -28.9000 
  156.5000     2.3940    91.7990    24.3540    23.1200    23.4270    24.8730   -28.9180 
  156.6250     2.3940    91.5380    25.1930    23.9530    29.2010    24.9160   -28.9500 
  156.7500     2.3810    86.5670    26.1850    25.1430    40.9140    24.9350   -29.0710 
  156.8750     2.3630    82.1330    27.4320    26.5800    54.4590    24.9420   -29.0830 
  157.0000     2.3530    82.8720    29.2510    28.6010    43.8750    24.9440   -29.2080 
  157.1250     2.3550    85.7550    34.6200    32.8190    28.6320    24.9470   -29.3330 
  157.2500     2.3550    83.9780    44.8180    40.7320    30.6720    24.9600   -29.4680 
  157.3750     2.3440    78.6330    61.3490    53.2230    44.8920    24.9920   -29.6920 
  157.5000     2.3220    74.4100    83.0770    69.3870    71.5470    25.0170   -29.8770 
  157.6250     2.2950    72.5600   101.8050    85.6150   103.1730    25.0260   -30.1020 
  157.7500     2.2780    70.1170   115.2110    97.1900   124.0630    25.0260   -30.3340 
  157.8750     2.2740    66.0820   120.7180   101.8250   123.9450    25.0260   -30.5770 
  158.0000     2.2790    62.5280   120.5400   101.2070   107.7730    25.0250   -30.7800 
  158.1250     2.2850    62.1490   121.7700   101.0470    84.7070    25.0250   -31.0290 
  158.2500     2.2810    62.9600   129.3860   105.9500    76.6940    25.0320   -31.2800 
  158.3750     2.2670    63.0420   143.9520   116.7670    90.1720    25.0450   -31.4790 
  158.5000     2.2490    62.8580   163.3300   131.8760   125.2590    25.0580   -31.6890 
  158.6250     2.2350    63.9770   183.0900   147.8580   154.6930    25.0640   -31.8500 
  158.7500     2.2310    64.9710   198.0170   160.6650   154.7730    25.0610   -32.0070 
  158.8750     2.2360    65.5480   204.6160   167.6350   145.6570    25.0400   -32.1260 
  159.0000     2.2430    67.3280   201.5990   167.5600   143.9380    25.0060   -32.2420 
  159.1250     2.2490    70.0010   189.0110   159.8800   156.1430    24.9770   -32.2430 
  159.2500     2.2530    70.0340   171.4220   147.5560   168.2700    24.9890   -32.2750 
  159.3750     2.2590    67.4930   152.4360   133.0370   162.8850    25.0080   -32.3010 
  159.5000     2.2670    66.8760   135.7140   119.2000   128.9740    25.0030   -32.2570 
  159.6250     2.2760    71.5280   124.9840   109.4500    94.4320    24.9780   -32.2630 
  159.7500     2.2790    76.4460   120.1430   104.5450    82.5310    24.9660   -32.1350 
  159.8750     2.2740    76.6450   120.3290   104.2140    81.4010    24.9610   -32.1120 
  160.0000     2.2620    72.3850   124.0190   107.3410    87.8570    24.9540   -32.1010 
  160.1250     2.2500    68.9610   129.7140   112.6310    99.6750    24.9460   -32.0490 
  160.2500     2.2440    67.2960   135.8980   118.5000   110.4180    24.9400   -32.0370 
  160.3750     2.2470    66.8690   142.1670   124.4040   110.3440    24.9360   -31.9210 
  160.5000     2.2570    66.8510   148.4150   130.1350   103.8700    24.9350   -31.8820 
  160.6250     2.2670    66.7970   154.0170   135.1440   107.6480    24.9380   -31.8190 
  160.7500     2.2700    67.1080   157.6860   138.4510   126.4210    24.9600   -31.7930 
  160.8750     2.2610    67.2680   157.8560   138.7690   155.4210    25.0480   -31.8210 
  161.0000     2.2420    66.8630   153.6190   135.2510   176.5810    25.2480   -31.7780 
  161.1250     2.2240    66.8490   145.5510   128.0980   155.1330    25.4270   -31.7210 
  161.2500     2.2170    68.7450   137.6730   120.5600   120.4570    25.4220   -31.6410 
  161.3750     2.2260    70.5510   133.9590   116.0270    97.6530    25.3130   -31.6820 
  161.5000     2.2480    70.8430   137.8730   117.6240    95.4670    25.2170   -31.6310 
  161.6250     2.2690    69.3000   153.2140   128.7510    91.1910    25.1930   -31.5810 
  161.7500     2.2800    65.0400   177.9070   147.7500    97.1980    25.1850   -31.5060 
  161.8750     2.2780    58.4740   208.7780   171.9940   111.5630    25.1580   -31.2960 
  162.0000     2.2680    54.1700   240.4170   197.0790   136.5660    25.0790   -31.1610 
  162.1250     2.2560    55.5650   264.8170   216.6990   144.8970    24.9520   -31.0040 
  162.2500     2.2470    59.0930   278.6010   228.1880   138.5810    24.8600   -30.8290 
  162.3750     2.2430    63.4740   282.1310   231.7120   134.5120    24.8100   -30.5720 
