~V
VERS. 2.00: Ver 2.00
~W
STRT.M 58.0000:
STOP.M 250.0000:
STEP.M 0.1250:
NULL. -999.2500:
UWI. DF5046:
~C
DEPT.M :
GR.API :
CALI.CM :
RXO.OHMM :
RI. :
RML.OHMM :
DEN.GM/CC :
SP.MV :
~A
# ...
  181.7500    61.9460    23.9660   126.7470   127.6640   150.3200     2.2170   -26.1840 
  181.8750    65.3310    23.9470   119.5000   117.8340   138.2180     2.2190   -25.8800 
  182.0000    69.1060    23.9510   111.1750   110.0290   129.1730     2.2300   -25.6350 
  182.1250    71.5830    23.9500   100.6820   105.3700   123.9810     2.2370   -25.4360 
  182.2500    69.9240    23.9170    98.0440   102.4060   120.4160     2.2330   -25.2840 
  182.3750    64.5860    23.8860   107.2980    99.2410   116.0400     2.2210   -25.1590 
  182.5000    59.9140    23.9180   116.5750    94.2320   109.0160     2.2120   -25.0430 
  182.6250    60.8060    24.0590   105.2010    86.8460    99.1670     2.2160   -24.9390 
  182.7500    62.5220    24.2500    81.1660    78.8260    89.0010     2.2340   -24.8510 
  182.8750    62.1480    24.4000    62.5170    71.8260    80.5420     2.2550   -24.7670 
  183.0000    61.6680    24.4380    56.5170    67.0830    75.0360     2.2680   -24.7200 
  183.1250    62.1750    24.3790    59.1860    65.6100    73.3320     2.2690   -24.7240 
  183.2500    62.6890    24.3540    62.5320    66.7480    74.4200     2.2670   -24.7200 
  183.3750    65.2580    24.4050    65.1350    69.8310    77.4170     2.2580   -24.7240 
  183.5000    70.8800    24.4640    69.3060    73.6930    80.9510     2.2370   -24.7010 
  183.6250    74.4200    24.4110    76.4420    76.2160    82.6420     2.2180   -24.6400 
  183.7500    72.1490    24.2630    81.7560    75.9030    81.0710     2.2190   -24.5400 
  183.8750    66.7810    24.1090    78.8570    72.4730    76.2480     2.2400   -24.4160 
  184.0000    63.8230    24.0120    66.0860    66.9160    69.5690     2.2690   -24.2500 
  184.1250    65.3110    23.9600    51.0390    60.9910    63.1650     2.2970   -24.0670 
  184.2500    68.3430    23.8950    42.9240    56.1600    58.3670     2.3170   -23.9140 
  184.3750    70.0680    23.8080    42.8510    52.8540    55.4160     2.3220   -23.7760 
  184.5000    69.8560    23.7320    46.5510    50.8780    53.9270     2.3080   -23.6890 
  184.6250    69.1310    23.7090    47.7200    49.9000    53.4430     2.2850   -23.6370 
  184.7500    67.5780    23.7130    45.7400    49.6140    53.6660     2.2700   -23.6550 
  184.8750    65.9830    23.7090    43.7770    50.3640    55.0740     2.2700   -23.7600 
  185.0000    65.4080    23.6940    44.2670    52.9390    58.6410     2.2740   -23.9570 
  185.1250    65.3510    23.6880    50.3530    59.3010    66.5360     2.2700   -24.3150 
  185.2500    64.7680    23.7330    67.1880    70.5820    79.8360     2.2560   -24.7680 
  185.3750    65.0670    23.8830   101.2570    87.7500    99.6930     2.2410   -25.3310 
  185.5000    66.1090    24.1730   148.6480   110.1110   125.8730     2.2270   -25.9880 
  185.6250    64.2210    24.5460   189.6000   133.0330   153.6400     2.2130   -26.7220 
  185.7500    60.5460    24.8540   213.0300   148.3390   172.1490     2.2020   -27.5010 
  185.8750    59.1600    25.0390   215.3760   150.7590   173.9860     2.1950   -28.2900 
  186.0000    59.9540    25.1050   191.6850   141.5700   161.8570     2.1890   -29.0440 
  186.1250    60.8020    25.0460   149.0420   127.9640   146.4090     2.1840   -29.6730 
  186.2500    61.3230    24.9150   115.8820   118.1270   136.5760     2.1870   -30.1420 
  186.3750    61.2790    24.7980   104.3240   115.6310   135.3260     2.1990   -30.4480 
  186.5000    60.0710    24.7710   114.1750   121.8570   143.5270     2.2090   -30.5760 
  186.6250    58.9240    24.8200   148.7380   137.3330   161.4990     2.2070   -30.5530 
  186.7500    58.9680    24.8100   205.8350   156.2670   182.3410     2.1940   -30.3800 
  186.8750    57.9260    24.6680   263.2740   170.5640   195.2110     2.1810   -30.0660 
  187.0000    56.2730    24.4270   264.5510   171.5080   189.2840     2.1810   -29.6730 
  187.1250    57.4110    24.1190   187.8050   155.0730   164.1780     2.2020   -29.2110 
  187.2500    59.9160    23.7280   106.7480   132.0670   136.1740     2.2320   -28.7610 
  187.3750    60.7500    23.2910    62.3060   110.6540   113.3950     2.2550   -28.3060 
  187.5000    59.8930    22.9570    46.2470    94.6550    97.5840     2.2600   -27.8490 
  187.6250    59.0320    22.8590    46.7890    84.4160    87.5180     2.2430   -27.3880 
  187.7500    58.6450    22.9020    52.8580    76.6350    79.5080     2.2200   -26.9640 
  187.8750    59.2610    23.0640    57.1490    69.5450    71.9510     2.2070   -26.5860 
  188.0000    61.2860    23.3810    55.2150    62.7320    64.7420     2.2180   -26.2260 
  188.1250    64.1310    23.8720    48.6860    57.3060    59.3390     2.2480   -25.8950 
  188.2500    66.2970    24.3770    44.2980    54.3030    56.8150     2.2640   -25.6040 
  188.3750    65.1030    24.7260    46.8740    54.5620    57.9710     2.2500   -25.3860 
  188.5000    59.5650    24.8530    61.8550    58.7970    63.4080     2.2180   -25.2440 
  188.6250    53.8480    24.8280    91.1650    68.4460    74.4880     2.1990   -25.1910 
  188.7500    51.6380    24.8080   115.8730    82.9720    90.7360     2.2000   -25.1770 
  188.8750    51.3060    24.8310   129.1560   101.9630   111.9580     2.2010   -25.1770 
  189.0000    51.5700    24.8690   150.8450   124.3940   137.1520     2.1870   -25.1890 
  189.1250    53.2880    24.8780   207.3720   148.0370   163.5670     2.1660   -25.2150 
  189.2500    54.8480    24.8610   259.6060   168.2710   185.3730     2.1660   -25.1980 
  189.3750    54.8130    24.8560   274.2680   179.4700   195.3170     2.2010   -25.1220 
  189.5000    54.5780    24.8470   255.5770   176.3400   187.0320     2.2610   -25.0000 
  189.6250    54.6860    24.7260   217.0810   155.5030   158.9310     2.3290   -24.7850 
  189.7500    56.0850    24.5320   164.9240   126.0950   124.5190     2.3770   -24.5240 
  189.8750    58.7460    24.3880   113.9860    96.3030    93.0720     2.3870   -24.2360 
  190.0000    61.6030    24.3790    76.7990    71.4330    68.5980     2.3620   -23.9140 
  190.1250    64.1310    24.3900    54.2200    54.0870    52.2000     2.3360   -23.5880 
  190.2500    66.7850    24.2640    39.1510    42.3850    41.2360     2.3390   -23.2800 
  190.3750    70.1970    24.0980    29.3440    35.0760    34.4000     2.3590   -23.0130 
  190.5000    72.7240    24.0760    23.9940    31.0140    30.6900     2.3650   -22.8040 
  190.6250    74.0360    24.2300    22.5480    29.7050    29.7700     2.3370   -22.7070 
  190.7500    74.1610    24.3740    23.4140    30.1980    30.7000     2.2960   -22.7190 
  190.8750    72.1410    24.4300    26.5480    31.8770    32.7680     2.2660   -22.8730 
  191.0000    69.2540    24.4380    32.7390    33.7190    34.8190     2.2550   -23.1880 
  191.1250    68.8630    24.4310    39.8140    34.1720    35.1880     2.2600   -23.6630 
  191.2500    72.0570    24.4200    39.4080    32.9100    33.7020     2.2700   -24.2380 
  191.3750    75.2950    24.3850    30.1520    30.6820    31.3530     2.2840   -24.8860 
  191.5000    75.5460    24.2630    20.2860    28.7830    29.6640     2.2990   -25.5550 
  191.6250    72.0920    24.0490    20.1800    28.7380    30.3230     2.3020   -26.1990 
  191.7500    69.2580    23.8790    30.5220    31.0460    33.7200     2.2880   -26.7480 
  191.8750    69.6370    23.8660    48.5920    35.9880    40.0980     2.2640   -27.1500 
  192.0000    72.2180    24.0150    65.9960    43.3250    49.2270     2.2410   -27.3790 
  192.1250    72.5510    24.1800    73.3860    51.7470    59.6820     2.2270   -27.3850 
  192.2500    69.2770    24.2580    74.7070    58.7160    68.2880     2.2250   -27.2330 
  192.3750    65.0450    24.2650    74.7890    62.7800    73.0820     2.2350   -26.9200 
  192.5000    63.5900    24.2290    74.3940    64.0660    74.3530     2.2510   -26.4950 
  192.6250    65.0430    24.1360    72.7020    63.6060    73.6980     2.2610   -25.9720 
  192.7500    67.3680    23.9980    70.8890    62.7460    72.8090     2.2620   -25.4390 
  192.8750    69.1000    23.8590    70.0570    61.9290    72.1810     2.2600   -24.9250 
