~V
VERS. 2.00: Ver 2.00
~W
STRT.M 60.0000:
STOP.M 273.0000:
STEP.M 0.1250:
NULL. -999.2500:
UWI. DF5003:
~C
DEPT.M :
GR.API :
CALI.CM :
RXO.OHMM :
RI. :
RML.OHMM :
DEN.GM/CC :
SP.MV :
~A
# ...
  217.5000    61.4570    23.3640    30.2780    32.2420    40.7670     2.1390   -38.7230 
  217.6250    62.6560    23.3660    30.0270    34.4580    43.3790     2.1370   -38.9850 
  217.7500    62.4420    23.3800    31.3260    36.4700    45.6130     2.1390   -39.0710 
  217.8750    61.0780    23.4020    33.1900    38.0920    47.2100     2.1470   -39.1510 
  218.0000    60.4060    23.4210    33.7060    39.1600    47.9590     2.1620   -39.1860 
  218.1250    59.7820    23.4260    31.7360    39.4920    47.6460     2.1830   -39.3560 
  218.2500    58.8370    23.4190    30.9170    39.2360    46.5780     2.2080   -39.4330 
  218.3750    59.1900    23.4380    30.4930    38.5900    45.1340     2.2340   -39.5300 
  218.5000    60.5120    23.5270    30.6020    37.8780    43.8250     2.2460   -39.6130 
  218.6250    61.0350    23.6670    33.6330    37.4830    43.1590     2.2290   -39.7290 
  218.7500    60.6110    23.7660    29.4380    37.4860    43.0990     2.1960   -39.8790 
  218.8750    59.8920    23.7940    22.2540    37.7900    43.4040     2.1620   -39.9920 
  219.0000    59.7570    23.7930    24.1930    38.0860    43.6010     2.1300   -40.0340 
  219.1250    59.9050    23.8040    30.1370    37.7340    42.8770     2.0930   -40.0750 
  219.2500    59.8510    23.7230    28.1850    36.4080    40.9490     2.0510   -40.1780 
  219.3750    61.0670    23.4610    22.4950    34.1660    37.9960     2.0070   -40.2570 
  219.5000    63.1130    23.1910    20.4450    31.4920    34.6710     1.9700   -40.2910 
  219.6250    61.7300    23.2860    26.3410    29.2180    32.0460     1.9570   -40.2810 
  219.7500    57.8540    23.6420    23.8240    27.9640    30.8610     1.9690   -40.2660 
  219.8750    55.7120    23.9210    13.8710    28.1370    31.5960     2.0030   -40.2870 
  220.0000    56.3100    23.9280     8.8950    29.9940    34.4830     2.0500   -40.2840 
  220.1250    57.4280    23.6930    11.0810    33.8840    39.7430     2.0950   -40.1010 
  220.2500    57.2340    23.3560    19.2130    39.1280    46.3680     2.1240   -39.9210 
  220.3750    56.4680    23.0360    32.2190    44.8740    53.2740     2.1390   -39.6770 
  220.5000    56.9540    22.8540    44.8090    49.9850    59.2240     2.1470   -39.5160 
  220.6250    58.7650    22.8250    48.3480    53.2930    63.1220     2.1500   -39.1970 
  220.7500    61.5410    22.8340    46.3870    55.1000    65.5410     2.1480   -38.9150 
  220.8750    63.9720    22.8350    42.9890    56.0460    67.2870     2.1420   -38.5640 
  221.0000    64.3600    22.8340    42.8110    56.7160    68.9740     2.1370   -38.3200 
  221.1250    63.4000    22.8320    45.3220    57.3720    70.7580     2.1390   -38.0340 
  221.2500    63.5040    22.8280    43.5620    58.0010    72.4490     2.1460   -37.7190 
  221.3750    64.7700    22.8250    38.4790    58.5300    73.8900     2.1560   -37.3460 
  221.5000    64.1840    22.8340    33.2160    58.9820    75.1220     2.1660   -36.9480 
  221.6250    60.7960    22.8710    34.8400    59.6450    76.5540     2.1700   -36.6530 
  221.7500    59.3790    22.9470    39.9780    60.8610    78.6660     2.1690   -36.2920 
  221.8750    60.3450    23.0950    45.6250    62.8540    81.7250     2.1650   -35.9170 
  222.0000    62.4000    23.3220    51.9580    65.5740    85.5860     2.1600   -35.5200 
  222.1250    64.9110    23.5460    59.1310    68.5820    89.4930     2.1580   -35.2730 
  222.2500    65.9670    23.6710    63.5850    71.0980    92.3660     2.1580   -34.9710 
  222.3750    64.1880    23.7010    64.3740    72.5950    93.4910     2.1600   -34.7700 
  222.5000    60.0670    23.6970    62.4930    72.9430    92.7540     2.1620   -34.4650 
  222.6250    58.0010    23.6990    61.0910    72.3860    90.5470     2.1640   -34.1630 
  222.7500    59.9220    23.7090    60.9740    71.7030    87.9800     2.1650   -33.8000 
  222.8750    63.4020    23.7220    61.7510    71.4060    85.6400     2.1640   -33.4330 
  223.0000    66.1650    23.7210    63.8450    71.6490    83.5920     2.1640   -32.9400 
  223.1250    65.4890    23.6940    67.3720    72.0930    81.3760     2.1650   -32.4050 
  223.2500    61.7720    23.6630    66.7610    72.2020    78.6790     2.1700   -31.9060 
  223.3750    57.8930    23.6470    62.5740    71.6350    75.4040     2.1830   -31.2290 
  223.5000    57.7740    23.6460    56.4770    69.7970    71.1170     2.2040   -30.6530 
  223.6250    61.0530    23.6470    49.3590    65.2190    64.5570     2.2360   -29.9980 
  223.7500    62.7860    23.6470    43.9900    57.6190    55.5510     2.2750   -29.3750 
  223.8750    62.4650    23.6470    46.1200    47.6100    44.8050     2.3120   -28.7010 
  224.0000    62.8690    23.6470    44.3320    36.9200    33.9370     2.3380   -28.1030 
  224.1250    65.7330    23.6450    31.4360    27.8960    25.0520     2.3470   -27.4850 
  224.2500    68.1730    23.6590    17.0810    21.2560    18.6260     2.3500   -26.9190 
  224.3750    69.4890    23.7090    12.5460    16.7930    14.4120     2.3510   -26.5730 
  224.5000    72.4970    23.7810    10.5930    14.0220    11.9200     2.3490   -26.1690 
  224.6250    77.2150    23.8260     8.8250    12.7670    10.9530     2.3400   -25.9340 
  224.7500    80.3540    23.8300     8.7360    12.6430    11.1110     2.3220   -25.7570 
  224.8750    80.9530    23.8000     9.2140    13.6910    12.4600     2.2960   -25.7310 
  225.0000    79.0930    23.7470    10.6160    16.1350    15.2400     2.2660   -25.7540 
  225.1250    73.9700    23.6860    16.8490    20.7060    20.0410     2.2450   -25.9370 
  225.2500    68.7450    23.6490    25.6680    27.3330    26.4950     2.2410   -26.1080 
  225.3750    68.4070    23.6370    32.9120    35.4440    33.8240     2.2550   -26.3060 
  225.5000    70.8330    23.6380    36.1820    43.4220    40.5850     2.2790   -26.5720 
  225.6250    69.2980    23.6350    38.6480    48.5340    44.7260     2.2960   -26.7990 
  225.7500    65.0780    23.6480    45.0910    50.1610    46.1060     2.2910   -27.0840 
  225.8750    62.8460    23.7080    46.6690    49.0940    45.5520     2.2690   -27.3600 
  226.0000    63.3900    23.8040    40.2480    46.7720    44.3060     2.2400   -27.6270 
  226.1250    62.8710    23.8760    37.9580    44.5290    43.4800     2.2160   -27.8590 
  226.2500    61.6020    23.8980    37.4950    43.0510    43.5110     2.2010   -28.0290 
  226.3750    60.9880    23.8960    38.1250    42.5590    44.5070     2.1930   -28.1960 
  226.5000    62.1090    23.8880    39.4550    43.0200    46.3430     2.1910   -28.3950 
  226.6250    63.9900    23.8580    42.4470    44.2490    48.7080     2.1950   -28.5360 
  226.7500    64.5180    23.8360    45.0280    45.7230    51.0490     2.2010   -28.7400 
  226.8750    63.3610    23.8720    46.5760    47.1400    53.0680     2.2040   -28.9440 
  227.0000    61.6260    23.9930    47.2390    48.3820    54.7180     2.2010   -29.2070 
  227.1250    60.8370    24.1680    47.6890    49.5880    56.2580     2.1930   -29.4280 
  227.2500    61.0710    24.3140    47.7210    51.0520    58.0950     2.1850   -29.7920 
  227.3750    60.9510    24.3930    47.7620    52.9220    60.3870     2.1800   -30.0700 
  227.5000    60.4600    24.4120    49.3900    55.1410    63.0130     2.1800   -30.3900 
  227.6250    60.4210    24.4080    60.8200    57.4920    65.6410     2.1800   -30.7060 
  227.7500    60.8780    24.4070    73.8110    59.7640    68.0700     2.1790   -30.9670 
  227.8750    60.0550    24.4070    76.0490    62.0160    70.5060     2.1750   -31.1630 
  228.0000    57.7060    24.4080    66.3820    64.5720    73.4680     2.1710   -31.3050 
  228.1250    56.8250    24.4050    67.0340    68.0710    77.7770     2.1680   -31.3310 
  228.2500    60.2060    24.3890    79.3850    72.6560    83.4520     2.1700   -31.3940 
  228.3750    64.3110    24.3700    94.0600    78.1720    90.1580     2.1770   -31.4470 
  228.5000    64.7770    24.3270   100.8260    84.1680    97.2640     2.1880   -31.3910 
  228.6250    60.4470    24.1360    89.4500    89.9870   103.9230     2.2030   -31.3950 
