~V
VERS. 2.00: Ver 2.00
~W
STRT.M 58.0000:
STOP.M 261.0000:
STEP.M 0.1250:
NULL. -999.2500:
UWI. DF5035:
~C
DEPT.M :
DEN.GM/CC :
GR.API :
CALI.CM :
RXO.OHMM :
RI. :
RML.OHMM :
SP.MV :
~A
# ...
  170.5000     2.2240    74.4540    23.9050    39.6950    61.3800    63.7530   -45.7260 
  170.6250     2.2290    76.7460    23.8610    41.3230    63.7420    67.2670   -45.7180 
  170.7500     2.2350    74.5340    23.8220    41.0370    66.5980    71.2680   -45.7620 
  170.8750     2.2380    69.4010    23.8060    37.1200    69.6460    75.3430   -45.8380 
  171.0000     2.2410    66.7370    23.8080    33.9290    72.4960    78.9520   -45.8960 
  171.1250     2.2450    66.4190    23.8110    33.6460    74.3330    81.0720   -45.8780 
  171.2500     2.2510    65.5560    23.8090    36.8920    74.7320    81.2960   -45.8660 
  171.3750     2.2590    65.1210    23.7960    38.0850    73.7380    79.7100   -45.9640 
  171.5000     2.2680    65.9490    23.7720    35.8620    71.8620    76.9540   -46.0250 
  171.6250     2.2740    67.8550    23.7510    31.5300    69.9410    74.1180   -46.1100 
  171.7500     2.2720    70.3270    23.7430    29.7910    68.8720    72.3700   -46.2750 
  171.8750     2.2640    72.5490    23.7410    31.2640    69.2960    72.4450   -46.3430 
  172.0000     2.2510    72.4840    23.7400    34.8750    71.5790    74.5860   -46.4700 
  172.1250     2.2370    70.3930    23.7420    36.6490    75.7240    78.4040   -46.6480 
  172.2500     2.2270    69.9900    23.7460    38.8660    80.1660    81.9580   -46.7870 
  172.3750     2.2210    71.8460    23.7390    42.0550    82.9170    83.0850   -46.9210 
  172.5000     2.2180    73.2230    23.7000    47.4490    81.7530    79.7570   -47.0190 
  172.6250     2.2180    72.7180    23.6400    47.4980    74.2810    70.4640   -47.1420 
  172.7500     2.2230    72.3180    23.6040    41.6270    62.5630    57.9960   -47.2480 
  172.8750     2.2340    73.5440    23.6060    33.2100    49.7070    45.3980   -47.4210 
  173.0000     2.2500    76.8810    23.6130    26.6860    38.7480    35.2440   -47.5370 
  173.1250     2.2670    81.2890    23.5660    18.8370    31.9000    29.5290   -47.6350 
  173.2500     2.2780    85.8080    23.4440    14.2740    28.7840    27.8740   -47.8210 
  173.3750     2.2790    87.3150    23.2540    14.6700    29.3240    30.2170   -47.9570 
  173.5000     2.2680    85.4930    23.0570    18.4690    33.7260    36.5240   -48.2200 
  173.6250     2.2510    81.6650    22.9620    23.2790    43.0950    47.1350   -48.4570 
  173.7500     2.2370    77.3160    22.9670    26.0090    56.2460    60.2200   -48.6630 
  173.8750     2.2290    74.3720    22.9970    27.7540    70.8300    73.3810   -48.9780 
  174.0000     2.2260    73.6330    22.9900    30.9070    83.0820    83.6560   -49.2390 
  174.1250     2.2280    75.1850    22.9480    36.2730    89.4510    88.8220   -49.6270 
  174.2500     2.2290    75.7580    22.9240    45.6930    91.9610    91.3650   -49.9250 
  174.3750     2.2280    73.7660    22.9610    59.4800    93.4910    94.0790   -50.2380 
  174.5000     2.2240    71.6760    23.1020    73.2980    96.3790    98.9860   -50.6360 
  174.6250     2.2190    71.2320    23.3530    79.0080   102.1750   107.3850   -50.9060 
  174.7500     2.2120    69.6430    23.6150    77.9380   110.4570   118.5640   -51.1670 
  174.8750     2.2050    66.5700    23.8080    75.3690   120.6660   131.8420   -51.4550 
  175.0000     2.2010    65.0670    23.9030    69.3460   131.9830   146.2350   -51.7400 
  175.1250     2.2020    68.0920    23.9470    81.2190   143.4570   160.4260   -51.9260 
  175.2500     2.2060    71.3140    24.0510   123.8300   154.1960   173.2360   -52.1820 
  175.3750     2.2070    71.4380    24.2830   153.8880   163.5140   183.8170   -52.3700 
  175.5000     2.2020    69.4270    24.6420   144.8480   170.8920   191.7040   -52.4420 
  175.6250     2.1940    66.9820    25.0020   149.3680   175.9750   196.7610   -52.6890 
  175.7500     2.1870    64.0800    25.2230   149.4960   179.6810   200.3630   -52.8840 
  175.8750     2.1850    61.6650    25.2850   131.9830   182.8500   203.5950   -52.9740 
  176.0000     2.1860    61.4890    25.2510   120.0560   186.3740   207.4260   -53.0820 
  176.1250     2.1860    64.2180    25.1810   129.7590   190.9020   212.3130   -53.1650 
  176.2500     2.1830    66.8630    25.1120   151.8190   195.3870   216.8430   -53.2350 
  176.3750     2.1790    67.2680    25.0690   165.4050   198.0310   219.0150   -53.2870 
  176.5000     2.1750    65.9170    25.0590   185.7550   197.4850   217.5680   -53.3080 
  176.6250     2.1730    65.0080    25.0630   197.7810   193.7350   212.9440   -53.2880 
  176.7500     2.1710    65.2200    25.0630   175.8750   189.3790   208.2200   -53.2930 
  176.8750     2.1670    65.3330    25.0580   129.2830   186.7910   205.9520   -53.3200 
  177.0000     2.1650    64.7080    25.0540   119.2850   187.8320   207.8980   -53.3260 
  177.1250     2.1670    63.9090    25.0570   147.8550   193.8480   215.1300   -53.2680 
  177.2500     2.1710    63.7120    25.0590   155.3810   203.3950   225.7920   -53.2530 
  177.3750     2.1730    62.5020    25.0260   131.8350   215.2070   238.2890   -53.2700 
  177.5000     2.1700    60.9450    24.9450   116.3740   227.6640   250.7880   -53.2530 
  177.6250     2.1610    59.8290    24.8600   148.8470   238.9510   261.4070   -53.3030 
  177.7500     2.1520    59.1310    24.8420   181.0690   248.4210   269.8100   -53.3170 
  177.8750     2.1480    59.7280    24.9160   181.8430   255.6920   275.7460   -53.2350 
  178.0000     2.1500    62.2690    25.0290   154.2560   259.8390   278.3170   -53.3200 
  178.1250     2.1540    64.0470    25.0270   117.5860   259.1310   275.9700   -53.4190 
  178.2500     2.1590    64.2360    24.8270    98.3040   254.8570   270.3620   -53.4510 
  178.3750     2.1650    65.0840    24.5000    94.6730   248.8250   263.4530   -53.5380 
  178.5000     2.1730    67.2460    24.2050   106.8800   242.7060   256.7750   -53.5400 
  178.6250     2.1820    67.2810    24.0250   131.6300   237.2600   250.7260   -53.4770 
  178.7500     2.1910    64.9580    23.8950   171.5520   231.8850   244.4040   -53.5670 
  178.8750     2.1970    64.1350    23.7920   222.9140   225.7750   236.9360   -53.5790 
  179.0000     2.1970    66.2220    23.7360   269.2530   218.3590   227.9090   -53.4600 
  179.1250     2.1910    68.7930    23.7190   260.0910   209.7650   217.8660   -53.3050 
  179.2500     2.1830    69.2720    23.7040   261.1920   201.5270   208.6520   -53.1550 
  179.3750     2.1780    67.8830    23.6920   257.5970   195.2520   201.8940   -52.9650 
  179.5000     2.1750    65.4720    23.6850   228.1060   192.2550   198.6730   -52.8500 
  179.6250     2.1730    63.0560    23.6700   267.3760   193.6680   199.6190   -52.7410 
  179.7500     2.1720    62.5340    23.6450   664.9710   197.9490   202.7920   -52.4480 
  179.8750     2.1720    62.9830    23.6240  1281.6000   203.2280   206.1950   -52.3150 
  180.0000     2.1750    62.9940    23.6150  1661.5300   207.5220   207.9710   -52.1120 
  180.1250     2.1810    64.1160    23.6180  1191.3580   209.0740   206.7040   -52.0390 
  180.2500     2.1880    66.4160    23.6260   613.7290   208.1090   203.1330   -51.9600 
  180.3750     2.1930    67.8060    23.6410   317.3970   205.3530   198.2170   -51.8620 
  180.5000     2.1960    68.0250    23.6590   277.0070   201.6510   192.7420   -51.9540 
  180.6250     2.1980    67.1230    23.6730   332.3730   196.9140   186.3960   -51.8290 
  180.7500     2.2010    65.4770    23.6780   353.2590   190.3390   178.2870   -51.8100 
  180.8750     2.2030    64.9290    23.6790   291.8590   181.1390   167.8290   -51.8650 
  181.0000     2.2050    67.8630    23.6770   211.6700   169.4390   155.4550   -51.8740 
  181.1250     2.2080    70.9790    23.6780   160.9620   156.6490   142.9590   -52.0240 
  181.2500     2.2110    71.0260    23.6870   176.9430   145.3360   132.7110   -52.0790 
  181.3750     2.2120    69.5160    23.6980   202.9400   137.4730   126.3870   -52.0970 
  181.5000     2.2080    66.4510    23.7670   187.0150   134.4130   124.9840   -52.0880 
  181.6250     2.1980    62.6090    24.0600   130.3080   137.9200   129.8700   -52.1210 
