~V
VERS. 2.00: Ver 2.00
~W
STRT.M 58.0000:
STOP.M 240.0000:
STEP.M 0.1250:
NULL. -999.2500:
UWI. DF5049:
~C
DEPT.M :
GR.API :
RML.OHMM :
RI. :
RXO.OHMM :
CALI.CM :
DEN.GM/CC :
SP.MV :
~A
# ...
  170.5000    59.1320   202.8310   200.1750   149.7220    25.5920     2.1730   -19.6480 
  170.6250    64.8220   225.7750   222.5160   194.9040    25.3030     2.1810   -19.5100 
  170.7500    67.4090   239.6640   237.1430   237.0250    25.2620     2.1950   -19.3660 
  170.8750    63.6670   237.5570   237.7110   248.6280    25.4350     2.2120   -19.1740 
  171.0000    58.7320   219.4030   223.1160   194.9590    25.4840     2.2280   -19.0200 
  171.1250    58.2940   191.9130   197.8580   131.4060    25.2360     2.2400   -18.9280 
  171.2500    59.4930   164.8710   171.3630    90.0820    24.9570     2.2510   -18.7990 
  171.3750    61.0780   141.9520   147.9910    71.7520    24.7330     2.2620   -18.7070 
  171.5000    64.3270   123.9960   129.2700    74.7710    24.6320     2.2690   -18.6540 
  171.6250    67.6460   111.3020   115.8190    81.1170    24.6740     2.2660   -18.6100 
  171.7500    69.5050   102.5290   106.3140    73.6360    24.7570     2.2520   -18.5550 
  171.8750    70.2210    97.3470   100.3430    66.6710    24.9060     2.2330   -18.5250 
  172.0000    70.9700    95.5980    97.6880    72.7890    25.1520     2.2250   -18.4880 
  172.1250    73.6130    97.7590    98.8890    84.3970    25.4480     2.2500   -18.4880 
  172.2500    75.0990   103.1170   103.3940    96.6350    25.7160     2.3060   -18.4170 
  172.3750    71.3580   111.2160   110.8290   102.6070    25.8910     2.3780   -18.3710 
  172.5000    63.9110   121.0240   120.1630   108.2400    25.9510     2.4410   -18.2570 
  172.6250    60.9530   130.5680   129.4510   127.9420    25.9300     2.4600   -18.1580 
  172.7500    61.5590   138.0160   136.8590   151.4390    25.8880     2.4300   -18.0870 
  172.8750    60.6500   143.0340   141.9580   161.7360    25.8350     2.3630   -18.0220 
  173.0000    58.0920   146.8590   145.7700   148.5720    25.7590     2.2820   -17.9820 
  173.1250    57.2610   151.3350   150.0270   133.7050    25.7320     2.2160   -17.8520 
  173.2500    57.2530   155.7990   154.3640   142.2810    25.7920     2.1810   -17.7700 
  173.3750    56.3200   156.4890   155.6270   191.4460    25.8990     2.1810   -17.6260 
  173.5000    55.0640   148.2830   149.3750   227.1770    25.9650     2.2140   -17.5330 
  173.6250    56.7150   127.1640   131.1150   206.0880    26.0080     2.2670   -17.4050 
  173.7500    60.8780    99.8210   105.3590   150.0620    26.0390     2.3220   -17.1800 
  173.8750    63.8520    73.5350    78.7780    95.9590    26.0120     2.3690   -16.8890 
  174.0000    64.9470    53.2430    57.3560    64.2180    25.8830     2.4090   -16.4690 
  174.1250    67.5740    41.4890    44.5930    56.0830    25.6780     2.4490   -16.0030 
  174.2500    69.7540    36.4520    38.6140    41.9230    25.5420     2.4920   -15.4180 
  174.3750    68.3010    37.4780    38.6580    27.8740    25.6110     2.5270   -14.8040 
  174.5000    65.2020    43.8330    44.1540    31.7380    25.6890     2.5490   -14.0980 
  174.6250    64.4860    53.5710    53.4300    77.9600    25.7000     2.5570   -13.3240 
  174.7500    64.0960    59.8450    59.4630   157.7650    25.5890     2.5670   -12.5180 
  174.8750    63.2440    55.8380    55.0760   165.7520    25.4420     2.5860   -11.6930 
  175.0000    63.7140    42.0980    40.9430   108.6680    25.3300     2.6040   -10.8810 
  175.1250    65.3960    27.3670    26.3040    60.0860    25.2100     2.5990   -10.1150 
  175.2500    65.5950    17.0720    16.3610    28.3360    25.0940     2.5670    -9.4100 
  175.3750    63.4790    10.3070    10.6290    12.4710    24.9530     2.5170    -8.7630 
  175.5000    60.4450     6.9940     7.5780     6.2850    24.8290     2.4610    -8.1510 
  175.6250    61.1530     5.7880     6.1870     4.8060    24.8190     2.4070    -7.6410 
  175.7500    66.2650     5.4200     5.5820     4.4980    24.8810     2.3560    -7.2980 
  175.8750    70.9250     5.5120     5.4750     4.5160    24.9660     2.3130    -7.0270 
  176.0000    70.5470     5.8100     5.6710     4.7380    25.0970     2.2870    -6.8690 
  176.1250    65.6790     6.1360     6.0210     5.0860    25.2780     2.2860    -6.8180 
  176.2500    60.5640     6.3820     6.3680     5.2060    25.2750     2.2990    -6.8460 
  176.3750    58.6990     6.5300     6.6360     5.1740    25.0860     2.3150    -6.9470 
  176.5000    61.2070     6.6120     6.7920     5.2270    24.9200     2.3250    -7.0930 
  176.6250    62.5560     6.6710     6.8300     5.5250    24.8600     2.3320    -7.2530 
  176.7500    58.3510     6.7390     6.8100     5.5720    24.8610     2.3440    -7.3980 
  176.8750    52.5720     6.8310     6.7750     5.6330    24.8950     2.3620    -7.5900 
  177.0000    51.0440     6.9580     6.7560     5.7950    24.9550     2.3800    -7.7530 
  177.1250    53.6690     7.1220     6.7610     5.9550    25.0160     2.3880    -7.9010 
  177.2500    56.2430     7.3090     6.7750     6.1590    25.0440     2.3830    -8.0580 
  177.3750    57.4700     7.4860     6.7770     6.3690    25.0500     2.3720    -8.2100 
  177.5000    56.9310     7.5950     6.7460     6.4670    25.0550     2.3630    -8.3680 
  177.6250    54.6290     7.5910     6.6700     6.4470    25.0790     2.3670    -8.4920 
  177.7500    52.6170     7.5230     6.5750     6.3630    25.0940     2.3790    -8.5320 
  177.8750    51.4250     7.4440     6.4880     6.1720    25.0890     2.3880    -8.5090 
  178.0000    51.0060     7.3970     6.4190     5.9990    25.0690     2.3850    -8.4450 
  178.1250    51.7610     7.3980     6.3680     6.1210    25.0290     2.3660    -8.3380 
  178.2500    52.0090     7.4150     6.3160     6.4870    24.9950     2.3480    -8.2310 
  178.3750    50.9820     7.3990     6.2530     6.5880    24.9750     2.3440    -8.0610 
  178.5000    50.1910     7.3310     6.1850     6.3500    25.0410     2.3610    -7.8690 
  178.6250    52.3350     7.2840     6.1440     5.9210    25.2400     2.3930    -7.6990 
  178.7500    56.1810     7.3600     6.1620     5.7170    25.4560     2.4220    -7.6600 
  178.8750    60.1610     7.6260     6.2660     5.8050    25.4190     2.4400    -7.6990 
  179.0000    66.4370     8.0770     6.4650     6.1970    25.4790     2.4470    -7.8430 
  179.1250    75.0230     8.6210     6.7460     6.7730    25.7290     2.4450    -8.0870 
  179.2500    83.1220     9.0800     7.0340     7.3590    25.9570     2.4400    -8.3940 
  179.3750    90.1350     9.3330     7.2540     7.7960    26.0830     2.4300    -8.8750 
  179.5000    94.4030     9.3580     7.3500     7.9000    26.1320     2.4140    -9.5410 
  179.6250    93.3610     9.2490     7.3020     7.7320    26.1400     2.3880   -10.4950 
  179.7500    92.8200     9.1730     7.2000     7.6600    26.1760     2.3500   -11.6340 
  179.8750    97.5210     9.2220     7.1240     7.5760    26.1020     2.3020   -12.9940 
  180.0000   104.0670     9.4260     7.1370     7.3430    26.0080     2.2490   -14.5530 
  180.1250   104.9910     9.7570     7.2790     7.3300    26.0860     2.2060   -16.3100 
  180.2500   102.1810    10.1070     7.4920     7.6010    26.2900     2.1840   -18.1640 
  180.3750    98.1970    10.4110     7.7040     7.7680    26.4340     2.1900   -19.9360 
  180.5000    93.2340    10.6160     7.8470     7.6860    26.5220     2.2200   -21.5450 
  180.6250    90.6450    10.6550     7.8730     8.0320    26.4760     2.2640   -22.9180 
  180.7500    90.5190    10.5710     7.8300     8.6240    26.3280     2.3050   -24.1080 
  180.8750    89.6260    10.4630     7.7810     8.9160    26.1900     2.3330   -25.1110 
  181.0000    88.3240    10.4520     7.7890     9.0240    26.1140     2.3460   -25.9800 
  181.1250    88.3650    10.6380     7.9010     9.4510    26.0980     2.3460   -26.7630 
  181.2500    87.5940    10.9620     8.0970     9.5700    26.0920     2.3410   -27.5460 
  181.3750    83.8200    11.3270     8.3430     9.6690    26.0380     2.3400   -28.3400 
  181.5000    80.4650    11.6130     8.6050     9.6020    25.9160     2.3460   -29.1450 
  181.6250    82.1130    11.7540     8.8480     9.4210    25.7490     2.3610   -29.8600 
