~V
VERS. 2.00: Ver 2.00
~W
STRT.M 65.0000:
STOP.M 258.0000:
STEP.M 0.1250:
NULL. -999.2500:
UWI. DF5030:
~C
DEPT.M :
SP.MV :
GR.API :
RML.OHMM :
RI. :
RXO.OHMM :
CALI.CM :
DEN.GM/CC :
~A
# ...
  143.7500   -18.9450   114.2380     5.0870     4.8990     5.0260    24.2070     2.2760 
  143.8750   -18.9740   115.1460     5.1990     4.9360     4.9430    24.2250     2.2870 
  144.0000   -19.0030   116.7320     5.6280     5.2080     5.2530    24.1920     2.2960 
  144.1250   -19.0690   117.4870     6.3220     5.7070     6.0410    24.1150     2.3000 
  144.2500   -19.1830   113.7250     7.1190     6.3280     7.2580    23.9940     2.3000 
  144.3750   -19.3040   104.8830     7.7110     6.8480     8.6760    23.9500     2.3000 
  144.5000   -19.3570    99.2650     7.9030     7.0670     9.6770    23.9850     2.3010 
  144.6250   -19.3370   103.0120     7.6450     6.9020     9.7250    24.0490     2.3040 
  144.7500   -19.2990   111.5930     7.1440     6.4290     8.3520    24.1090     2.3050 
  144.8750   -19.2900   115.4160     6.6010     5.8600     6.0070    24.1470     2.3000 
  145.0000   -19.3110   116.0270     6.1760     5.4230     5.2950    24.1480     2.2880 
  145.1250   -19.3190   115.8500     5.8130     5.2000     5.2390    24.1010     2.2720 
  145.2500   -19.2500   114.5980     5.6500     5.1750     5.3060    23.9950     2.2580 
  145.3750   -19.1070   110.3170     5.7390     5.2680     5.4430    23.7700     2.2550 
  145.5000   -19.0000   108.0390     5.7990     5.3560     5.5720    23.4990     2.2610 
  145.6250   -18.9710   111.3510     5.7870     5.3930     5.5940    23.2980     2.2710 
  145.7500   -18.9760   118.6510     5.7360     5.3940     5.5110    23.2250     2.2770 
  145.8750   -18.9610   125.6240     5.7040     5.4250     5.4880    23.3070     2.2780 
  146.0000   -18.9030   127.7060     5.7740     5.5170     5.7220    23.4470     2.2780 
  146.1250   -18.8260   124.6260     5.9100     5.6410     6.2010    23.5670     2.2830 
  146.2500   -18.7740   119.4150     6.0120     5.7170     6.6980    23.6770     2.2960 
  146.3750   -18.7640   116.6860     5.9270     5.6190     6.6840    23.8160     2.3080 
  146.5000   -18.7620   116.0430     5.6460     5.3340     6.0030    24.0020     2.3020 
  146.6250   -18.7240   116.9970     5.2620     4.9290     5.0910    24.2600     2.2670 
  146.7500   -18.6460   120.9020     4.9370     4.5500     4.4060    24.5490     2.2110 
  146.8750   -18.5060   127.1800     4.9090     4.4130     4.2870    24.7870     2.1590 
  147.0000   -18.3650   130.2420     5.1740     4.5870     4.7870    24.6550     2.1420 
  147.1250   -18.2620   126.0400     5.6730     5.0500     6.0290    24.3870     2.1740 
  147.2500   -18.2070   113.3300     6.2610     5.6810     7.5880    24.1150     2.2480 
  147.3750   -18.1760    98.5010     6.6970     6.2610     9.1400    24.0380     2.3320 
  147.5000   -18.1060    91.5840     7.0690     6.6190     9.5330    24.0880     2.3850 
  147.6250   -18.0270    95.2230     7.2160     6.7500     8.4830    24.1580     2.3950 
  147.7500   -17.9690   105.2930     7.4230     6.8340     7.5910    24.1930     2.3800 
  147.8750   -18.0040   111.7520     8.2430     7.2810     8.1770    24.1850     2.3720 
  148.0000   -18.0790   107.6020     9.9540     8.3780    10.2750    24.1490     2.3890 
  148.1250   -18.1120    92.5110    12.6190    10.2750    13.6910    24.1020     2.4280 
  148.2500   -18.1030    72.4200    16.0020    12.8980    18.0550    24.0740     2.4800 
  148.3750   -18.0980    58.0090    19.5070    15.8990    21.4700    24.0130     2.5260 
  148.5000   -18.1550    51.0500    22.3800    18.6150    23.5890    23.9360     2.5560 
  148.6250   -18.2300    49.8180    24.1840    20.5730    24.4310    23.9070     2.5690 
  148.7500   -18.2740    49.8160    24.9010    21.6020    24.4270    23.9410     2.5690 
  148.8750   -18.2660    47.9370    24.8540    21.8230    24.0200    24.0230     2.5610 
  149.0000   -18.2490    46.2730    24.6590    21.7510    23.6930    24.0340     2.5510 
  149.1250   -18.3010    45.5070    24.5750    21.6410    23.1000    23.9920     2.5430 
  149.2500   -18.3780    44.1300    24.6850    21.6130    22.3560    23.9940     2.5400 
  149.3750   -18.4230    41.9380    24.9910    21.7180    22.2710    24.0540     2.5450 
  149.5000   -18.4170    40.0130    25.3960    21.9240    22.5620    24.1090     2.5530 
  149.6250   -18.3700    38.2770    25.8470    22.2090    23.2650    24.1320     2.5610 
  149.7500   -18.3350    37.6100    26.3200    22.5710    23.9940    24.1340     2.5630 
  149.8750   -18.3500    39.1680    26.8390    23.0340    24.8910    24.1300     2.5580 
  150.0000   -18.3900    40.0300    27.4360    23.5970    25.7890    24.1420     2.5530 
  150.1250   -18.4110    39.0340    28.1340    24.2640    26.5800    24.1630     2.5510 
  150.2500   -18.4140    37.7400    28.9180    25.0240    27.2060    24.1560     2.5510 
  150.3750   -18.3990    38.5140    29.7360    25.8540    28.6150    24.0710     2.5520 
  150.5000   -18.4020    39.2830    30.5070    26.6880    30.6060    23.9470     2.5480 
  150.6250   -18.4740    40.2150    31.1480    27.4490    32.7310    23.8610     2.5390 
  150.7500   -18.5910    42.2000    31.5520    28.0270    33.6450    23.8550     2.5290 
  150.8750   -18.6490    42.9540    31.4880    28.2160    32.2360    23.9010     2.5160 
  151.0000   -18.6520    42.4950    30.8540    27.9270    30.9860    23.8860     2.5020 
  151.1250   -18.6230    44.6950    29.5720    27.0860    29.5010    23.8220     2.4850 
  151.2500   -18.6100    49.7890    27.7050    25.7150    27.2080    23.7470     2.4710 
  151.3750   -18.6520    53.6930    25.4740    23.9410    24.3520    23.7100     2.4660 
  151.5000   -18.6980    54.8340    23.3220    22.1280    22.1080    23.7120     2.4730 
  151.6250   -18.6750    53.7670    21.5670    20.5560    20.1110    23.7190     2.4880 
  151.7500   -18.5910    50.4680    20.4330    19.4440    18.4500    23.7020     2.5000 
  151.8750   -18.5470    46.2170    20.1230    18.9990    18.0930    23.7000     2.4990 
  152.0000   -18.5520    46.7040    20.4600    19.1160    18.7860    23.7230     2.4860 
  152.1250   -18.5790    49.9800    21.2910    19.6970    19.9590    23.7910     2.4660 
  152.2500   -18.5610    53.0420    22.4010    20.5880    21.5090    23.9170     2.4470 
  152.3750   -18.4650    56.0880    23.4900    21.5610    22.4690    24.0800     2.4350 
  152.5000   -18.3560    57.2620    24.2790    22.3460    23.3210    24.1560     2.4300 
  152.6250   -18.2800    56.2130    24.6010    22.7660    23.7940    24.1630     2.4280 
  152.7500   -18.2560    54.8010    24.3990    22.7390    23.6950    24.1570     2.4250 
  152.8750   -18.2690    54.1800    23.6810    22.2380    22.6530    24.1570     2.4240 
  153.0000   -18.2590    51.9940    22.7000    21.4720    20.9830    24.1340     2.4270 
  153.1250   -18.1980    50.0650    21.6340    20.5880    19.5070    24.1210     2.4360 
  153.2500   -18.1460    51.1560    20.6190    19.7060    18.5730    24.1500     2.4500 
  153.3750   -18.1400    53.8630    19.7560    18.9140    18.4740    24.1630     2.4620 
  153.5000   -18.1880    55.9340    19.0560    18.2410    18.2640    24.1350     2.4700 
  153.6250   -18.2460    57.5490    18.5460    17.7220    17.8970    24.1000     2.4730 
  153.7500   -18.2370    57.3270    18.2700    17.4030    17.6690    24.1070     2.4710 
  153.8750   -18.1690    52.9230    18.3050    17.3650    17.4280    24.1590     2.4650 
  154.0000   -18.1240    49.1060    18.5640    17.5440    17.5800    24.1760     2.4590 
  154.1250   -18.1530    47.8810    18.9190    17.8420    18.0390    24.1640     2.4550 
  154.2500   -18.1950    47.1410    19.2070    18.1240    18.6570    24.1580     2.4550 
  154.3750   -18.1950    47.4400    19.2620    18.2370    18.8190    24.1580     2.4570 
  154.5000   -18.1640    48.6420    19.1130    18.1760    18.3250    24.1480     2.4580 
  154.6250   -18.1790    50.4100    18.8710    18.0140    17.2820    24.1280     2.4560 
  154.7500   -18.2740    51.0780    18.6800    17.8690    16.8950    24.0920     2.4490 
  154.8750   -18.3750    52.8300    18.6550    17.8520    17.3710    24.0300     2.4380 
