~V
VERS. 2.00: Ver 2.00
~W
STRT.M 60.0000:
STOP.M 256.0000:
STEP.M 0.1250:
NULL. -999.2500:
UWI. DF5048:
~C
DEPT.M :
GR.API :
CALI.CM :
RXO.OHMM :
RI. :
RML.OHMM :
DEN.GM/CC :
SP.MV :
~A
# ...
  138.7500    68.6400    25.1010     8.8370     6.1080     6.4370     2.2910   -18.3240 
  138.8750    71.3360    25.1370     6.4590     5.6000     5.8470     2.2800   -18.1430 
  139.0000    77.3410    25.1640     5.4060     5.1010     5.3580     2.2770   -17.9710 
  139.1250    85.6370    25.1780     5.0200     4.7310     5.0640     2.2870   -17.8790 
  139.2500    91.7300    25.1770     4.7840     4.5020     4.9200     2.3050   -17.8090 
  139.3750    93.1990    25.1560     4.8750     4.3910     4.8770     2.3250   -17.7890 
  139.5000    91.6780    25.1120     5.1510     4.3690     4.9140     2.3420   -17.7630 
  139.6250    89.9300    25.0590     5.4330     4.4870     5.1520     2.3570   -17.7480 
  139.7500    88.4370    25.0260     5.4400     4.8470     5.7430     2.3750   -17.7170 
  139.8750    86.2440    25.0210     5.5420     5.5690     6.8040     2.4000   -17.7330 
  140.0000    84.4210    25.0260     6.5580     6.7030     8.2990     2.4330   -17.7020 
  140.1250    82.4190    25.0170    15.2660     8.1070     9.8490     2.4650   -17.7510 
  140.2500    78.1390    24.9950    24.1550     9.1780    10.7130     2.4760   -17.7690 
  140.3750    74.3990    24.9750    23.8590     9.3160    10.3570     2.4560   -17.7780 
  140.5000    75.4300    24.9630    15.3950     8.4270     8.9120     2.4160   -17.7810 
  140.6250    81.4830    24.9570     7.3080     7.0610     7.1820     2.3740   -17.7650 
  140.7500    86.1190    24.9530     5.4400     5.9030     5.9010     2.3410   -17.7450 
  140.8750    88.1260    24.9510     5.0740     5.1660     5.2170     2.3180   -17.7480 
  141.0000    89.9540    24.9510     5.1110     4.8540     5.0220     2.3090   -17.7630 
  141.1250    92.1180    24.9510     5.1490     4.8920     5.1360     2.3150   -17.7340 
  141.2500    91.9430    24.9510     5.1790     5.0580     5.3030     2.3290   -17.7110 
  141.3750    88.6530    24.9510     5.2310     5.2140     5.3960     2.3400   -17.6700 
  141.5000    86.0140    24.9510     5.1490     5.2680     5.3520     2.3420   -17.6530 
  141.6250    87.5620    24.9510     4.9920     5.1760     5.1660     2.3290   -17.6050 
  141.7500    90.9260    24.9510     4.8820     5.0040     4.9230     2.3110   -17.6110 
  141.8750    93.7640    24.9520     4.7870     4.8140     4.6980     2.2980   -17.5800 
  142.0000    95.3460    24.9490     4.6800     4.6700     4.5600     2.2940   -17.6050 
  142.1250    96.2340    24.9380     4.6020     4.6370     4.5900     2.3030   -17.5540 
  142.2500    94.8780    24.9240     4.5910     4.7330     4.7930     2.3200   -17.5410 
  142.3750    92.1080    24.9120     4.7070     4.9630     5.1520     2.3400   -17.5410 
  142.5000    89.9000    24.8970     5.1230     5.2930     5.6020     2.3570   -17.5740 
  142.6250    87.3700    24.8710     6.1240     5.6250     5.9950     2.3650   -17.6150 
  142.7500    82.8890    24.8420     7.0810     5.8130     6.1810     2.3630   -17.6440 
  142.8750    80.3600    24.8240     7.3170     5.7540     6.0810     2.3520   -17.6730 
  143.0000    84.6360    24.8210     6.9760     5.4480     5.7460     2.3380   -17.6660 
  143.1250    93.9120    24.8200     5.8040     5.0410     5.3930     2.3320   -17.7200 
  143.2500   100.2760    24.8140     5.3650     4.7770     5.3030     2.3410   -17.7660 
  143.3750   101.8200    24.8050     5.2210     4.8360     5.7050     2.3710   -17.8210 
  143.5000   100.1570    24.7940     5.8110     5.3810     6.8180     2.4220   -17.8430 
  143.6250    92.9000    24.7720     9.1500     6.7090     8.9950     2.4880   -17.9430 
  143.7500    79.6380    24.7480    14.4630     8.8480    12.0910     2.5450   -18.0040 
  143.8750    64.5100    24.7390    18.7510    11.7400    15.7740     2.5770   -18.1020 
  144.0000    53.8870    24.7530    20.9990    14.9950    19.3770     2.5800   -18.1600 
  144.1250    50.7580    24.7720    21.4430    17.7420    21.9240     2.5670   -18.2650 
  144.2500    50.2920    24.7810    20.9750    19.4630    23.2330     2.5560   -18.3300 
  144.3750    49.9340    24.7840    21.7020    20.2360    23.6260     2.5550   -18.3820 
  144.5000    49.5990    24.7870    23.3980    20.4760    23.6500     2.5630   -18.3980 
  144.6250    49.1660    24.7900    23.7750    20.5530    23.6960     2.5780   -18.4300 
  144.7500    47.7420    24.7920    22.7540    20.6470    23.8490     2.5930   -18.4560 
  144.8750    47.6160    24.7910    21.3590    20.7820    24.0660     2.6010   -18.4770 
  145.0000    50.0430    24.7870    22.0100    20.9490    24.2850     2.6000   -18.5070 
  145.1250    52.2880    24.7820    23.4560    21.1090    24.4240     2.5890   -18.5070 
  145.2500    51.8090    24.7870    22.6110    21.2370    24.4640     2.5750   -18.5170 
  145.3750    50.2770    24.8020    20.2720    21.3320    24.4140     2.5640   -18.5490 
  145.5000    49.8660    24.8150    19.5240    21.3710    24.2540     2.5610   -18.5870 
  145.6250    49.9490    24.8210    20.2440    21.2420    23.8590     2.5650   -18.6030 
  145.7500    50.7290    24.8250    21.4440    20.8490    23.1480     2.5670   -18.6020 
  145.8750    51.9760    24.8280    21.9050    20.1260    22.0770     2.5640   -18.6000 
  146.0000    52.3720    24.8280    20.2980    19.0860    20.7010     2.5580   -18.5990 
  146.1250    52.5270    24.8260    17.1150    17.8510    19.2200     2.5490   -18.6390 
  146.2500    54.2890    24.8340    15.4250    16.6960    17.9390     2.5400   -18.6970 
  146.3750    57.1760    24.8660    15.4110    15.8110    17.0550     2.5300   -18.7410 
  146.5000    60.0150    24.9140    15.6840    15.3000    16.6430     2.5200   -18.7820 
  146.6250    62.7160    24.9450    14.9890    15.2500    16.7510     2.5110   -18.7940 
  146.7500    64.7690    24.9520    14.5280    15.5570    17.2160     2.5040   -18.8640 
  146.8750    64.6610    24.9480    14.9120    16.1570    17.9340     2.4980   -18.9390 
  147.0000    61.5570    24.9460    15.6170    16.9620    18.7940     2.4940   -19.0500 
  147.1250    57.6600    24.9460    16.5300    17.8630    19.6670     2.4920   -19.1040 
  147.2500    55.7370    24.9480    17.9320    18.7110    20.4210     2.4950   -19.1630 
  147.3750    55.5730    24.9490    19.1870    19.3700    20.9270     2.5020   -19.2090 
  147.5000    55.2400    24.9520    19.9820    19.6910    21.0470     2.5110   -19.3060 
  147.6250    54.7690    24.9390    19.1610    19.4680    20.5960     2.5180   -19.3580 
  147.7500    57.5310    24.8740    17.8890    18.7620    19.6690     2.5200   -19.4350 
  147.8750    62.6120    24.7500    17.1940    17.6880    18.4130     2.5150   -19.4700 
  148.0000    65.1410    24.6120    15.7550    16.4580    17.0780     2.5030   -19.5260 
  148.1250    64.2190    24.5250    14.2120    15.3690    16.0120     2.4890   -19.5090 
  148.2500    62.9300    24.4870    13.3470    14.6020    15.3850     2.4800   -19.4960 
  148.3750    59.7190    24.4740    13.6840    14.2320    15.2510     2.4790   -19.4860 
  148.5000    54.1200    24.4730    14.3330    14.2700    15.5720     2.4870   -19.4960 
  148.6250    52.5010    24.4730    15.4600    14.7160    16.2600     2.4970   -19.5230 
  148.7500    55.3340    24.4740    16.1680    15.3680    17.0470     2.5010   -19.5290 
  148.8750    56.3490    24.4730    16.5280    16.0530    17.7560     2.4960   -19.4990 
  149.0000    54.0280    24.4530    17.3710    16.6310    18.2950     2.4850   -19.4350 
  149.1250    55.7700    24.4020    17.7000    17.0380    18.6540     2.4720   -19.4240 
  149.2500    61.9790    24.3430    17.3280    17.3310    18.9120     2.4640   -19.4040 
  149.3750    66.6030    24.3060    17.4610    17.5240    19.0640     2.4630   -19.4030 
  149.5000    66.5100    24.2910    17.8260    17.5850    19.0590     2.4700   -19.3550 
  149.6250    64.4530    24.2570    18.6490    17.4340    18.8080     2.4820   -19.3680 
  149.7500    63.6270    24.2180    17.7070    17.1110    18.3880     2.4940   -19.3100 
  149.8750    62.9070    24.2590    16.0730    16.7080    17.9310     2.5000   -19.3250 
