~V
VERS. 2.00: Ver 2.00
~W
STRT.M 60.0000:
STOP.M 259.0000:
STEP.M 0.1250:
NULL. -999.2500:
UWI. DF5006:
~C
DEPT.M :
SP.MV :
GR.API :
RML.OHMM :
RI. :
RXO.OHMM :
CALI.CM :
DEN.GM/CC :
~A
# ...
  150.0000   -12.3600    86.0280     9.7070     8.7720     9.0260    23.6430     2.3530 
  150.1250   -12.2680    90.8920     8.5230     7.5450     7.8450    23.6610     2.3500 
  150.2500   -12.1220    91.4310     8.4810     7.1840     7.7800    23.6730     2.3680 
  150.3750   -11.9570    90.1840     9.3810     7.6010     8.5060    23.7260     2.3990 
  150.5000   -11.8010    87.3600    11.1360     8.8010    10.0450    23.7580     2.4390 
  150.6250   -11.6450    80.0560    13.5650    10.7200    12.3580    23.7230     2.4830 
  150.7500   -11.5390    68.6720    16.3240    13.1780    15.0460    23.6880     2.5230 
  150.8750   -11.4170    59.9930    18.8240    15.6540    17.4910    23.6790     2.5540 
  151.0000   -11.3490    56.7310    20.6310    17.7030    18.7500    23.6850     2.5740 
  151.1250   -11.2850    54.7560    21.5500    19.0120    19.2720    23.6860     2.5840 
  151.2500   -11.2460    51.3710    21.6690    19.4470    19.8310    23.6750     2.5860 
  151.3750   -11.1820    47.5270    21.5600    19.4250    19.8720    23.6630     2.5840 
  151.5000   -11.0950    45.3070    21.5500    19.2630    19.4320    23.6790     2.5790 
  151.6250   -10.9990    45.4270    21.7440    19.1830    19.2280    23.7100     2.5710 
  151.7500   -10.9210    46.2330    22.0760    19.3040    20.0250    23.7440     2.5620 
  151.8750   -10.8460    47.8140    22.4200    19.5850    21.1210    23.7580     2.5560 
  152.0000   -10.7440    50.5320    22.7590    19.9860    21.9470    23.7620     2.5540 
  152.1250   -10.6570    52.0590    23.1280    20.4630    22.0920    23.7650     2.5590 
  152.2500   -10.5730    47.8190    23.5760    20.9870    21.8580    23.7790     2.5690 
  152.3750   -10.5470    41.3810    24.0920    21.5420    22.3230    23.8000     2.5790 
  152.5000   -10.5160    38.5660    24.6520    22.1340    23.1370    23.8060     2.5840 
  152.6250   -10.5220    39.5540    25.2290    22.7530    24.0540    23.7960     2.5820 
  152.7500   -10.4780    42.2750    25.7520    23.3420    23.9150    23.8260     2.5710 
  152.8750   -10.4640    44.2360    26.1150    23.7990    23.3590    23.8870     2.5570 
  153.0000   -10.4780    44.2070    26.1790    24.0010    23.3720    23.9240     2.5460 
  153.1250   -10.5220    43.5980    25.8200    23.8360    24.0360    23.9170     2.5400 
  153.2500   -10.5710    45.5250    24.9520    23.2050    24.4180    23.9040     2.5380 
  153.3750   -10.5990    49.4930    23.8030    22.2780    23.4280    23.8950     2.5330 
  153.5000   -10.6670    50.9330    22.6040    21.2360    21.2160    23.8750     2.5210 
  153.6250   -10.7180    48.2940    21.5760    20.2750    19.2990    23.8200     2.5010 
  153.7500   -10.8220    46.3960    20.9140    19.5860    18.1590    23.8330     2.4780 
  153.8750   -10.8700    47.3200    20.5690    19.1820    17.9800    23.8980     2.4590 
  154.0000   -10.9010    48.8050    20.4740    19.0390    17.9780    23.9720     2.4450 
  154.1250   -10.8700    48.7360    20.5790    19.1310    17.9250    24.0280     2.4350 
  154.2500   -10.8400    48.2710    20.9020    19.4850    17.9540    23.9920     2.4310 
  154.3750   -10.7940    50.1550    21.4000    20.0440    18.6920    23.9760     2.4370 
  154.5000   -10.7300    52.3670    22.0150    20.7430    19.8800    24.0160     2.4540 
  154.6250   -10.6570    51.3830    22.6440    21.4650    21.5320    24.0250     2.4780 
  154.7500   -10.5730    48.4980    23.1350    22.0290    22.9740    23.9470     2.4960 
  154.8750   -10.4830    47.6680    23.4290    22.3450    23.2660    23.8790     2.4980 
  155.0000   -10.4160    48.4170    23.5280    22.4040    22.1740    23.8700     2.4910 
  155.1250   -10.3760    49.1800    23.4730    22.2650    21.2370    23.8900     2.4860 
  155.2500   -10.3190    50.7640    23.2770    21.9820    21.7970    23.9390     2.4990 
  155.3750   -10.3000    53.0870    22.9590    21.6100    23.0900    23.9240     2.5230 
  155.5000   -10.2480    54.3460    22.5200    21.1550    23.3200    23.9460     2.5460 
  155.6250   -10.2290    55.6750    21.9970    20.6310    22.4710    24.0020     2.5560 
  155.7500   -10.1870    57.0470    21.5230    20.1260    20.4580    24.0530     2.5470 
  155.8750   -10.1840    55.9080    21.2620    19.7760    19.0620    24.0620     2.5280 
  156.0000   -10.1940    53.3500    21.3380    19.7060    18.7340    24.0760     2.5040 
  156.1250   -10.2170    52.7460    21.7860    19.9770    19.2620    24.0650     2.4800 
  156.2500   -10.2870    55.8300    22.5650    20.5980    20.4350    24.0770     2.4590 
  156.3750   -10.3150    58.9470    23.4440    21.3810    22.2020    24.0820     2.4480 
  156.5000   -10.3930    58.8170    24.2470    22.1700    23.7730    24.1040     2.4480 
  156.6250   -10.4680    54.8000    24.8390    22.8230    25.0590    24.1050     2.4590 
  156.7500   -10.5770    53.1970    25.1540    23.2250    25.5330    24.0890     2.4740 
  156.8750   -10.6750    57.6540    25.3380    23.4390    25.5260    24.0450     2.4830 
  157.0000   -10.7540    61.4400    25.5220    23.5480    24.9650    24.0050     2.4850 
  157.1250   -10.8280    59.7510    25.7550    23.6050    24.0580    24.0330     2.4800 
  157.2500   -10.8920    57.5700    25.8860    23.5560    23.6150    24.0850     2.4740 
  157.3750   -10.9770    60.0790    25.6750    23.2950    23.6540    24.1010     2.4700 
  157.5000   -11.0080    63.8590    24.9660    22.7250    23.9460    24.0510     2.4710 
  157.6250   -11.0110    62.8000    23.8060    21.8480    23.4810    23.9440     2.4770 
  157.7500   -10.9730    56.9490    22.4720    20.7870    21.7530    23.8710     2.4890 
  157.8750   -10.9650    53.0890    21.3310    19.7710    19.7100    23.8330     2.5030 
  158.0000   -10.9250    54.1630    20.5200    18.9040    18.4800    23.8380     2.5160 
  158.1250   -10.8890    57.2810    19.9760    18.1920    18.2270    23.8740     2.5220 
  158.2500   -10.8260    58.5260    19.5160    17.5690    18.3510    23.9480     2.5170 
  158.3750   -10.7790    58.3810    18.9820    16.9540    17.9660    23.9830     2.5030 
  158.5000   -10.7310    58.0830    18.3850    16.3470    16.7730    23.9770     2.4860 
  158.6250   -10.6750    58.5320    17.8370    15.8110    15.3360    23.9700     2.4710 
  158.7500   -10.6310    59.1320    17.4940    15.4560    14.7740    23.9680     2.4660 
  158.8750   -10.5380    56.5600    17.3610    15.2830    14.7870    23.9560     2.4710 
  159.0000   -10.4490    50.9670    17.3900    15.2590    14.7560    23.9420     2.4830 
  159.1250   -10.3450    46.8370    17.5180    15.3340    14.6600    23.9790     2.4970 
  159.2500   -10.2520    46.9340    17.7100    15.4740    14.8320    24.0620     2.5070 
  159.3750   -10.1290    47.2810    17.9430    15.6560    15.0540    24.1260     2.5130 
  159.5000   -10.0460    46.9370    18.1820    15.8620    15.5870    24.1440     2.5150 
  159.6250    -9.9550    48.3970    18.3300    16.0400    16.2840    24.1340     2.5160 
  159.7500    -9.8940    51.9890    18.1940    16.0540    16.8800    24.1010     2.5180 
  159.8750    -9.8600    54.9190    17.7320    15.8430    16.8970    24.0910     2.5210 
  160.0000    -9.8540    56.0550    17.0170    15.4270    16.3100    24.1030     2.5190 
  160.1250    -9.8510    55.4270    16.2610    14.9330    15.6130    24.1320     2.5100 
  160.2500    -9.8500    55.2000    15.8080    14.6110    14.9150    24.1560     2.4930 
  160.3750    -9.8630    56.8020    15.8170    14.6120    14.5680    24.1630     2.4760 
  160.5000    -9.8860    58.9860    16.2630    14.9540    14.7110    24.1460     2.4600 
  160.6250    -9.9490    60.7110    16.9140    15.4870    15.1910    24.1280     2.4470 
  160.7500   -10.0310    61.5850    17.2930    15.8420    15.3450    24.1180     2.4350 
  160.8750   -10.1440    63.0330    17.0200    15.6650    15.1290    24.1220     2.4240 
  161.0000   -10.2940    65.7500    15.9440    14.7800    14.5120    24.1060     2.4160 
  161.1250   -10.4920    70.3750    14.2070    13.2710    13.3100    24.0630     2.4130 
