~V
VERS. 2.00: Ver 2.00
~W
STRT.M 64.0000:
STOP.M 243.0000:
STEP.M 0.1250:
NULL. -999.2500:
UWI. DF5061:
~C
DEPT.M :
GR.API :
RML.OHMM :
RI. :
RXO.OHMM :
CALI.CM :
DEN.GM/CC :
SP.MV :
~A
# ...
  165.2500    59.7360    72.0540    69.1470    76.1420    24.7590     2.2870   -11.9570 
  165.3750    67.7200    77.8250    75.6360    73.3220    24.7790     2.2890   -11.8180 
  165.5000    72.3250    81.5650    79.3400    71.5060    24.8240     2.2890   -11.6780 
  165.6250    69.4070    85.3830    82.4010    73.7160    24.8980     2.2840   -11.5440 
  165.7500    64.4160    90.6370    86.3170    81.7600    24.9680     2.2750   -11.4370 
  165.8750    63.6380    97.2930    91.2390    91.1230    24.9960     2.2650   -11.3740 
  166.0000    64.1750   103.6820    95.8750    97.2800    25.0040     2.2570   -11.3540 
  166.1250    63.2120   108.3650    99.0580   100.2280    25.0110     2.2500   -11.3510 
  166.2500    63.0370   110.4350   100.0690   100.5210    25.0240     2.2450   -11.3420 
  166.3750    64.7450   109.2430    98.4420    95.2360    25.0380     2.2410   -11.3120 
  166.5000    67.5060   105.5140    94.7700    86.9710    25.0310     2.2400   -11.2490 
  166.6250    69.6580    99.3120    89.1260    80.4890    25.0120     2.2410   -11.1470 
  166.7500    68.3330    90.6490    81.5900    78.0980    25.0150     2.2470   -11.0040 
  166.8750    64.6370    80.2060    72.6380    75.7160    25.0350     2.2580   -10.8420 
  167.0000    63.7450    69.8030    63.9060    65.8230    25.0560     2.2720   -10.6760 
  167.1250    66.4700    61.1070    56.7640    50.1430    25.0610     2.2850   -10.5110 
  167.2500    69.5220    55.0890    51.9880    38.2830    25.0560     2.2920   -10.3580 
  167.3750    70.3910    52.0970    49.8520    36.1510    25.0410     2.2920   -10.2180 
  167.5000    69.4800    52.2670    49.3330    40.6870    25.0120     2.2900   -10.0790 
  167.6250    67.3870    53.4200    49.9120    47.8050    24.9700     2.2900    -9.9170 
  167.7500    67.4430    55.5210    51.4980    54.6200    24.9440     2.2920    -9.7090 
  167.8750    68.9370    59.7670    55.1190    58.9920    24.9400     2.2890    -9.4390 
  168.0000    67.9180    67.3690    61.9040    66.9040    24.9510     2.2760    -9.1330 
  168.1250    66.1240    79.3890    72.9460    76.7650    24.9720     2.2560    -8.8040 
  168.2500    66.4730    95.7520    88.2340    88.0100    25.0080     2.2370    -8.4710 
  168.3750    67.1640   114.7120   106.0010   109.6370    25.0400     2.2270    -8.1660 
  168.5000    65.9560   132.1780   122.1260   120.0680    25.0590     2.2240    -7.9470 
  168.6250    63.9400   144.7200   133.3520   121.6340    25.0640     2.2270    -7.8630 
  168.7500    61.8750   150.7320   138.2640   120.8880    25.0650     2.2330    -7.9400 
  168.8750    59.2300   150.6700   137.6740   118.3320    25.0650     2.2390    -8.1840 
  169.0000    57.9550   148.5130   135.3990   116.3140    25.0650     2.2440    -8.5290 
  169.1250    60.0980   145.9750   133.2390   115.1310    25.0650     2.2460    -8.9210 
  169.2500    63.5250   143.5340   131.7660   114.8900    25.0640     2.2450    -9.3190 
  169.3750    64.5970   142.3040   130.9530   114.7430    25.0620     2.2420    -9.6700 
  169.5000    63.5950   141.4730   130.4180   114.4070    25.0560     2.2390    -9.9150 
  169.6250    62.5230   140.7300   129.9860   113.9440    25.0450     2.2370   -10.0680 
  169.7500    62.2130   140.4800   129.6140   112.5650    25.0260     2.2370   -10.1480 
  169.8750    63.2550   140.6100   129.4150   110.4180    25.0080     2.2370   -10.1610 
  170.0000    64.6040   141.0930   129.4900   109.2000    24.9990     2.2370   -10.1410 
  170.1250    64.2050   141.9940   129.9020   107.8020    24.9930     2.2350   -10.1280 
  170.2500    61.4470   143.7250   130.6350   104.8100    24.9790     2.2330   -10.1600 
  170.3750    60.7560   145.3410   131.6310    99.6720    24.9500     2.2330   -10.2760 
  170.5000    63.2720   147.5500   132.7720    92.2850    24.8840     2.2350   -10.4660 
  170.6250    66.0450   149.9750   134.1300    82.3640    24.7640     2.2380   -10.6870 
  170.7500    67.2140   151.8370   135.9510    72.2220    24.6190     2.2420   -10.8920 
  170.8750    65.4510   154.6560   138.7260    63.3930    24.4440     2.2470   -11.0640 
  171.0000    63.0270   158.2990   142.2900    56.7090    24.2270     2.2500   -11.2150 
  171.1250    62.2160   161.7020   145.7650    53.8510    24.0400     2.2500   -11.3610 
  171.2500    62.6300   162.4510   147.2600    53.3130    23.9460     2.2460   -11.5000 
  171.3750    63.0880   157.1450   143.1670    52.7390    23.9330     2.2380   -11.6270 
  171.5000    64.3350   144.4580   132.4250    50.5030    23.8770     2.2300   -11.7790 
  171.6250    65.7490   125.9130   115.6880    47.2310    23.7700     2.2260   -11.9490 
  171.7500    65.3820   105.2180    95.9520    42.3350    23.6770     2.2270   -12.1600 
  171.8750    65.3070    85.0160    78.0340    34.0270    23.6880     2.2320   -12.4120 
  172.0000    68.6840    70.8040    64.8320    25.1820    23.8310     2.2360   -12.6800 
  172.1250    72.4610    62.8570    57.0690    22.6650    24.0040     2.2410   -12.9560 
  172.2500    71.7260    60.3670    54.2820    27.8370    24.1280     2.2450   -13.2080 
  172.3750    67.5130    62.5440    55.9570    37.8040    24.1490     2.2490   -13.4310 
  172.5000    66.2380    66.9480    60.0060    51.0910    24.1170     2.2540   -13.6250 
  172.6250    67.7060    71.8880    64.9780    62.9990    24.0810     2.2580   -13.8110 
  172.7500    67.3600    75.8930    69.4940    71.1220    24.0510     2.2610   -13.9870 
  172.8750    64.8100    77.8100    72.2930    77.2910    24.0410     2.2620   -14.1750 
  173.0000    64.7130    78.0610    73.4220    81.5140    24.1300     2.2610   -14.3940 
  173.1250    68.2860    77.1870    73.2060    82.2610    24.3530     2.2570   -14.6290 
  173.2500    70.7140    75.5690    71.9710    77.4210    24.6310     2.2490   -14.8850 
  173.3750    69.4080    73.0610    69.6530    71.3560    24.8070     2.2390   -15.1330 
  173.5000    66.9570    69.6050    66.3480    67.1020    24.8980     2.2310   -15.3470 
  173.6250    65.3820    65.2670    62.1580    62.7940    24.9380     2.2280   -15.5120 
  173.7500    65.6110    60.4230    57.4380    54.5780    24.9380     2.2340   -15.6260 
  173.8750    66.3350    55.6600    52.7300    47.2670    24.9190     2.2490   -15.6530 
  174.0000    66.7420    51.3550    48.4360    45.1050    24.9340     2.2650   -15.5630 
  174.1250    67.4850    47.5760    44.6710    44.0960    24.9700     2.2790   -15.3670 
  174.2500    69.9330    44.2370    41.3900    42.1670    25.0200     2.2880   -15.0900 
  174.3750    72.6280    41.3360    38.5870    39.3060    25.0860     2.2910   -14.7860 
  174.5000    72.2590    38.9450    36.2780    35.5160    25.1250     2.2930   -14.5160 
  174.6250    70.2730    37.3500    34.7120    31.1930    25.1080     2.2970   -14.2730 
  174.7500    70.3610    36.8740    34.2040    27.4030    25.0470     2.3030   -14.0420 
  174.8750    72.6680    37.9910    35.2530    25.4320    24.9820     2.3100   -13.8520 
  175.0000    74.0290    40.4770    37.6810    26.3540    24.9430     2.3150   -13.7410 
  175.1250    75.1840    44.0450    41.2270    30.3590    24.9300     2.3170   -13.7130 
  175.2500    75.6350    48.1340    45.3410    36.3490    24.9270     2.3160   -13.7190 
  175.3750    71.1340    51.8530    49.1200    42.7180    24.9230     2.3110   -13.7270 
  175.5000    64.9910    54.5380    51.8470    47.7190    24.9260     2.3070   -13.6790 
  175.6250    63.2450    55.9920    53.2560    50.7830    24.9480     2.3040   -13.5820 
  175.7500    66.7080    56.5010    53.5610    52.0340    24.9760     2.3020   -13.4790 
  175.8750    71.2050    56.7240    53.3510    51.8360    24.9870     2.2990   -13.3860 
  176.0000    74.3210    57.4200    53.4510    50.2450    24.9930     2.2930   -13.2790 
  176.1250    74.7050    59.0570    54.4140    50.1280    25.0120     2.2850   -13.1660 
  176.2500    71.8950    61.9110    56.6130    54.1510    25.0370     2.2770   -13.0970 
  176.3750    69.0290    66.2770    60.4190    59.7630    25.0870     2.2700   -13.0880 
