~V
VERS. 2.00: Ver 2.00
~W
STRT.M 55.0000:
STOP.M 261.0000:
STEP.M 0.1250:
NULL. -999.2500:
UWI. DF5033:
~C
DEPT.M :
SP.MV :
GR.API :
CALI.CM :
RXO.OHMM :
RI. :
RML.OHMM :
DEN.GM/CC :
~A
   55.0000    82.8980  -999.2500  -999.2500  -999.2500  -999.2500  -999.2500  -999.2500 
   55.1250    82.5240  -999.2500  -999.2500  -999.2500  -999.2500  -999.2500  -999.2500 
   55.2500    82.2700  -999.2500  -999.2500  -999.2500  -999.2500  -999.2500  -999.2500 
   55.3750    82.1150  -999.2500  -999.2500  -999.2500  -999.2500  -999.2500  -999.2500 
   55.5000    82.0440  -999.2500  -999.2500  -999.2500  -999.2500  -999.2500  -999.2500 
   55.6250    82.0340  -999.2500  -999.2500  -999.2500  -999.2500  -999.2500  -999.2500 
   55.7500    82.0590  -999.2500  -999.2500  -999.2500  -999.2500  -999.2500  -999.2500 
   55.8750    82.1090  -999.2500  -999.2500  -999.2500  -999.2500  -999.2500  -999.2500 
   56.0000    82.1800  -999.2500  -999.2500  -999.2500  -999.2500  -999.2500  -999.2500 
   56.1250    82.2820  -999.2500  -999.2500  -999.2500  -999.2500  -999.2500  -999.2500 
   56.2500    82.4240  -999.2500  -999.2500  -999.2500  -999.2500  -999.2500  -999.2500 
   56.3750    82.6390  -999.2500  -999.2500  -999.2500  -999.2500  -999.2500  -999.2500 
   56.5000    82.9700  -999.2500  -999.2500  -999.2500  -999.2500  -999.2500  -999.2500 
   56.6250    83.4890  -999.2500  -999.2500  -999.2500  -999.2500  -999.2500  -999.2500 
   56.7500    84.1660  -999.2500  -999.2500  -999.2500  -999.2500  -999.2500  -999.2500 
   56.8750    84.9360  -999.2500  -999.2500  -999.2500  -999.2500  -999.2500  -999.2500 
   57.0000    85.6690  -999.2500  -999.2500  -999.2500  -999.2500  -999.2500  -999.2500 
   57.1250    86.2500  -999.2500  -999.2500  -999.2500  -999.2500  -999.2500  -999.2500 
   57.2500    86.6680  -999.2500  -999.2500  -999.2500  -999.2500  -999.2500  -999.2500 
   57.3750    86.9330  -999.2500  -999.2500  -999.2500  -999.2500  -999.2500  -999.2500 
   57.5000    87.0520  -999.2500  -999.2500  -999.2500  -999.2500  -999.2500  -999.2500 
   57.6250    87.0400  -999.2500  -999.2500  -999.2500  -999.2500  -999.2500  -999.2500 
   57.7500    86.9270  -999.2500  -999.2500  -999.2500  -999.2500  -999.2500  -999.2500 
   57.8750    86.7530  -999.2500  -999.2500  -999.2500  -999.2500  -999.2500  -999.2500 
   58.0000    86.5740    50.6640    25.9280     0.8840     0.8460    17.2110  -999.2500 
   58.1250    86.4180    50.6640    25.9280     0.8840     0.8460    17.2110  -999.2500 
   58.2500    86.2820    51.4180    25.9270     0.8780     0.8550    19.1870     2.1220 
   58.3750    86.1260    51.8390    25.9250     0.8690     0.8630    21.9070     2.1220 
   58.5000    85.8830    52.2420    25.9210     0.8570     0.8710    25.1790     2.1220 
   58.6250    85.4360    52.4920    25.9170     0.8650     0.8750    28.4830     2.1310 
   58.7500    84.8060    51.9280    25.9150     0.8970     0.8750    31.1380     2.1500 
   58.8750    83.9780    51.2440    25.9130     0.9340     0.8720    33.0920     2.1710 
   59.0000    82.9700    51.1750    25.9120     0.9570     0.8680    35.6090     2.1800 
   59.1250    81.8480    51.1480    25.9090     0.9680     0.8660    40.0640     2.1640 
   59.2500    80.6990    50.9670    25.9040     0.9750     0.8650    45.9930     2.1340 
   59.3750    79.5650    51.3540    25.8930     0.9830     0.8640    52.8900     2.1070 
   59.5000    78.4780    50.9740    25.8760     1.0010     0.8610    58.7940     2.0970 
   59.6250    77.4020    48.3640    25.8580     1.0440     0.8460    56.3010     2.1080 
   59.7500    76.1810    45.7250    25.8420     1.1030     0.8130    42.5840     2.1350 
   59.8750    74.5560    45.5030    25.8300     1.1610     0.7590    23.6710     2.1690 
   60.0000    72.0730    48.1170    25.8240     1.2160     0.6920    10.2790     2.1910 
   60.1250    67.6370    52.0130    25.8180     1.2810     0.6310     4.5220     2.1590 
   60.2500    60.8200    54.5330    25.8080     1.3530     0.5890     1.8530     2.0920 
   60.3750    51.6070    54.8540    25.7910     1.4550     0.5670     0.6820     2.0660 
   60.5000    40.7790    55.6470    25.7760     1.7600     0.5750     0.3050     2.1320 
   60.6250    29.2630    58.5550    25.7940     2.6860     0.6570     0.5500     2.2330 
   60.7500    17.7950    61.0720    25.8830     4.1430     0.8780     1.3850     2.2620 
   60.8750     6.8270    62.7420    26.0790     5.5230     1.3360     3.0200     2.2130 
   61.0000    -3.0700    63.8870    26.3870     6.2570     2.1170     5.4850     2.1410 
   61.1250   -10.7050    64.5560    26.7780     6.4920     3.1890     7.5720     2.0880 
   61.2500   -15.6940    64.2960    27.1610     6.7710     4.2300     8.1350     2.0520 
   61.3750   -18.0230    64.4220    27.4710     7.0170     5.0320     7.9860     2.0260 
   61.5000   -18.4380    66.0900    27.6710     7.0010     5.5840     7.9530     2.0080 
   61.6250   -17.7710    68.7660    27.7060     6.6330     5.9530     8.2590     1.9980 
   61.7500   -16.7340    72.0740    27.5630     6.0430     6.2200     8.8240     1.9920 
   61.8750   -15.5730    75.3060    27.2110     5.4130     6.4170     9.5070     1.9930 
   62.0000   -14.4670    77.7410    26.6570     5.0550     6.5760    10.1280     2.0130 
   62.1250   -13.6140    78.7070    25.9770     5.3360     6.7090    10.5300     2.0580 
   62.2500   -13.0660    79.2760    25.3330     6.0630     6.8200    10.7500     2.1120 
   62.3750   -12.8800    80.6200    24.8330     6.8580     6.9040    10.8510     2.1540 
   62.5000   -13.1090    82.4040    24.5130     7.3790     6.9720    10.8940     2.1760 
   62.6250   -13.7580    81.9260    24.3590     7.5600     7.0500    10.9410     2.1770 
   62.7500   -14.6550    77.9560    24.2830     7.7070     7.1560    11.0460     2.1700 
   62.8750   -15.7080    70.9360    24.2530     7.9920     7.2890    11.2310     2.1650 
   63.0000   -16.8280    65.6950    24.2560     8.3910     7.4310    11.4710     2.1670 
   63.1250   -17.9150    67.3650    24.2890     8.6670     7.5490    11.6860     2.1680 
   63.2500   -18.9100    70.6510    24.3380     8.7000     7.6320    11.8190     2.1610 
   63.3750   -19.7570    69.0290    24.3900     8.6030     7.6840    11.8690     2.1510 
   63.5000   -20.4190    65.0400    24.4330     8.5890     7.7230    11.8690     2.1510 
   63.6250   -20.8730    66.9170    24.4630     8.7660     7.7630    11.8300     2.1620 
   63.7500   -21.1790    72.2120    24.4810     8.9840     7.8070    11.7410     2.1690 
   63.8750   -21.3670    74.2120    24.4920     9.1020     7.8450    11.5980     2.1680 
   64.0000   -21.4480    71.8640    24.4980     9.0870     7.8650    11.4330     2.1660 
   64.1250   -21.4440    69.5520    24.5130     8.9670     7.8700    11.3330     2.1710 
   64.2500   -21.3880    67.8690    24.5540     8.7670     7.8800    11.3600     2.1730 
   64.3750   -21.3070    66.9490    24.6300     8.5320     7.9140    11.5080     2.1690 
   64.5000   -21.2090    66.7760    24.7340     8.3760     7.9670    11.6920     2.1610 
   64.6250   -21.1060    67.1710    24.8420     8.4220     7.9890    11.7440     2.1510 
   64.7500   -21.0230    68.1620    24.9250     8.5740     7.9180    11.5800     2.1420 
   64.8750   -20.9730    68.8110    24.9710     8.6980     7.7260    11.2150     2.1400 
   65.0000   -20.9740    70.4560    24.9870     8.6280     7.4430    10.7380     2.1510 
   65.1250   -21.0310    75.0920    24.9850     8.1910     7.1510    10.2780     2.1710 
   65.2500   -21.1040    79.3910    24.9830     7.6490     6.9440     9.9340     2.1850 
   65.3750   -21.1910    80.4350    24.9850     7.3970     6.8740     9.7640     2.1830 
   65.5000   -21.3030    77.8630    24.9930     7.6370     6.9490     9.7910     2.1740 
   65.6250   -21.4640    75.4030    25.0120     8.1850     7.1520    10.0110     2.1680 
   65.7500   -21.6550    74.7360    25.0420     8.5450     7.4030    10.2970     2.1670 
   65.8750   -21.8530    75.1460    25.0810     8.5200     7.6370    10.5180     2.1620 
   66.0000   -22.0290    73.8220    25.1230     8.2600     7.8020    10.5870     2.1490 
   66.1250   -22.1520    70.2110    25.1480     8.0590     7.8590    10.4930     2.1310 
