~V
VERS. 2.00: Ver 2.00
~W
STRT.M 55.0000:
STOP.M 278.0000:
STEP.M 0.1250:
NULL. -999.2500:
UWI. DF5019:
~C
DEPT.M :
DEN.GM/CC :
GR.API :
CALI.CM :
RXO.OHMM :
RI. :
RML.OHMM :
SP.MV :
~A
# ...
  178.7500     2.3180    75.9330    24.7890    53.1240    57.0850    66.7250   -39.7050 
  178.8750     2.3110    78.6710    24.8030    51.7060    54.0180    62.9280   -39.4260 
  179.0000     2.3020    80.0010    24.8200    53.6150    53.7700    62.5570   -39.2110 
  179.1250     2.2950    81.4830    24.8130    56.6690    55.9230    65.1040   -39.0550 
  179.2500     2.2830    82.6030    24.8110    61.3280    59.3900    69.1140   -38.9490 
  179.3750     2.2660    81.6480    24.8100    67.4670    63.5770    73.6060   -38.9520 
  179.5000     2.2530    78.9050    24.8060    74.9530    68.0020    77.7930   -39.0520 
  179.6250     2.2540    74.2260    24.7850    81.7570    72.2340    81.1940   -39.1790 
  179.7500     2.2660    69.8660    24.7540    85.9470    76.1060    84.0850   -39.2960 
  179.8750     2.2800    67.8200    24.7360    87.7700    79.7200    86.8380   -39.4090 
  180.0000     2.2870    68.4450    24.7290    90.0850    83.3520    89.7050   -39.5580 
  180.1250     2.2820    69.7080    24.7290    94.9380    87.2980    92.7140   -39.7190 
  180.2500     2.2700    70.9950    24.7300   100.6260    91.4280    95.6620   -39.8480 
  180.3750     2.2600    72.3830    24.7290   105.2660    95.3240    98.2330   -39.9320 
  180.5000     2.2550    71.9450    24.7260   107.5100    98.4630   100.1040   -39.9310 
  180.6250     2.2550    70.3910    24.7270   107.0670   100.9780   100.3710   -39.9080 
  180.7500     2.2600    70.6190    24.7260   105.1840   101.1190   101.3880   -39.8670 
  180.8750     2.2670    72.8110    24.7300   103.8910   100.7840   101.9000   -39.7980 
  181.0000     2.2750    74.6760    24.7410   104.7110   100.2740   102.2730   -39.6620 
  181.1250     2.2780    75.7950    24.7640   107.2120    99.8570   102.7050   -39.4370 
  181.2500     2.2730    77.0500    24.7830   107.5510    99.5380   103.0890   -39.1650 
  181.3750     2.2640    76.8510    24.7990   105.6680    99.1240   103.1780   -38.8800 
  181.5000     2.2570    74.1180    24.8090   103.5890    98.3590   102.7470   -38.6440 
  181.6250     2.2570    72.5870    24.8210   101.9030    96.9700   101.5970   -38.4280 
  181.7500     2.2600    75.5710    24.8410   100.0560    95.1240    99.9710   -38.1490 
  181.8750     2.2630    79.7320    24.8580    97.1440    93.0930    98.1560   -37.8150 
  182.0000     2.2600    80.1790    24.8860    92.6150    91.2160    96.5190   -37.4600 
  182.1250     2.2470    77.4200    24.9730    88.0580    89.9340    95.6000   -37.1230 
  182.2500     2.2320    74.9580    25.0730    84.2380    89.4240    95.6700   -36.7980 
  182.3750     2.2270    73.8410    25.0400    81.1180    89.7780    96.9090   -36.3960 
  182.5000     2.2420    73.7890    24.9330    76.3100    90.8760    99.2110   -35.8680 
  182.6250     2.2720    76.1870    24.7680    68.0230    92.4120   102.1590   -35.2550 
  182.7500     2.2910    79.7060    24.5610    64.0150    93.9550   105.0620   -34.6850 
  182.8750     2.2850    81.2390    24.4200    69.9030    95.3280   107.5660   -34.1650 
  183.0000     2.2610    79.8530    24.5320    81.0500    96.5320   109.5490   -33.6420 
  183.1250     2.2380    77.6060    24.9070    86.9210    97.7670   111.0420   -33.0790 
  183.2500     2.2240    75.5750    25.1160    93.7650    99.2420   112.3170   -32.5040 
  183.3750     2.2180    73.0530    25.2020   103.6110   100.9650   113.4860   -31.9880 
  183.5000     2.2200    70.9690    25.2620   109.0740   102.7660   114.5500   -31.5250 
  183.6250     2.2330    72.0560    25.3310   108.2840   104.4190   115.4870   -31.0490 
  183.7500     2.2490    73.6000    25.2700   107.0250   105.8430   116.3160   -30.5060 
  183.8750     2.2590    73.8330    25.0340   107.8890   106.8370   116.7720   -29.9130 
  184.0000     2.2610    74.5040    24.8710   110.4260   106.6990   115.9150   -29.2860 
  184.1250     2.2570    75.9550    24.8460   112.7180   103.0100   110.7540   -28.6930 
  184.2500     2.2550    77.2630    24.8650   111.9210    94.0310    99.5770   -28.0600 
  184.3750     2.2590    78.2300    24.8660   102.0040    79.7370    83.1470   -27.4090 
  184.5000     2.2700    80.1960    24.8560    78.8210    62.9500    65.1140   -26.7120 
  184.6250     2.2910    83.4930    24.8880    49.2000    48.1320    49.9450   -26.0670 
  184.7500     2.3180    86.5310    24.9690    29.3400    37.1100    38.7410   -25.4610 
  184.8750     2.3460    91.0700    25.0070    20.8090    29.7970    31.1840   -24.9570 
  185.0000     2.3710    95.1480    24.9900    18.6070    25.4070    26.5330   -24.5220 
  185.1250     2.3840    95.3680    24.9710    18.7670    23.3920    24.3380   -24.1500 
  185.2500     2.3800    93.0590    24.9970    19.1410    22.7860    23.6090   -23.8080 
  185.3750     2.3620    91.1680    25.0010    19.6030    23.2390    23.9480   -23.5400 
  185.5000     2.3450    90.1240    24.8800    21.0440    24.5460    25.1170   -23.3450 
  185.6250     2.3430    87.4480    24.8160    24.4850    26.8050    27.2160   -23.2290 
  185.7500     2.3400    85.2410    24.8390    29.5540    29.9870    30.2480   -23.1370 
  185.8750     2.3180    85.7690    24.8450    35.7360    34.0830    34.2410   -23.0370 
  186.0000     2.2760    87.0980    24.8440    42.5370    38.4870    38.6340   -22.9360 
  186.1250     2.2440    86.7410    24.9450    48.6270    41.0020    41.2820   -22.9060 
  186.2500     2.2460    86.1150    25.0430    49.9090    39.8200    40.2760   -22.9360 
  186.3750     2.2810    87.6960    24.8890    42.6850    35.1440    35.6540   -22.9620 
  186.5000     2.3240    91.4290    24.4920    29.4780    29.0770    29.4510   -22.9850 
  186.6250     2.3420    93.5570    24.1190    19.1670    23.9980    24.1660   -23.0200 
  186.7500     2.3310    93.1050    23.9980    15.4070    20.6400    20.7000   -23.1160 
  186.8750     2.3080    91.1890    24.0200    16.1220    18.9900    19.0920   -23.2490 
  187.0000     2.3000    89.4050    24.1270    18.0450    18.8630    19.1280   -23.4180 
  187.1250     2.3150    89.9910    24.1310    19.5040    20.3470    20.7910   -23.5760 
  187.2500     2.3300    92.3650    24.1230    20.8100    23.1500    23.6780   -23.7560 
  187.3750     2.3230    93.0350    24.1200    23.9580    27.1890    27.6620   -24.0000 
  187.5000     2.2990    90.9270    24.1160    29.1400    32.1210    32.4160   -24.3150 
  187.6250     2.2790    89.3570    24.0630    32.5920    36.7080    36.7880   -24.6840 
  187.7500     2.2770    90.7160    23.9320    32.4630    39.0170    38.9470   -25.0220 
  187.8750     2.2910    92.7690    23.8190    29.9190    37.7670    37.6300   -25.3930 
  188.0000     2.3120    93.6110    23.9030    25.9050    33.5250    33.3490   -25.8030 
  188.1250     2.3370    92.5570    24.0150    20.8660    28.4650    28.3140   -26.3000 
  188.2500     2.3620    91.3140    24.1010    16.9340    24.4480    24.4640   -26.8160 
  188.3750     2.3720    90.1570    24.1410    14.8710    21.9500    22.3050   -27.3540 
  188.5000     2.3550    88.2680    24.2180    15.1230    21.0330    21.8750   -27.9140 
  188.6250     2.3200    84.5670    24.5800    20.9390    22.0330    23.4800   -28.5050 
  188.7500     2.2940    80.6240    25.0010    30.6340    24.9680    27.0240   -29.1760 
  188.8750     2.2830    78.6830    25.2460    38.6040    30.4720    32.9670   -29.9200 
  189.0000     2.2730    77.4360    25.2380    48.7870    39.7060    42.1710   -30.7010 
  189.1250     2.2500    72.9590    25.0460    76.7280    55.1290    56.7900   -31.4700 
  189.2500     2.2260    67.5840    24.8910   115.6670    76.1640    77.0500   -32.2320 
  189.3750     2.2130    64.0970    24.8240   139.4740   100.3000   101.9090   -32.9950 
  189.5000     2.2090    63.8270    24.8120   139.8160   122.6010   126.8950   -33.7450 
  189.6250     2.2100    65.4270    24.8120   138.7940   137.3550   143.8750   -34.4770 
  189.7500     2.2140    67.1270    24.8120   145.7940   146.1380   153.1520   -35.1390 
  189.8750     2.2190    67.2010    24.8120   156.6350   152.4430   159.9040   -35.6960 
