~V
VERS. 2.00: Ver 2.00
~W
STRT.M 60.0000:
STOP.M 248.0000:
STEP.M 0.1250:
NULL. -999.2500:
UWI. DF5054:
~C
DEPT.M :
SP.MV :
GR.API :
CALI.CM :
RXO.OHMM :
RI. :
RML.OHMM :
DEN.GM/CC :
~A
# ...
  105.0000   -15.6910    80.7790    23.7230    31.1060     8.9480     9.6470     2.1490 
  105.1250   -15.3130    87.0460    23.6460    28.5770     8.7770     9.4140     2.1660 
  105.2500   -14.9160    87.6920    23.5280    19.9770     8.5170     9.0870     2.1740 
  105.3750   -14.4830    82.9810    23.4170    12.2950     8.2110     8.7210     2.1660 
  105.5000   -13.9940    77.8920    23.3450     8.5650     7.8860     8.3530     2.1450 
  105.6250   -13.4170    77.7590    23.2960     7.6870     7.5450     8.0000     2.1290 
  105.7500   -12.7600    81.3630    23.2720     7.4760     7.1790     7.6410     2.1310 
  105.8750   -12.0350    87.2390    23.2700     7.3040     6.7740     7.2440     2.1530 
  106.0000   -11.2650    95.5420    23.2890     6.9100     6.3290     6.7960     2.1850 
  106.1250   -10.4820   106.1330    23.3760     6.2220     5.8680     6.3170     2.2200 
  106.2500    -9.7340   115.7540    23.5720     5.4490     5.4400     5.8670     2.2540 
  106.3750    -9.0570   121.6530    23.8430     4.8000     5.0910     5.5020     2.2840 
  106.5000    -8.4800   122.9480    24.0610     4.3990     4.8500     5.2600     2.2990 
  106.6250    -8.0490   120.3660    24.1670     4.2150     4.7470     5.1710     2.2950 
  106.7500    -7.7570   118.0410    24.1960     4.2050     4.7430     5.1860     2.2840 
  106.8750    -7.5890   118.3290    24.1610     4.3950     4.8040     5.2670     2.2780 
  107.0000    -7.5120   119.6180    24.0680     4.7370     4.8940     5.3670     2.2750 
  107.1250    -7.5020   119.0720    23.9970     5.1070     4.9730     5.4380     2.2700 
  107.2500    -7.5180   117.9030    23.9390     5.3210     5.0250     5.4730     2.2660 
  107.3750    -7.5360   116.2830    23.9040     5.3470     5.0530     5.4830     2.2730 
  107.5000    -7.5450   112.3710    23.9740     5.2160     5.0670     5.4900     2.2910 
  107.6250    -7.5480   107.3610    24.0890     5.0620     5.0710     5.5050     2.3080 
  107.7500    -7.5520   106.8560    24.1820     4.9950     5.0720     5.5290     2.3110 
  107.8750    -7.5670   111.4130    24.2410     5.0200     5.0720     5.5550     2.3100 
  108.0000    -7.6080   115.6500    24.2660     5.2280     5.0730     5.5720     2.3190 
  108.1250    -7.6960   113.8430    24.2600     5.7780     5.0680     5.5650     2.3390 
  108.2500    -7.8300   109.1950    24.2300     6.3200     5.0560     5.5420     2.3440 
  108.3750    -8.0130   106.7730    24.1810     6.2490     5.0430     5.5130     2.3270 
  108.5000    -8.2500   108.5750    24.1190     5.5880     5.0380     5.4920     2.3060 
  108.6250    -8.5410   112.2530    24.0410     5.2850     5.0600     5.5010     2.3100 
  108.7500    -8.8690   113.6270    24.0060     5.5240     5.1130     5.5540     2.3260 
  108.8750    -9.2250   111.3310    24.0090     5.8910     5.1990     5.6500     2.3290 
  109.0000    -9.6030   106.9450    24.0470     5.9510     5.3150     5.7820     2.3120 
  109.1250    -9.9980   103.6170    24.1070     5.7230     5.4560     5.9400     2.2930 
  109.2500   -10.3950   102.1170    24.1100     5.6720     5.5930     6.0950     2.2820 
  109.3750   -10.7870   101.8390    24.0620     5.9040     5.6950     6.2090     2.2720 
  109.5000   -11.1730   102.9720    24.0050     6.2820     5.7330     6.2570     2.2560 
  109.6250   -11.5680   104.1410    23.9820     6.5560     5.7000     6.2320     2.2410 
  109.7500   -11.9770   103.1920    23.9720     6.6490     5.6620     6.2180     2.2410 
  109.8750   -12.4040   100.9720    23.9680     6.5730     5.6940     6.3140     2.2530 
  110.0000   -12.8620   100.2870    23.9630     6.4350     5.8730     6.6180     2.2610 
  110.1250   -13.3860   101.3310    23.9610     6.3640     6.2990     7.2280     2.2610 
  110.2500   -13.9810   100.1320    23.9630     6.7120     6.9500     8.0700     2.2740 
  110.3750   -14.6460    94.9930    23.9660     9.0650     7.7600     9.0240     2.3240 
  110.5000   -15.3710    87.6850    23.9720    15.7430     8.5910     9.9100     2.4030 
  110.6250   -16.1340    82.6040    23.9540    26.1290     9.2060    10.4490     2.4510 
  110.7500   -16.8890    80.8250    23.9010    30.9610     9.4740    10.5380     2.4180 
  110.8750   -17.6030    78.9230    23.8200    26.1290     9.3780    10.1930     2.3180 
  111.0000   -18.2430    73.8600    23.7470    16.7900     9.0210     9.5690     2.2050 
  111.1250   -18.7440    69.4030    23.6970    11.5520     8.5660     8.8960     2.1380 
  111.2500   -19.1000    70.8370    23.6790     9.8650     8.1680     8.3620     2.1220 
  111.3750   -19.3090    76.2810    23.6920     9.6530     7.8930     8.0360     2.1390 
  111.5000   -19.3760    79.9060    23.7240     9.6550     7.7510     7.9030     2.1600 
  111.6250   -19.2860    78.7370    23.7400     9.5770     7.7060     7.8920     2.1610 
  111.7500   -19.0840    76.0250    23.7310     9.4020     7.6810     7.8960     2.1470 
  111.8750   -18.7920    73.9080    23.7020     9.1250     7.6420     7.8770     2.1330 
  112.0000   -18.4280    72.0680    23.6800     8.7500     7.5880     7.8380     2.1320 
  112.1250   -17.9990    70.2450    23.6710     8.4680     7.5390     7.8070     2.1440 
  112.2500   -17.5180    69.7360    23.6730     8.4870     7.5270     7.8210     2.1540 
  112.3750   -16.9700    72.8620    23.6750     8.7630     7.5930     7.9200     2.1570 
  112.5000   -16.3430    80.5110    23.6490     9.0370     7.7690     8.1360     2.1540 
  112.6250   -15.6210    87.4290    23.5870     9.1030     8.0680     8.4810     2.1470 
  112.7500   -14.8190    87.5890    23.4930     9.0000     8.4140     8.8640     2.1420 
  112.8750   -13.9390    82.1780    23.3720     8.8740     8.7170     9.1810     2.1510 
  113.0000   -12.9920    77.1870    23.1950     9.0440     8.8670     9.3180     2.1870 
  113.1250   -12.0000    76.7270    23.1640    10.2190     8.7180     9.1260     2.2600 
  113.2500   -11.0150    78.8470    23.2840    12.1580     8.2850     8.6360     2.3490 
  113.3750   -10.0890    83.2320    23.4980    13.1530     7.6320     7.9290     2.4240 
  113.5000    -9.2650    89.3940    23.6810    11.5650     6.8830     7.1370     2.4490 
  113.6250    -8.5770    94.7060    23.7870     8.1550     6.1920     6.4300     2.4100 
  113.7500    -8.0190    97.8530    23.9080     5.9050     5.6520     5.9030     2.3570 
  113.8750    -7.6070    99.2200    24.0130     5.1450     5.2890     5.5760     2.3220 
  114.0000    -7.3400    99.6250    24.0650     5.1080     5.0880     5.4210     2.3060 
  114.1250    -7.2140   100.3260    24.1120     5.1840     5.0260     5.3930     2.2930 
  114.2500    -7.1740   102.5450    24.1460     5.1790     5.0270     5.4080     2.2810 
  114.3750    -7.1960   106.5330    24.1290     5.1470     5.0440     5.4230     2.2770 
  114.5000    -7.2690   111.6310    24.0560     5.1260     5.0550     5.4200     2.2790 
  114.6250    -7.4010   115.2790    24.0530     5.1190     5.0620     5.4160     2.2820 
  114.7500    -7.5810   114.8340    24.0970     5.1050     5.0880     5.4410     2.2800 
  114.8750    -7.7900   110.9900    24.1000     5.1200     5.1470     5.5080     2.2820 
  115.0000    -8.0130   106.7710    24.0120     5.2280     5.2480     5.6260     2.2930 
  115.1250    -8.2340   103.8840    23.8500     5.3720     5.4000     5.7970     2.2990 
  115.2500    -8.4370   100.1910    23.7000     5.5570     5.5770     5.9930     2.2880 
  115.3750    -8.6020    95.3720    23.6290     5.8670     5.7490     6.1820     2.2610 
  115.5000    -8.7090    91.0460    23.6140     6.2710     5.8810     6.3270     2.2350 
  115.6250    -8.7230    89.7110    23.6210     6.5110     5.9120     6.3610     2.2280 
  115.7500    -8.6530    91.4140    23.6320     6.5470     5.8240     6.2630     2.2480 
  115.8750    -8.5180    95.9910    23.6110     6.4550     5.6140     6.0310     2.2890 
  116.0000    -8.3430   103.2660    23.4890     6.2080     5.3030     5.6990     2.3310 
  116.1250    -8.1630   111.9500    23.3450     5.6440     4.9290     5.3130     2.3480 
