~V
VERS. 2.00: Ver 2.00
~W
STRT.M 55.0000:
STOP.M 268.0000:
STEP.M 0.1250:
NULL. -999.2500:
UWI. DF5025:
~C
DEPT.M :
SP.MV :
GR.API :
CALI.CM :
RXO.OHMM :
RI. :
RML.OHMM :
DEN.GM/CC :
~A
# ...
  167.5000   -27.2670    74.6760    24.6040    74.4540    74.4830    90.9200     2.2980 
  167.6250   -27.1790    72.0300    24.5060    76.8010    75.4320    92.5050     2.2900 
  167.7500   -27.1060    71.3490    24.5070    79.3790    77.0210    94.7640     2.2850 
  167.8750   -27.0500    74.4810    24.4840    81.3610    78.5900    97.0640     2.2860 
  168.0000   -26.9980    77.8010    24.4530    81.2700    79.4570    98.5920     2.2930 
  168.1250   -26.9310    76.9570    24.4260    77.4140    78.9710    98.3730     2.2990 
  168.2500   -26.8460    73.9290    24.3820    71.6900    77.4080    96.5920     2.2930 
  168.3750   -26.7450    73.7040    24.3240    67.0820    75.2600    93.8370     2.2770 
  168.5000   -26.6390    76.9640    24.2670    65.8760    73.1950    91.0140     2.2650 
  168.6250   -26.4980    78.8120    24.2500    68.4280    71.9900    89.1920     2.2720 
  168.7500   -26.3530    76.6170    24.3170    72.4050    71.8220    88.6970     2.2900 
  168.8750   -26.2010    71.2220    24.4720    76.8220    72.5940    89.4900     2.3040 
  169.0000   -26.0410    66.7090    24.6580    81.4360    73.9630    91.2180     2.3020 
  169.1250   -25.9120    65.1230    24.7670    85.4230    75.4240    93.2630     2.2840 
  169.2500   -25.8080    65.3280    24.7850    87.8170    76.5160    94.8890     2.2690 
  169.3750   -25.7270    66.3970    24.7630    88.7170    77.0460    95.7110     2.2700 
  169.5000   -25.6650    66.9750    24.7300    89.0070    77.0210    95.6980     2.2800 
  169.6250   -25.6320    68.8480    24.6170    88.8900    76.5590    95.1270     2.2750 
  169.7500   -25.6180    73.3150    24.4900    87.9000    75.9640    94.5550     2.2520 
  169.8750   -25.6110    77.5330    24.4570    86.2340    75.3940    94.2090     2.2270 
  170.0000   -25.6180    76.8380    24.5000    84.9470    74.8510    93.9700     2.2200 
  170.1250   -25.6330    72.3780    24.5090    85.0510    74.0790    93.2920     2.2350 
  170.2500   -25.6530    71.9980    24.5110    85.4610    72.7880    91.6970     2.2510 
  170.3750   -25.6940    74.8980    24.5780    84.1900    70.7920    88.9480     2.2600 
  170.5000   -25.7590    75.7630    24.6890    79.8340    68.1350    85.1970     2.2560 
  170.6250   -25.8760    73.7440    24.7630    73.1320    65.1910    81.1040     2.2470 
  170.7500   -26.0130    72.8140    24.8290    67.1930    62.6950    77.7830     2.2450 
  170.8750   -26.1730    72.9630    24.8970    63.5600    61.3200    76.1880     2.2590 
  171.0000   -26.3400    71.5710    24.9610    62.6230    61.6380    77.0600     2.2850 
  171.1250   -26.4880    68.1330    25.0110    66.1060    64.3510    81.2650     2.3050 
  171.2500   -26.6130    66.1350    25.0510    74.9330    69.0090    88.0620     2.3110 
  171.3750   -26.6840    66.0880    25.0810    88.1420    74.9540    96.4730     2.3040 
  171.5000   -26.6990    65.5490    25.0980   102.0250    81.0410   104.8860     2.2900 
  171.6250   -26.6250    64.4810    25.0890   111.6610    85.5730   111.0010     2.2780 
  171.7500   -26.5070    64.6670    25.0620   115.4470    87.9110   114.1570     2.2700 
  171.8750   -26.3690    65.7660    25.2680   112.6580    88.3710   115.0380     2.2680 
  172.0000   -26.2420    66.9500    25.7080   104.0420    88.1460   115.4550     2.2700 
  172.1250   -26.1750    69.3300    25.8820    94.9790    89.1010   117.9430     2.2750 
  172.2500   -26.1670    73.0800    25.5860    94.9060    92.2850   123.4730     2.2780 
  172.3750   -26.2680    73.8490    25.1600   109.1690    97.9870   131.9760     2.2790 
  172.5000   -26.4940    70.0770    24.9650   133.8290   105.7250   142.4410     2.2770 
  172.6250   -26.8400    65.6710    24.8950   154.7360   114.0970   152.7480     2.2740 
  172.7500   -27.2220    63.6130    24.7900   164.4340   120.9580   160.4540     2.2640 
  172.8750   -27.6010    62.7200    24.7120   169.0340   124.7530   163.9600     2.2490 
  173.0000   -27.9580    61.1010    24.6450   178.4870   124.7640   162.7730     2.2360 
  173.1250   -28.2280    60.2770    24.6100   193.6440   120.6610   156.7330     2.2380 
  173.2500   -28.4220    60.2250    24.6200   202.1730   113.7700   147.3630     2.2570 
  173.3750   -28.5120    61.2550    24.6750   194.9490   104.8370   135.4930     2.2820 
  173.5000   -28.4710    65.0490    24.7260   170.4960    94.8450   122.4550     2.3050 
  173.6250   -28.3310    70.3610    24.6940   133.9310    85.5180   110.7970     2.3190 
  173.7500   -28.1650    73.6740    24.5860    98.0150    78.6530   102.9130     2.3280 
  173.8750   -28.0100    73.4150    24.4570    72.7200    75.6730   100.5550     2.3360 
  174.0000   -27.8860    70.8440    24.3820    66.5920    77.3870   104.5370     2.3430 
  174.1250   -27.8120    68.4140    24.3800    88.8480    84.1930   115.0030     2.3360 
  174.2500   -27.7770    67.3200    24.3980   129.3220    93.4300   128.0150     2.3080 
  174.3750   -27.7800    66.9570    24.4130   169.8480   102.1760   139.2500     2.2720 
  174.5000   -27.8220    66.4250    24.4210   190.2770   107.4290   144.5420     2.2470 
  174.6250   -27.8850    66.9930    24.4310   180.2990   106.6970   141.0380     2.2490 
  174.7500   -27.9350    69.3150    24.4470   157.8610   101.7480   132.1980     2.2620 
  174.8750   -27.9530    70.1430    24.4520   137.6080    94.5400   121.1010     2.2730 
  175.0000   -27.9110    68.2580    24.4250   124.9970    86.5580   109.5900     2.2800 
  175.1250   -27.8050    65.6400    24.3850   115.9500    78.2260    97.9440     2.2870 
  175.2500   -27.6620    64.4310    24.4100   103.4030    69.6090    86.1410     2.2960 
  175.3750   -27.4830    65.7500    24.5630    85.9450    61.0570    74.7490     2.3050 
  175.5000   -27.2920    68.6810    24.8220    66.6430    53.3210    64.7730     2.3170 
  175.6250   -27.0940    72.0010    25.0700    51.0350    47.6070    57.6880     2.3340 
  175.7500   -26.9250    73.1210    25.2380    41.3840    44.1830    53.6330     2.3500 
  175.8750   -26.7880    73.5260    25.3530    37.8010    43.0920    52.5750     2.3580 
  176.0000   -26.7030    75.2200    25.4600    39.4220    44.0700    54.0890     2.3510 
  176.1250   -26.6980    77.9980    25.5490    45.0230    46.7710    57.5590     2.3340 
  176.2500   -26.7520    79.9490    25.5980    51.3160    50.1110    61.5460     2.3230 
  176.3750   -26.8550    80.4870    25.6020    55.9310    53.2380    65.0740     2.3200 
  176.5000   -26.9930    80.3370    25.5440    57.7590    55.4570    67.5220     2.3150 
  176.6250   -27.1490    78.6360    25.3840    57.0570    56.3610    68.7320     2.3000 
  176.7500   -27.3160    75.9700    25.1720    55.7090    56.5720    69.5480     2.2890 
  176.8750   -27.4890    74.4990    24.9970    55.3210    56.7940    70.8100     2.2930 
  177.0000   -27.6470    74.5720    24.9180    57.6470    57.7260    73.3160     2.3050 
  177.1250   -27.7880    75.0290    24.9450    63.8620    60.0980    77.9820     2.3050 
  177.2500   -27.9110    76.1060    25.0290    71.1420    63.8090    84.5570     2.2910 
  177.3750   -28.0260    77.5860    25.1320    77.3190    68.5160    92.4230     2.2750 
  177.5000   -28.1590    78.9740    25.2060    84.0360    73.5710   100.4470     2.2690 
  177.6250   -28.3430    80.5550    25.2280    95.7820    78.1020   107.0810     2.2770 
  177.7500   -28.5370    82.4180    25.2310   108.6640    81.7900   111.9730     2.2860 
  177.8750   -28.7500    84.0360    25.2290   114.5930    84.9630   115.8130     2.2860 
  178.0000   -28.9790    84.5720    25.2210   111.3680    88.5440   120.1430     2.2800 
  178.1250   -29.2060    82.2500    25.2140   110.0790    94.0140   127.0460     2.2810 
  178.2500   -29.4190    76.8550    25.2150   123.2010   101.4560   136.3650     2.2870 
  178.3750   -29.6120    71.5240    25.2250   150.3180   109.5540   145.9370     2.2850 
  178.5000   -29.7730    69.8350    25.2310   177.7810   115.4740   151.6890     2.2690 
  178.6250   -29.9050    71.3920    25.2350   182.0530   114.9320   148.1810     2.2500 
