~V
VERS. 2.00: Ver 2.00
~W
STRT.M 60.0000:
STOP.M 251.0000:
STEP.M 0.1250:
NULL. -999.2500:
UWI. DF5053:
~C
DEPT.M :
GR.API :
RML.OHMM :
RI. :
RXO.OHMM :
CALI.CM :
DEN.GM/CC :
SP.MV :
~A
# ...
  127.5000    78.0620     8.4790     7.2770    10.8390    23.8470     2.1950   -23.9820 
  127.6250    75.3360     8.5510     7.3300    10.9370    23.8650     2.1910   -23.9040 
  127.7500    64.0510     8.7130     7.4570    11.0750    23.8440     2.1900   -23.7940 
  127.8750    57.6920     8.9540     7.6530    11.1590    23.7990     2.1940   -23.6630 
  128.0000    62.2960     9.2450     7.9030    11.2430    23.7270     2.2050   -23.5270 
  128.1250    65.4790     9.5110     8.1500    11.4130    23.7300     2.2140   -23.3770 
  128.2500    66.7550     9.6770     8.3320    11.5760    23.8360     2.2190   -23.2030 
  128.3750    71.1260     9.6680     8.3900    11.6040    23.8600     2.2180   -23.0110 
  128.5000    75.7430     9.4160     8.2520    11.2670    23.5800     2.2140   -22.7570 
  128.6250    76.5720     8.9990     7.9650    10.6410    23.1860     2.2120   -22.4340 
  128.7500    79.7680     8.5310     7.5990     9.9050    22.9250     2.2120   -22.0690 
  128.8750    88.9520     8.1540     7.2580     9.2340    22.8180     2.2150   -21.6930 
  129.0000    94.0590     8.0250     7.0640     8.9280    22.7510     2.2160   -21.2930 
  129.1250    90.6760     8.1300     7.0390     9.0470    22.7640     2.2130   -20.9150 
  129.2500    83.9280     8.3860     7.1510     9.5990    22.8180     2.2060   -20.5870 
  129.3750    76.9910     8.6660     7.3220    10.3310    22.8990     2.1970   -20.3200 
  129.5000    70.3610     8.8290     7.4500    10.7550    23.0360     2.1900   -20.1410 
  129.6250    68.5710     8.8800     7.5050    10.8050    23.2080     2.1880   -20.0090 
  129.7500    73.6960     8.9260     7.5350    10.3930    23.3890     2.1940   -19.8990 
  129.8750    81.9080     9.1240     7.6390     9.9370    23.5860     2.2100   -19.7890 
  130.0000    82.5960     9.6440     7.9490    10.1990    23.6840     2.2400   -19.6510 
  130.1250    75.0080    10.4100     8.4540    11.2320    23.7040     2.2780   -19.4930 
  130.2500    65.4700    11.2440     9.0670    12.7660    23.6630     2.3140   -19.3500 
  130.3750    57.6950    11.8990     9.6300    14.2040    23.5740     2.3380   -19.2650 
  130.5000    55.0460    12.0830     9.9190    14.8360    23.5440     2.3390   -19.2890 
  130.6250    59.4160    11.8400     9.8940    14.9180    23.5590     2.3240   -19.3990 
  130.7500    68.1100    11.3480     9.6370    14.4050    23.5850     2.3020   -19.5960 
  130.8750    69.4560    10.8750     9.3250    12.7800    23.5660     2.2850   -19.8820 
  131.0000    60.8950    10.6950     9.1750    12.3680    23.5680     2.2860   -20.2360 
  131.1250    58.0670    10.8090     9.2440    13.1330    23.5590     2.3040   -20.5810 
  131.2500    65.5640    11.1120     9.4890    14.5130    23.5370     2.3310   -20.8850 
  131.3750    74.0000    11.4410     9.7950    15.6900    23.5170     2.3490   -21.1330 
  131.5000    73.1150    11.5790     9.9930    16.4690    23.5110     2.3380   -21.3000 
  131.6250    67.3670    11.4190     9.9650    16.3290    23.5120     2.3040   -21.3780 
  131.7500    64.0090    10.9170     9.6550    14.9700    23.5180     2.2610   -21.3000 
  131.8750    64.5030    10.0890     9.0680    13.8470    23.5420     2.2290   -21.0060 
  132.0000    67.4410     8.9930     8.2370    12.9200    23.5890     2.2260   -20.4900 
  132.1250    72.2590     7.8490     7.3250    11.4660    23.6450     2.2440   -19.8490 
  132.2500    80.5060     6.8570     6.4810     9.3160    23.7380     2.2710   -19.1450 
  132.3750    88.6220     6.1980     5.8460     7.2040    23.9020     2.2910   -18.4240 
  132.5000    91.1090     6.0630     5.5900     6.1780    23.9600     2.2940   -17.7260 
  132.6250    91.7010     6.3670     5.6990     6.5220    23.8710     2.2800   -17.0820 
  132.7500    92.4800     6.9880     6.1240     7.5530    23.7120     2.2570   -16.5390 
  132.8750    89.7630     7.7130     6.7290     8.5920    23.4930     2.2310   -16.1360 
  133.0000    85.3000     8.2100     7.2710     9.1110    23.3600     2.2110   -15.8870 
  133.1250    84.8340     8.2700     7.5180     9.2690    23.4150     2.1970   -15.6970 
  133.2500    88.8950     7.8370     7.3550     9.1560    23.5700     2.1940   -15.4470 
  133.3750    92.8660     7.0370     6.8190     8.5680    23.6990     2.2070   -15.0560 
  133.5000    98.0800     6.1370     6.0810     7.1610    23.8730     2.2380   -14.4960 
  133.6250   106.4730     5.4120     5.4020     5.7730    24.0460     2.2800   -13.8910 
  133.7500   111.5540     4.9870     4.9230     4.9850    24.1580     2.3210   -13.3310 
  133.8750   109.8840     4.8960     4.7090     4.8820    24.1570     2.3500   -12.8530 
  134.0000   105.3160     5.1480     4.8050     5.2630    24.0340     2.3550   -12.5160 
  134.1250   103.9420     5.5950     5.1100     5.8350    23.9160     2.3410   -12.3470 
  134.2500   106.1170     6.1170     5.5320     6.4740    23.9510     2.3140   -12.3790 
  134.3750   107.7400     6.5820     5.9590     6.9950    24.0190     2.2830   -12.6160 
  134.5000   106.5960     6.8380     6.2500     7.5730    24.0510     2.2580   -12.9880 
  134.6250   103.0630     6.8630     6.3520     8.1090    24.0480     2.2430   -13.3580 
  134.7500    98.4720     6.6960     6.2700     8.0900    24.0080     2.2430   -13.6860 
  134.8750    97.6580     6.4450     6.0740     7.3660    23.9610     2.2550   -13.9650 
  135.0000    99.4190     6.2980     5.9020     6.8070    23.9700     2.2740   -14.1530 
  135.1250   100.1590     6.3850     5.8750     6.6790    23.9990     2.2890   -14.2700 
  135.2500   100.6020     6.7430     6.0390     6.8160    24.0010     2.2930   -14.3510 
  135.3750   102.5890     7.2930     6.3580     7.4290    23.9990     2.2850   -14.3740 
  135.5000   101.4050     7.8070     6.6940     8.6070    23.9870     2.2670   -14.3120 
  135.6250    98.2570     8.0300     6.8600     9.6980    23.9470     2.2460   -14.1580 
  135.7500    99.5900     7.8460     6.7510     9.9620    23.9600     2.2240   -13.8670 
  135.8750   106.8880     7.3390     6.3910     9.3860    24.0500     2.2050   -13.4410 
  136.0000   109.1140     6.8690     5.9850     8.5310    24.1640     2.2030   -12.9000 
  136.1250   105.1930     6.9040     5.8590     8.0530    24.2140     2.2280   -12.3090 
  136.2500   103.8460     7.7980     6.2930     8.6590    24.2150     2.2870   -11.7320 
  136.3750   104.2540     9.6990     7.4710    11.0370    24.1850     2.3750   -11.2380 
  136.5000    99.4010    12.4690     9.4550    15.0660    24.1640     2.4690   -10.9330 
  136.6250    94.7930    15.2360    11.7010    19.4180    24.1480     2.5390   -10.8450 
  136.7500    93.0160    17.0850    13.5430    22.3350    24.1320     2.5670   -10.9850 
  136.8750    88.7270    17.2540    14.2900    23.1440    24.1020     2.5470   -11.3420 
  137.0000    79.0380    15.3940    13.4010    21.4220    24.0310     2.4870   -11.8740 
  137.1250    77.7980    12.6700    11.5750    17.0780    23.9270     2.4150   -12.4260 
  137.2500    86.6460    10.0660     9.5560    12.0380    23.8510     2.3480   -12.9100 
  137.3750    95.5620     8.1510     7.8700     9.1940    23.9800     2.2940   -13.3330 
  137.5000    98.9680     7.1550     6.8090     7.8220    24.0810     2.2560   -13.7580 
  137.6250    97.9140     6.8040     6.2670     7.0440    24.0200     2.2260   -14.2150 
  137.7500    91.3310     6.9290     6.1650     6.8890    23.8530     2.1980   -14.7310 
  137.8750    79.5400     7.3610     6.3970     7.3100    23.6880     2.1720   -15.2920 
  138.0000    72.7660     7.9340     6.8500     8.1060    23.6030     2.1540   -15.8840 
  138.1250    75.5430     8.4550     7.3450     9.0230    23.5590     2.1490   -16.4890 
  138.2500    82.2830     8.8260     7.7720     9.8290    23.5360     2.1560   -17.0930 
  138.3750    87.8040     9.0340     8.0820    10.2690    23.5480     2.1710   -17.6370 
  138.5000    88.0220     9.2070     8.3180    10.4950    23.5380     2.1890   -18.0070 
  138.6250    85.6990     9.5570     8.6350    10.9080    23.5280     2.2030   -18.1920 
