~V
VERS. 2.00: Ver 2.00
~W
STRT.M 55.0000:
STOP.M 270.0000:
STEP.M 0.1250:
NULL. -999.2500:
UWI. DF5017:
~C
DEPT.M :
SP.MV :
GR.API :
CALI.CM :
RXO.OHMM :
RI. :
RML.OHMM :
DEN.GM/CC :
~A
# ...
  111.2500   -35.0600    76.0310    24.0310    10.3780     7.0170    10.2690     2.1460 
  111.3750   -35.0540    80.1650    23.8790    10.0840     6.8120    10.0170     2.1350 
  111.5000   -35.0630    82.0210    23.8210     9.7060     6.6060     9.7310     2.1330 
  111.6250   -35.0460    80.7080    23.9290     9.4330     6.4320     9.4700     2.1370 
  111.7500   -35.0840    80.4770    24.1070     9.2370     6.3270     9.3050     2.1400 
  111.8750   -35.1270    82.3140    24.1650     9.0660     6.3270     9.2890     2.1410 
  112.0000   -35.1730    82.3020    24.0270     9.0170     6.4480     9.4490     2.1430 
  112.1250   -35.1890    77.5010    23.9860     9.4470     6.6920     9.7810     2.1480 
  112.2500   -35.1670    73.3950    24.1040    10.3910     6.9750    10.1680     2.1500 
  112.3750   -35.1120    72.6730    24.1330    11.4530     7.2060    10.4850     2.1480 
  112.5000   -34.9840    74.8520    24.0960    11.8820     7.2980    10.6180     2.1490 
  112.6250   -34.8020    77.8920    24.0520    11.3010     7.1840    10.4810     2.1530 
  112.7500   -34.5440    79.7530    24.0280    10.3260     6.9410    10.1840     2.1570 
  112.8750   -34.2130    80.3900    24.0310     9.4930     6.6500     9.8380     2.1600 
  113.0000   -33.8310    80.7970    24.0550     8.9340     6.3790     9.5250     2.1630 
  113.1250   -33.4140    83.5230    24.1010     8.6550     6.1760     9.2870     2.1680 
  113.2500   -33.0100    87.6530    24.1410     8.4890     6.0310     9.0900     2.1780 
  113.3750   -32.5920    90.0600    24.1270     8.3020     5.9260     8.9070     2.1930 
  113.5000   -32.1840    88.9860    24.0760     7.9870     5.8460     8.7340     2.2080 
  113.6250   -31.8970    84.9690    24.1300     7.9130     5.7930     8.6190     2.2150 
  113.7500   -31.6740    81.8300    24.2590     7.9130     5.7660     8.5870     2.2130 
  113.8750   -31.5250    80.5470    24.3510     7.9210     5.7620     8.6370     2.2020 
  114.0000   -31.3850    79.7670    24.3650     8.0210     5.7730     8.7410     2.1810 
  114.1250   -31.2900    79.1620    24.3240     8.3090     5.7850     8.8410     2.1550 
  114.2500   -31.2020    79.4410    24.3080     8.5070     5.7880     8.8850     2.1390 
  114.3750   -31.1630    80.9590    24.3050     8.5840     5.7820     8.8650     2.1450 
  114.5000   -31.1650    83.8740    24.3050     8.6160     5.7750     8.8040     2.1710 
  114.6250   -31.1010    84.8000    24.3050     8.6390     5.7880     8.7560     2.1920 
  114.7500   -30.9670    83.0230    24.3050     8.6600     5.8470     8.7780     2.1920 
  114.8750   -30.7550    80.3210    24.3060     8.7060     5.9790     8.9100     2.1750 
  115.0000   -30.4880    78.5240    24.3100     8.8520     6.1950     9.1550     2.1540 
  115.1250   -30.0470    78.3250    24.3260     9.0870     6.4500     9.4390     2.1380 
  115.2500   -29.4940    78.2180    24.3540     9.1640     6.6140     9.5760     2.1310 
  115.3750   -28.7890    79.2200    24.3620     9.0340     6.5590     9.3810     2.1410 
  115.5000   -27.9500    82.0850    24.3020     8.8590     6.2180     8.7790     2.1780 
  115.6250   -27.0520    89.2650    24.1360     8.4150     5.6450     7.8960     2.2330 
  115.7500   -26.1780    97.9330    24.0900     7.3310     5.0630     7.0820     2.2680 
  115.8750   -25.3590   101.9540    24.2320     6.0160     4.6260     6.5690     2.2670 
  116.0000   -24.6380    99.9260    24.3310     5.2780     4.4130     6.4620     2.2500 
  116.1250   -24.0630    97.1520    24.3450     5.6530     4.4600     6.7690     2.2480 
  116.2500   -23.5700    97.8190    24.2920     6.5360     4.6560     7.2470     2.2620 
  116.3750   -23.1780    99.9230    24.4010     7.2250     4.8900     7.6390     2.2780 
  116.5000   -22.9060   100.5680    24.6460     7.3640     5.0360     7.7110     2.2960 
  116.6250   -22.7060   100.8960    24.7660     7.0150     5.0070     7.3950     2.3230 
  116.7500   -22.5330   103.2730    24.7990     6.7110     4.9020     7.0150     2.3530 
  116.8750   -22.3890   107.3990    24.7990     6.6040     4.8540     6.8420     2.3800 
  117.0000   -22.2650   111.0470    24.8010     6.6840     4.9630     7.0140     2.4070 
  117.1250   -22.1990   111.4070    24.8030     7.0970     5.2800     7.5710     2.4300 
  117.2500   -22.1770   108.8400    24.7750     8.2080     5.6890     8.2800     2.4320 
  117.3750   -22.2220   105.8020    24.6520     9.5520     6.0270     8.8500     2.3990 
  117.5000   -22.3260   103.9340    24.4690     9.8540     6.1360     9.0090     2.3400 
  117.6250   -22.4750   102.2570    24.3770     8.6050     5.9360     8.6510     2.2790 
  117.7500   -22.6430   100.8820    24.4240     7.2640     5.5940     8.0960     2.2370 
  117.8750   -22.7880   101.2900    24.4580     6.5560     5.2550     7.5930     2.2190 
  118.0000   -22.9060   103.5700    24.4120     6.3260     5.0200     7.2940     2.2200 
  118.1250   -22.9090   103.5870    24.2850     6.3900     4.9480     7.2700     2.2300 
  118.2500   -22.8990   101.8630    24.1900     6.5070     4.9860     7.4040     2.2380 
  118.3750   -22.8310   102.0800    24.2450     6.5910     5.0760     7.5920     2.2360 
  118.5000   -22.6860   102.4510    24.2770     6.5270     5.1550     7.7390     2.2250 
  118.6250   -22.4890    98.9710    24.2500     6.4860     5.1560     7.7450     2.2230 
  118.7500   -22.2620    96.5170    24.3210     6.4570     5.0680     7.6020     2.2390 
  118.8750   -22.0210    98.2340    24.3980     6.3490     4.9140     7.3510     2.2710 
  119.0000   -21.7710   103.4660    24.4030     6.0940     4.7430     7.0730     2.3070 
  119.1250   -21.6140   108.2450    24.3350     5.8870     4.6180     6.8790     2.3360 
  119.2500   -21.4480   112.9610    24.1940     6.0320     4.5570     6.8060     2.3510 
  119.3750   -21.3040   115.6680    24.1130     6.5920     4.5480     6.8320     2.3470 
  119.5000   -21.2100   111.0380    24.0800     6.9640     4.5610     6.8980     2.3270 
  119.6250   -21.1640   102.5660    24.1870     6.8760     4.5700     6.9550     2.3070 
  119.7500   -21.1520    98.1810    24.3470     6.6260     4.5750     6.9900     2.2950 
  119.8750   -21.1720   100.3670    24.3160     6.3170     4.5850     7.0160     2.2830 
  120.0000   -21.2220   105.7400    24.0970     5.9720     4.6130     7.0490     2.2590 
  120.1250   -21.2430   109.6600    23.9840     6.2060     4.6660     7.0740     2.2310 
  120.2500   -21.2100   111.0740    24.0630     6.6240     4.7200     7.0380     2.2230 
  120.3750   -21.1400   108.5680    24.1800     6.6900     4.7630     6.9260     2.2400 
  120.5000   -21.0330   103.1120    24.1970     6.3750     4.7910     6.7790     2.2680 
  120.6250   -20.8960    97.5420    24.1350     6.0110     4.8010     6.6780     2.2860 
  120.7500   -20.7610    94.4410    24.0070     5.9280     4.7950     6.6600     2.3010 
  120.8750   -20.6680    95.1210    23.8530     6.0740     4.7700     6.7090     2.3270 
  121.0000   -20.5870    97.8050    23.7790     6.2360     4.7270     6.7660     2.3580 
  121.1250   -20.5830   100.9140    23.7790     6.1800     4.6830     6.7830     2.3680 
  121.2500   -20.7250   102.1720    23.7800     6.1400     4.6850     6.8170     2.3550 
  121.3750   -20.9900   100.9430    23.7790     6.1750     4.7750     6.9700     2.3380 
  121.5000   -21.3560    98.5890    23.7670     6.2440     4.9710     7.3200     2.3370 
  121.6250   -21.7530    94.6170    23.7420     6.8560     5.2780     7.8970     2.3420 
  121.7500   -22.1700    88.9660    23.7220     8.2630     5.6150     8.5390     2.3300 
  121.8750   -22.4970    84.8780    23.7170     9.5150     5.8790     9.0220     2.2980 
  122.0000   -22.7290    88.1570    23.7230     9.4930     5.9600     9.1340     2.2660 
  122.1250   -22.8080    96.5550    23.7480     8.2590     5.7790     8.7620     2.2520 
  122.2500   -22.7470    99.1890    23.8140     7.2830     5.4420     8.1530     2.2520 
  122.3750   -22.5940    96.1570    23.9080     6.7000     5.0700     7.5400     2.2540 
