~V
VERS. 2.00: Ver 2.00
~W
STRT.M 55.0000:
STOP.M 271.0000:
STEP.M 0.1250:
NULL. -999.2500:
UWI. DF5009:
~C
DEPT.M :
GR.API :
CALI.CM :
RXO.OHMM :
RI. :
RML.OHMM :
DEN.GM/CC :
SP.MV :
~A
# ...
   77.5000    79.1450    24.7250     8.7220     6.3990     8.1200     2.1650   -24.5160 
   77.6250    79.2480    24.8220     8.3280     6.1810     7.9480     2.1640   -24.5080 
   77.7500    80.2360    24.8850     7.6230     6.1160     7.9500     2.1590   -24.4610 
   77.8750    78.7290    24.8780     7.3290     6.1770     8.0790     2.1490   -24.3820 
   78.0000    74.8320    24.8240     7.9290     6.3370     8.2870     2.1380   -24.2410 
   78.1250    70.0140    24.7980     8.6530     6.5610     8.4970     2.1320   -24.0740 
   78.2500    66.3210    24.8160     8.8580     6.7820     8.6380     2.1270   -23.8420 
   78.3750    64.5530    24.8250     8.6780     6.9620     8.6970     2.1230   -23.6010 
   78.5000    64.6200    24.7980     8.5370     7.1020     8.7400     2.1190   -23.2590 
   78.6250    66.7040    24.7950     8.5830     7.2620     8.9120     2.1260   -22.7840 
   78.7500    69.7140    24.8790     8.6650     7.4860     9.2310     2.1500   -22.3660 
   78.8750    71.4000    24.9740     8.8240     7.7270     9.5640     2.1910   -21.9160 
   79.0000    70.3560    24.9640     9.0070     7.8420     9.6710     2.2480   -21.4350 
   79.1250    72.7900    24.8500     9.3460     7.6030     9.2480     2.3060   -20.8890 
   79.2500    80.0740    24.8190     9.0960     7.0210     8.3770     2.3430   -20.4930 
   79.3750    88.7660    24.9820     7.3460     6.2230     7.2920     2.3470   -20.1280 
   79.5000    98.4400    25.2730     5.0240     5.4090     6.2880     2.3280   -19.8070 
   79.6250   107.9160    25.4720     4.7450     4.7600     5.5920     2.3060   -19.7240 
   79.7500   113.5410    25.4240     4.9290     4.3010     5.1610     2.2910   -19.6240 
   79.8750   113.5120    25.1670     4.8910     4.0310     4.9560     2.2870   -19.6650 
   80.0000   111.7500    24.9060     4.5600     3.9690     5.0090     2.2940   -19.8680 
   80.1250   112.1750    24.8170     4.6920     4.2190     5.5120     2.3160   -20.1850 
   80.2500   112.9540    24.8250     5.2740     4.8040     6.5420     2.3460   -20.4230 
   80.3750   112.3660    24.8030     6.2250     5.7650     8.1310     2.3730   -20.7060 
   80.5000   107.3640    24.7190     9.0800     7.0580    10.0980     2.3760   -21.1060 
   80.6250    95.7810    24.6240    14.6580     8.3760    11.8020     2.3330   -21.5180 
   80.7500    82.7390    24.4870    15.6230     9.1850    12.5410     2.2660   -21.9390 
   80.8750    72.8700    24.2540    11.9000     9.2040    12.1130     2.2020   -22.2950 
   81.0000    67.9070    23.9220     9.1660     8.6070    10.9400     2.1600   -22.5520 
   81.1250    67.7800    23.6000     8.5630     7.8330     9.7450     2.1480   -22.7420 
   81.2500    70.3200    23.4300     8.3050     7.2400     8.9720     2.1560   -22.9390 
   81.3750    73.6610    23.4370     8.2100     6.9150     8.6630     2.1730   -23.0720 
   81.5000    75.7930    23.5200     8.2080     6.8150     8.6770     2.1910   -23.1250 
   81.6250    74.5030    23.5440     8.2740     6.8510     8.8400     2.2010   -23.0810 
   81.7500    71.9550    23.5210     8.3550     6.9240     9.0210     2.2020   -23.0000 
   81.8750    71.1580    23.5230     8.5640     7.0080     9.1900     2.1950   -22.8600 
   82.0000    72.9770    23.6050     8.7910     7.0980     9.3420     2.1840   -22.7100 
   82.1250    75.3420    23.7620     8.8040     7.1830     9.4520     2.1750   -22.6220 
   82.2500    76.2490    23.9400     8.7300     7.2250     9.4770     2.1700   -22.5090 
   82.3750    75.4130    24.1060     8.6240     7.1820     9.3660     2.1680   -22.3820 
   82.5000    73.7290    24.2370     8.4990     7.0280     9.1000     2.1690   -22.1920 
   82.6250    74.7430    24.3050     8.2050     6.7620     8.7020     2.1700   -21.9980 
   82.7500    79.8520    24.3140     7.5870     6.4540     8.2830     2.1700   -21.8590 
   82.8750    86.5000    24.3020     6.9460     6.1650     7.9310     2.1670   -21.7890 
   83.0000    89.8100    24.2990     6.6770     5.9380     7.6930     2.1620   -21.7340 
   83.1250    87.8650    24.2970     6.6930     5.8020     7.5850     2.1630   -21.5590 
   83.2500    86.1670    24.2910     6.6170     5.7220     7.5370     2.1710   -21.3590 
   83.3750    88.3090    24.3200     6.5270     5.6640     7.4910     2.1850   -21.1730 
   83.5000    92.1800    24.4160     6.4780     5.6010     7.4200     2.2010   -21.0450 
   83.6250    92.3680    24.5220     6.3790     5.5470     7.3670     2.2130   -20.9140 
   83.7500    92.5090    24.5510     6.2980     5.5400     7.4070     2.2160   -20.7460 
   83.8750    96.5860    24.5190     6.3320     5.6050     7.5730     2.2120   -20.5600 
   84.0000   100.0890    24.4770     6.7490     5.7340     7.8420     2.2040   -20.3680 
   84.1250    96.8560    24.4240     8.7910     5.8850     8.1140     2.1970   -20.2890 
   84.2500    92.1500    24.3190    11.2350     5.9810     8.2610     2.1940   -20.2280 
   84.3750    92.0390    24.1260    10.8540     5.9830     8.2330     2.1970   -20.1620 
   84.5000    95.4580    23.8200     8.0120     5.9080     8.0880     2.2030   -20.0750 
   84.6250    95.9050    23.4540     7.0680     5.8360     7.9980     2.2080   -20.1450 
   84.7500    93.1610    23.1810     6.6340     5.8520     8.1100     2.2090   -20.2610 
   84.8750    89.0120    23.0600     6.5950     5.9990     8.4710     2.2060   -20.4180 
   85.0000    84.1860    23.0260     7.2610     6.2680     9.0180     2.1990   -20.5940 
   85.1250    80.7600    22.9930     7.9630     6.5920     9.5700     2.1900   -20.6960 
   85.2500    79.4200    22.9290     8.1230     6.8630     9.9490     2.1790   -20.7710 
   85.3750    79.4610    23.0090     7.7340     7.0220    10.0900     2.1670   -20.9140 
   85.5000    80.2120    23.2010     7.3230     7.0620    10.0240     2.1580   -21.0880 
   85.6250    82.1600    23.1600     7.3450     7.0080     9.8430     2.1530   -21.1810 
   85.7500    82.7630    22.8420     7.5910     6.9230     9.6520     2.1520   -21.1430 
   85.8750    78.2140    22.5390     7.6560     6.8370     9.4840     2.1510   -21.0360 
   86.0000    70.6560    22.4450     7.4340     6.7620     9.3470     2.1490   -20.8990 
   86.1250    69.1160    22.5010     7.3570     6.7170     9.2860     2.1440   -20.8190 
   86.2500    72.8500    22.6520     7.4220     6.7300     9.3590     2.1370   -20.7460 
   86.3750    76.3690    22.8360     7.6080     6.8260     9.5980     2.1320   -20.5950 
   86.5000    77.2670    22.9290     7.8970     6.9880     9.9300     2.1310   -20.3370 
   86.6250    76.0040    23.0360     8.3720     7.0820    10.0790     2.1380   -19.9710 
   86.7500    74.2670    23.2870     8.7740     6.9410     9.7920     2.1540   -19.6150 
   86.8750    73.1990    23.5660     8.8220     6.4940     9.0150     2.1770   -19.2850 
   87.0000    73.6260    23.6520     8.2220     5.8340     7.9540     2.2060   -18.9590 
   87.1250    76.9280    23.5960     6.6190     5.1800     7.0090     2.2280   -18.6030 
   87.2500    82.1190    23.6290     5.3210     4.7140     6.4410     2.2340   -18.2450 
   87.3750    86.6030    23.8050     5.5320     4.5050     6.2950     2.2210   -17.8590 
   87.5000    86.4490    24.0670     6.9280     4.5450     6.4880     2.1960   -17.5620 
   87.6250    81.7870    24.3310     8.1970     4.8270     6.9590     2.1720   -17.2580 
   87.7500    77.0230    24.5220     8.6260     5.3030     7.6910     2.1640   -16.9820 
   87.8750    74.5520    24.5720     8.7660     6.0120     8.7980     2.1830   -16.6240 
   88.0000    74.5880    24.4760     9.1960     6.9980    10.3200     2.2300   -16.2020 
   88.1250    76.4360    24.3960    11.5920     8.2140    12.0210     2.3000   -15.7290 
   88.2500    76.1370    24.4560    17.1360     9.2710    13.2080     2.3670   -15.1890 
   88.3750    74.5720    24.7310    22.1400     9.6270    13.1650     2.4080   -14.6490 
   88.5000    76.5250    25.2020    18.9070     8.9280    11.6230     2.4120   -14.0670 
   88.6250    83.3150    25.6510    10.9260     7.4080     9.1580     2.3830   -13.6110 
