~V
VERS. 2.00: Ver 2.00
~W
STRT.M 50.0000:
STOP.M 277.0000:
STEP.M 0.1250:
NULL. -999.2500:
UWI. DF5031:
~C
DEPT.M :
DEN.GM/CC :
GR.API :
CALI.CM :
RXO.OHMM :
RI. :
RML.OHMM :
SP.MV :
~A
# ...
  106.2500     2.1470    70.1730    23.2880     8.1120     7.0120     9.8040   -19.1540 
  106.3750     2.1480    72.0070    23.2890     8.3270     7.1130     9.9470   -18.9480 
  106.5000     2.1530    72.8280    23.2980     8.6260     7.1420     9.9660   -18.6840 
  106.6250     2.1630    72.3810    23.3450     8.6830     6.9780     9.6930   -18.3400 
  106.7500     2.1800    77.0920    23.4590     8.2600     6.6480     9.1990   -17.9860 
  106.8750     2.2060    86.2190    23.6200     7.3050     6.2200     8.6100   -17.6410 
  107.0000     2.2400    92.2490    23.7470     6.2110     5.7740     8.0510   -17.3180 
  107.1250     2.2640    91.2890    23.7370     5.6800     5.3690     7.5900   -17.0210 
  107.2500     2.2740    90.9790    23.6590     5.7200     5.0160     7.1970   -16.8210 
  107.3750     2.2820    94.7740    23.6040     5.8010     4.7290     6.8560   -16.6760 
  107.5000     2.3000    96.0330    23.6370     5.5970     4.5440     6.6020   -16.6410 
  107.6250     2.3250    90.8830    23.8290     5.4090     4.5680     6.5890   -16.7340 
  107.7500     2.3480    84.8710    23.8780     5.8970     4.8580     6.9390   -16.9000 
  107.8750     2.3750    82.3690    23.8670     7.4780     5.4780     7.7710   -17.1070 
  108.0000     2.4120    82.2250    23.8790    10.7810     6.4410     9.1340   -17.3480 
  108.1250     2.4410    82.1550    23.9440    14.7900     7.6700    10.9300   -17.7270 
  108.2500     2.4270    82.3470    23.9190    16.1260     8.8230    12.6070   -18.1380 
  108.3750     2.3630    80.2210    23.7500    13.8960     9.5530    13.5690   -18.5550 
  108.5000     2.2730    75.6190    23.5920    10.7870     9.6740    13.5210   -18.9220 
  108.6250     2.2030    72.3370    23.5960     9.6520     9.2640    12.6980   -19.3750 
  108.7500     2.1640    72.0850    23.5060     9.3270     8.7340    11.8000   -19.7430 
  108.8750     2.1490    74.0660    23.4190     9.2710     8.3020    11.1390   -20.0420 
  109.0000     2.1500    74.6450    23.4450     9.2810     8.0480    10.7870   -20.2760 
  109.1250     2.1570    72.0330    23.5320     9.3300     7.9590    10.6950   -20.4870 
  109.2500     2.1620    68.6190    23.6400     9.3810     7.9200    10.6800   -20.5940 
  109.3750     2.1600    68.3430    23.7340     9.3620     7.8670    10.6480   -20.6680 
  109.5000     2.1560    70.9700    23.7910     9.2280     7.7810    10.5690   -20.7030 
  109.6250     2.1520    72.7680    23.8260     9.0760     7.6920    10.4710   -20.6520 
  109.7500     2.1490    72.8840    23.8210     8.9710     7.6360    10.4050   -20.6270 
  109.8750     2.1480    73.3250    23.7930     8.8880     7.6310    10.4060   -20.6440 
  110.0000     2.1500    75.5180    23.7720     8.7800     7.6730    10.4810   -20.6730 
  110.1250     2.1530    77.2410    23.7640     8.7850     7.7280    10.6010   -20.6100 
  110.2500     2.1500    75.9290    23.7640     8.9470     7.7450    10.6840   -20.5230 
  110.3750     2.1460    72.1890    23.7990     9.1830     7.6920    10.6660   -20.4780 
  110.5000     2.1480    70.7280    23.8360     9.4340     7.5660    10.5280   -20.5140 
  110.6250     2.1560    75.6050    23.8630     9.5470     7.3900    10.2950   -20.5660 
  110.7500     2.1630    80.0620    23.8430     9.4090     7.2110    10.0550   -20.5600 
  110.8750     2.1640    81.1830    23.7540     9.1270     7.0580     9.8590   -20.5220 
  111.0000     2.1540    80.9720    23.5980     9.0110     6.9440     9.7270   -20.4590 
  111.1250     2.1400    80.3800    23.5190     9.1110     6.8740     9.6590   -20.4620 
  111.2500     2.1360    77.4310    23.4820     9.1310     6.8320     9.6280   -20.4840 
  111.3750     2.1440    74.4130    23.5060     9.0360     6.8190     9.6420   -20.4780 
  111.5000     2.1550    74.6090    23.5930     8.9540     6.8470     9.7190   -20.4410 
  111.6250     2.1580    76.5830    23.7170     9.0270     6.9470     9.8960   -20.4050 
  111.7500     2.1570    76.9550    23.7400     9.1320     7.1150    10.1530   -20.4350 
  111.8750     2.1600    75.1700    23.7290     9.1240     7.3280    10.4490   -20.4750 
  112.0000     2.1690    71.0400    23.7300     9.0730     7.5390    10.7100   -20.5080 
  112.1250     2.1750    66.3040    23.7500     9.1940     7.6650    10.8190   -20.4720 
  112.2500     2.1710    66.2870    23.7580     9.3120     7.6690    10.7500   -20.4690 
  112.3750     2.1640    70.7280    23.7590     9.2260     7.5420    10.5170   -20.4150 
  112.5000     2.1640    74.8670    23.7600     8.9910     7.3080    10.1740   -20.2950 
  112.6250     2.1700    75.6340    23.7640     8.7970     7.0080     9.7850   -20.1040 
  112.7500     2.1750    75.1260    23.7660     8.6120     6.7010     9.4100   -19.9100 
  112.8750     2.1750    75.1940    23.7710     8.3140     6.4240     9.0870   -19.7210 
  113.0000     2.1700    76.8050    23.7940     8.0290     6.2080     8.8540   -19.5870 
  113.1250     2.1630    79.0570    23.8070     7.9550     6.0940     8.7640   -19.4610 
  113.2500     2.1570    79.1100    23.7570     8.0070     6.0880     8.8140   -19.3190 
  113.3750     2.1520    75.2420    23.6260     8.0660     6.1860     8.9850   -19.2320 
  113.5000     2.1470    69.0980    23.4970     8.1260     6.3540     9.2250   -19.2520 
  113.6250     2.1390    66.9570    23.4550     8.1090     6.5220     9.4420   -19.2620 
  113.7500     2.1330    68.7100    23.4480     8.0720     6.6230     9.5590   -19.2210 
  113.8750     2.1310    72.2890    23.4530     8.1170     6.6320     9.5510   -19.1750 
  114.0000     2.1330    74.6380    23.4550     8.2150     6.5580     9.4340   -19.1540 
  114.1250     2.1470    75.1500    23.4660     8.1720     6.4290     9.2320   -19.1110 
  114.2500     2.1780    75.5350    23.5290     7.9980     6.2800     8.9940   -18.9980 
  114.3750     2.2160    76.4780    23.6620     7.8730     6.1310     8.7560   -18.7710 
  114.5000     2.2430    78.1910    23.7030     7.8070     5.9930     8.5480   -18.4770 
  114.6250     2.2460    79.6980    23.7370     7.6410     5.8960     8.4280   -18.2190 
  114.7500     2.2370    81.7890    23.7770     7.4890     5.8570     8.4200   -17.9860 
  114.8750     2.2280    83.1270    23.8640     7.6170     5.8740     8.5090   -17.7210 
  115.0000     2.2270    82.6490    23.9440     7.9630     5.9060     8.6140   -17.3790 
  115.1250     2.2380    83.8100    23.9200     8.3990     5.8690     8.5580   -17.0850 
  115.2500     2.2570    89.9580    23.9710     8.7590     5.7130     8.2450   -16.7780 
  115.3750     2.2730    98.4120    24.1100     8.4920     5.4310     7.6880   -16.4760 
  115.5000     2.2780   104.6380    24.2890     7.4040     5.0770     7.0270   -16.0920 
  115.6250     2.2640   105.4710    24.4540     6.0600     4.7610     6.5130   -15.7580 
  115.7500     2.2450   102.1090    24.5010     5.5570     4.5840     6.2990   -15.4670 
  115.8750     2.2310    98.0040    24.4760     5.5360     4.6110     6.4470   -15.2530 
  116.0000     2.2230    95.9460    24.3880     5.7840     4.8510     6.9240   -15.0790 
  116.1250     2.2140    94.6860    24.2160     6.2550     5.2350     7.5810   -14.8720 
  116.2500     2.2110    93.8140    24.0520     6.9900     5.5560     8.0890   -14.7350 
  116.3750     2.2230    95.5170    24.0360     7.6880     5.6400     8.1840   -14.6930 
  116.5000     2.2480    99.3010    24.1400     7.7410     5.4120     7.7930   -14.6580 
  116.6250     2.2670   102.4990    24.3460     6.7490     4.9350     7.0660   -14.5130 
  116.7500     2.2750   106.6620    24.3820     5.6850     4.4460     6.3650   -14.3110 
  116.8750     2.2790   112.5360    24.4080     5.1580     4.1090     5.9070   -14.1030 
  117.0000     2.2860   116.4190    24.4230     5.1270     4.0200     5.8120   -13.9390 
  117.1250     2.3010   114.2830    24.4210     5.3570     4.2460     6.1790   -13.8670 
  117.2500     2.3210   108.3550    24.4200     5.8030     4.6860     6.8810   -13.7680 
  117.3750     2.3430   100.7260    24.4160     6.8910     5.2260     7.7670   -13.7010 
