~V
VERS. 2.00: Ver 2.00
~W
STRT.M 60.0000:
STOP.M 261.0000:
STEP.M 0.1250:
NULL. -999.2500:
UWI. DF5055:
~C
DEPT.M :
SP.MV :
GR.API :
RML.OHMM :
RI. :
RXO.OHMM :
CALI.CM :
DEN.GM/CC :
~A
# ...
  217.5000   -23.5860    65.8230    73.0090    68.4940    56.6770    25.0850     2.2060 
  217.6250   -23.6260    65.7400    74.3350    69.7630    59.8840    24.9510     2.2130 
  217.7500   -23.6740    68.5150    75.2190    70.6560    63.2560    24.8970     2.2140 
  217.8750   -23.6740    70.0170    75.0960    70.6250    64.3560    24.8890     2.2100 
  218.0000   -23.6840    67.2610    73.7940    69.4410    62.6720    24.8770     2.2060 
  218.1250   -23.7160    64.5600    71.4000    67.1140    58.4180    24.8310     2.2150 
  218.2500   -23.7370    64.6050    68.4110    64.1510    54.0510    24.7520     2.2430 
  218.3750   -23.7740    64.0890    65.2040    60.9560    51.0740    24.6570     2.2850 
  218.5000   -23.8040    63.3220    62.2590    58.0460    48.4640    24.5660     2.3280 
  218.6250   -23.7970    66.3890    60.0410    55.9650    53.4840    24.5220     2.3550 
  218.7500   -23.7120    70.9870    58.5930    54.7720    52.1640    24.5510     2.3670 
  218.8750   -23.6180    72.4380    58.1410    54.6560    43.3970    24.5070     2.3720 
  219.0000   -23.4600    71.0810    59.1110    55.9860    43.4580    24.4050     2.3780 
  219.1250   -23.2280    69.4040    62.5370    59.6890    50.6600    24.3580     2.3820 
  219.2500   -22.9650    67.9920    69.0240    66.2770    58.0500    24.4530     2.3810 
  219.3750   -22.6380    67.4250    79.3860    76.6200    61.4620    24.6250     2.3750 
  219.5000   -22.2100    68.6220    93.0920    90.5170    79.4240    24.8170     2.3770 
  219.6250   -21.7080    70.4150   103.8410   102.6590    92.7380    24.8130     2.4070 
  219.7500   -21.1680    70.5000   100.8560   102.5120   103.8920    24.7770     2.4620 
  219.8750   -20.5700    68.4690    80.6060    84.6690    97.9900    24.7250     2.5230 
  220.0000   -20.0270    67.1980    53.1750    57.3390    84.5390    24.6580     2.5650 
  220.1250   -19.4900    69.2660    32.0770    35.0670    60.0810    24.5690     2.5620 
  220.2500   -18.9320    74.0300    19.1760    21.3460    29.8180    24.4930     2.5270 
  220.3750   -18.5270    79.2320    12.2940    14.0670    14.9770    24.4870     2.4830 
  220.5000   -18.3710    83.7190     9.0500    10.5790    12.2840    24.6290     2.4500 
  220.6250   -18.3500    85.4770     8.0150     9.2980    10.1740    24.8370     2.4370 
  220.7500   -18.4970    85.6600     7.9420     9.0450     9.6480    24.9430     2.4300 
  220.8750   -18.8080    88.6790     8.3400     9.4200     9.2440    24.9630     2.4190 
  221.0000   -19.1640    96.0790     8.8310    10.0570     9.1400    24.9630     2.4030 
  221.1250   -19.6010   101.0650     9.1240    10.5760     9.0860    24.9720     2.3880 
  221.2500   -20.1570   101.0520     9.1940    10.8280     9.1140    24.9730     2.3820 
  221.3750   -20.6710   100.9270     9.0930    10.8250     9.1670    24.9800     2.3860 
  221.5000   -21.0660   103.0260     8.8780    10.6260     9.1760    24.9960     2.3950 
  221.6250   -21.5120   103.9650     8.5840    10.2770     9.0860    24.9960     2.4040 
  221.7500   -21.9750   105.3040     8.2720     9.8590     8.9620    25.0060     2.4060 
  221.8750   -22.4590   110.5040     8.0300     9.4600     8.8210    25.0160     2.3990 
  222.0000   -23.0810   116.7050     8.0190     9.2280     8.7790    25.0130     2.3850 
  222.1250   -23.8020   117.1670     8.5530     9.4310     8.9520    24.9760     2.3680 
  222.2500   -24.5090   113.9720     9.8200    10.2310     9.6730    24.9170     2.3520 
  222.3750   -25.3160   111.5270    12.0260    11.8270    12.1430    24.8470     2.3410 
  222.5000   -26.1830   108.2410    15.2220    14.3580    17.9300    24.7880     2.3330 
  222.6250   -27.0450    97.8190    19.1430    17.8020    25.6250    24.7700     2.3280 
  222.7500   -27.9410    84.7530    22.8260    21.3490    29.1620    24.7770     2.3240 
  222.8750   -28.7700    77.6290    25.3890    24.0820    29.5020    24.8010     2.3190 
  223.0000   -29.4750    77.9390    26.4070    25.3980    28.1480    24.8470     2.3140 
  223.1250   -30.0440    79.1620    26.1720    25.3650    26.1540    24.9290     2.3100 
  223.2500   -30.4860    79.7670    25.7980    24.9840    24.9520    25.0230     2.3060 
  223.3750   -30.8170    82.1990    25.8080    24.7650    24.7260    25.0830     2.3050 
  223.5000   -31.1460    82.9980    26.2120    24.8030    24.7870    25.1150     2.3050 
  223.6250   -31.4160    77.5890    26.5990    24.8570    26.0890    25.1400     2.3070 
  223.7500   -31.5490    73.3110    26.5180    24.6020    28.6470    25.1540     2.3100 
  223.8750   -31.6460    75.3340    25.8230    23.9180    28.2990    25.1600     2.3150 
  224.0000   -31.7000    79.4580    24.7100    22.9400    24.6760    25.1540     2.3200 
  224.1250   -31.7330    81.2880    23.6520    22.0270    21.1410    25.1290     2.3220 
  224.2500   -31.8120    81.7270    23.0770    21.5030    20.2270    25.1020     2.3180 
  224.3750   -31.9230    81.8900    23.2380    21.5830    21.6380    25.0950     2.3060 
  224.5000   -32.0160    81.3590    24.2850    22.4210    24.2240    25.1130     2.2890 
  224.6250   -32.1190    80.6420    26.4700    24.2670    25.7660    25.1320     2.2730 
  224.7500   -32.2970    80.7330    29.6440    27.0210    27.1750    25.1220     2.2630 
  224.8750   -32.4840    79.3360    33.6820    30.6240    31.6750    25.1050     2.2590 
  225.0000   -32.7110    75.1610    38.1460    34.7750    40.5460    25.1150     2.2580 
  225.1250   -32.9510    70.7730    41.7230    38.4350    49.4080    25.1740     2.2600 
  225.2500   -33.1280    70.9790    42.9420    40.1810    51.5720    25.2620     2.2610 
  225.3750   -33.1690    75.0980    41.1450    39.2020    49.2220    25.3440     2.2620 
  225.5000   -33.1040    76.6960    37.1290    36.0030    47.2840    25.3810     2.2640 
  225.6250   -32.9020    74.0020    32.8470    32.1890    43.8980    25.3680     2.2700 
  225.7500   -32.6300    74.2380    29.9880    29.3440    38.1250    25.3220     2.2790 
  225.8750   -32.3580    78.9870    29.1850    28.0980    34.2340    25.3070     2.2890 
  226.0000   -32.0580    84.3000    30.4780    28.6050    37.5880    25.3330     2.2950 
  226.1250   -31.8330    87.2500    33.7790    31.0060    43.0340    25.3720     2.2930 
  226.2500   -31.7210    87.7720    38.2750    34.7640    45.0780    25.4290     2.2840 
  226.3750   -31.6400    84.8950    43.5100    39.5510    46.2660    25.5050     2.2720 
  226.5000   -31.5390    79.2890    49.1330    44.9980    47.9760    25.5450     2.2610 
  226.6250   -31.5370    76.2830    55.1130    50.9140    50.1630    25.4440     2.2570 
  226.7500   -31.5390    74.9530    61.5070    57.1670    56.7300    25.3100     2.2560 
  226.8750   -31.5090    71.6080    68.0910    63.5180    68.9390    25.2270     2.2560 
  227.0000   -31.4890    67.0300    73.9990    69.2230    80.9340    25.1790     2.2510 
  227.1250   -31.2890    66.2030    77.5870    72.8450    85.3850    25.1590     2.2390 
  227.2500   -30.9210    69.0190    78.5550    74.0870    83.3150    25.1490     2.2230 
  227.3750   -30.5100    70.9410    77.3780    73.2860    75.5260    25.1270     2.2120 
  227.5000   -30.0930    70.5510    75.1640    71.3610    66.2560    25.0690     2.2110 
  227.6250   -29.5430    70.1890    73.1990    69.4560    58.3550    25.0120     2.2220 
  227.7500   -28.9240    69.8540    72.0820    68.2660    65.4030    24.9690     2.2390 
  227.8750   -28.1990    68.2470    71.7350    67.8540    72.7870    24.9160     2.2600 
  228.0000   -27.2850    65.6330    71.7040    67.8990    73.7460    24.8570     2.2830 
  228.1250   -26.3640    65.3160    71.2020    67.7560    69.3950    24.8160     2.3090 
  228.2500   -25.4670    65.9680    69.6130    66.7900    65.0870    24.8010     2.3350 
  228.3750   -24.5180    65.7740    66.6420    64.6280    62.0880    24.8560     2.3540 
  228.5000   -23.5650    65.7390    62.4610    61.2780    69.5510    24.9820     2.3600 
  228.6250   -22.6280    67.9550    57.6230    57.0930    59.5570    25.0590     2.3520 
