~V
VERS. 2.00: Ver 2.00
~W
STRT.M 59.0000:
STOP.M 243.0000:
STEP.M 0.1250:
NULL. -999.2500:
UWI. DF5058:
~C
DEPT.M :
GR.API :
CALI.CM :
RXO.OHMM :
RI. :
RML.OHMM :
DEN.GM/CC :
SP.MV :
~A
# ...
   70.2500    87.8780    24.5960    13.2090     9.2230    11.3850     2.4510   -38.3960 
   70.3750    75.9050    24.5420    18.1580    11.6020    13.5570     2.4800   -38.8810 
   70.5000    65.8660    24.5930    24.8310    12.9590    14.2440     2.4750   -39.2310 
   70.6250    61.1310    24.6920    23.0900    12.4360    13.0030     2.4200   -39.5770 
   70.7500    60.7040    24.8420    14.9690    10.9920    11.0640     2.3410   -40.1330 
   70.8750    62.5540    25.0130     8.8560     9.4900     9.3350     2.2640   -40.7480 
   71.0000    62.5350    25.1490     7.3880     8.3540     8.2100     2.2000   -41.1840 
   71.1250    58.8580    25.2130     7.1730     7.7450     7.7750     2.1550   -41.6840 
   71.2500    56.0390    25.2340     7.1820     7.5260     7.7640     2.1260   -42.0750 
   71.3750    56.9640    25.2460     7.1440     7.5880     7.9880     2.1120   -42.2850 
   71.5000    58.9950    25.2770     7.0170     7.7960     8.2880     2.1100   -42.6360 
   71.6250    58.5510    25.3250     7.1460     8.0350     8.5570     2.1150   -42.8400 
   71.7500    58.7050    25.3030     7.6560     8.2350     8.7610     2.1220   -42.7880 
   71.8750    60.1930    25.1690     8.3890     8.3700     8.8880     2.1290   -42.8100 
   72.0000    59.0940    24.9930     8.8250     8.4320     8.9440     2.1340   -42.8910 
   72.1250    55.5410    24.7960     8.6840     8.4310     8.9620     2.1380   -42.8070 
   72.2500    56.2420    24.4620     8.7720     8.4180     9.0010     2.1430   -42.8330 
   72.3750    61.6690    24.0110     9.1540     8.4390     9.1040     2.1480   -42.8590 
   72.5000    66.8800    23.6480     9.5260     8.5210     9.2870     2.1520   -42.6770 
   72.6250    67.0750    23.5650     9.7790     8.6670     9.5270     2.1530   -42.6210 
   72.7500    62.7330    23.6300    10.2620     8.8320     9.7550     2.1530   -42.6970 
   72.8750    57.2780    23.6960    11.2360     8.9760     9.9260     2.1560   -42.5720 
   73.0000    55.2730    23.7080    12.0700     9.0780    10.0250     2.1620   -42.3720 
   73.1250    59.3370    23.6770    12.1440     9.1470    10.0860     2.1690   -42.2880 
   73.2500    63.1910    23.6550    11.9210     9.2240    10.1790     2.1740   -42.0170 
   73.3750    62.7690    23.6460    11.7540     9.3350    10.3250     2.1760   -41.6570 
   73.5000    60.7510    23.6100    11.5350     9.4490    10.4510     2.1740   -41.4370 
   73.6250    63.5600    23.4970    10.8960     9.4050    10.3270     2.1700   -41.0990 
   73.7500    68.7760    23.2950    10.7440     9.0460     9.7970     2.1690   -40.5310 
   73.8750    72.2940    23.0660    10.5580     8.3210     8.8560     2.1720   -39.9670 
   74.0000    73.9500    22.9720     9.2260     7.3660     7.7090     2.1820   -39.4140 
   74.1250    77.2040    23.1890     6.9150     6.4640     6.7270     2.2010   -38.6770 
   74.2500    80.8290    23.5500     5.1230     5.8230     6.1390     2.2210   -38.0730 
   74.3750    82.9380    23.8180     4.7670     5.5220     6.0040     2.2350   -37.6130 
   74.5000    83.0040    23.9040     5.5100     5.5610     6.2590     2.2350   -37.0160 
   74.6250    80.5290    23.9060     6.8100     5.9170     6.7740     2.2200   -36.5570 
   74.7500    79.1130    23.9370     7.7230     6.4090     7.3030     2.2000   -36.3730 
   74.8750    80.7990    23.9970     7.9030     6.8850     7.6900     2.1810   -36.2220 
   75.0000    83.8230    24.0690     7.7660     7.2270     7.8730     2.1670   -36.1610 
   75.1250    84.2960    24.1440     7.9000     7.3750     7.8740     2.1580   -36.2520 
   75.2500    82.5300    24.2170     8.1160     7.3940     7.7970     2.1560   -36.3260 
   75.3750    81.3800    24.2910     8.1270     7.3250     7.6810     2.1590   -36.4780 
   75.5000    80.3490    24.3230     7.8100     7.1980     7.5460     2.1670   -36.6290 
   75.6250    76.9170    24.1980     7.2460     7.0290     7.3900     2.1780   -36.6060 
   75.7500    72.3570    23.9810     6.9120     6.8190     7.1900     2.1900   -36.5740 
   75.8750    68.7290    23.8070     6.8750     6.5340     6.8930     2.1990   -36.6310 
   76.0000    69.1300    23.7320     7.0320     6.1400     6.4610     2.2080   -36.6000 
   76.1250    75.4420    23.7140     7.2510     5.6510     5.9230     2.2200   -36.6670 
   76.2500    84.2370    23.7200     6.6420     5.2000     5.4580     2.2370   -36.7250 
   76.3750    90.4970    23.7390     5.2080     4.9210     5.2490     2.2550   -36.7710 
   76.5000    91.0900    23.7410     4.0730     4.9230     5.4460     2.2680   -37.0860 
   76.6250    88.4980    23.6960     4.6490     5.3370     6.1780     2.2650   -37.4850 
   76.7500    86.2790    23.5930     6.8110     6.0910     7.2370     2.2470   -37.8780 
   76.8750    82.4050    23.4380     9.3090     7.0280     8.3020     2.2230   -38.4850 
   77.0000    75.8330    23.3110    10.7050     7.8020     8.9270     2.2030   -39.1540 
   77.1250    70.8770    23.2900    10.9450     7.9150     8.6740     2.1940   -39.7380 
   77.2500    70.6800    23.2930    10.4470     7.4340     7.8460     2.1950   -40.4190 
   77.3750    72.7160    23.2680     8.5560     6.6800     6.8950     2.2040   -40.9190 
   77.5000    75.9280    23.2460     6.0260     5.9850     6.1960     2.2190   -41.1660 
   77.6250    83.1030    23.2740     4.8040     5.5830     5.9700     2.2320   -41.4830 
   77.7500    91.3040    23.3090     5.2000     5.4650     6.0950     2.2350   -41.8690 
   77.8750    94.8650    23.3430     6.1930     5.5830     6.4430     2.2290   -42.0600 
   78.0000    92.1350    23.4560     7.0650     5.8470     6.8640     2.2150   -42.2960 
   78.1250    85.7740    23.7090     7.4910     6.1380     7.2090     2.2010   -42.6360 
   78.2500    79.8320    24.0090     8.2350     6.3710     7.4410     2.1900   -42.9440 
   78.3750    76.1520    24.2250     9.4750     6.5440     7.6080     2.1800   -43.5170 
   78.5000    74.7930    24.2950    10.0100     6.7000     7.7860     2.1680   -44.2100 
   78.6250    71.2550    24.2710    10.6820     6.8920     8.0270     2.1520   -44.8010 
   78.7500    66.6350    24.2580    11.7720     7.1120     8.2870     2.1360   -45.3610 
   78.8750    64.1220    24.3130    12.4850     7.3200     8.4980     2.1240   -46.0060 
   79.0000    63.4240    24.4430    12.5860     7.4740     8.6090     2.1180   -46.4380 
   79.1250    61.6000    24.5910    12.1370     7.5400     8.5990     2.1170   -46.7320 
   79.2500    58.9800    24.6860    11.8570     7.5550     8.5510     2.1160   -46.9530 
   79.3750    57.7350    24.7150    11.8200     7.5710     8.5420     2.1150   -46.8180 
   79.5000    57.5150    24.7130    12.0730     7.6340     8.6130     2.1090   -46.5370 
   79.6250    58.1810    24.7210    12.3130     7.7300     8.7110     2.1010   -46.2650 
   79.7500    60.1210    24.7420    12.6380     7.7690     8.7080     2.0960   -45.7740 
   79.8750    62.7090    24.7640    12.8900     7.6720     8.5260     2.1010   -44.9140 
   80.0000    64.5050    24.7690    12.6770     7.4200     8.1730     2.1160   -44.0180 
   80.1250    65.1100    24.7290    11.2570     7.0540     7.7200     2.1400   -43.0170 
   80.2500    67.5880    24.6670     8.5660     6.6600     7.2640     2.1650   -41.7880 
   80.3750    74.5510    24.6200     7.1510     6.2700     6.8240     2.1870   -40.6570 
   80.5000    82.6460    24.6140     7.7480     5.8830     6.3900     2.2060   -39.5620 
   80.6250    85.1880    24.6640     8.5110     5.5120     5.9750     2.2260   -38.3140 
   80.7500    86.0540    24.7630     7.2210     5.2010     5.6430     2.2510   -37.1080 
   80.8750    90.1340    24.8930     5.2190     5.0110     5.4680     2.2800   -36.2160 
   81.0000    95.3600    24.9910     3.9580     4.9910     5.5040     2.3040   -35.3890 
   81.1250    96.0700    24.9610     4.7290     5.1900     5.7820     2.3130   -34.6540 
   81.2500    92.2600    24.8290     6.4310     5.5520     6.1980     2.3020   -34.2850 
   81.3750    87.3940    24.6820     7.3420     6.0140     6.6530     2.2770   -33.9650 
