~V
VERS. 2.00: Ver 2.00
~W
STRT.M 60.0000:
STOP.M 257.0000:
STEP.M 0.1250:
NULL. -999.2500:
UWI. DF5064:
~C
DEPT.M :
SP.MV :
GR.API :
RML.OHMM :
RI. :
RXO.OHMM :
CALI.CM :
DEN.GM/CC :
~A
# ...
  195.0000   -17.2310    92.7070    10.2070     7.9380     9.7650    27.4320     2.2210 
  195.1250   -17.1890    89.2690    10.5550     8.1540     8.4730    27.5210     2.1980 
  195.2500   -17.2480    86.4530    11.2650     8.6160    10.1010    27.1910     2.2330 
  195.3750   -17.4570    86.0300    12.1200     9.1930    13.9480    26.7340     2.3020 
  195.5000   -17.7930    87.9460    12.8780     9.7410    17.2460    26.4650     2.3700 
  195.6250   -18.2400    90.8230    13.3080    10.1340    18.3170    26.3940     2.4130 
  195.7500   -18.7550    91.4530    13.4760    10.4260    18.2470    26.3620     2.4300 
  195.8750   -19.2790    89.2270    13.6060    10.7750    17.9160    26.3390     2.4290 
  196.0000   -19.7340    86.5690    14.0380    11.4090    18.2800    26.3220     2.4160 
  196.1250   -19.9930    84.4400    15.2020    12.5970    19.9610    26.3080     2.4010 
  196.2500   -19.9900    80.2640    17.0260    14.2060    21.7840    26.2930     2.4020 
  196.3750   -19.6630    74.7550    19.1580    15.8810    24.1470    26.2910     2.4330 
  196.5000   -18.9960    71.7030    20.9130    17.0360    28.6070    26.3280     2.4880 
  196.6250   -17.9310    73.1110    21.1450    16.8200    36.4940    26.4050     2.5270 
  196.7500   -16.5300    74.2430    19.5600    15.2470    40.1880    26.5500     2.4980 
  196.8750   -14.8740    72.7110    16.5180    12.7980    34.3000    26.7710     2.3790 
  197.0000   -13.0820    67.0570    13.0080    10.2470    22.3420    27.2790     2.1830 
  197.1250   -11.2840    59.2020    10.1970     8.3170    11.0360    28.8220     1.9630 
  197.2500    -9.5770    54.0910     8.4140     7.0950     5.9580    31.0840     1.7790 
  197.3750    -8.0360    53.5680     7.5510     6.4820     4.6720    32.4170     1.6520 
  197.5000    -6.7190    55.0820     7.3300     6.3080     4.7490    32.3670     1.5810 
  197.6250    -5.7350    56.0580     7.4600     6.4130     4.6790    31.6160     1.5660 
  197.7500    -5.0580    58.8850     7.6280     6.5920     4.6230    30.2290     1.6030 
  197.8750    -4.6540    64.9200     7.7110     6.7540     4.8090    28.7580     1.6950 
  198.0000    -4.4820    72.9670     7.6940     6.8700     4.9750    27.8250     1.8350 
  198.1250    -4.4890    80.5170     7.6430     6.9590     5.0060    27.6550     1.9950 
  198.2500    -4.6270    86.6480     7.6440     7.0700     5.2150    27.7070     2.1390 
  198.3750    -4.8750    89.9540     7.7280     7.2320     5.6320    27.7900     2.2480 
  198.5000    -5.1800    89.4770     7.8930     7.4680     5.9230    27.8200     2.3190 
  198.6250    -5.5110    87.0390     8.1720     7.8170     6.5280    27.7940     2.3570 
  198.7500    -5.8280    85.7410     8.5970     8.2750     7.6740    27.8020     2.3790 
  198.8750    -6.1270    84.4880     9.2030     8.8160     9.1050    27.8980     2.3900 
  199.0000    -6.3840    81.9740     9.9580     9.3640     8.8460    28.0100     2.3960 
  199.1250    -6.6090    80.0000    10.6840     9.7570     9.2580    28.0940     2.3990 
  199.2500    -6.7780    80.0850    11.1320     9.8840    11.4270    28.1790     2.4010 
  199.3750    -6.9090    80.8050    11.1420     9.7180    13.8990    28.2690     2.4020 
  199.5000    -7.0540    83.3290    10.7500     9.3680    13.5240    28.3500     2.4010 
  199.6250    -7.2520    88.2520    10.2680     9.1130    10.6910    28.4250     2.3990 
  199.7500    -7.5330    90.3770    10.1680     9.2310     8.5840    28.5240     2.3960 
  199.8750    -7.8870    86.5740    10.7720     9.9240     8.1990    28.6310     2.3930 
  200.0000    -8.3080    81.2440    12.2190    11.2990     9.3830    28.7280     2.3860 
  200.1250    -8.8130    79.2160    14.4990    13.3910    14.3150    28.8270     2.3770 
  200.2500    -9.4010    78.9820    17.1140    15.8300    20.7720    28.9440     2.3700 
  200.3750   -10.0220    78.9830    19.6430    18.2790    23.4930    29.0730     2.3680 
  200.5000   -10.6640    78.3430    21.7600    20.4590    28.8060    29.2080     2.3700 
  200.6250   -11.3380    76.9640    23.3240    22.2370    29.7980    29.3170     2.3700 
  200.7500   -12.0030    75.4520    24.6620    23.8240    29.8260    29.4130     2.3610 
  200.8750   -12.6430    75.8890    26.0260    25.3370    26.5040    29.5500     2.3450 
  201.0000   -13.2350    77.9480    27.4230    26.6560    27.5290    29.7340     2.3260 
  201.1250   -13.7080    78.0040    28.3460    27.2090    30.3640    29.9460     2.3110 
  201.2500   -14.0920    75.3510    28.2130    26.5930    32.6970    30.1690     2.3030 
  201.3750   -14.4380    73.1210    26.6700    24.6910    34.4650    30.3600     2.3020 
  201.5000   -14.7620    75.2590    23.8460    21.9140    33.6960    30.5160     2.3080 
  201.6250   -15.0090    79.6570    20.6610    19.2650    27.9410    30.6480     2.3200 
  201.7500   -15.2270    80.2250    18.4120    17.8090    20.7640    30.7800     2.3320 
  201.8750   -15.4590    78.3080    18.2420    18.4820    15.9310    30.8700     2.3430 
  202.0000   -15.7040    76.9190    21.1720    22.3500    13.1010    30.9480     2.3540 
  202.1250   -16.0140    75.2750    29.5890    31.2550    18.3610    31.0810     2.3660 
  202.2500   -16.3910    71.4620    43.4350    44.7080    35.6940    31.3110     2.3740 
  202.3750   -16.8280    66.7720    61.7530    61.3740    67.8840    31.5300     2.3700 
  202.5000   -17.2940    62.7840    82.1690    78.4390   108.8090    31.6680     2.3490 
  202.6250   -17.7660    61.5920   100.0370    91.5460   124.7610    31.7870     2.3100 
  202.7500   -18.2100    63.3940   111.6140    99.3020   116.7410    31.9350     2.2670 
  202.8750   -18.6080    64.6220   116.6220   102.7420    96.9910    32.0670     2.2320 
  203.0000   -18.9620    61.3810   117.8850   104.1700    85.5710    32.2440     2.2080 
  203.1250   -19.2560    56.5630   118.6930   105.5580    83.4380    32.4130     2.1950 
  203.2500   -19.4820    57.2360   120.5870   107.6640    84.6230    32.5200     2.1860 
  203.3750   -19.6440    62.7190   123.6940   110.4850    86.2390    32.6310     2.1810 
  203.5000   -19.7570    68.6660   127.7190   113.8030    88.4540    32.7470     2.1800 
  203.6250   -19.8440    69.2800   132.2740   117.4030    91.1210    32.8280     2.1800 
  203.7500   -19.8900    65.1190   136.9150   121.0950    93.1490    32.9220     2.1770 
  203.8750   -19.9080    59.6630   141.4590   124.8130    93.1950    33.0330     2.1730 
  204.0000   -19.9560    57.2130   145.7950   128.4830    93.3820    33.1120     2.1690 
  204.1250   -20.0420    58.6580   149.7460   131.9420    93.5460    33.1670     2.1700 
  204.2500   -20.1370    60.5600   153.2090   135.0430    89.2260    33.1990     2.1750 
  204.3750   -20.2410    61.7790   156.0300   137.6230    82.3930    33.2030     2.1810 
  204.5000   -20.3590    62.6100   158.0670   139.5600    78.6500    33.2170     2.1860 
  204.6250   -20.5120    60.3500   159.0540   140.6710    78.6720    33.2890     2.1860 
  204.7500   -20.6850    57.1970   159.1130   141.0880    77.1240    33.3800     2.1830 
  204.8750   -20.8630    57.6740   158.3230   140.8990    75.9720    33.4430     2.1800 
  205.0000   -21.0000    62.3700   156.8870   140.2660    76.5120    33.4530     2.1790 
  205.1250   -21.0980    63.1870   155.1430   139.4460    75.7210    33.4130     2.1810 
  205.2500   -21.1850    58.1820   153.5870   138.7820    68.9410    33.3060     2.1820 
  205.3750   -21.2630    54.3250   152.5110   138.4620    63.9640    33.1910     2.1810 
  205.5000   -21.3010    56.2550   151.9680   138.4830    66.2090    33.1320     2.1760 
  205.6250   -21.2610    59.8280   151.7140   138.5850    69.8860    33.1090     2.1690 
  205.7500   -21.2070    60.4440   151.2340   138.3790    75.8780    33.0630     2.1630 
  205.8750   -21.1450    59.0540   150.2140   137.6850    79.4210    32.9830     2.1600 
  206.0000   -21.0850    57.5660   148.6370   136.5940    82.8690    32.9260     2.1630 
  206.1250   -21.1140    57.1320   146.8130   135.4290    79.0240    32.8980     2.1760 
