~V
VERS. 2.00: Ver 2.00
~W
STRT.M 64.0000:
STOP.M 271.0000:
STEP.M 0.1250:
NULL. -999.2500:
UWI. DF5037:
~C
DEPT.M :
SP.MV :
GR.API :
RML.OHMM :
RI. :
RXO.OHMM :
CALI.CM :
DEN.GM/CC :
~A
# ...
  142.7500   -17.6260   124.2630     3.9520     3.8410     4.1090    23.4750     2.3540 
  142.8750   -17.5420   121.8910     3.9650     3.8580     4.3540    23.5000     2.3500 
  143.0000   -17.4160   119.8860     4.1430     4.0160     4.7700    23.5400     2.3480 
  143.1250   -17.2510   121.0440     4.5150     4.2920     5.1800    23.5490     2.3500 
  143.2500   -17.0730   124.3450     5.0060     4.6750     5.5390    23.5080     2.3570 
  143.3750   -16.9080   123.8800     5.6050     5.1480     5.9900    23.4240     2.3670 
  143.5000   -16.7700   119.2580     6.3730     5.7430     6.7310    23.3210     2.3820 
  143.6250   -16.6750   113.5830     7.4200     6.5330     7.8160    23.2240     2.4060 
  143.7500   -16.6260   103.1960     8.9690     7.6780     9.5480    23.1370     2.4410 
  143.8750   -16.6160    87.0970    11.0460     9.2190    11.5810    23.0440     2.4850 
  144.0000   -16.6250    72.1550    13.6140    11.1590    13.6580    22.9150     2.5300 
  144.1250   -16.6300    63.5590    16.4710    13.3850    15.8410    22.7400     2.5660 
  144.2500   -16.6130    61.5950    19.1980    15.6190    17.2650    22.5960     2.5860 
  144.3750   -16.5650    61.2730    21.3800    17.5150    18.3860    22.5230     2.5950 
  144.5000   -16.5220    58.2460    22.7750    18.8410    18.9350    22.4940     2.5950 
  144.6250   -16.5060    50.0050    23.3600    19.5170    19.1240    22.4810     2.5910 
  144.7500   -16.4800    42.3940    23.2780    19.5910    19.3000    22.4640     2.5870 
  144.8750   -16.4600    41.4700    22.9850    19.4140    19.2050    22.4350     2.5820 
  145.0000   -16.4490    44.9640    22.7730    19.2280    18.7750    22.4210     2.5790 
  145.1250   -16.4370    47.5210    22.8340    19.2150    18.0690    22.4060     2.5760 
  145.2500   -16.4520    46.7200    23.2870    19.5100    17.8970    22.3660     2.5750 
  145.3750   -16.4760    46.1160    23.9820    20.0390    18.6830    22.3130     2.5750 
  145.5000   -16.4770    47.3210    24.7470    20.6880    19.6340    22.2760     2.5750 
  145.6250   -16.4350    48.7850    25.4080    21.3170    20.0400    22.2390     2.5740 
  145.7500   -16.3820    49.0950    25.8250    21.7910    19.5570    22.2050     2.5720 
  145.8750   -16.3030    49.2810    26.0660    22.1130    18.6340    22.1620     2.5680 
  146.0000   -16.2340    48.1270    26.2480    22.3560    17.7460    22.1190     2.5640 
  146.1250   -16.2080    43.5720    26.4870    22.6190    17.4770    22.0880     2.5600 
  146.2500   -16.1630    38.2240    26.8440    22.9810    17.7670    22.0780     2.5600 
  146.3750   -16.1120    36.4730    27.2500    23.4070    18.1050    22.0760     2.5630 
  146.5000   -16.0840    37.3270    27.6060    23.8160    18.3300    22.0760     2.5700 
  146.6250   -16.0900    38.5850    27.7960    24.1030    18.6830    22.0760     2.5790 
  146.7500   -16.1110    39.8140    27.6520    24.1110    19.1480    22.0820     2.5860 
  146.8750   -16.1380    41.5810    27.1410    23.8000    19.8590    22.1340     2.5880 
  147.0000   -16.1460    43.6760    26.2370    23.1480    20.4560    22.3150     2.5830 
  147.1250   -16.1250    47.1130    24.9700    22.1780    20.3500    22.6520     2.5700 
  147.2500   -16.1520    56.8210    23.4290    20.9500    19.5440    23.0610     2.5520 
  147.3750   -16.2090    65.8090    21.8830    19.6750    18.6340    23.3300     2.5340 
  147.5000   -16.2530    66.3080    20.5890    18.5530    17.9740    23.4440     2.5230 
  147.6250   -16.2690    60.0760    19.7910    17.7840    17.5310    23.4560     2.5200 
  147.7500   -16.2920    58.4570    19.7640    17.6130    17.2250    23.4350     2.5280 
  147.8750   -16.3290    62.0050    20.3780    17.9840    17.5570    23.4210     2.5420 
  148.0000   -16.3620    60.8060    21.4320    18.7840    18.7470    23.4150     2.5590 
  148.1250   -16.3710    54.5220    22.5980    19.7780    20.6400    23.4100     2.5740 
  148.2500   -16.3510    53.1360    23.4090    20.5990    22.2890    23.4240     2.5810 
  148.3750   -16.3330    55.9600    23.6430    20.9930    22.8570    23.4690     2.5790 
  148.5000   -16.3530    55.0200    23.3020    20.8890    22.2770    23.5280     2.5670 
  148.6250   -16.4120    50.7710    22.6060    20.4070    20.9660    23.5720     2.5510 
  148.7500   -16.4750    54.4000    21.8930    19.7980    19.3140    23.6040     2.5350 
  148.8750   -16.5240    61.7500    21.3560    19.2820    18.6230    23.6070     2.5260 
  149.0000   -16.5400    63.1600    20.9280    18.8590    18.5760    23.5820     2.5260 
  149.1250   -16.5380    58.1330    20.4150    18.4050    18.6670    23.5490     2.5330 
  149.2500   -16.5060    54.3790    19.5890    17.7390    18.8250    23.5130     2.5410 
  149.3750   -16.4400    51.9460    18.5040    16.8640    18.3310    23.4980     2.5440 
  149.5000   -16.3460    48.3360    17.3560    15.9060    17.0050    23.4950     2.5390 
  149.6250   -16.2190    49.3210    16.4110    15.0660    14.7860    23.4940     2.5300 
  149.7500   -16.0930    56.1150    15.9580    14.5940    13.2210    23.4960     2.5200 
  149.8750   -16.0160    61.1110    15.9620    14.5050    13.6780    23.5090     2.5150 
  150.0000   -16.0130    62.2160    16.3080    14.7430    14.9500    23.5270     2.5170 
  150.1250   -16.0770    64.2180    16.8090    15.1750    16.2210    23.5270     2.5240 
  150.2500   -16.1740    65.9490    17.2440    15.6230    16.5160    23.5060     2.5310 
  150.3750   -16.2650    61.1900    17.4850    15.9350    16.2740    23.4940     2.5360 
  150.5000   -16.3150    51.9840    17.5000    16.0540    16.0620    23.4860     2.5360 
  150.6250   -16.3430    45.7550    17.3020    15.9720    15.7130    23.4700     2.5320 
  150.7500   -16.3730    50.4970    16.8850    15.6780    15.2450    23.4450     2.5270 
  150.8750   -16.3790    58.9030    16.3110    15.2290    14.6530    23.4330     2.5220 
  151.0000   -16.3710    62.2310    15.6490    14.6740    13.9790    23.4300     2.5170 
  151.1250   -16.3660    56.5810    15.0090    14.0950    13.2860    23.4290     2.5130 
  151.2500   -16.3810    49.8650    14.5700    13.6270    12.8350    23.4290     2.5080 
  151.3750   -16.4200    50.9600    14.4210    13.3610    12.7770    23.4460     2.5030 
  151.5000   -16.4910    54.9520    14.6050    13.3520    13.1090    23.4940     2.4990 
  151.6250   -16.5770    58.3070    15.1050    13.6110    13.6180    23.5740     2.4940 
  151.7500   -16.6380    62.0090    15.8790    14.1350    14.1250    23.6120     2.4850 
  151.8750   -16.6770    67.0320    16.7620    14.7990    14.4370    23.6230     2.4730 
  152.0000   -16.6980    67.9060    17.6340    15.5040    14.7580    23.6230     2.4610 
  152.1250   -16.6850    65.3200    18.3820    16.1490    15.5810    23.6230     2.4510 
  152.2500   -16.6610    66.1530    18.8820    16.6160    16.5610    23.6210     2.4470 
  152.3750   -16.6390    67.4850    19.1410    16.8910    17.2400    23.6060     2.4490 
  152.5000   -16.6210    69.4060    19.1940    16.9870    17.4830    23.5550     2.4590 
  152.6250   -16.6350    74.8360    19.1070    16.9530    17.2490    23.4730     2.4740 
  152.7500   -16.6800    81.1760    18.9580    16.8490    17.0590    23.3770     2.4900 
  152.8750   -16.7340    83.1720    18.8100    16.7360    17.0220    23.3020     2.5030 
  153.0000   -16.7750    81.3070    18.6550    16.6210    17.0170    23.2350     2.5080 
  153.1250   -16.8040    80.7930    18.4540    16.4820    16.7570    23.1730     2.5060 
  153.2500   -16.8220    78.5000    18.1420    16.2740    16.1210    23.1200     2.5000 
  153.3750   -16.8360    73.2470    17.7220    15.9890    15.4850    23.0570     2.4950 
  153.5000   -16.8560    67.2140    17.2210    15.6380    15.0670    22.9950     2.4920 
  153.6250   -16.8690    63.4580    16.6890    15.2520    14.6740    22.9260     2.4880 
  153.7500   -16.8810    66.2230    16.1970    14.8790    14.1660    22.8960     2.4820 
  153.8750   -16.8950    70.5020    15.7850    14.5580    13.7720    22.8750     2.4750 
