~V
VERS. 2.00: Ver 2.00
~W
STRT.M 55.0000:
STOP.M 268.0000:
STEP.M 0.1250:
NULL. -999.2500:
UWI. DF5007:
~C
DEPT.M :
SP.MV :
GR.API :
RML.OHMM :
RI. :
RXO.OHMM :
CALI.CM :
DEN.GM/CC :
~A
# ...
  111.2500   -24.9400    74.5450     8.2800     7.0430     6.8210    21.8830     2.2040 
  111.3750   -25.7700    72.8130     8.4170     7.1950     7.0520    21.8740     2.1970 
  111.5000   -26.4600    70.3430     8.5030     7.3110     7.3490    21.8510     2.1930 
  111.6250   -27.0260    70.8790     8.5450     7.3900     7.6470    21.9330     2.1910 
  111.7500   -27.5490    72.1310     8.5700     7.4480     7.9530    22.1530     2.1880 
  111.8750   -27.8990    69.8610     8.5960     7.4970     8.2550    22.4760     2.1860 
  112.0000   -28.2420    65.2070     8.6380     7.5450     8.5990    22.8830     2.1840 
  112.1250   -28.4900    64.4780     8.7040     7.5970     8.8920    23.2110     2.1860 
  112.2500   -28.6700    67.7730     8.7850     7.6510     9.0660    23.3490     2.1910 
  112.3750   -28.8730    70.2060     8.8680     7.7010     9.1830    23.4060     2.1970 
  112.5000   -28.9880    70.3400     8.9430     7.7460     9.2670    23.4970     2.2010 
  112.6250   -29.2140    70.0950     8.9980     7.7860     9.2420    23.5940     2.2010 
  112.7500   -29.3420    69.9290     9.0390     7.8240     9.1910    23.6020     2.1980 
  112.8750   -29.4290    69.3760     9.0680     7.8600     9.2300    23.5910     2.1920 
  113.0000   -29.5010    67.3720     9.0900     7.8900     9.3070    23.6420     2.1840 
  113.1250   -29.4430    64.3990     9.0830     7.8930     9.3980    23.7550     2.1730 
  113.2500   -29.4100    62.3700     9.0240     7.8500     9.4360    23.7740     2.1600 
  113.3750   -29.2620    62.0730     8.8940     7.7450     9.4140    23.7640     2.1480 
  113.5000   -28.9830    62.7340     8.6930     7.5800     9.3000    23.7890     2.1400 
  113.6250   -28.6470    62.7270     8.4430     7.3730     8.9710    23.8130     2.1390 
  113.7500   -28.3120    62.9800     8.2000     7.1690     8.3860    23.7830     2.1440 
  113.8750   -27.9990    64.6570     8.0130     7.0140     7.5490    23.7530     2.1520 
  114.0000   -27.7810    68.3300     7.9280     6.9490     6.7110    23.7370     2.1590 
  114.1250   -27.6040    72.6260     7.9850     7.0150     6.9930    23.6960     2.1620 
  114.2500   -27.3480    75.1530     8.1490     7.1860     7.9330    23.6230     2.1630 
  114.3750   -27.0690    74.4630     8.3660     7.4230     8.8480    23.5840     2.1630 
  114.5000   -26.7810    71.8410     8.5640     7.6610     9.2360    23.5960     2.1650 
  114.6250   -26.3820    71.4100     8.6460     7.8030     9.2330    23.6080     2.1690 
  114.7500   -25.7860    72.8320     8.5850     7.8090     9.2080    23.6360     2.1750 
  114.8750   -25.0660    73.4560     8.3880     7.6720     9.1070    23.7160     2.1830 
  115.0000   -24.1020    73.7590     8.0970     7.4130     8.8750    23.8050     2.1930 
  115.1250   -23.0930    78.0480     7.7760     7.0770     8.4200    23.8870     2.2020 
  115.2500   -22.1240    83.9950     7.4760     6.7360     7.7440    24.0190     2.2120 
  115.3750   -21.1280    87.6770     7.2100     6.4230     6.9470    24.0940     2.2240 
  115.5000   -20.2880    89.6030     6.9740     6.1530     6.6690    24.0500     2.2380 
  115.6250   -19.4320    91.3470     6.7660     5.9380     6.8370    24.0180     2.2560 
  115.7500   -18.7680    93.9560     6.5920     5.7720     6.7150    24.1000     2.2730 
  115.8750   -18.3060    97.4730     6.4730     5.6620     6.3430    24.2090     2.2830 
  116.0000   -18.0180   101.9890     6.4310     5.6180     5.9010    24.2440     2.2820 
  116.1250   -17.9690   104.7820     6.4920     5.6600     5.7800    24.2020     2.2700 
  116.2500   -17.9170   101.3410     6.6230     5.7620     5.8180    24.1160     2.2530 
  116.3750   -18.0170    91.9680     6.7800     5.8950     5.9960    23.9280     2.2350 
  116.5000   -18.0910    83.8280     6.9020     6.0130     6.3840    23.6920     2.2200 
  116.6250   -18.1310    83.4000     6.8960     6.0440     6.8560    23.5590     2.2130 
  116.7500   -18.2440    85.5240     6.7510     5.9690     7.1030    23.5340     2.2140 
  116.8750   -18.2520    85.9730     6.5170     5.8090     6.9900    23.5070     2.2200 
  117.0000   -18.1530    86.4890     6.2930     5.6310     6.4950    23.4650     2.2340 
  117.1250   -18.0330    90.7300     6.2050     5.5360     6.2060    23.4510     2.2590 
  117.2500   -17.9890    95.2140     6.2850     5.5700     6.1430    23.4290     2.2960 
  117.3750   -17.9670    96.6810     6.5290     5.7500     6.1820    23.3560     2.3440 
  117.5000   -18.0190    92.3400     6.8830     6.0480     6.7790    23.2750     2.3900 
  117.6250   -18.2380    84.8620     7.2410     6.3820     8.2390    23.3500     2.4100 
  117.7500   -18.5570    80.2190     7.4890     6.6430    10.1530    23.5140     2.3940 
  117.8750   -18.9310    80.9940     7.5640     6.7660    10.4910    23.6130     2.3490 
  118.0000   -19.3570    85.3030     7.4570     6.7300     8.4260    23.5200     2.2910 
  118.1250   -19.6010    86.2720     7.2160     6.5590     7.1430    23.2890     2.2450 
  118.2500   -19.7320    83.9960     6.9710     6.3500     6.7660    23.1590     2.2200 
  118.3750   -19.7860    83.7570     6.7940     6.1680     6.5850    23.4230     2.2120 
  118.5000   -19.7290    88.2090     6.7110     6.0500     6.3820    23.7980     2.2130 
  118.6250   -19.7280    90.1450     6.7110     6.0070     6.0420    23.9210     2.2140 
  118.7500   -19.5440    86.5740     6.7260     5.9930     6.0460    23.8560     2.2120 
  118.8750   -19.3180    85.5610     6.7040     5.9640     6.1550    23.7760     2.2130 
  119.0000   -19.0220    90.0980     6.6240     5.8910     6.3410    23.7670     2.2200 
  119.1250   -18.6800    95.9750     6.4920     5.7670     6.4180    23.8110     2.2340 
  119.2500   -18.4670    97.4290     6.3360     5.6180     6.0510    23.8640     2.2520 
  119.3750   -18.2580    94.4170     6.1740     5.4610     5.6310    23.9010     2.2660 
  119.5000   -18.1560    91.7130     6.0320     5.3160     5.4590    23.8650     2.2740 
  119.6250   -18.0550    92.9860     5.9420     5.2070     5.4800    23.7420     2.2760 
  119.7500   -17.9360    94.3070     5.9130     5.1460     5.5250    23.6370     2.2770 
  119.8750   -17.9090    92.4980     5.9580     5.1430     5.5630    23.5790     2.2780 
  120.0000   -18.0470    89.9390     6.0830     5.2030     5.6480    23.5280     2.2750 
  120.1250   -18.3690    91.5760     6.2770     5.3230     5.6730    23.4420     2.2680 
  120.2500   -18.7180    94.8010     6.4870     5.4680     5.6470    23.3810     2.2610 
  120.3750   -19.0270    96.7890     6.6690     5.6080     5.7890    23.3870     2.2600 
  120.5000   -19.2130    96.3380     6.7720     5.7090     6.1840    23.4030     2.2660 
  120.6250   -19.3530    92.6820     6.7470     5.7320     6.7580    23.4610     2.2790 
  120.7500   -19.5060    89.2660     6.6310     5.6830     7.1390    23.5600     2.2900 
  120.8750   -19.5630    88.0940     6.4660     5.5810     6.8710    23.6130     2.3010 
  121.0000   -19.5740    88.8050     6.3000     5.4590     6.1340    23.5980     2.3160 
  121.1250   -19.5130    89.5120     6.1950     5.3620     5.7240    23.5910     2.3370 
  121.2500   -19.5010    90.3760     6.1750     5.3170     5.7560    23.6090     2.3590 
  121.3750   -19.6120    91.3150     6.2360     5.3300     6.0460    23.5980     2.3680 
  121.5000   -19.8490    91.3780     6.3520     5.3920     6.4590    23.5390     2.3570 
  121.6250   -20.1850    90.4200     6.4890     5.4890     6.2750    23.5090     2.3290 
  121.7500   -20.5690    89.0110     6.6130     5.5980     6.2560    23.4100     2.2990 
  121.8750   -21.0780    87.1530     6.7270     5.7160     6.4370    23.3020     2.2770 
  122.0000   -21.6190    86.0850     6.8630     5.8600     6.6620    23.2270     2.2660 
  122.1250   -22.1860    88.5810     7.0630     6.0570     6.8430    23.2100     2.2620 
  122.2500   -22.6630    91.8450     7.3180     6.3060     6.9310    23.1520     2.2580 
  122.3750   -23.0270    91.0850     7.5930     6.5860     7.2040    23.0540     2.2520 
