~V
VERS. 2.00: Ver 2.00
~W
STRT.M 60.0000:
STOP.M 256.0000:
STEP.M 0.1250:
NULL. -999.2500:
UWI. DF5048:
~C
DEPT.M :
GR.API :
CALI.CM :
RXO.OHMM :
RI. :
RML.OHMM :
DEN.GM/CC :
SP.MV :
~A
# ...
   82.5000    66.6430    24.5950     7.3830     6.8100     8.3490     2.1210   -32.8240 
   82.6250    66.2780    24.5670     7.4050     7.0560     8.7480     2.1320   -32.7390 
   82.7500    66.8750    24.5080     7.4600     7.4580     9.3050     2.1580   -32.6350 
   82.8750    68.5350    24.4980     7.6360     7.9740     9.9330     2.1940   -32.5360 
   83.0000    70.4340    24.5510     8.2910     8.5000    10.4650     2.2320   -32.4340 
   83.1250    68.7250    24.5500     9.8370     8.8110    10.6140     2.2490   -32.3390 
   83.2500    63.6190    24.4360     9.7370     8.7780    10.3170     2.2370   -32.2480 
   83.3750    60.2230    24.2800     8.3660     8.4100     9.6720     2.2070   -32.1520 
   83.5000    61.1980    24.1790     7.5180     7.8530     8.9110     2.1740   -32.0980 
   83.6250    63.2830    24.1680     7.2080     7.3130     8.2980     2.1530   -32.0080 
   83.7500    63.8080    24.1730     7.1670     6.9260     7.9340     2.1380   -31.9670 
   83.8750    62.9730    24.1640     7.1930     6.7310     7.8050     2.1300   -31.8850 
   84.0000    62.7740    24.1490     7.2680     6.6990     7.8350     2.1270   -31.8600 
   84.1250    64.4170    24.1670     7.4650     6.7650     7.9340     2.1300   -31.7920 
   84.2500    65.8240    24.2300     7.6510     6.8500     8.0300     2.1330   -31.7600 
   84.3750    65.0620    24.3110     7.7590     6.9200     8.0920     2.1340   -31.7370 
   84.5000    62.8700    24.3820     7.8850     6.9540     8.0990     2.1290   -31.7440 
   84.6250    62.9860    24.4420     7.9100     6.9330     8.0380     2.1190   -31.6970 
   84.7500    64.7590    24.4920     7.8250     6.8760     7.9500     2.1110   -31.6650 
   84.8750    65.3440    24.5240     7.5960     6.8160     7.8800     2.1080   -31.6190 
   85.0000    65.8000    24.5480     7.3940     6.7880     7.8750     2.1120   -31.5670 
   85.1250    68.6470    24.5730     7.4380     6.8340     7.9740     2.1220   -31.4910 
   85.2500    72.0550    24.5910     7.6670     6.9420     8.1370     2.1330   -31.4120 
   85.3750    72.2340    24.5970     7.8390     7.0800     8.3060     2.1410   -31.3190 
   85.5000    69.8470    24.6150     7.9040     7.1990     8.4180     2.1440   -31.2140 
   85.6250    68.7880    24.6560     8.0340     7.2450     8.4190     2.1390   -31.0920 
   85.7500    66.6660    24.6600     7.8990     7.2150     8.3360     2.1320   -30.9790 
   85.8750    62.0800    24.5930     7.4500     7.1220     8.2020     2.1250   -30.8980 
   86.0000    57.2670    24.4970     7.0350     6.9830     8.0430     2.1250   -30.8230 
   86.1250    58.3300    24.4520     7.0230     6.8030     7.8620     2.1350   -30.7270 
   86.2500    62.7050    24.4620     7.1250     6.5970     7.6600     2.1510   -30.6370 
   86.3750    67.8110    24.4900     7.0320     6.3820     7.4520     2.1680   -30.5610 
   86.5000    73.0740    24.5210     6.6430     6.1880     7.2680     2.1780   -30.5060 
   86.6250    78.1780    24.5430     6.2070     6.0690     7.1780     2.1770   -30.4830 
   86.7500    81.4240    24.5400     6.2390     6.0540     7.2140     2.1660   -30.4660 
   86.8750    82.4640    24.5110     6.5760     6.1560     7.3880     2.1520   -30.4410 
   87.0000    81.7320    24.4760     6.9030     6.3620     7.6720     2.1430   -30.3960 
   87.1250    79.4850    24.4390     7.2590     6.6360     8.0010     2.1400   -30.3870 
   87.2500    77.3810    24.3540     7.7540     6.9000     8.2840     2.1400   -30.3840 
   87.3750    77.0090    24.2170     8.2230     7.1000     8.4680     2.1400   -30.3720 
   87.5000    77.4200    24.0830     8.1850     7.2050     8.5340     2.1390   -30.3230 
   87.6250    77.0860    24.0290     7.6790     7.1980     8.4890     2.1370   -30.3350 
   87.7500    75.0280    24.0570     7.3510     7.1250     8.3950     2.1340   -30.2620 
   87.8750    71.7460    24.1220     7.3020     7.0300     8.3090     2.1280   -30.2210 
   88.0000    68.4020    24.1800     7.2580     6.9640     8.2840     2.1220   -30.1400 
   88.1250    66.7220    24.2260     7.1790     6.9750     8.3650     2.1170   -30.0870 
   88.2500    66.3330    24.2780     7.2050     7.0610     8.5170     2.1170   -29.9910 
   88.3750    67.3070    24.3140     7.5140     7.1940     8.6900     2.1200   -29.8850 
   88.5000    69.5750    24.3300     8.1740     7.3290     8.8220     2.1220   -29.7620 
   88.6250    71.6850    24.3810     8.2280     7.4020     8.8500     2.1200   -29.6380 
   88.7500    71.2880    24.4680     7.9040     7.4000     8.7900     2.1180   -29.5120 
   88.8750    69.7100    24.5030     7.5170     7.3400     8.6790     2.1200   -29.3900 
   89.0000    68.9450    24.4130     7.3590     7.2560     8.5610     2.1300   -29.2680 
   89.1250    67.4490    24.3060     7.3820     7.1810     8.4700     2.1430   -29.1240 
   89.2500    65.1710    24.3230     7.5460     7.1230     8.3990     2.1520   -28.9630 
   89.3750    63.5490    24.4300     7.5960     7.0660     8.3270     2.1500   -28.8100 
   89.5000    63.9580    24.4870     7.4230     6.9960     8.2380     2.1390   -28.6580 
   89.6250    64.8930    24.4260     7.1750     6.9020     8.1260     2.1240   -28.5140 
   89.7500    65.6300    24.3780     7.0510     6.7900     8.0020     2.1120   -28.3530 
   89.8750    68.7650    24.3920     7.0030     6.6680     7.8710     2.1070   -28.1870 
   90.0000    73.1170    24.4370     6.9620     6.5430     7.7360     2.1050   -27.9930 
   90.1250    74.3390    24.4590     7.0270     6.4370     7.6150     2.1020   -27.8160 
   90.2500    71.2080    24.4590     6.9900     6.3670     7.5370     2.0980   -27.6480 
   90.3750    67.3850    24.4660     6.9200     6.3620     7.5390     2.0960   -27.4850 
   90.5000    65.2090    24.5150     6.9000     6.4420     7.6420     2.1010   -27.2980 
   90.6250    66.0260    24.5820     6.9820     6.6170     7.8410     2.1090   -27.1420 
   90.7500    68.1540    24.5740     7.1000     6.8320     8.0540     2.1150   -26.9710 
   90.8750    69.7770    24.4660     7.7450     7.0180     8.1950     2.1180   -26.8190 
   91.0000    71.0920    24.3630     9.5650     7.1010     8.1860     2.1180   -26.6750 
   91.1250    70.7680    24.4010     9.4620     7.0050     7.9710     2.1220   -26.4970 
   91.2500    69.7060    24.4960     8.0340     6.7730     7.6290     2.1350   -26.3250 
   91.3750    70.0540    24.5360     6.9240     6.4680     7.2450     2.1570   -26.1610 
   91.5000    72.6990    24.5380     6.7200     6.1610     6.9020     2.1860   -26.0410 
   91.6250    77.2250    24.6460     6.1850     5.9170     6.6660     2.2120   -25.9270 
   91.7500    82.7240    24.8030     5.7960     5.7490     6.5320     2.2300   -25.8610 
   91.8750    88.4970    24.8320     5.7320     5.6600     6.4880     2.2370   -25.7820 
   92.0000    91.6400    24.6830     5.7870     5.6490     6.5250     2.2410   -25.7790 
   92.1250    90.4590    24.5190     5.9010     5.7230     6.6330     2.2510   -25.7910 
   92.2500    89.9330    24.4880     5.9310     5.8430     6.7550     2.2680   -25.8430 
   92.3750    88.9550    24.5990     5.9840     5.9560     6.8300     2.2850   -25.8900 
   92.5000    85.8140    24.7480     7.0780     5.9980     6.8000     2.2940   -25.9920 
   92.6250    84.0830    24.7750     7.4550     5.8940     6.6040     2.2920   -26.0270 
   92.7500    84.6690    24.7290     6.8900     5.6680     6.2960     2.2850   -26.1600 
   92.8750    84.9810    24.7660     5.9570     5.3840     5.9650     2.2770   -26.2930 
   93.0000    83.7020    24.9200     5.5870     5.1360     5.7150     2.2720   -26.4440 
   93.1250    85.2460    25.0310     5.4580     5.0350     5.6650     2.2680   -26.6220 
   93.2500    91.6670    25.0290     5.3700     5.1040     5.8050     2.2620   -26.8370 
   93.3750    96.8670    24.9560     5.4730     5.3110     6.0750     2.2520   -27.0790 
   93.5000    94.4880    24.8250     5.8750     5.5700     6.3560     2.2400   -27.2790 
   93.6250    84.4650    24.6690     6.2910     5.7450     6.4900     2.2340   -27.5250 
