~V
VERS. 2.00: Ver 2.00
~W
STRT.M 55.0000:
STOP.M 262.0000:
STEP.M 0.1250:
NULL. -999.2500:
UWI. DF5047:
~C
DEPT.M :
GR.API :
CALI.CM :
RXO.OHMM :
RI. :
RML.OHMM :
DEN.GM/CC :
SP.MV :
~A
# ...
  122.5000    68.0280    24.6300    25.6440    11.3490    14.1560     2.5270   -33.2210 
  122.6250    65.8900    24.5990    27.8400    13.0280    15.0320     2.5650   -33.6930 
  122.7500    61.8150    24.5920    24.8460    12.7940    13.8150     2.5600   -34.2150 
  122.8750    58.9480    24.5440    18.5980    11.2120    11.4970     2.5100   -34.5530 
  123.0000    59.9810    24.4440    11.9690     9.3840     9.3390     2.4300   -34.9960 
  123.1250    60.5400    24.3650    10.1350     8.6860     8.6590     2.3480   -35.5550 
  123.2500    60.3130    24.2350     8.6840     7.9000     7.9720     2.2850   -35.8740 
  123.3750    59.2780    24.0260     8.1810     7.2190     7.5510     2.2460   -36.0240 
  123.5000    61.8350    23.8510     8.1050     6.9120     7.5030     2.2250   -36.2830 
  123.6250    66.1490    23.7850     8.1460     6.8050     7.5370     2.2150   -36.5040 
  123.7500    66.4740    23.8000     7.9910     6.6880     7.4440     2.2090   -36.5390 
  123.8750    64.6900    23.8450     7.5410     6.4650     7.1680     2.2060   -36.5280 
  124.0000    65.2920    23.8740     6.9220     6.1140     6.7350     2.2110   -36.5020 
  124.1250    66.6830    23.8520     6.9830     5.6730     6.2270     2.2270   -36.4610 
  124.2500    67.6100    23.8190     7.1190     5.2390     5.7660     2.2480   -36.4440 
  124.3750    70.0610    23.8490     6.5610     4.9030     5.4640     2.2660   -36.4550 
  124.5000    74.9890    23.9550     5.8310     4.7520     5.4320     2.2750   -36.4720 
  124.6250    79.7630    24.0370     5.7530     4.9060     5.8100     2.2640   -36.5070 
  124.7500    80.1630    24.0100     6.0860     5.3600     6.5450     2.2420   -36.6120 
  124.8750    75.3040    23.9070     6.6750     6.0990     7.5440     2.2180   -36.7910 
  125.0000    69.1850    23.8050     7.4520     7.0280     8.6100     2.1990   -37.0150 
  125.1250    67.6120    23.7260     7.9840     7.8990     9.3910     2.1880   -37.1920 
  125.2500    69.0630    23.6490     8.4060     8.4400     9.6920     2.1840   -37.3470 
  125.3750    69.6820    23.5950     8.4380     8.5500     9.5220     2.1830   -37.5210 
  125.5000    69.3230    23.6110     8.2710     8.3090     9.0630     2.1850   -37.7290 
  125.6250    70.5260    23.6780     8.0850     7.8810     8.5360     2.1890   -37.8670 
  125.7500    70.0960    23.7250     7.8530     7.4450     8.0900     2.1910   -37.9330 
  125.8750    66.5340    23.7430     7.6660     7.0680     7.7570     2.1910   -38.0490 
  126.0000    62.1730    23.7540     7.5880     6.7750     7.5360     2.1910   -38.0950 
  126.1250    62.7120    23.7650     7.4100     6.5930     7.4360     2.1940   -37.9880 
  126.2500    65.5600    23.7670     7.3620     6.5050     7.4300     2.2010   -37.9910 
  126.3750    67.0520    23.7580     7.4000     6.5080     7.5050     2.2120   -38.1630 
  126.5000    67.4840    23.7500     7.6310     6.5910     7.6400     2.2240   -38.2410 
  126.6250    69.2580    23.7660     8.2080     6.7360     7.8040     2.2390   -38.2040 
  126.7500    70.1760    23.8000     8.8720     6.8970     7.9640     2.2530   -38.3900 
  126.8750    68.1420    23.8290     9.3730     7.0510     8.1070     2.2610   -38.5630 
  127.0000    65.3470    23.8410     9.4080     7.1860     8.2370     2.2610   -38.5700 
  127.1250    66.7160    23.8420     9.3650     7.2990     8.3640     2.2520   -38.7650 
  127.2500    69.9630    23.8400     9.4560     7.3960     8.4870     2.2400   -39.0190 
  127.3750    71.4120    23.8350     9.6190     7.4720     8.5910     2.2310   -39.0610 
  127.5000    69.6520    23.8320     9.7080     7.5100     8.6440     2.2260   -38.9850 
  127.6250    67.3330    23.8340     9.7310     7.4820     8.6060     2.2250   -39.0830 
  127.7500    67.1060    23.8360     9.7330     7.3940     8.4930     2.2210   -39.0920 
  127.8750    67.1440    23.8350     9.4410     7.2630     8.3330     2.2150   -38.9590 
  128.0000    65.9900    23.8320     9.0530     7.1170     8.1650     2.2050   -38.9360 
  128.1250    64.9370    23.8310     9.0760     6.9900     8.0370     2.1930   -38.9300 
  128.2500    65.4510    23.8330     9.3510     6.9020     7.9660     2.1820   -38.7320 
  128.3750    67.2160    23.8340     9.2540     6.8550     7.9460     2.1760   -38.5570 
  128.5000    68.5460    23.8220     8.9980     6.8420     7.9600     2.1750   -38.5830 
  128.6250    69.7920    23.7740     9.0260     6.8520     7.9900     2.1760   -38.4330 
  128.7500    70.3210    23.6940     9.2360     6.8740     8.0270     2.1780   -38.1980 
  128.8750    69.8560    23.6280     9.1340     6.9100     8.0730     2.1790   -38.0780 
  129.0000    69.2000    23.6390     8.8010     6.9620     8.1300     2.1820   -37.8990 
  129.1250    68.4030    23.7350     8.3800     7.0310     8.1890     2.1880   -37.6890 
  129.2500    68.3930    23.8340     8.4410     7.0930     8.2210     2.1950   -37.4940 
  129.3750    69.9370    23.9320     8.5450     7.1200     8.1940     2.1980   -37.3210 
  129.5000    71.7330    24.0720     8.5860     7.0820     8.0870     2.1970   -37.1550 
  129.6250    71.3750    24.2330     8.3250     6.9550     7.8930     2.1950   -36.9510 
  129.7500    69.8100    24.3230     8.1150     6.7720     7.6670     2.1930   -36.7950 
  129.8750    68.9200    24.2990     7.4390     6.5790     7.4720     2.1940   -36.6530 
  130.0000    69.9720    24.0670     6.9680     6.4410     7.3780     2.1980   -36.5020 
  130.1250    70.7650    23.6710     6.9110     6.4290     7.4470     2.2070   -36.3670 
  130.2500    69.3350    23.4730     7.2090     6.5300     7.6270     2.2220   -36.2680 
  130.3750    65.4940    23.6300     7.6220     6.7080     7.8500     2.2440   -36.1550 
  130.5000    62.1450    23.9320     8.5060     6.9070     8.0350     2.2710   -36.0390 
  130.6250    62.2300    24.0690     9.1300     7.0580     8.1110     2.2940   -35.9660 
  130.7500    64.2830    24.1190     8.6680     7.1480     8.1160     2.3050   -35.8890 
  130.8750    66.4790    24.2000     8.0160     7.2040     8.1240     2.3000   -35.9000 
  131.0000    67.4490    24.2840     8.1290     7.2710     8.2040     2.2820   -35.9110 
  131.1250    67.9990    24.3140     8.6440     7.3940     8.3990     2.2590   -35.8250 
  131.2500    70.8500    24.3040     8.8400     7.5700     8.6670     2.2390   -35.8890 
  131.3750    74.3980    24.2880     8.8730     7.7750     8.9570     2.2260   -35.9670 
  131.5000    76.2260    24.2800     8.7530     7.9740     9.2210     2.2210   -35.8250 
  131.6250    75.3420    24.2510     8.8290     8.1230     9.3970     2.2210   -35.7410 
  131.7500    71.5220    24.2170     9.0360     8.1670     9.4050     2.2220   -35.7000 
  131.8750    66.6330    24.2310     9.2730     8.0120     9.1450     2.2220   -35.4940 
  132.0000    64.4950    24.3220     9.3920     7.6200     8.6090     2.2220   -35.2520 
  132.1250    68.1440    24.4670     9.5860     7.1060     7.9970     2.2300   -35.0830 
  132.2500    72.5180    24.6440     9.3040     6.7160     7.6260     2.2540   -34.8250 
  132.3750    74.9800    24.8610     8.0860     6.6090     7.6900     2.2950   -34.4620 
  132.5000    76.2760    25.0550     7.1370     6.8710     8.2470     2.3470   -34.1970 
  132.6250    76.0910    25.0580     8.6840     7.5260     9.1820     2.3900   -34.0400 
  132.7500    74.3470    24.8670    10.3740     8.3110    10.0600     2.3940   -33.7540 
  132.8750    71.1180    24.6190     9.9110     8.9430    10.5330     2.3540   -33.5840 
  133.0000    68.1910    24.4530     9.0910     9.2130    10.4660     2.2950   -33.5740 
  133.1250    67.4870    24.3840     8.9280     9.0750     9.9770     2.2460   -33.3550 
  133.2500    69.1790    24.3180     9.1180     8.7510     9.4000     2.2170   -33.0650 
  133.3750    69.1490    24.2410     9.4410     8.3470     8.8410     2.2070   -32.9400 
  133.5000    64.5670    24.1960     9.7990     7.8550     8.2340     2.2160   -32.7750 
  133.6250    62.2280    24.2240     9.4360     7.1530     7.4220     2.2410   -32.3300 
