~V
VERS. 2.00: Ver 2.00
~W
STRT.M 55.0000:
STOP.M 274.0000:
STEP.M 0.1250:
NULL. -999.2500:
UWI. DF5015:
~C
DEPT.M :
DEN.GM/CC :
GR.API :
CALI.CM :
RXO.OHMM :
RI. :
RML.OHMM :
SP.MV :
~A
# ...
  100.0000     2.2780    79.0420    23.2260    14.9020     9.5200     9.8380   -22.6400 
  100.1250     2.2850    77.2850    23.1290    15.1800     9.4380     9.6440   -22.8810 
  100.2500     2.2490    73.3590    23.0220    14.1070     9.1390     9.2760   -23.0910 
  100.3750     2.1960    69.7600    22.9200    12.9130     8.7150     8.8400   -23.2160 
  100.5000     2.1560    69.0350    22.8400    12.3470     8.2790     8.4430   -23.2320 
  100.6250     2.1420    71.2400    22.7910    12.2830     7.9360     8.1780   -23.1740 
  100.7500     2.1380    73.4320    22.7610    12.2080     7.7190     8.0510   -23.1220 
  100.8750     2.1420    74.1720    22.7760    12.0560     7.6280     8.0400   -23.0970 
  101.0000     2.1530    73.6790    22.7810    11.9290     7.6300     8.0940   -23.0650 
  101.1250     2.1680    73.4030    22.7590    11.9700     7.6740     8.1470   -22.9700 
  101.2500     2.1740    73.9570    22.7730    12.0380     7.7120     8.1660   -22.8170 
  101.3750     2.1710    74.5360    22.8010    12.0580     7.7280     8.1450   -22.6470 
  101.5000     2.1670    74.5180    22.8150    12.0290     7.7120     8.0850   -22.5140 
  101.6250     2.1640    74.1200    22.8200    11.9930     7.6590     7.9820   -22.4420 
  101.7500     2.1580    73.3810    22.7960    11.9590     7.5860     7.8680   -22.3680 
  101.8750     2.1460    72.3310    22.7190    11.8890     7.5220     7.7850   -22.2420 
  102.0000     2.1340    71.5140    22.6230    11.8000     7.5050     7.7850   -22.0590 
  102.1250     2.1290    71.4100    22.5400    11.6850     7.6000     7.9360   -21.8710 
  102.2500     2.1320    71.3820    22.4590    11.6040     7.8160     8.2240   -21.7360 
  102.3750     2.1420    71.6580    22.3730    11.7760     8.1400     8.6100   -21.6730 
  102.5000     2.1710    72.5890    22.3320    12.8200     8.5280     9.0260   -21.6580 
  102.6250     2.2430    73.0160    22.4370    15.7470     8.8840     9.3570   -21.6450 
  102.7500     2.3400    72.0300    22.6780    19.5990     9.1050     9.5190   -21.6240 
  102.8750     2.4120    70.6950    22.9180    22.0230     9.1290     9.4660   -21.6330 
  103.0000     2.4090    70.3490    23.0120    21.0440     8.9500     9.2190   -21.7080 
  103.1250     2.3250    69.8900    22.9710    17.3080     8.6080     8.8460   -21.8600 
  103.2500     2.2320    67.8990    22.9580    14.0670     8.2240     8.4670   -22.0320 
  103.3750     2.1750    65.6780    23.0010    12.3560     7.8700     8.1570   -22.1690 
  103.5000     2.1550    65.9170    23.1120    11.7450     7.5960     7.9450   -22.2330 
  103.6250     2.1430    70.2510    23.1540    11.5820     7.4350     7.8390   -22.2510 
  103.7500     2.1250    76.1270    23.0480    11.4500     7.3600     7.7940   -22.2970 
  103.8750     2.1180    80.7650    22.9040    11.3480     7.3430     7.7830   -22.3810 
  104.0000     2.1360    82.3270    22.8090    11.3690     7.3620     7.7880   -22.4630 
  104.1250     2.1630    80.5770    22.8130    11.4020     7.4160     7.8150   -22.4810 
  104.2500     2.1760    78.1460    22.8890    11.3250     7.5040     7.8710   -22.4360 
  104.3750     2.1770    76.3040    23.0110    11.2520     7.6250     7.9590   -22.3700 
  104.5000     2.1770    74.1690    23.1020    11.5270     7.7690     8.0730   -22.3340 
  104.6250     2.1790    70.0240    23.1390    12.2690     7.9150     8.1960   -22.3290 
  104.7500     2.1810    65.5080    23.1480    12.9790     8.0360     8.3050   -22.2990 
  104.8750     2.1820    63.8400    23.1530    13.2870     8.1130     8.3840   -22.2260 
  105.0000     2.1790    66.5830    23.1560    13.1760     8.1370     8.4270   -22.1340 
  105.1250     2.1710    71.4150    23.1390    12.7940     8.1090     8.4340   -22.0610 
  105.2500     2.1620    74.5860    23.0680    12.3740     8.0590     8.4270   -22.0220 
  105.3750     2.1570    75.1330    22.9150    12.0290     8.0120     8.4190   -22.0010 
  105.5000     2.1610    73.5790    22.7300    11.8400     7.9830     8.4190   -21.9710 
  105.6250     2.1700    71.7110    22.5600    11.7860     7.9860     8.4330   -21.9090 
  105.7500     2.1720    71.4580    22.4090    11.8300     8.0130     8.4520   -21.8210 
  105.8750     2.1660    72.7230    22.2980    11.9950     8.0570     8.4720   -21.7040 
  106.0000     2.1580    73.7790    22.2620    12.3050     8.1070     8.4860   -21.5410 
  106.1250     2.1510    73.2160    22.3150    12.6790     8.1470     8.4880   -21.3180 
  106.2500     2.1440    72.2690    22.4140    12.9090     8.1700     8.4800   -21.0460 
  106.3750     2.1380    72.2580    22.5200    12.8430     8.1680     8.4600   -20.7320 
  106.5000     2.1350    73.4570    22.5730    12.4600     8.1280     8.4160   -20.3880 
  106.6250     2.1380    74.7900    22.5700    11.8000     8.0140     8.3090   -20.0260 
  106.7500     2.1420    75.3940    22.5660    11.0940     7.8000     8.1050   -19.6650 
  106.8750     2.1430    76.4810    22.5600    10.4430     7.4610     7.7790   -19.3210 
  107.0000     2.1470    79.7890    22.5350     9.8730     6.9970     7.3310   -19.0150 
  107.1250     2.1630    85.3200    22.5010     9.3170     6.4520     6.8030   -18.7810 
  107.2500     2.1880    91.0710    22.4980     8.6510     5.9230     6.3070   -18.6290 
  107.3750     2.2190    96.5140    22.6060     7.8150     5.4940     5.9410   -18.5750 
  107.5000     2.2500   101.8940    22.8300     6.8410     5.2400     5.7850   -18.6270 
  107.6250     2.2720   105.6480    23.0360     6.1020     5.2530     5.9140   -18.7880 
  107.7500     2.2740   105.0700    23.1110     6.0720     5.5030     6.2660   -19.0120 
  107.8750     2.2520    98.9240    23.0670     7.0380     5.9610     6.7800   -19.2720 
  108.0000     2.2210    89.1840    22.9200     8.6060     6.5640     7.3710   -19.5440 
  108.1250     2.2060    80.5840    22.7590     9.8860     7.2080     7.9260   -19.7980 
  108.2500     2.2120    75.4330    22.6270    10.5140     7.7780     8.3640   -20.0060 
  108.3750     2.2210    72.7660    22.6020    10.7610     8.2030     8.6470   -20.1490 
  108.5000     2.2180    70.9840    22.6720    10.9460     8.4500     8.7720   -20.2200 
  108.6250     2.1990    70.1210    22.7750    11.2990     8.4870     8.7440   -20.2150 
  108.7500     2.1810    70.3690    22.8080    11.8340     8.3810     8.6230   -20.1660 
  108.8750     2.1730    71.1350    22.7740    12.4260     8.1660     8.4250   -20.0930 
  109.0000     2.1760    72.4030    22.6900    12.8350     7.8620     8.1520   -20.0110 
  109.1250     2.1870    75.9290    22.6190    12.6580     7.4830     7.8010   -19.9410 
  109.2500     2.2040    81.6660    22.5970    11.7000     7.0900     7.4350   -19.8990 
  109.3750     2.2210    87.1670    22.6460    10.2080     6.7400     7.1220   -19.8900 
  109.5000     2.2300    90.3210    22.7610     9.0590     6.4870     6.9280   -19.9090 
  109.6250     2.2260    91.7470    22.9200     9.0840     6.4010     6.9270   -19.9610 
  109.7500     2.2230    93.1120    23.0100     9.4040     6.4820     7.0990   -20.0500 
  109.8750     2.2260    93.6310    22.9830     9.4110     6.7160     7.4090   -20.1760 
  110.0000     2.2300    91.6320    22.9070     9.5330     7.0680     7.8100   -20.3310 
  110.1250     2.2340    86.8320    22.8670    10.2420     7.4890     8.2350   -20.4970 
  110.2500     2.2380    81.4810    22.8690    11.0500     7.8900     8.6000   -20.6550 
  110.3750     2.2410    77.2580    22.8690    11.6040     8.2100     8.8560   -20.7940 
  110.5000     2.2320    75.1830    22.8050    11.9110     8.4170     8.9880   -20.9140 
  110.6250     2.2080    75.5120    22.6290    12.0340     8.4760     8.9910   -21.0110 
  110.7500     2.1830    76.5070    22.4460    11.9970     8.4320     8.9270   -21.0870 
  110.8750     2.1710    76.3900    22.3400    11.8510     8.3380     8.8560   -21.1450 
  111.0000     2.1760    74.6350    22.3530    11.6580     8.2580     8.8340   -21.1880 
  111.1250     2.1830    72.5630    22.4300    11.5290     8.2420     8.8970   -21.2310 
