~V
VERS. 2.00: Ver 2.00
~W
STRT.M 55.0000:
STOP.M 274.0000:
STEP.M 0.1250:
NULL. -999.2500:
UWI. DF5015:
~C
DEPT.M :
DEN.GM/CC :
GR.API :
CALI.CM :
RXO.OHMM :
RI. :
RML.OHMM :
SP.MV :
~A
# ...
  246.2500     2.6450    46.9400    23.7020   168.0930    41.0280    43.5240   -12.7300 
  246.3750     2.6530    40.7360    23.4470   122.4770    27.5200    29.2730   -12.1670 
  246.5000     2.6200    41.7410    23.0100    75.6240    17.6840    18.9240   -11.6420 
  246.6250     2.5400    48.6990    22.6440    43.2330    11.7250    12.7170   -11.1920 
  246.7500     2.4480    55.6190    22.6200    22.0000     8.1390     9.0330   -10.8200 
  246.8750     2.3660    59.5060    23.0210    10.0100     6.1260     6.9410   -10.5300 
  247.0000     2.3040    59.8830    23.5250     5.3750     5.0770     5.8270   -10.3150 
  247.1250     2.2660    58.2470    23.7670     4.5900     4.6640     5.3860   -10.1630 
  247.2500     2.2550    57.0500    23.8190     4.4860     4.5420     5.2550   -10.0560 
  247.3750     2.2650    56.9140    23.8040     4.4530     4.5650     5.2800    -9.9830 
  247.5000     2.2790    57.2520    23.7600     4.4520     4.6360     5.3560    -9.9380 
  247.6250     2.2870    58.2030    23.7090     4.4050     4.6960     5.4200    -9.9050 
  247.7500     2.2960    60.0310    23.6610     4.3000     4.7290     5.4550    -9.8750 
  247.8750     2.3130    61.4640    23.6720     4.2340     4.7340     5.4610    -9.8450 
  248.0000     2.3350    61.0740    23.6480     4.2670     4.7140     5.4400    -9.8120 
  248.1250     2.3490    60.0790    23.5980     4.3820     4.6690     5.3910    -9.7830 
  248.2500     2.3570    60.5620    23.5640     4.4870     4.6080     5.3260    -9.7550 
  248.3750     2.3610    62.0360    23.5790     4.5330     4.5400     5.2530    -9.7270 
  248.5000     2.3570    62.6390    23.6220     4.4630     4.4730     5.1820    -9.6980 
  248.6250     2.3350    61.8760    23.6720     4.2440     4.4110     5.1160    -9.6660 
  248.7500     2.3060    61.4060    23.6480     4.0550     4.3600     5.0610    -9.6290 
  248.8750     2.2860    62.4870    23.6060     4.0050     4.3240     5.0220    -9.5810 
  249.0000     2.2870    65.1400    23.5790     4.0930     4.3020     4.9990    -9.5280 
  249.1250     2.3010    67.3170    23.6070     4.2340     4.2900     4.9860    -9.4740 
  249.2500     2.3070    66.7440    23.7090     4.3600     4.2830     4.9790    -9.4230 
  249.3750     2.2960    63.5270    23.8360     4.4470     4.2790     4.9740    -9.3790 
  249.5000     2.2770    59.9440    23.9550     4.4730     4.2790     4.9740    -9.3410 
  249.6250     2.2610    58.7290    24.0520     4.4100     4.2830     4.9780    -9.3080 
  249.7500     2.2550    58.9340    24.1160     4.3070     4.2880     4.9830    -9.2760 
  249.8750     2.2590    58.6580    24.1420     4.2260     4.2930     4.9890    -9.2540 
  250.0000     2.2710    57.4390    24.1290     4.2060     4.3000     4.9970    -9.2380 
  250.1250     2.2780    56.9820    24.0860     4.2380     4.3080     5.0050    -9.2280 
  250.2500     2.2740    58.2240    24.0340     4.2870     4.3160     5.0130    -9.2240 
  250.3750     2.2700    60.1560    24.0340     4.3430     4.3220     5.0200    -9.2250 
  250.5000     2.2760    61.7410    24.0970     4.4330     4.3260     5.0240    -9.2290 
  250.6250     2.2900    62.9990    24.1280     4.5180     4.3230     5.0210    -9.2350 
  250.7500     2.2940    63.9970    24.1170     4.5620     4.3160     5.0130    -9.2490 
  250.8750     2.2820    64.2180    24.0950     4.5640     4.3070     5.0040    -9.2680 
  251.0000     2.2660    63.7590    24.0960     4.5930     4.3000     4.9960    -9.2940 
  251.1250     2.2680    63.5460    24.1160     4.6930     4.2950     4.9920    -9.3300 
  251.2500     2.2850    63.5730    24.0980     4.7930     4.2930     4.9890    -9.3700 
  251.3750     2.3040    63.3550    24.0330     4.8580     4.2960     4.9920    -9.4080 
  251.5000     2.3180    63.2750    23.9840     4.9270     4.3080     5.0050    -9.4380 
  251.6250     2.3310    63.8600    24.0010     5.0130     4.3340     5.0330    -9.4640 
  251.7500     2.3430    64.1800    24.0660     5.0010     4.3710     5.0730    -9.4800 
  251.8750     2.3430    63.2110    24.1180     4.8410     4.4190     5.1240    -9.4840 
  252.0000     2.3300    61.8460    24.1160     4.6210     4.4790     5.1890    -9.4760 
  252.1250     2.3150    62.8540    24.0760     4.4740     4.5540     5.2680    -9.4580 
  252.2500     2.3110    66.8390    24.0820     4.4190     4.6330     5.3520    -9.4410 
  252.3750     2.3110    71.9180    24.1200     4.4190     4.7080     5.4330    -9.4320 
  252.5000     2.3090    75.0510    24.1510     4.4580     4.7700     5.4990    -9.4350 
  252.6250     2.3040    73.8750    24.1570     4.5380     4.8110     5.5430    -9.4470 
  252.7500     2.3040    70.0460    24.1490     4.6260     4.8370     5.5710    -9.4720 
  252.8750     2.3110    65.5640    24.1400     4.7550     4.8560     5.5910    -9.5070 
  253.0000     2.3220    61.8760    24.1450     5.0310     4.8760     5.6120    -9.5410 
  253.1250     2.3350    60.0660    24.1470     5.5820     4.9080     5.6470    -9.5600 
  253.2500     2.3470    60.1180    24.1490     6.1990     4.9540     5.6960    -9.5540 
  253.3750     2.3600    61.3910    24.1460     6.6210     5.0080     5.7530    -9.5220 
  253.5000     2.3670    63.1630    24.1380     6.7390     5.0620     5.8120    -9.4600 
  253.6250     2.3590    65.2230    24.1420     6.7360     5.1050     5.8570    -9.3670 
  253.7500     2.3460    67.1100    24.1270     6.8290     5.1250     5.8780    -9.2510 
  253.8750     2.3430    67.7870    24.0730     6.8350     5.1230     5.8760    -9.1150 
  254.0000     2.3570    66.7560    23.9640     6.4600     5.1090     5.8610    -8.9740 
  254.1250     2.3690    64.9180    23.8900     5.7300     5.0970     5.8490    -8.8370 
  254.2500     2.3640    64.1650    23.8580     5.1150     5.1020     5.8540    -8.7140 
  254.3750     2.3480    64.6430    23.8600     4.7910     5.1370     5.8920    -8.6090 
  254.5000     2.3360    65.3850    23.8740     4.7010     5.2110     5.9710    -8.5210 
  254.6250     2.3410    66.3050    23.9100     4.8470     5.3240     6.0910    -8.4470 
  254.7500     2.3540    67.9670    23.9710     5.3280     5.4560     6.2320    -8.3740 
  254.8750     2.3700    69.3600    24.0470     6.3000     5.5870     6.3730    -8.2990 
  255.0000     2.3860    68.9860    24.0880     7.9170     5.6920     6.4850    -8.2050 
  255.1250     2.4060    67.6360    24.0710    10.0500     5.7370     6.5320    -8.0780 
  255.2500     2.4290    67.1120    24.0150    11.5030     5.7170     6.5110    -7.9170 
  255.3750     2.4520    66.3280    23.9440    11.0900     5.6310     6.4200    -7.7300 
  255.5000     2.4650    63.6780    23.8720     9.0060     5.4920     6.2710    -7.5270 
  255.6250     2.4660    60.3180    23.8100     6.8650     5.3200     6.0870    -7.3190 
  255.7500     2.4560    59.0400    23.7510     5.7130     5.1500     5.9050    -7.1220 
  255.8750     2.4370    60.2400    23.7160     5.1460     5.0020     5.7480    -6.9410 
  256.0000     2.4030    61.9640    23.7270     4.7360     4.8920     5.6290    -6.7850 
  256.1250     2.3580    62.0030    23.7790     4.4200     4.8280     5.5610    -6.6650 
  256.2500     2.3170    61.1490    23.7850     4.2530     4.7970     5.5280    -6.5780 
  256.3750     2.2930    61.4940    23.7470     4.2500     4.7880     5.5180    -6.5190 
  256.5000     2.2840    63.9060    23.7030     4.3580     4.7890     5.5200    -6.4770 
  256.6250     2.2800    66.2840    23.6370     4.4820     4.7870     5.5180    -6.4520 
  256.7500     2.2750    66.7260    23.5690     4.5650     4.7730     5.5020    -6.4270 
  256.8750     2.2700    66.1410    23.5300     4.5740     4.7450     5.4730    -6.3990 
  257.0000     2.2660    66.0990    23.5030     4.4890     4.7110     5.4360    -6.3740 
  257.1250     2.2650    66.4260    23.4490     4.3480     4.6840     5.4070    -6.3580 
  257.2500     2.2700    65.9550    23.4030     4.2950     4.6700     5.3920    -6.3550 
  257.3750     2.2810    64.5880    23.4330     4.3930     4.6750     5.3980    -6.3610 
