~V
VERS. 2.00: Ver 2.00
~W
STRT.M 53.0000:
STOP.M 257.0000:
STEP.M 0.1250:
NULL. -999.2500:
UWI. DF5014:
~C
DEPT.M :
GR.API :
RML.OHMM :
RI. :
RXO.OHMM :
CALI.CM :
DEN.GM/CC :
SP.MV :
~A
# ...
   64.2500    41.9500     5.1490     1.0000     1.2080    24.5430     2.3170    59.1880 
   64.3750    43.4480     5.1060     0.9900     1.1520    24.4690     2.3400    58.8870 
   64.5000    44.9000     5.1220     0.9890     1.0950    24.3090     2.3660    58.5590 
   64.6250    45.4910     5.1710     0.9950     1.0680    24.0500     2.3920    58.2080 
   64.7500    45.1550     5.2090     1.0050     1.1110    23.7850     2.4170    57.8020 
   64.8750    44.9970     5.1810     1.0160     1.1820    23.6120     2.4360    57.4660 
   65.0000    45.5940     5.0790     1.0220     1.2330    23.5410     2.4480    57.1550 
   65.1250    46.3120     4.9270     1.0220     1.2570    23.5250     2.4540    56.8710 
   65.2500    45.4180     4.7780     1.0170     1.2620    23.5170     2.4550    56.5440 
   65.3750    42.0740     4.6920     1.0060     1.2560    23.5240     2.4520    56.0180 
   65.5000    41.2720     4.6420     0.9830     1.2140    23.5560     2.4420    55.2620 
   65.6250    43.6010     4.5280     0.9350     1.1350    23.6080     2.4230    54.2140 
   65.7500    46.5060     4.2010     0.8450     1.0060    23.6530     2.4000    52.9360 
   65.8750    46.8330     3.4760     0.6950     0.8360    23.7590     2.3860    51.2300 
   66.0000    45.2130     2.4840     0.5090     0.7180    23.9910     2.3950    49.1310 
   66.1250    44.5190     1.5160     0.3240     0.6110    24.2460     2.4330    46.5870 
   66.2500    45.3050     0.8370     0.1780     0.4660    24.2950     2.4870    43.5370 
   66.3750    47.6160     0.5180     0.0940     0.4480    24.1240     2.5210    39.7920 
   66.5000    51.3580     0.4180     0.0700     0.8310    23.9050     2.5100    35.2660 
   66.6250    55.2650     0.5140     0.1340     1.7150    23.6700     2.4520    29.9480 
   66.7500    58.4620     0.8370     0.3420     3.0620    23.3160     2.3690    23.8520 
   66.8750    61.1340     1.4630     0.8110     5.0860    22.9150     2.2900    17.2980 
   67.0000    64.9300     2.3130     1.5550     6.2010    22.7090     2.2370    10.7750 
   67.1250    68.9860     3.2670     2.5450     6.7240    22.6550     2.2160     4.4490 
   67.2500    70.2760     4.1470     3.6730     7.0770    22.6580     2.2220    -1.4660 
   67.3750    69.0260     4.7770     4.7570     7.5320    22.6940     2.2410    -6.7260 
   67.5000    67.5370     5.2110     5.6670     7.9630    22.7840     2.2510   -11.1580 
   67.6250    66.8390     5.5430     6.3630     8.3160    22.9220     2.2430   -14.6250 
   67.7500    66.7430     5.8280     6.8440     8.5280    23.0440     2.2190   -17.1580 
   67.8750    64.5550     6.0700     7.1100     8.5940    23.0490     2.1890   -18.8080 
   68.0000    61.5210     6.2830     7.2510     8.6810    22.9610     2.1650   -20.0330 
   68.1250    60.9430     6.4950     7.3310     8.7630    22.8390     2.1510   -20.8930 
   68.2500    62.8760     6.7290     7.4010     8.7800    22.7390     2.1470   -21.5410 
   68.3750    65.3860     6.9760     7.4760     8.7070    22.6830     2.1510   -21.9340 
   68.5000    66.1200     7.1730     7.5340     8.6660    22.6400     2.1600   -22.1790 
   68.6250    63.8700     7.2390     7.5380     8.6650    22.5890     2.1720   -22.3520 
   68.7500    61.5440     7.1210     7.4530     8.6870    22.5390     2.1830   -22.4150 
   68.8750    63.6280     6.8080     7.2500     8.6810    22.5190     2.1870   -22.4710 
   69.0000    67.9330     6.4520     6.9930     8.6340    22.5190     2.1810   -22.5220 
   69.1250    68.1210     6.2420     6.8060     8.5490    22.5550     2.1670   -22.6040 
   69.2500    61.8290     6.3830     6.8790     8.6440    22.6970     2.1510   -22.6470 
   69.3750    56.3540     7.1120     7.4860     9.8300    22.9790     2.1540   -22.5650 
   69.5000    55.2210     8.3220     8.5920    13.4240    23.2580     2.1890   -22.3510 
   69.6250    57.6860     9.7780    10.0000    19.5930    23.5210     2.2600   -21.9690 
   69.7500    60.8370    11.0680    11.3230    26.7130    23.8660     2.3500   -21.4390 
   69.8750    66.0260    11.5540    11.9400    32.0880    24.1730     2.4180   -20.7940 
   70.0000    76.8800    11.1100    11.6590    29.1430    24.2910     2.4390   -20.0540 
   70.1250    89.0020    10.0140    10.6430    18.4610    24.3020     2.4210   -19.2770 
   70.2500    95.7020     8.8170     9.3400     9.8250    24.2830     2.3910   -18.4980 
   70.3750    95.5370     7.9920     8.2400     8.0680    24.1890     2.3760   -17.8300 
   70.5000    97.1810     7.5340     7.4960     7.6610    23.9650     2.3750   -17.2960 
   70.6250   103.4570     7.3330     7.0840     7.3900    23.6900     2.3750   -16.8720 
   70.7500   110.1150     7.2830     6.9210     6.6220    23.4930     2.3660   -16.6370 
   70.8750   112.2690     7.3440     6.9430     6.3050    23.4040     2.3440   -16.5210 
   71.0000   110.6740     7.4900     7.0610     6.2910    23.3160     2.3180   -16.5030 
   71.1250   109.4960     7.6990     7.2370     6.4480    23.2010     2.2950   -16.5260 
   71.2500   111.8340     7.9090     7.4190     6.6230    23.0760     2.2780   -16.5760 
   71.3750   112.6330     8.0110     7.5380     6.6850    22.9380     2.2700   -16.7000 
   71.5000   106.9630     7.9840     7.5670     6.7130    22.8220     2.2670   -16.8360 
   71.6250   100.4740     7.8730     7.5230     6.7000    22.7150     2.2680   -17.0590 
   71.7500   101.9530     7.7690     7.4580     6.6030    22.5720     2.2700   -17.2670 
   71.8750   106.6070     7.7860     7.4480     6.4410    22.5530     2.2680   -17.5110 
   72.0000   103.6580     7.9510     7.5270     6.5120    22.7600     2.2620   -17.7920 
   72.1250    95.3500     8.2360     7.6890     6.8030    23.2030     2.2500   -18.1410 
   72.2500    89.1440     8.5670     7.8860     7.1340    23.6480     2.2350   -18.5920 
   72.3750    88.4030     8.8150     8.0200     7.4870    23.7830     2.2220   -19.0070 
   72.5000    88.6970     8.8950     8.0200     7.5720    23.8020     2.2160   -19.3880 
   72.6250    90.5100     8.7900     7.8600     7.4900    23.8220     2.2170   -19.6780 
   72.7500    96.4400     8.5540     7.5710     7.2780    23.8630     2.2230   -19.9170 
   72.8750   102.8400     8.3090     7.2380     7.0630    23.9160     2.2310   -20.1090 
   73.0000   102.1830     8.1790     6.9700     6.9830    23.9200     2.2390   -20.2500 
   73.1250    94.9860     8.2100     6.8300     7.1900    23.8800     2.2460   -20.3530 
   73.2500    88.8860     8.3690     6.8280     7.7830    23.8780     2.2570   -20.3510 
   73.3750    87.9400     8.5990     6.9550     8.8860    23.8710     2.2690   -20.3580 
   73.5000    86.0540     8.9390     7.2090    10.1760    23.8240     2.2760   -20.4090 
   73.6250    81.7360     9.6760     7.7580    11.7150    23.7970     2.2750   -20.5370 
   73.7500    77.4880    11.3440     8.9790    13.8820    23.8390     2.2750   -20.7540 
   73.8750    73.7910    14.7840    11.6010    18.6080    23.9620     2.3020   -20.9400 
   74.0000    70.5740    19.7400    15.6200    30.3780    24.0720     2.3710   -21.1270 
   74.1250    67.3150    25.3320    20.4920    49.8200    24.1500     2.4750   -21.2260 
   74.2500    63.9970    29.8350    24.9150    73.0730    24.2030     2.5830   -21.3220 
   74.3750    60.5540    30.5390    26.5550    86.6320    24.2160     2.6310   -21.4090 
   74.5000    59.4720    27.1740    24.6980    79.6620    24.1450     2.6010   -21.4960 
   74.6250    63.2890    21.2860    20.2480    53.9790    23.8830     2.5110   -21.5650 
   74.7500    68.8230    15.2070    15.2970    26.5230    23.4120     2.3990   -21.6160 
   74.8750    71.1450    10.9680    11.6490    13.6950    23.0270     2.2980   -21.7490 
   75.0000    72.5400     8.6210     9.3670     9.3550    22.9080     2.2240   -21.8850 
   75.1250    75.6050     8.0080     8.1560     8.1800    22.9660     2.1780   -22.1070 
   75.2500    78.8700     8.0710     7.6870     8.0740    23.0450     2.1570   -22.3490 
   75.3750    77.9020     8.4510     7.7230     8.5330    23.0240     2.1520   -22.5640 
