~V
VERS. 2.00: Ver 2.00
~W
STRT.M 60.0000:
STOP.M 259.0000:
STEP.M 0.1250:
NULL. -999.2500:
UWI. DF5006:
~C
DEPT.M :
SP.MV :
GR.API :
RML.OHMM :
RI. :
RXO.OHMM :
CALI.CM :
DEN.GM/CC :
~A
# ...
   93.7500   -19.4490    91.8280     7.3790     6.4500     7.2630    23.8390     2.2360 
   93.8750   -19.1010    87.7980     7.5470     6.4420     7.0580    23.8490     2.2390 
   94.0000   -18.5970    84.1190     7.9350     6.5800     7.3570    23.7570     2.2260 
   94.1250   -17.9440    84.3830     8.3330     6.7740     7.5840    23.7130     2.2110 
   94.2500   -17.1770    91.8500     8.4990     6.8850     7.4140    23.7860     2.2120 
   94.3750   -16.5070   101.8330     8.4110     6.8540     6.7290    23.9420     2.2280 
   94.5000   -15.9880   108.5590     8.1640     6.7020     5.9970    24.1200     2.2500 
   94.6250   -15.5640   109.5980     7.8950     6.4940     5.7240    24.2090     2.2670 
   94.7500   -15.1790   108.7980     7.6860     6.2960     5.8140    24.1680     2.2720 
   94.8750   -14.8250   111.0980     7.5010     6.1120     6.0030    24.0970     2.2740 
   95.0000   -14.5030   114.6650     7.2830     5.9200     6.0710    24.1290     2.2770 
   95.1250   -14.2760   116.0490     7.0080     5.7030     5.6850    24.2230     2.2830 
   95.2500   -14.2620   116.2280     6.7210     5.4780     5.3030    24.2790     2.2890 
   95.3750   -14.3340   117.4590     6.5050     5.2810     5.0890    24.2860     2.2900 
   95.5000   -14.4930   118.7500     6.3930     5.1310     5.1520    24.2360     2.2870 
   95.6250   -14.7460   117.0700     6.3560     5.0240     5.3680    24.0960     2.2860 
   95.7500   -14.9950   112.7790     6.3000     4.9320     5.6570    23.9240     2.2920 
   95.8750   -15.3110   111.5710     6.1560     4.8250     5.7380    23.9060     2.3050 
   96.0000   -15.7640   114.1560     5.9310     4.7110     5.5460    24.0170     2.3210 
   96.1250   -16.3390   117.1580     5.7220     4.6340     5.4910    24.1270     2.3350 
   96.2500   -17.0810   115.2580     5.7440     4.7060     5.7360    24.1080     2.3380 
   96.3750   -17.9720   111.4850     6.1340     5.0060     6.3060    23.9650     2.3320 
   96.5000   -18.9820   106.2140     6.9480     5.5880     7.2120    23.6810     2.3190 
   96.6250   -20.0440    98.5770     8.1120     6.4360     8.5620    23.4330     2.3060 
   96.7500   -21.1910    88.5710     9.4100     7.4350     9.8330    23.4310     2.2910 
   96.8750   -22.2960    80.2060    10.5010     8.3350    10.7090    23.5130     2.2710 
   97.0000   -23.3640    75.8510    11.1430     8.9350    10.8580    23.4340     2.2440 
   97.1250   -24.3100    74.9960    11.2390     9.1250     9.8630    23.1920     2.2100 
   97.2500   -24.9770    74.1700    10.8580     8.9150     9.3940    22.9780     2.1770 
   97.3750   -25.4490    70.3930    10.3550     8.5640     9.2890    22.8240     2.1530 
   97.5000   -25.6220    65.7930     9.9600     8.2480     9.2760    22.6830     2.1400 
   97.6250   -25.5370    63.8440     9.7940     8.0730     9.0860    22.5970     2.1360 
   97.7500   -25.2460    65.2100     9.8960     8.1010     8.8470    22.7080     2.1370 
   97.8750   -24.7830    66.2650    10.1480     8.2710     8.7780    22.9620     2.1370 
   98.0000   -24.0830    68.2230    10.4480     8.5140     8.8920    23.1740     2.1350 
   98.1250   -23.2420    71.9200    10.6900     8.7380     9.2120    23.2570     2.1310 
   98.2500   -22.2820    73.0280    10.7170     8.8040     9.6480    23.2580     2.1310 
   98.3750   -21.1790    71.5800    10.4760     8.6480    10.0470    23.2670     2.1410 
   98.5000   -20.0440    77.0860     9.9730     8.2620    10.2580    23.3460     2.1630 
   98.6250   -18.9450    94.7960     9.2970     7.7060     9.9690    23.4760     2.1960 
   98.7500   -17.9380   110.4180     8.6000     7.0980     8.8330    23.6820     2.2360 
   98.8750   -17.0500   110.5870     8.0090     6.5590     7.5690    23.8900     2.2720 
   99.0000   -16.3770   103.6110     7.5750     6.1440     6.7660    24.0470     2.3020 
   99.1250   -15.9060   103.0120     7.3040     5.8640     6.3450    24.1550     2.3230 
   99.2500   -15.6860   110.1420     7.2270     5.7340     6.0780    24.2000     2.3300 
   99.3750   -15.7810   113.2460     7.3530     5.7400     5.9920    24.2310     2.3220 
   99.5000   -16.1360   110.2550     7.7210     5.9120     6.0350    24.2510     2.3020 
   99.6250   -16.7540   104.1560     8.3300     6.2800     6.2810    24.2540     2.2770 
   99.7500   -17.6090    96.0450     9.1160     6.8510     6.7470    24.1910     2.2630 
   99.8750   -18.6030    87.2910     9.8820     7.5020     7.4370    24.0090     2.2610 
  100.0000   -19.7040    80.0260    10.4530     8.0940     8.3730    23.6990     2.2670 
  100.1250   -20.8130    76.4910    10.7000     8.4890     9.3320    23.3120     2.2670 
  100.2500   -21.9340    74.6660    10.5750     8.5790     9.9170    23.0850     2.2540 
  100.3750   -22.9830    72.5950    10.3020     8.4750    10.1230    22.9880     2.2330 
  100.5000   -23.9390    71.0990    10.0890     8.3150    10.2340    22.9610     2.2150 
  100.6250   -24.8230    70.7610    10.0890     8.2260    10.4010    22.9640     2.2060 
  100.7500   -25.5230    69.5490    10.3690     8.2950    10.7630    22.9940     2.2040 
  100.8750   -26.0860    65.3980    10.7760     8.4740    11.2140    23.0070     2.2020 
  101.0000   -26.5300    61.5360    11.1590     8.6930    11.5530    23.0110     2.1960 
  101.1250   -26.8800    60.7450    11.4050     8.8820    11.6190    23.0180     2.1860 
  101.2500   -27.1100    62.5000    11.4540     8.9840    11.5350    23.0410     2.1730 
  101.3750   -27.2730    63.5640    11.3830     9.0080    11.4630    23.0710     2.1620 
  101.5000   -27.3680    63.1190    11.2620     8.9740    11.4240    23.0760     2.1560 
  101.6250   -27.3620    62.8380    11.1440     8.9100    11.4090    23.0570     2.1540 
  101.7500   -27.3280    61.7190    11.0370     8.8340    11.3870    23.0290     2.1540 
  101.8750   -27.2550    60.4280    10.9170     8.7540    11.3510    23.0310     2.1540 
  102.0000   -27.1270    59.6430    10.7730     8.6730    11.2380    23.0620     2.1530 
  102.1250   -27.0080    59.8350    10.6180     8.5950    11.0320    23.0930     2.1520 
  102.2500   -26.9160    62.1820    10.4980     8.5370    10.9140    23.0900     2.1520 
  102.3750   -26.8740    65.1840    10.4530     8.5120    10.7930    23.0680     2.1560 
  102.5000   -26.8810    65.8760    10.5030     8.5310    10.7450    23.0200     2.1630 
  102.6250   -26.9410    61.9510    10.6420     8.5960    10.8730    22.9710     2.1720 
  102.7500   -26.9970    58.6960    10.8300     8.7030    11.0700    22.9490     2.1810 
  102.8750   -27.0930    60.8460    10.9960     8.8300    11.2300    22.9500     2.1880 
  103.0000   -27.2080    65.0960    11.1000     8.9570    11.2870    22.9800     2.1910 
  103.1250   -27.2770    65.4030    11.1360     9.0700    11.2240    23.0550     2.1910 
  103.2500   -27.3540    60.3160    11.1290     9.1560    11.1400    23.1440     2.1860 
  103.3750   -27.3280    56.1940    11.1080     9.2120    11.0830    23.1960     2.1810 
  103.5000   -27.1930    55.9120    11.0610     9.2280    11.0310    23.2170     2.1770 
  103.6250   -26.9410    57.7970    10.9510     9.1850    11.0300    23.2340     2.1780 
  103.7500   -26.4790    59.0620    10.7220     9.0350    10.9320    23.2750     2.1840 
  103.8750   -25.8640    59.7040    10.3840     8.7690    10.6770    23.3170     2.1930 
  104.0000   -25.1300    62.6430     9.9580     8.3900    10.2340    23.3640     2.2040 
  104.1250   -24.2860    69.6120     9.4830     7.9280     9.6270    23.4270     2.2150 
  104.2500   -23.3670    79.3410     9.0130     7.4360     8.9450    23.5290     2.2280 
  104.3750   -22.4490    86.8170     8.6040     6.9810     8.2140    23.6530     2.2440 
  104.5000   -21.6260    90.9510     8.2940     6.6070     7.6340    23.7490     2.2610 
  104.6250   -21.0020    94.9220     8.0890     6.3360     7.0550    23.7790     2.2740 
  104.7500   -20.6760    98.1860     7.9680     6.1940     7.0090    23.7310     2.2740 
  104.8750   -20.5960    94.5500     7.8990     6.1670     7.3250    23.6410     2.2570 
