~V
VERS. 2.00: Ver 2.00
~W
STRT.M 65.0000:
STOP.M 258.0000:
STEP.M 0.1250:
NULL. -999.2500:
UWI. DF5030:
~C
DEPT.M :
SP.MV :
GR.API :
RML.OHMM :
RI. :
RXO.OHMM :
CALI.CM :
DEN.GM/CC :
~A
# ...
  121.2500   -21.4350   117.2030     5.2360     4.5870     4.9680    24.3390     2.2910 
  121.3750   -21.5650   112.3810     5.4650     4.8100     5.2850    24.3260     2.2700 
  121.5000   -21.7190   107.7010     5.7080     5.0420     5.5730    24.2810     2.2470 
  121.6250   -21.8410   106.5180     5.9720     5.2710     5.8700    24.2020     2.2290 
  121.7500   -21.9240   108.3750     6.2450     5.4850     6.2040    24.1350     2.2190 
  121.8750   -22.0200   106.8260     6.4650     5.6510     6.4500    24.1000     2.2160 
  122.0000   -22.1100   101.0650     6.5600     5.7350     6.5630    24.0890     2.2170 
  122.1250   -22.1080    95.5100     6.4780     5.6990     6.5350    24.0830     2.2200 
  122.2500   -21.9970    94.9420     6.2130     5.5320     6.3410    24.0820     2.2250 
  122.3750   -21.8110   102.6170     5.8210     5.2520     5.9860    24.1220     2.2330 
  122.5000   -21.6670   113.8070     5.4430     4.9550     5.4910    24.1610     2.2470 
  122.6250   -21.5740   121.9660     5.1840     4.7210     5.0370    24.2030     2.2640 
  122.7500   -21.4900   124.2110     5.1030     4.6080     4.7820    24.2370     2.2810 
  122.8750   -21.3730   122.1920     5.2240     4.6580     4.9390    24.2020     2.2870 
  123.0000   -21.2830   118.2360     5.4640     4.8170     5.3360    24.0690     2.2830 
  123.1250   -21.3070   110.6940     5.7650     5.0440     5.7270    23.8420     2.2720 
  123.2500   -21.3930   100.3490     6.0860     5.3030     5.9380    23.6370     2.2620 
  123.3750   -21.4840    98.8420     6.3950     5.5680     5.9880    23.6490     2.2540 
  123.5000   -21.5180   108.8750     6.6620     5.8180     5.9500    23.7760     2.2470 
  123.6250   -21.4920   118.0480     6.8440     6.0250     6.0480    23.8180     2.2360 
  123.7500   -21.4600   114.7980     6.8860     6.1430     6.3960    23.7100     2.2240 
  123.8750   -21.4460   103.0600     6.7240     6.1040     6.6720    23.6800     2.2170 
  124.0000   -21.4140   100.6090     6.4100     5.9240     6.5150    23.7470     2.2200 
  124.1250   -21.3000   108.4560     6.0190     5.6500     6.0420    23.8980     2.2310 
  124.2500   -21.1360   113.4460     5.6370     5.3570     5.6380    24.0970     2.2450 
  124.3750   -20.9850   104.8750     5.3400     5.1270     5.4010    24.1660     2.2540 
  124.5000   -20.9010    97.0400     5.1260     4.9770     5.3490    24.1690     2.2590 
  124.6250   -20.9000    97.9900     4.9760     4.8900     5.3310    24.1560     2.2620 
  124.7500   -20.9410   103.3470     4.8710     4.8380     5.1850    24.1540     2.2660 
  124.8750   -20.9780   105.1530     4.8350     4.8160     5.1590    24.1520     2.2740 
  125.0000   -21.0270   104.0140     4.9070     4.8530     5.1370    24.1310     2.2820 
  125.1250   -21.1440   101.1180     5.1450     4.9990     5.2800    24.0680     2.2900 
  125.2500   -21.3070    97.8960     5.5710     5.2880     5.6460    23.9660     2.2960 
  125.3750   -21.5070    93.6710     6.1490     5.7090     6.0970    23.9160     2.2980 
  125.5000   -21.7070    89.7140     6.6950     6.1310     6.5890    23.8810     2.2950 
  125.6250   -21.8750    86.8990     7.0210     6.4080     7.1390    23.8590     2.2870 
  125.7500   -21.9910    85.4380     6.9770     6.4100     7.4000    23.8840     2.2770 
  125.8750   -22.0690    82.0020     6.4960     6.0440     7.2400    23.8980     2.2660 
  126.0000   -22.1010    80.1980     5.8480     5.4860     6.6500    23.8370     2.2600 
  126.1250   -22.0780    88.4000     5.3650     4.9640     5.8150    23.7920     2.2610 
  126.2500   -22.0640   102.6750     5.4220     4.7580     5.4590    23.8080     2.2730 
  126.3750   -22.1130   108.1810     6.5070     5.2670     6.7110    23.8680     2.3040 
  126.5000   -22.2230   101.0850     8.5690     6.5490    10.9280    23.9040     2.3520 
  126.6250   -22.3920    84.1040    11.3310     8.5110    18.0450    23.9490     2.4110 
  126.7500   -22.6130    67.1200    14.1460    10.7740    25.9670    24.0500     2.4650 
  126.8750   -22.8960    58.7520    15.8530    12.5360    32.0350    24.0500     2.4840 
  127.0000   -23.2630    56.1500    15.8930    13.1780    29.4520    23.9390     2.4550 
  127.1250   -23.6910    56.0890    14.4230    12.5830    18.7790    23.7640     2.3850 
  127.2500   -24.1330    59.1180    12.2930    11.2300    11.0000    23.6160     2.2990 
  127.3750   -24.4950    64.4450    10.5190     9.8750     9.0030    23.5610     2.2300 
  127.5000   -24.7370    66.0630     9.4090     8.9230     8.4520    23.5880     2.1900 
  127.6250   -24.8570    62.8410     8.8600     8.3960     8.3190    23.6000     2.1780 
  127.7500   -24.8840    61.2630     8.6700     8.1860     8.2940    23.5290     2.1820 
  127.8750   -24.8960    64.5940     8.6940     8.1780     8.3130    23.5220     2.1890 
  128.0000   -24.8930    69.5090     8.8060     8.2420     8.2810    23.5610     2.1900 
  128.1250   -24.8720    76.7190     8.9650     8.3330     8.2650    23.6180     2.1880 
  128.2500   -24.8170    82.5510     9.1320     8.4300     8.4080    23.6890     2.1860 
  128.3750   -24.7540    82.9140     9.2640     8.5190     8.7370    23.7010     2.1880 
  128.5000   -24.6890    79.6970     9.3510     8.5940     9.1750    23.6740     2.1930 
  128.6250   -24.6600    75.0260     9.4150     8.6570     9.5980    23.5950     2.1980 
  128.7500   -24.6830    73.1510     9.4990     8.7170     9.9140    23.4690     2.2030 
  128.8750   -24.7240    74.3260     9.6460     8.7860    10.0050    23.4060     2.2080 
  129.0000   -24.7800    78.4480     9.8430     8.8630     9.9670    23.3680     2.2160 
  129.1250   -24.8500    79.8680    10.0580     8.9390    10.0390    23.3290     2.2260 
  129.2500   -24.9210    75.5050    10.2650     9.0070    10.1310    23.3230     2.2340 
  129.3750   -24.9430    71.4840    10.4860     9.0930    10.2740    23.4010     2.2340 
  129.5000   -24.9850    69.2280    10.7920     9.2510    10.5200    23.5610     2.2250 
  129.6250   -25.0670    65.6110    11.2400     9.5300    11.6600    23.7030     2.2140 
  129.7500   -25.1530    61.3090    11.8210     9.9350    14.6080    23.8380     2.2110 
  129.8750   -25.1740    59.6820    12.3920    10.3850    19.4920    23.9540     2.2260 
  130.0000   -25.0980    58.0920    12.7280    10.7130    24.6850    23.9710     2.2540 
  130.1250   -24.9480    54.2920    12.6640    10.7790    27.8030    23.9580     2.2790 
  130.2500   -24.7800    52.0000    12.1660    10.5190    24.9800    23.9230     2.2870 
  130.3750   -24.6660    55.7650    11.3510     9.9710    17.6540    23.8370     2.2670 
  130.5000   -24.5730    60.2870    10.5170     9.3530    12.5510    23.7550     2.2360 
  130.6250   -24.4340    62.5790     9.8250     8.8120    10.1850    23.7090     2.2080 
  130.7500   -24.2610    65.4310     9.3290     8.4240     9.4850    23.6940     2.1910 
  130.8750   -24.1160    72.1680     9.0220     8.2050     9.4200    23.7050     2.1860 
  131.0000   -24.0140    76.8110     8.8070     8.0710     9.2970    23.7420     2.1850 
  131.1250   -23.9390    75.7830     8.6310     7.9540     8.8960    23.7480     2.1880 
  131.2500   -23.8890    74.3040     8.4390     7.7980     8.3230    23.7000     2.1930 
  131.3750   -23.8280    80.3100     8.1540     7.5430     7.8700    23.5800     2.2000 
  131.5000   -23.7300    89.2280     7.7500     7.1900     7.5090    23.4560     2.2110 
  131.6250   -23.6240    91.2990     7.2550     6.7670     7.1540    23.3580     2.2230 
  131.7500   -23.5110    88.1390     6.7590     6.3410     6.7720    23.3200     2.2360 
  131.8750   -23.4010    89.1040     6.4300     6.0250     6.3380    23.3310     2.2420 
  132.0000   -23.3310    91.6650     6.3660     5.8890     6.0570    23.3650     2.2390 
  132.1250   -23.3380    89.6650     6.5990     5.9710     6.2990    23.3610     2.2280 
  132.2500   -23.3950    80.2520     7.0830     6.2600     6.9720    23.3030     2.2130 
  132.3750   -23.4300    71.5040     7.7190     6.7160     7.6750    23.2820     2.2030 
