~V
VERS. 2.00: Ver 2.00
~W
STRT.M 60.0000:
STOP.M 251.0000:
STEP.M 0.1250:
NULL. -999.2500:
UWI. DF5053:
~C
DEPT.M :
GR.API :
RML.OHMM :
RI. :
RXO.OHMM :
CALI.CM :
DEN.GM/CC :
SP.MV :
~A
# ...
   71.2500    86.8250     7.2800     6.4060     9.6250    21.9180     2.1840   -29.4490 
   71.3750    88.6250     6.8750     6.1450     8.9300    22.2250     2.2010   -27.9080 
   71.5000    96.0010     6.4050     5.8250     7.9470    22.8550     2.2220   -26.3890 
   71.6250   103.6870     5.9870     5.5200     6.9660    22.9900     2.2440   -25.0060 
   71.7500   110.2430     5.6960     5.2890     6.2960    22.6970     2.2670   -23.7870 
   71.8750   113.4010     5.5510     5.1620     6.0570    22.3960     2.2900   -22.7140 
   72.0000   113.6730     5.5360     5.1440     6.0100    22.4220     2.3090   -21.8080 
   72.1250   116.9510     5.5730     5.1860     5.9810    22.7460     2.3230   -21.1550 
   72.2500   123.5310     5.6270     5.2610     6.0370    23.1960     2.3280   -20.8310 
   72.3750   126.8450     5.6910     5.3540     6.2040    23.4650     2.3240   -20.8220 
   72.5000   123.6910     5.7990     5.4750     6.3810    23.3580     2.3090   -21.0540 
   72.6250   118.8090     5.9700     5.6320     6.6740    23.0350     2.2880   -21.3600 
   72.7500   115.0990     6.1930     5.8180     7.1350    22.6980     2.2630   -21.7060 
   72.8750   111.9990     6.4260     6.0100     7.6670    22.4690     2.2400   -22.0920 
   73.0000   109.0210     6.5970     6.1600     7.9200    22.3240     2.2260   -22.5170 
   73.1250   106.6350     6.6690     6.2400     7.8280    22.2450     2.2270   -22.8590 
   73.2500   106.0100     6.6330     6.2320     7.5110    22.2620     2.2420   -23.0220 
   73.3750   107.1430     6.5160     6.1390     7.1050    22.4320     2.2680   -23.0450 
   73.5000   107.7560     6.3620     5.9770     6.8380    22.7350     2.2930   -23.0500 
   73.6250   107.6150     6.2150     5.7880     6.7250    23.0290     2.3070   -23.0970 
   73.7500   109.4120     6.0840     5.5940     6.6500    23.3760     2.3040   -23.1540 
   73.8750   113.1720     5.9640     5.4130     6.8340    23.6330     2.2860   -23.2220 
   74.0000   113.2980     5.8550     5.2660     7.3640    23.4720     2.2560   -23.3090 
   74.1250   108.3950     5.7980     5.1770     7.9990    23.0420     2.2210   -23.4580 
   74.2500   101.3310     5.9080     5.2040     8.5150    22.5900     2.1840   -23.6790 
   74.3750    96.5720     6.4150     5.4700     8.8730    22.2950     2.1520   -23.9000 
   74.5000    92.0730     7.8370     6.3030     9.9400    22.1890     2.1470   -23.8990 
   74.6250    85.4920    10.3660     7.8980    11.9760    22.1270     2.1830   -23.6110 
   74.7500    79.2390    13.9190    10.3270    14.9000    22.0370     2.2640   -23.0890 
   74.8750    75.6980    17.8430    13.2920    18.9840    22.1500     2.3780   -22.4240 
   75.0000    76.2740    20.5910    15.8550    24.1360    22.6250     2.4860   -21.6950 
   75.1250    79.9430    20.9300    16.9440    28.5160    23.1400     2.5510   -20.9230 
   75.2500    86.9470    18.4940    15.9740    30.6070    23.5490     2.5590   -20.1320 
   75.3750    97.4740    14.2290    13.2950    28.2260    23.7950     2.5220   -19.3910 
   75.5000   109.3750    10.0620    10.1350    19.1430    23.9890     2.4650   -18.8920 
   75.6250   119.4720     7.1390     7.5900    10.1570    24.1480     2.4120   -18.6590 
   75.7500   125.1260     5.4650     5.8770     6.0540    24.2070     2.3740   -18.6400 
   75.8750   126.5760     4.6660     4.8710     4.9700    24.1970     2.3540   -18.7930 
   76.0000   125.0530     4.4280     4.4290     4.8810    24.1690     2.3490   -19.1290 
   76.1250   122.6230     4.4500     4.3040     4.9190    24.1330     2.3500   -19.6810 
   76.2500   121.0840     4.7010     4.4370     5.0210    23.9770     2.3580   -20.4220 
   76.3750   121.3640     5.2460     4.8360     5.3950    23.5990     2.3760   -21.2720 
   76.5000   118.5390     6.2220     5.5820     6.5440    23.1230     2.4060   -22.2130 
   76.6250   108.6610     7.5130     6.5920     8.4140    23.0050     2.4300   -23.2710 
   76.7500    94.2150     8.9040     7.7270    10.6380    23.2050     2.4300   -24.4930 
   76.8750    80.0650    10.0680     8.7520    12.4490    23.5620     2.3950   -25.8190 
   77.0000    68.0510    10.5820     9.3330    12.3500    23.9050     2.3280   -27.1120 
   77.1250    60.1030    10.4770     9.4270    10.6190    24.2460     2.2580   -28.2670 
   77.2500    60.3000     9.9830     9.1590     9.8850    24.5170     2.2050   -29.3260 
   77.3750    67.5150     9.4450     8.7660     9.9740    24.7050     2.1750   -30.3360 
   77.5000    71.4520     9.1710     8.4880    10.2090    24.8400     2.1660   -31.2490 
   77.6250    68.4040     9.1740     8.3880    10.3460    24.8910     2.1650   -32.0120 
   77.7500    64.3380     9.3670     8.4340    10.4700    24.8730     2.1680   -32.5690 
   77.8750    64.0990     9.6380     8.5590    10.6940    24.8410     2.1730   -32.9490 
   78.0000    66.2990     9.8950     8.7000    11.1790    24.8190     2.1770   -33.2340 
   78.1250    65.6290    10.1030     8.8200    11.3580    24.8210     2.1800   -33.5260 
   78.2500    59.7540    10.2620     8.9090    11.3710    24.8670     2.1800   -33.8040 
   78.3750    53.5460    10.3880     8.9700    11.3730    24.9680     2.1760   -34.0360 
   78.5000    57.1960    10.4910     9.0070    11.5650    25.1030     2.1680   -34.2340 
   78.6250    65.1760    10.5680     9.0240    11.9610    25.1370     2.1610   -34.4420 
   78.7500    66.2470    10.6000     9.0120    12.3410    25.0420     2.1580   -34.7180 
   78.8750    57.7360    10.5760     8.9620    12.4390    24.8100     2.1600   -35.0430 
   79.0000    50.9400    10.5130     8.8830    12.3060    24.6450     2.1620   -35.3910 
   79.1250    51.3770    10.4750     8.8150    12.1490    24.7240     2.1600   -35.6970 
   79.2500    54.3180    10.5170     8.7960    12.1770    24.8420     2.1510   -35.9880 
   79.3750    58.1520    10.6660     8.8510    12.5380    24.7900     2.1390   -36.3260 
   79.5000    60.1020    10.9070     8.9850    13.2570    24.6140     2.1300   -36.6750 
   79.6250    58.1830    11.1540     9.1450    14.1040    24.5120     2.1270   -36.9610 
   79.7500    55.0580    11.3350     9.2740    14.7680    24.4950     2.1310   -37.1040 
   79.8750    56.0330    11.3980     9.3260    14.9480    24.4340     2.1400   -37.1440 
   80.0000    60.8020    11.3120     9.2600    14.6880    24.3640     2.1510   -37.1140 
   80.1250    63.1780    11.1290     9.1070    14.1950    24.3430     2.1620   -37.0680 
   80.2500    62.3690    10.8990     8.9000    13.6150    24.3440     2.1700   -36.9990 
   80.3750    59.0710    10.6740     8.6860    13.1750    24.3510     2.1780   -36.8880 
   80.5000    56.3760    10.5170     8.5180    13.1790    24.3680     2.1830   -36.7390 
   80.6250    57.8550    10.4670     8.4320    13.2770    24.3940     2.1850   -36.6320 
   80.7500    60.2450    10.5500     8.4510    13.3930    24.4230     2.1820   -36.6810 
   80.8750    57.2190    10.7680     8.5860    13.8520    24.4710     2.1770   -36.8700 
   81.0000    50.5320    11.0970     8.8280    14.6590    24.5140     2.1730   -37.1620 
   81.1250    48.2190    11.4420     9.1090    15.6670    24.5310     2.1720   -37.4690 
   81.2500    50.1020    11.7180     9.3680    16.6430    24.5230     2.1740   -37.7160 
   81.3750    51.2560    11.8580     9.5440    17.2380    24.4920     2.1750   -37.8470 
   81.5000    48.6940    11.8080     9.5780    17.2340    24.4470     2.1740   -37.8960 
   81.6250    48.5690    11.6260     9.4960    16.8830    24.4260     2.1740   -37.8600 
   81.7500    53.5720    11.3760     9.3350    16.1650    24.3750     2.1770   -37.6130 
   81.8750    60.7250    11.1270     9.1440    15.1000    24.3120     2.1840   -37.1400 
   82.0000    60.7120    10.9350     8.9730    14.3530    24.2600     2.1920   -36.5200 
   82.1250    56.0620    10.8000     8.8390    13.8770    24.2060     2.1950   -35.8950 
   82.2500    56.3940    10.7070     8.7410    13.9030    24.1920     2.1900   -35.3110 
   82.3750    63.5270    10.6390     8.6740    14.0380    24.2630     2.1750   -34.7660 
