~V
VERS. 2.00: Ver 2.00
~W
STRT.M 60.0000:
STOP.M 277.0000:
STEP.M 0.1250:
NULL. -999.2500:
UWI. DF5010:
~C
DEPT.M :
GR.API :
CALI.CM :
RXO.OHMM :
RI. :
RML.OHMM :
SP.MV :
DEN.GM/CC :
~A
# ...
   71.2500    78.3680    23.7710     6.8340     5.3330     5.9350   -55.7230     2.2060 
   71.3750    76.2780    23.8090     7.0310     5.4490     6.0790   -55.7400     2.2030 
   71.5000    75.3050    23.8040     7.8010     5.6230     6.2840   -55.6440     2.1820 
   71.6250    74.4860    23.8040     8.3760     5.7930     6.4600   -55.5910     2.1580 
   71.7500    71.2890    23.8030     8.3990     5.8870     6.5280   -55.5650     2.1480 
   71.8750    66.2920    23.8090     8.0970     5.8710     6.4650   -55.5070     2.1520 
   72.0000    63.7960    23.8160     7.6060     5.7580     6.3000   -55.4190     2.1650 
   72.1250    66.3350    23.7490     7.1460     5.5930     6.1000   -55.1940     2.1760 
   72.2500    71.1230    23.5920     6.7820     5.4410     5.9390   -54.9670     2.1820 
   72.3750    75.1330    23.4230     6.5750     5.3360     5.8460   -54.6710     2.1800 
   72.5000    76.6240    23.3360     6.4150     5.2870     5.8200   -54.4550     2.1710 
   72.6250    76.5450    23.3410     6.1830     5.2960     5.8520   -54.2230     2.1590 
   72.7500    77.0020    23.3610     6.3790     5.3420     5.9160   -53.9880     2.1500 
   72.8750    77.2600    23.3840     6.7950     5.4130     6.0000   -53.6570     2.1420 
   73.0000    76.1220    23.4120     6.8720     5.4990     6.0950   -53.3380     2.1370 
   73.1250    73.8120    23.4280     6.4490     5.5950     6.1970   -53.2360     2.1370 
   73.2500    72.4690    23.4380     6.4760     5.6920     6.2990   -53.0790     2.1410 
   73.3750    73.4080    23.4710     6.6120     5.7860     6.3920   -52.8120     2.1440 
   73.5000    77.6460    23.5340     6.7200     5.8730     6.4700   -52.5820     2.1420 
   73.6250    83.9530    23.6000     6.8320     5.9480     6.5180   -52.3960     2.1380 
   73.7500    87.0140    23.6430     6.9590     6.0060     6.5320   -52.1640     2.1420 
   73.8750    84.7220    23.6620     7.1560     6.0430     6.5130   -51.9870     2.1520 
   74.0000    80.0940    23.6680     7.3990     6.0560     6.4650   -51.8190     2.1580 
   74.1250    77.6940    23.6740     7.3890     6.0340     6.3800   -51.4790     2.1580 
   74.2500    77.0010    23.7070     7.1630     5.9760     6.2630   -51.1060     2.1570 
   74.3750    78.3070    23.7750     7.0280     5.8840     6.1180   -50.8830     2.1570 
   74.5000    81.2050    23.8530     7.0120     5.7680     5.9620   -50.5020     2.1610 
   74.6250    87.1280    23.9250     6.7980     5.6520     5.8260   -49.9880     2.1730 
   74.7500    94.6500    24.0430     6.4160     5.5520     5.7290   -49.4830     2.1930 
   74.8750   101.0700    24.2410     6.1840     5.4730     5.6730   -49.0930     2.2150 
   75.0000   104.0120    24.4660     6.3620     5.4020     5.6370   -48.6960     2.2260 
   75.1250   102.3560    24.6030     6.7860     5.3020     5.5790   -48.3810     2.2240 
   75.2500   100.7570    24.6470     6.7280     5.1470     5.4540   -48.0800     2.2260 
   75.3750   101.7720    24.6480     6.0800     4.9180     5.2320   -47.7250     2.2450 
   75.5000   105.1580    24.6460     5.4050     4.6250     4.9180   -47.4640     2.2730 
   75.6250   110.6960    24.6460     5.2660     4.3360     4.6030   -47.4690     2.2910 
   75.7500   116.0350    24.6460     5.1860     4.1760     4.4640   -47.5370     2.2970 
   75.8750   116.7700    24.6460     5.3140     4.2870     4.7090   -47.5370     2.3090 
   76.0000   108.8880    24.6460     5.7790     4.8520     5.6300   -47.5130     2.3460 
   76.1250    95.7980    24.6470     8.5680     6.3210     7.8960   -47.5510     2.4170 
   76.2500    86.3620    24.6470    17.0350     9.0180    11.8330   -47.7570     2.5030 
   76.3750    79.7530    24.6310    27.0890    13.2710    17.5620   -48.0410     2.5810 
   76.5000    72.6550    24.5820    32.9870    18.7520    24.1780   -48.4520     2.6310 
   76.6250    68.6180    24.5260    34.9250    23.0050    28.2400   -48.8050     2.6400 
   76.7500    71.5610    24.4820    33.2020    23.3920    27.2860   -49.2300     2.6150 
   76.8750    77.7060    24.3860    27.2140    20.2530    22.4340   -49.6510     2.5580 
   77.0000    81.1220    24.1860    19.1900    15.9760    16.8150   -50.2030     2.4710 
   77.1250    80.0340    23.9590    13.3640    12.5080    12.7380   -50.8650     2.3680 
   77.2500    76.6720    23.8290    10.1900    10.1270    10.2150   -51.3470     2.2760 
   77.3750    74.8740    23.8000     8.9820     8.6690     8.8750   -51.8330     2.2060 
   77.5000    76.0530    23.8050     8.6190     7.9120     8.3240   -52.2530     2.1560 
   77.6250    78.4240    23.7990     8.5020     7.6890     8.2560   -52.5120     2.1290 
   77.7500    78.8050    23.7870     8.4830     7.6940     8.3160   -52.7220     2.1260 
   77.8750    77.3460    23.7450     8.3770     7.7570     8.3400   -52.9140     2.1450 
   78.0000    76.4280    23.6130     8.2260     7.7720     8.2590   -52.9110     2.1750 
   78.1250    76.5620    23.3250     8.0530     7.6930     8.0720   -52.8240     2.1900 
   78.2500    76.4360    22.9710     8.0840     7.5630     7.8580   -52.7530     2.1800 
   78.3750    75.8710    22.6840     8.2250     7.4240     7.6720   -52.5760     2.1520 
   78.5000    73.6330    22.5380     8.4950     7.3080     7.5480   -52.4720     2.1200 
   78.6250    70.3810    22.5160     8.7970     7.2290     7.5000   -52.4600     2.1020 
   78.7500    71.2500    22.5230     9.0130     7.1810     7.5030   -52.2830     2.1010 
   78.8750    77.2730    22.5240     8.9540     7.1550     7.5360   -52.2110     2.1130 
   79.0000    81.9670    22.5240     8.7720     7.1430     7.5760   -52.2650     2.1280 
   79.1250    78.1560    22.5210     8.7190     7.1280     7.5950   -52.2160     2.1330 
   79.2500    71.5820    22.5280     8.7170     7.0980     7.5820   -52.2680     2.1260 
   79.3750    67.9090    22.6010     8.6870     7.0490     7.5380   -52.3240     2.1170 
   79.5000    68.4420    22.7710     8.4510     6.9870     7.4800   -52.3560     2.1150 
   79.6250    72.2320    23.0530     8.3670     6.9260     7.4320   -52.3720     2.1210 
   79.7500    75.2180    23.4500     8.2890     6.8800     7.4120   -52.4140     2.1260 
   79.8750    74.3040    23.9090     8.2470     6.8490     7.4130   -52.3970     2.1240 
   80.0000    69.9460    24.2790     8.1080     6.8210     7.4130   -52.3320     2.1190 
   80.1250    65.3870    24.4110     7.9450     6.7730     7.3810   -52.2750     2.1240 
   80.2500    63.1860    24.4180     7.8450     6.7040     7.3260   -52.1730     2.1420 
   80.3750    66.9740    24.4100     7.6390     6.6310     7.2740   -52.1120     2.1660 
   80.5000    75.8050    24.4110     7.3950     6.5820     7.2590   -52.0510     2.1840 
   80.6250    81.8920    24.4110     7.1280     6.5890     7.3140   -51.9550     2.1840 
   80.7500    82.3420    24.4110     7.4290     6.6470     7.4230   -51.9690     2.1630 
   80.8750    79.1710    24.4110     7.7800     6.7330     7.5560   -52.0060     2.1270 
   81.0000    74.4400    24.4110     7.6810     6.8120     7.6670   -52.0570     2.0930 
   81.1250    68.4490    24.4110     7.6070     6.8360     7.6960   -52.1780     2.0810 
   81.2500    65.5700    24.4110     7.7000     6.7970     7.6460   -52.2010     2.0840 
   81.3750    67.1090    24.4110     7.8650     6.7380     7.5810   -52.2470     2.0920 
   81.5000    68.9330    24.4100     7.9920     6.7420     7.6150   -52.2160     2.1050 
   81.6250    69.1320    24.4130     8.0670     6.9130     7.8700   -52.1210     2.1380 
   81.7500    68.6200    24.4110     8.1490     7.2320     8.3000   -52.0330     2.1960 
   81.8750    67.5140    24.3550     8.2200     7.6290     8.7940   -51.8990     2.2740 
   82.0000    67.0030    24.2080     8.1680     7.9700     9.1790   -51.6910     2.3530 
   82.1250    71.4260    24.0180     8.0570     8.0680     9.2340   -51.5020     2.3810 
   82.2500    77.3550    23.8830     8.0730     7.9070     8.9880   -51.4110     2.3440 
   82.3750    78.4470    23.8240     8.1140     7.5700     8.5710   -51.3010     2.2630 
