~V
VERS. 2.00: Ver 2.00
~W
STRT.M 60.0000:
STOP.M 277.0000:
STEP.M 0.1250:
NULL. -999.2500:
UWI. DF5010:
~C
DEPT.M :
GR.API :
CALI.CM :
RXO.OHMM :
RI. :
RML.OHMM :
SP.MV :
DEN.GM/CC :
~A
# ...
   82.5000    73.5000    23.8050     8.2300     7.1880     8.1490   -51.2770     2.1860 
   82.6250    67.4930    23.8030     8.2920     6.8950     7.8750   -51.2720     2.1500 
   82.7500    63.6900    23.8040     8.4820     6.7330     7.7590   -51.1610     2.1410 
   82.8750    62.7710    23.8040     8.4910     6.6880     7.7530   -51.1320     2.1440 
   83.0000    64.8650    23.8040     8.4010     6.7090     7.7860   -51.1420     2.1470 
   83.1250    69.7730    23.8040     8.3690     6.7500     7.8180   -51.0750     2.1440 
   83.2500    73.2120    23.8040     8.3840     6.7910     7.8470   -50.9840     2.1400 
   83.3750    73.3030    23.8040     8.4010     6.8270     7.8730   -50.8970     2.1410 
   83.5000    70.4640    23.8040     8.4270     6.8560     7.8930   -50.7340     2.1480 
   83.6250    68.9200    23.8040     8.4950     6.8780     7.9020   -50.5520     2.1530 
   83.7500    70.3830    23.8040     8.6650     6.8960     7.9080   -50.4620     2.1500 
   83.8750    72.0670    23.8040     8.7130     6.9120     7.9180   -50.2990     2.1400 
   84.0000    71.3000    23.8050     8.5060     6.9240     7.9300   -50.0870     2.1270 
   84.1250    69.1940    23.8110     8.3720     6.9200     7.9300   -49.8310     2.1210 
   84.2500    68.4230    23.8170     8.4160     6.9090     7.9290   -49.6240     2.1230 
   84.3750    69.7960    23.8210     8.3610     6.9290     7.9680   -49.2970     2.1290 
   84.5000    71.1910    23.8210     8.2790     7.0190     8.0880   -48.9280     2.1350 
   84.6250    71.1280    23.8210     8.3360     7.1890     8.2910   -48.6890     2.1470 
   84.7500    70.1250    23.8210     8.8130     7.3750     8.4900   -48.2630     2.1740 
   84.8750    69.2450    23.8210    10.3830     7.5000     8.5890   -47.8190     2.2110 
   85.0000    67.7410    23.8210    10.9110     7.4980     8.5130   -47.4150     2.2350 
   85.1250    63.9080    23.8210     9.7660     7.3490     8.2620   -46.9240     2.2180 
   85.2500    61.3850    23.8210     8.1360     7.1560     7.9890   -46.4150     2.1720 
   85.3750    62.7180    23.8210     7.8360     6.9980     7.7930   -45.8690     2.1260 
   85.5000    65.6580    23.8210     7.9020     6.9010     7.6870   -45.2380     2.1100 
   85.6250    67.6220    23.8210     8.0070     6.8090     7.5740   -44.6030     2.1280 
   85.7500    70.8560    23.8210     7.8550     6.6160     7.3150   -44.0210     2.1550 
   85.8750    77.5310    23.8210     7.4550     6.2570     6.8420   -43.2870     2.1870 
   86.0000    85.6330    23.8210     6.4570     5.7580     6.2130   -42.6270     2.2270 
   86.1250    93.7270    23.8210     5.4750     5.2440     5.6080   -42.0460     2.2710 
   86.2500   102.5950    23.8210     4.8570     4.8450     5.1740   -41.4710     2.2980 
   86.3750   112.6380    23.8210     4.8400     4.6150     4.9610   -41.0740     2.3000 
   86.5000   119.0270    23.8200     4.9200     4.5570     4.9460   -40.7780     2.2890 
   86.6250   114.2260    23.8120     5.3410     4.6440     5.0660   -40.6080     2.2920 
   86.7500   104.7790    23.8100     5.5270     4.7920     5.2140   -40.4730     2.3170 
   86.8750   100.0220    23.8310     5.2960     4.9640     5.3560   -40.5590     2.3520 
   87.0000   103.4590    23.8770     5.0190     5.1480     5.5050   -40.6750     2.3810 
   87.1250   107.6910    23.9160     5.0580     5.3480     5.6890   -40.8380     2.3910 
   87.2500   108.1080    23.9310     5.3240     5.5490     5.8870   -41.1020     2.3870 
   87.3750   105.6830    23.9310     5.8570     5.7030     6.0360   -41.3380     2.3710 
   87.5000   102.0670    23.9300     6.2270     5.7490     6.0600   -41.6690     2.3410 
   87.6250    99.8560    23.9300     6.0970     5.6230     5.8970   -41.9990     2.3060 
   87.7500   101.5670    23.9300     5.7850     5.3770     5.6270   -42.2760     2.2830 
   87.8750   108.1960    23.9300     5.5260     5.0850     5.3360   -42.5120     2.2840 
   88.0000   114.2890    23.9320     5.2510     4.8190     5.0980   -42.8280     2.3040 
   88.1250   115.2370    23.9280     5.1420     4.6420     4.9720   -43.1530     2.3190 
   88.2500   113.4770    23.9000     5.1550     4.5660     4.9550   -43.4750     2.3170 
   88.3750   112.1960    23.8400     5.2180     4.6040     5.0670   -43.8190     2.3000 
   88.5000   111.4390    23.7600     5.2950     4.7840     5.3370   -44.2010     2.2800 
   88.6250   108.9500    23.6950     5.6100     5.1550     5.8210   -44.5860     2.2640 
   88.7500   106.8650    23.6700     6.5850     5.6780     6.4600   -45.0390     2.2590 
   88.8750   103.7080    23.6920     8.0820     6.2970     7.1690   -45.5790     2.2670 
   89.0000    96.9870    23.7440     9.7020     6.9050     7.8160   -46.0490     2.2830 
   89.1250    89.2790    23.7830     9.6600     7.3330     8.2180   -46.4760     2.2870 
   89.2500    85.3200    23.7970     9.0650     7.5170     8.3440   -46.8910     2.2730 
   89.3750    85.9200    23.7960     8.4950     7.4820     8.2620   -47.2640     2.2520 
   89.5000    89.2600    23.7990     8.1820     7.3490     8.1270   -47.5860     2.2400 
   89.6250    92.6510    23.8050     8.0810     7.2950     8.1480   -47.8450     2.2460 
   89.7500    94.6530    23.8100     8.0840     7.4090     8.3920   -48.0530     2.2660 
   89.8750    96.2880    23.8140     8.4130     7.6740     8.8100   -48.2140     2.2990 
   90.0000    99.8580    23.8200     9.2890     7.9930     9.2540   -48.3970     2.3390 
   90.1250   103.0480    23.7770    11.9300     8.1810     9.4660   -48.6000     2.3550 
   90.2500   101.1690    23.6320    11.6670     8.1290     9.3360   -48.7940     2.3250 
   90.3750    93.1430    23.4300     9.1700     7.8420     8.9100   -48.9650     2.2550 
   90.5000    81.8190    23.3020     7.7660     7.4320     8.3640   -49.0680     2.1810 
   90.6250    73.0110    23.3550     7.4290     7.0590     7.9240   -49.1810     2.1360 
   90.7500    69.1230    23.4750     7.2720     6.8270     7.6830   -49.2540     2.1180 
   90.8750    68.5450    23.5580     7.2120     6.7520     7.6300   -49.2410     2.1130 
   91.0000    69.1760    23.5820     7.2410     6.7910     7.6840   -49.1780     2.1120 
   91.1250    70.5540    23.5770     7.3370     6.8640     7.7470   -49.0240     2.1080 
   91.2500    71.6230    23.5760     7.4570     6.9100     7.7700   -48.8370     2.1070 
   91.3750    71.6040    23.5770     7.4520     6.9210     7.7550   -48.6350     2.1180 
   91.5000    71.3110    23.5770     7.2970     6.9090     7.7200   -48.3610     2.1390 
   91.6250    72.5460    23.5730     7.1090     6.8970     7.6930   -48.0970     2.1570 
   91.7500    74.1570    23.5830     7.0690     6.9060     7.7020   -47.8910     2.1620 
   91.8750    73.3920    23.6340     7.0800     6.9490     7.7630   -47.5940     2.1550 
   92.0000    70.9950    23.7190     7.1540     7.0280     7.8780   -47.3240     2.1480 
   92.1250    71.5710    23.7820     7.3390     7.1180     8.0130   -47.0870     2.1600 
   92.2500    73.1010    23.7990     7.6280     7.1630     8.0860   -46.7110     2.1840 
   92.3750    72.9850    23.7960     7.8480     7.1050     8.0270   -46.4260     2.1970 
   92.5000    73.1370    23.7960     7.8400     6.9140     7.8030   -46.1040     2.1850 
   92.6250    74.8580    23.7960     7.4810     6.5990     7.4400   -45.7360     2.1600 
   92.7500    75.9310    23.7960     6.7830     6.2620     7.0660   -45.4210     2.1470 
   92.8750    78.4330    23.7960     6.1720     5.9820     6.7750   -45.0910     2.1490 
   93.0000    85.3920    23.7920     5.9740     5.8140     6.6250   -44.7680     2.1600 
   93.1250    92.5500    23.8040     6.2950     5.7970     6.6420   -44.4930     2.1720 
   93.2500    93.5210    23.8710     6.8380     5.8880     6.7610   -44.3170     2.1780 
   93.3750    89.3340    23.9890     7.1590     6.0490     6.9320   -44.0940     2.1720 
   93.5000    83.8440    24.1000     7.1240     6.2390     7.1120   -43.8900     2.1550 
   93.6250    80.7280    24.1410     7.0460     6.4120     7.2540   -43.7070     2.1370 
