~V
VERS. 2.00: Ver 2.00
~W
STRT.M 60.0000:
STOP.M 248.0000:
STEP.M 0.1250:
NULL. -999.2500:
UWI. DF5054:
~C
DEPT.M :
SP.MV :
GR.API :
CALI.CM :
RXO.OHMM :
RI. :
RML.OHMM :
DEN.GM/CC :
~A
# ...
  195.0000   -17.8000    96.3150    24.0910    14.0110     9.9070    12.2730     2.5100 
  195.1250   -17.8110    98.2680    23.9660    12.0040     9.1500    11.1710     2.4620 
  195.2500   -17.7290    98.8010    23.8090     9.9340     8.4770    10.2410     2.4360 
  195.3750   -17.5470    98.5300    23.6730     8.2930     8.0110     9.6560     2.4390 
  195.5000   -17.2750    97.5620    23.5050     7.1940     7.8200     9.4940     2.4650 
  195.6250   -16.9280    99.3040    23.3400     6.6410     7.9780     9.8290     2.5030 
  195.7500   -16.5340   106.2620    23.1820     6.6500     8.4200    10.5360     2.5380 
  195.8750   -16.1050   113.9710    23.0640     7.1960     9.1010    11.5300     2.5570 
  196.0000   -15.6590   114.3860    22.9600     8.0900     9.9280    12.6750     2.5570 
  196.1250   -15.2250   105.0500    22.8610     9.4350    10.7270    13.7140     2.5500 
  196.2500   -14.8220    95.1210    22.7990    11.1740    11.2760    14.3830     2.5530 
  196.3750   -14.4540    89.5690    22.8330    12.8850    11.3970    14.4690     2.5580 
  196.5000   -14.1210    87.4250    23.0050    13.9640    11.0090    13.8640     2.5540 
  196.6250   -13.8220    85.7430    23.3580    14.0920    10.1150    12.5660     2.5360 
  196.7500   -13.5440    83.0560    23.7170    13.3390     8.9880    10.9510     2.5190 
  196.8750   -13.2900    79.2200    23.8760    11.5090     7.8380     9.3300     2.5080 
  197.0000   -13.0700    73.9780    23.7870     8.8310     6.8330     7.9590     2.4900 
  197.1250   -12.8990    67.4950    23.5850     6.4200     6.1130     7.0490     2.4550 
  197.2500   -12.7760    61.9030    23.4360     5.0870     5.6540     6.5260     2.4280 
  197.3750   -12.7020    58.8770    23.3390     4.7650     5.4270     6.3140     2.4290 
  197.5000   -12.6730    58.9720    23.2410     4.9240     5.3910     6.3320     2.4540 
  197.6250   -12.6990    62.7170    23.1550     5.0850     5.5280     6.5400     2.4810 
  197.7500   -12.7700    69.4340    23.0700     5.1050     5.7640     6.8490     2.4920 
  197.8750   -12.8770    77.5790    22.9650     5.0080     6.0540     7.2050     2.4850 
  198.0000   -12.9970    84.3600    22.8900     4.9190     6.3550     7.5680     2.4610 
  198.1250   -13.0990    87.8990    22.9010     5.0840     6.6220     7.8970     2.4370 
  198.2500   -13.1750    90.1110    22.9760     5.6010     6.8210     8.1540     2.4290 
  198.3750   -13.2320    92.0610    23.0500     6.3470     6.9180     8.2980     2.4330 
  198.5000   -13.2850    92.9940    23.0960     6.9080     6.9000     8.3030     2.4300 
  198.6250   -13.3570    91.8000    23.1210     6.6860     6.7620     8.1570     2.4100 
  198.7500   -13.4560    90.4860    23.1680     6.0120     6.5600     7.9350     2.3930 
  198.8750   -13.5820    90.9540    23.2400     5.4130     6.3410     7.7010     2.3940 
  199.0000   -13.7440    93.0740    23.3150     5.1550     6.1460     7.5120     2.4120 
  199.1250   -13.9690    94.7620    23.2840     5.0420     6.0160     7.4250     2.4380 
  199.2500   -14.2530    95.1780    23.2010     4.9380     5.9540     7.4320     2.4590 
  199.3750   -14.5800    95.3170    23.1770     4.9170     5.9590     7.5250     2.4650 
  199.5000   -14.9310    96.0140    23.2500     5.0520     6.0300     7.6940     2.4540 
  199.6250   -15.2990    96.0470    23.4260     5.4330     6.1730     7.9410     2.4330 
  199.7500   -15.6850    94.4960    23.5980     6.1230     6.3720     8.2520     2.4140 
  199.8750   -16.0910    93.0090    23.7470     7.1000     6.6270     8.6330     2.4040 
  200.0000   -16.5090    93.4030    23.8190     7.9640     6.9380     9.0880     2.3970 
  200.1250   -16.9250    93.8630    23.8480     8.1890     7.3150     9.6340     2.3830 
  200.2500   -17.3410    91.4440    23.8190     8.3390     7.7620    10.2690     2.3600 
  200.3750   -17.7660    87.3370    23.8460     8.8530     8.2900    11.0180     2.3370 
  200.5000   -18.2100    84.7390    23.9530     9.6730     8.9120    11.8980     2.3270 
  200.6250   -18.6840    84.6960    24.0470    10.8570     9.6560    12.9580     2.3360 
  200.7500   -19.1880    84.6850    24.1230    12.5750    10.5390    14.2160     2.3470 
  200.8750   -19.7250    84.3620    24.1680    14.5620    11.6020    15.7420     2.3480 
  201.0000   -20.3010    85.0250    24.1740    16.1760    12.9060    17.6370     2.3380 
  201.1250   -20.9380    86.7940    24.1640    17.8600    14.6260    20.1830     2.3300 
  201.2500   -21.6410    87.2660    24.1560    19.7680    16.8720    23.5550     2.3310 
  201.3750   -22.4180    85.3260    24.1420    22.2780    19.8110    27.9610     2.3330 
  201.5000   -23.2610    81.7440    24.1160    26.1360    23.5700    32.9350     2.3280 
  201.6250   -24.1520    77.7040    24.0790    34.2580    28.3290    37.8320     2.3120 
  201.7500   -25.0630    73.7090    24.0550    44.9580    33.7810    42.5060     2.2920 
  201.8750   -25.9790    70.1880    24.0450    55.0210    39.5740    48.2190     2.2710 
  202.0000   -26.8890    67.7950    24.0480    62.0660    45.2710    54.3040     2.2550 
  202.1250   -27.7720    67.2200    24.0630    65.6530    50.3870    59.7350     2.2430 
  202.2500   -28.6060    67.7690    24.0800    67.6220    54.8330    64.3720     2.2320 
  202.3750   -29.3720    68.4000    24.0960    68.7210    58.7420    68.4020     2.2240 
  202.5000   -30.0720    68.9760    24.1290    71.2060    62.4830    72.2770     2.2210 
  202.6250   -30.7120    70.2130    24.2050    78.6580    66.5250    76.5510     2.2180 
  202.7500   -31.3180    71.5430    24.2770    90.1620    71.0230    81.3350     2.2080 
  202.8750   -31.8990    72.0330    24.3270    99.6430    75.8970    86.4920     2.1940 
  203.0000   -32.4640    71.7110    24.3480   102.1960    80.7710    91.6230     2.1850 
  203.1250   -33.0210    71.3570    24.3450   100.8830    84.7890    95.7560     2.1880 
  203.2500   -33.5860    70.8380    24.3330   103.0170    87.4120    98.2170     2.1980 
  203.3750   -34.1720    70.1380    24.3090   109.1040    88.4930    98.8270     2.2080 
  203.5000   -34.7880    69.8570    24.2870   115.9830    88.3250    98.0020     2.2140 
  203.6250   -35.4290    70.3450    24.2720   121.7930    87.7980    96.8210     2.2120 
  203.7500   -36.0710    70.6210    24.2570   122.3310    88.5840    97.0080     2.2050 
  203.8750   -36.7070    70.0090    24.1820   112.6120    92.4820   100.2030     2.1990 
  204.0000   -37.3340    69.0690    24.0210    97.7760   101.1060   109.4170     2.1940 
  204.1250   -37.9470    68.5700    23.8610   104.9600   116.5580   128.9630     2.1960 
  204.2500   -38.5340    67.7280    23.8280   136.2410   137.9820   157.6850     2.2140 
  204.3750   -39.0710    66.0850    23.9040   176.6080   164.1030   190.1320     2.2470 
  204.5000   -39.5290    64.1200    23.9920   206.3350   192.0150   224.3370     2.2700 
  204.6250   -39.8700    62.3600    24.0630   212.5570   215.7570   254.5580     2.2550 
  204.7500   -40.1090    60.6820    24.1380   212.6430   230.1920   272.8070     2.2230 
  204.8750   -40.2470    59.4670    24.2060   221.4630   232.8290   274.7430     2.2060 
  205.0000   -40.2780    59.2540    24.2130   236.1540   225.3140   263.0230     2.2170 
  205.1250   -40.1720    59.5760    24.0670   237.5540   212.3730   245.3310     2.2360 
  205.2500   -39.9500    59.8370    23.8590   220.0460   200.2800   229.8830     2.2430 
  205.3750   -39.6310    60.8070    23.7650   190.3800   192.3170   220.1450     2.2340 
  205.5000   -39.2480    63.4770    23.8260   162.1890   190.1800   217.3110     2.2200 
  205.6250   -38.8290    66.8320    23.8790   153.3410   194.9550   222.0450     2.2030 
  205.7500   -38.3960    68.4610    23.7930   164.1250   204.1560   231.6760     2.1770 
  205.8750   -37.9500    68.3460    23.6350   180.8390   215.4930   243.9670     2.1390 
  206.0000   -37.4980    68.2950    23.5610   184.8800   226.4770   256.1210     2.1040 
  206.1250   -37.0640    68.8530    23.5880   167.3040   234.1180   264.3980     2.0960 
