~V
VERS. 2.00: Ver 2.00
~W
STRT.M 60.0000:
STOP.M 249.0000:
STEP.M 0.1250:
NULL. -999.2500:
UWI. DF5060:
~C
DEPT.M :
GR.API :
CALI.CM :
RXO.OHMM :
RI. :
RML.OHMM :
DEN.GM/CC :
SP.MV :
~A
# ...
  138.7500    90.8960    23.8360     7.2720     7.0580     6.8830     2.2770   -22.4510 
  138.8750    90.7090    23.4330     7.6310     6.7260     7.0300     2.3160   -22.2480 
  139.0000    87.0820    23.0970     8.6600     7.1570     8.0980     2.3630   -22.0760 
  139.1250    82.2580    22.8510    10.9050     8.4990    10.1300     2.4140   -21.9400 
  139.2500    75.9230    22.6750    13.4700    10.5390    12.7020     2.4660   -21.8320 
  139.3750    67.6720    22.6000    15.7320    12.9670    15.2920     2.5130   -21.7330 
  139.5000    59.7740    22.6380    17.0060    15.2220    17.2290     2.5480   -21.6250 
  139.6250    56.2270    22.7280    16.0220    16.5670    17.8280     2.5700   -21.5420 
  139.7500    57.0580    22.7850    14.8070    17.0110    17.4290     2.5830   -21.4690 
  139.8750    57.9440    22.7880    13.9480    16.8840    16.5940     2.5910   -21.4230 
  140.0000    55.5920    22.7600    13.4050    16.5760    15.8410     2.5940   -21.3620 
  140.1250    50.6770    22.7400    13.0240    16.3540    15.4720     2.5890   -21.3230 
  140.2500    47.0180    22.7360    12.9590    16.2650    15.3710     2.5780   -21.2250 
  140.3750    46.5420    22.7390    12.9850    16.2560    15.3580     2.5620   -21.1550 
  140.5000    49.3150    22.7240    12.6420    16.2440    15.2540     2.5440   -21.0690 
  140.6250    53.8500    22.7200    12.1780    16.1350    14.9330     2.5290   -20.9780 
  140.7500    57.5700    22.8000    11.9720    15.9170    14.4640     2.5160   -20.8620 
  140.8750    58.6530    22.9530    12.0400    15.6300    13.9700     2.5050   -20.7740 
  141.0000    56.8420    23.0970    11.9940    15.3560    13.6050     2.4960   -20.7220 
  141.1250    56.2200    23.1590    11.3340    15.1830    13.5680     2.4890   -20.6710 
  141.2500    59.4510    23.1950    10.8720    15.1000    13.8520     2.4870   -20.6060 
  141.3750    63.5480    23.3030    11.1600    15.0470    14.3610     2.4880   -20.5220 
  141.5000    64.8670    23.5020    12.3840    14.9310    14.8870     2.4890   -20.4530 
  141.6250    64.6190    23.7080    13.3410    14.6560    15.1170     2.4870   -20.4470 
  141.7500    66.3010    23.8070    13.1070    14.2660    14.9850     2.4820   -20.4380 
  141.8750    67.4640    23.8440    12.4580    13.8560    14.6230     2.4810   -20.3920 
  142.0000    64.7900    23.9590    12.1840    13.5320    14.2800     2.4830   -20.2950 
  142.1250    60.1840    24.2620    12.4120    13.4280    14.2390     2.4840   -20.1860 
  142.2500    58.7040    24.6210    13.0940    13.5900    14.5550     2.4820   -20.1120 
  142.3750    60.6880    24.8780    14.0660    14.0420    15.2020     2.4770   -20.0640 
  142.5000    62.6200    24.9690    14.6240    14.7450    16.0660     2.4730   -20.0510 
  142.6250    60.2060    24.9700    14.7960    15.5400    16.8660     2.4760   -20.0030 
  142.7500    55.7250    24.9860    15.4500    16.0900    17.2450     2.4850   -19.9900 
  142.8750    54.7030    25.0090    16.5970    16.0840    16.9390     2.4980   -19.9760 
  143.0000    59.0770    25.0180    17.1070    15.4060    15.9310     2.5110   -20.0020 
  143.1250    62.9420    25.0090    15.8910    14.2420    14.5210     2.5190   -20.0350 
  143.2500    62.4940    24.9890    13.1460    13.1020    13.2690     2.5220   -20.1120 
  143.3750    60.0750    24.9730    10.7910    12.2780    12.4760     2.5220   -20.1330 
  143.5000    58.0430    24.9760    10.4140    11.8670    12.1960     2.5210   -20.1420 
  143.6250    56.0890    24.9980    11.5020    11.8230    12.2970     2.5190   -20.1300 
  143.7500    53.8920    25.0150    12.9900    11.8850    12.4510     2.5130   -20.1180 
  143.8750    53.3410    25.0140    13.8570    11.8920    12.4930     2.5030   -20.1150 
  144.0000    54.7670    24.9970    13.2800    11.8010    12.4070     2.4920   -20.0750 
  144.1250    57.2760    24.9730    11.5580    11.7110    12.3440     2.4870   -20.0390 
  144.2500    59.5490    24.9580    10.5750    11.7680    12.4660     2.4890   -19.9560 
  144.3750    58.6150    24.9550    11.2750    12.0270    12.8060     2.4960   -19.9150 
  144.5000    54.4290    24.9560    12.6720    12.4300    13.2660     2.5020   -19.8250 
  144.6250    51.5030    24.9670    13.2310    12.8170    13.6610     2.4990   -19.7300 
  144.7500    53.3850    24.9880    12.9220    13.0580    13.8950     2.4880   -19.6150 
  144.8750    56.8990    25.0050    12.5980    13.1580    14.0130     2.4760   -19.4940 
  145.0000    58.3740    25.0100    12.5260    13.2180    14.1340     2.4670   -19.4530 
  145.1250    58.9040    25.0100    12.6650    13.3530    14.3460     2.4590   -19.4160 
  145.2500    58.5950    24.9920    13.0750    13.5270    14.5510     2.4500   -19.4100 
  145.3750    55.4540    24.9390    13.6220    13.6050    14.5790     2.4410   -19.3400 
  145.5000    50.6020    24.8740    13.8590    13.4570    14.3050     2.4350   -19.3190 
  145.6250    49.8970    24.8650    13.3780    13.0190    13.7110     2.4400   -19.3230 
  145.7500    54.0270    24.9210    12.0060    12.4630    13.0430     2.4520   -19.3740 
  145.8750    58.8630    24.9940    10.7770    11.9670    12.5310     2.4640   -19.4470 
  146.0000    61.2880    24.9390    10.5410    11.6860    12.3360     2.4670   -19.4770 
  146.1250    60.1250    24.6120    10.9300    11.7280    12.5270     2.4580   -19.5150 
  146.2500    57.3750    24.2190    11.3630    11.9990    12.9160     2.4470   -19.5290 
  146.3750    55.2020    24.0630    11.8830    12.3740    13.3150     2.4400   -19.5980 
  146.5000    54.6350    24.2530    13.1880    12.6840    13.5400     2.4400   -19.6300 
  146.6250    56.6370    24.5620    13.4180    12.7380    13.4380     2.4430   -19.6680 
  146.7500    59.8940    24.7290    12.5840    12.5490    13.1070     2.4430   -19.7090 
  146.8750    62.1140    24.7600    11.5430    12.2130    12.6790     2.4380   -19.7410 
  147.0000    60.8870    24.7700    11.1670    11.8540    12.2950     2.4340   -19.7950 
  147.1250    57.7410    24.8290    11.1810    11.6200    12.0990     2.4350   -19.8630 
  147.2500    56.9940    24.9010    11.2440    11.5610    12.1150     2.4390   -19.9350 
  147.3750    59.0810    24.9460    11.1990    11.6740    12.3150     2.4370   -20.0660 
  147.5000    62.4920    24.9280    11.3900    11.9090    12.6350     2.4230   -20.2340 
  147.6250    65.3510    24.8540    12.2360    12.2110    13.0020     2.4020   -20.4610 
  147.7500    66.3490    24.8160    13.3670    12.5210    13.3390     2.3880   -20.6940 
  147.8750    65.6640    24.8490    13.6640    12.8060    13.6020     2.3910   -20.9460 
  148.0000    63.4960    24.8700    12.8720    13.0450    13.7810     2.4110   -21.2100 
  148.1250    60.6780    24.8180    12.4530    13.2130    13.8770     2.4440   -21.4200 
  148.2500    57.4850    24.7660    12.7620    13.3120    13.9170     2.4770   -21.6550 
  148.3750    56.1850    24.7440    13.2790    13.3470    13.9030     2.5010   -21.8440 
  148.5000    57.1630    24.7170    13.6710    13.3340    13.8350     2.5150   -22.1060 
  148.6250    59.8600    24.6600    13.5420    13.2980    13.7220     2.5160   -22.3340 
  148.7500    62.8310    24.6000    13.0690    13.2780    13.6130     2.5080   -22.5820 
  148.8750    62.7650    24.5280    12.6370    13.3100    13.5550     2.4980   -22.8260 
  149.0000    58.0790    24.4400    12.7940    13.4120    13.5680     2.4880   -23.0270 
  149.1250    53.4850    24.3770    13.2090    13.5900    13.6400     2.4810   -23.2470 
  149.2500    53.1940    24.3480    13.4900    13.7860    13.7100     2.4780   -23.5220 
  149.3750    54.9380    24.3560    13.2720    13.9360    13.7350     2.4750   -23.8010 
  149.5000    55.6840    24.3810    12.6780    13.9800    13.6870     2.4690   -24.0520 
  149.6250    56.0210    24.3800    12.1870    13.8730    13.5440     2.4590   -24.2720 
  149.7500    57.0030    24.2970    11.6300    13.6450    13.3040     2.4490   -24.4760 
  149.8750    57.3290    24.0920    10.6550    13.2800    12.9260     2.4440   -24.7170 
