~V
VERS. 2.00: Ver 2.00
~W
STRT.M 67.0000:
STOP.M 277.0000:
STEP.M 0.1250:
NULL. -999.2500:
UWI. DF5013:
~C
DEPT.M :
SP.MV :
GR.API :
RML.OHMM :
RI. :
RXO.OHMM :
CALI.CM :
DEN.GM/CC :
~A
# ...
  123.2500   -19.8220    93.6040     7.3070     6.0630     5.8810    23.3860     2.2490 
  123.3750   -19.7640    91.5720     7.4210     6.1400     5.9940    23.4550     2.2410 
  123.5000   -19.7180    91.1860     7.3610     6.1130     6.0360    23.4630     2.2380 
  123.6250   -19.6510    92.2980     7.1240     5.9750     5.9780    23.4860     2.2420 
  123.7500   -19.5800    95.3560     6.7750     5.7510     5.8310    23.5770     2.2570 
  123.8750   -19.5380    99.0070     6.4370     5.5020     5.6280    23.7510     2.2820 
  124.0000   -19.5810   103.7860     6.2600     5.3220     5.4970    23.9360     2.3110 
  124.1250   -19.6880   108.6770     6.2760     5.2630     5.5600    24.0140     2.3320 
  124.2500   -19.8680   110.1080     6.4560     5.3380     5.8660    24.0130     2.3350 
  124.3750   -20.1370   104.8840     6.7380     5.5260     6.3440    23.9660     2.3200 
  124.5000   -20.4850    94.7320     7.0430     5.7880     6.8510    23.9140     2.2950 
  124.6250   -20.8390    86.8660     7.3300     6.0650     7.1770    23.8900     2.2740 
  124.7500   -21.1930    85.1780     7.6030     6.3320     7.2690    23.8860     2.2610 
  124.8750   -21.5100    86.5000     7.8880     6.5850     7.1840    23.8220     2.2540 
  125.0000   -21.7450    85.0670     8.1850     6.8240     7.2940    23.7490     2.2450 
  125.1250   -21.8820    80.9320     8.4390     7.0300     7.5740    23.7390     2.2330 
  125.2500   -21.8910    79.9590     8.5650     7.1540     7.6970    23.7210     2.2180 
  125.3750   -21.7910    82.5980     8.4900     7.1380     7.5580    23.6280     2.2070 
  125.5000   -21.5850    83.4680     8.1600     6.9190     7.1320    23.4860     2.2060 
  125.6250   -21.3480    84.3440     7.6810     6.5640     6.8330    23.3680     2.2150 
  125.7500   -21.0890    88.5990     7.1750     6.1700     6.5600    23.3550     2.2320 
  125.8750   -20.8330    95.2110     6.7760     5.8530     6.1770    23.4380     2.2500 
  126.0000   -20.6040    98.0650     6.6400     5.7440     5.9550    23.5270     2.2610 
  126.1250   -20.4240    96.3590     6.7650     5.8360     6.2270    23.5610     2.2630 
  126.2500   -20.2710    94.0720     7.0880     6.0770     6.7210    23.5330     2.2570 
  126.3750   -20.1000    93.0160     7.4760     6.3640     7.0740    23.4870     2.2470 
  126.5000   -19.9230    92.8590     7.7210     6.5510     6.8570    23.5020     2.2430 
  126.6250   -19.7550    92.3830     7.7110     6.5610     6.4870    23.6020     2.2470 
  126.7500   -19.6010    92.9670     7.4400     6.3880     6.1710    23.7540     2.2560 
  126.8750   -19.4410    96.8890     6.9870     6.0850     5.9690    23.9640     2.2680 
  127.0000   -19.2910   102.1810     6.4670     5.7240     5.7980    24.1920     2.2780 
  127.1250   -19.1180   105.3600     5.9960     5.3810     5.7010    24.4150     2.2850 
  127.2500   -19.0170   105.6760     5.6470     5.0990     5.6530    24.5630     2.2910 
  127.3750   -18.9890   104.0270     5.4860     4.9240     5.6460    24.6220     2.2970 
  127.5000   -19.0400   101.1930     5.6000     4.9340     5.8390    24.6120     2.3070 
  127.6250   -19.1730    95.7870     5.9520     5.1360     6.2430    24.5560     2.3210 
  127.7500   -19.3560    88.6790     6.4980     5.5260     7.0200    24.4420     2.3380 
  127.8750   -19.5450    82.4480     7.1740     6.0770     8.1070    24.2890     2.3560 
  128.0000   -19.7490    77.2160     7.9200     6.7610     9.4830    24.1760     2.3690 
  128.1250   -19.9840    72.2680     8.6920     7.5270    10.5470    24.1780     2.3810 
  128.2500   -20.1920    67.4730     9.4950     8.3700    11.1460    24.2750     2.3990 
  128.3750   -20.3930    65.1570    10.3450     9.2830    12.3960    24.4230     2.4240 
  128.5000   -20.6190    66.4360    11.1970    10.2230    14.7220    24.5440     2.4480 
  128.6250   -20.8510    68.1590    11.9200    11.0670    16.8360    24.5930     2.4550 
  128.7500   -21.1150    68.2010    12.3650    11.6650    17.1190    24.5530     2.4420 
  128.8750   -21.4310    64.7860    12.4370    11.9040    15.2540    24.4240     2.4160 
  129.0000   -21.7590    60.4120    12.1240    11.7270    13.1960    24.2050     2.3880 
  129.1250   -22.0690    60.2800    11.6780    11.3450    12.0150    23.9120     2.3580 
  129.2500   -22.3560    64.3330    11.3010    10.9390    11.3130    23.6350     2.3260 
  129.3750   -22.6330    67.0660    11.1240    10.6390    10.4870    23.4540     2.2890 
  129.5000   -22.8560    65.0290    11.1900    10.5120    10.1890    23.2990     2.2540 
  129.6250   -23.0210    62.3520    11.3580    10.4820    10.1980    23.0960     2.2270 
  129.7500   -23.1120    62.4270    11.4930    10.4730    10.2680    22.9060     2.2110 
  129.8750   -23.1700    65.3400    11.4930    10.4240    10.2080    22.7670     2.2040 
  130.0000   -23.1860    69.9050    11.3190    10.3060     9.8070    22.5710     2.2050 
  130.1250   -23.2190    73.2210    11.0890    10.1690     9.1860    22.3310     2.2110 
  130.2500   -23.2570    72.8140    10.9260    10.0800     8.6900    22.2050     2.2170 
  130.3750   -23.3170    69.4890    10.9170    10.0950     8.4560    22.3450     2.2200 
  130.5000   -23.3870    67.6310    11.0980    10.2450     8.7400    22.7710     2.2150 
  130.6250   -23.4730    68.3310    11.3730    10.4770     9.2700    23.2640     2.2050 
  130.7500   -23.5490    68.5010    11.6820    10.7370     9.9350    23.6720     2.1930 
  130.8750   -23.6100    65.8680    11.9540    10.9810    10.4020    23.8730     2.1860 
  131.0000   -23.6510    62.6480    12.2070    11.1870    10.6590    23.8790     2.1920 
  131.1250   -23.6710    61.7530    12.4610    11.3890    10.8980    23.8560     2.2120 
  131.2500   -23.6590    61.6450    12.7340    11.6350    11.0770    23.8570     2.2430 
  131.3750   -23.6280    62.1240    13.0550    11.9590    11.1610    23.8880     2.2800 
  131.5000   -23.5700    66.0790    13.4550    12.3440    11.1070    23.9690     2.3180 
  131.6250   -23.5000    71.2120    13.9020    12.6840    10.8910    24.0280     2.3480 
  131.7500   -23.4300    73.6240    14.2830    12.8760    10.5490    23.9390     2.3610 
  131.8750   -23.3540    71.6920    14.3070    12.8450    10.2280    23.6550     2.3540 
  132.0000   -23.2710    68.9680    13.9760    12.5640    10.0350    23.4210     2.3260 
  132.1250   -23.1800    67.4080    13.5500    12.1790     9.9360    23.2550     2.2900 
  132.2500   -23.1160    66.3340    13.2230    11.8210     9.9360    23.1790     2.2570 
  132.3750   -23.0490    65.4580    13.1040    11.5950    10.0660    23.2340     2.2330 
  132.5000   -23.0150    64.0580    13.2290    11.5830    10.3150    23.3580     2.2210 
  132.6250   -23.0000    63.7460    13.4760    11.7340    10.5380    23.3910     2.2180 
  132.7500   -23.0350    65.0730    13.7260    11.9800    10.5970    23.3800     2.2210 
  132.8750   -23.0850    67.2380    13.8750    12.2370    10.5050    23.4140     2.2290 
  133.0000   -23.1620    68.2000    13.8410    12.4110    10.4600    23.5030     2.2390 
  133.1250   -23.2230    68.7250    13.6670    12.4650    10.5220    23.5960     2.2470 
  133.2500   -23.2840    70.2740    13.4220    12.4030    10.5930    23.6410     2.2490 
  133.3750   -23.3170    70.4090    13.1960    12.2720    10.6170    23.6520     2.2460 
  133.5000   -23.3310    67.5800    13.0760    12.1390    10.6530    23.6520     2.2370 
  133.6250   -23.2900    65.8000    13.0310    12.0340    10.7550    23.6520     2.2240 
  133.7500   -23.1750    66.1650    12.9540    11.9090    10.9460    23.6510     2.2100 
  133.8750   -23.0060    67.2180    12.6790    11.6560    11.2430    23.6490     2.1970 
  134.0000   -22.8020    67.4210    11.9830    11.0990    11.3320    23.6510     2.1910 
  134.1250   -22.6150    67.8600    10.9310    10.2530    10.9600    23.6520     2.1960 
  134.2500   -22.4430    70.1950     9.7260     9.2380    10.1230    23.6520     2.2150 
  134.3750   -22.3100    73.2970     8.6510     8.2630     8.9110    23.6520     2.2430 
