~V
VERS. 2.00: Ver 2.00
~W
STRT.M 64.0000:
STOP.M 271.0000:
STEP.M 0.1250:
NULL. -999.2500:
UWI. DF5037:
~C
DEPT.M :
SP.MV :
GR.API :
RML.OHMM :
RI. :
RXO.OHMM :
CALI.CM :
DEN.GM/CC :
~A
# ...
  120.2500   -19.6220    99.5400     5.6510     4.7790     5.9030    23.9010     2.3180 
  120.3750   -19.8950    93.1860     6.0580     5.1010     6.8530    23.3280     2.2960 
  120.5000   -20.1810    84.0260     6.1790     5.2430     7.3910    22.7170     2.2860 
  120.6250   -20.4430    76.9770     5.9940     5.1600     6.7750    22.4810     2.2890 
  120.7500   -20.6350    82.4550     5.6660     4.9220     6.0580    22.7100     2.2960 
  120.8750   -20.7720    93.8680     5.5420     4.7550     5.8790    23.1760     2.2970 
  121.0000   -20.8720   100.6910     5.9490     4.8810     6.8470    23.6220     2.2920 
  121.1250   -20.9290   100.0350     7.2250     5.5460     9.2660    23.8720     2.2890 
  121.2500   -20.9500    94.9230     9.8990     7.1810    13.6220    23.9350     2.3120 
  121.3750   -20.9890    88.1810    13.8420     9.8170    19.1550    23.9870     2.3680 
  121.5000   -21.0790    82.2930    18.6390    13.3010    24.5700    24.0040     2.4560 
  121.6250   -21.2450    80.4800    23.3490    17.0730    28.1240    23.9770     2.5540 
  121.7500   -21.5020    77.8390    26.2550    19.9290    29.6680    23.9380     2.6250 
  121.8750   -21.8050    71.2680    26.4960    20.9750    30.5390    23.8890     2.6470 
  122.0000   -22.1450    64.8750    24.1100    19.9600    29.8820    23.7740     2.6160 
  122.1250   -22.5250    64.3970    20.1520    17.4560    26.1350    23.4800     2.5430 
  122.2500   -22.9040    69.0650    16.1690    14.5110    20.2780    23.0450     2.4500 
  122.3750   -23.2290    70.5500    13.1150    12.0060    14.7980    22.5880     2.3630 
  122.5000   -23.4620    68.3880    11.1580    10.2000    10.8920    22.3180     2.2940 
  122.6250   -23.6210    67.9500    10.1410     9.0880     9.0490    22.2110     2.2490 
  122.7500   -23.7030    71.1950     9.8470     8.6030     8.7800    22.1080     2.2300 
  122.8750   -23.7520    74.7590     9.8630     8.4540     8.7670    21.9680     2.2260 
  123.0000   -23.7680    77.1820     9.9690     8.4650     8.6340    21.8390     2.2300 
  123.1250   -23.7420    81.9610    10.0060     8.4880     8.3940    21.8140     2.2350 
  123.2500   -23.6590    83.8240     9.8650     8.4070     8.1520    21.8830     2.2360 
  123.3750   -23.5700    78.5710     9.5900     8.2180     8.0450    22.0510     2.2320 
  123.5000   -23.4850    72.7660     9.2850     7.9790     8.0980    22.2810     2.2230 
  123.6250   -23.3790    71.9600     9.1160     7.8010     8.2760    22.4600     2.2160 
  123.7500   -23.2720    77.5330     9.3930     7.8970     8.5080    22.4960     2.2260 
  123.8750   -23.1370    84.2600    10.3090     8.4240     9.0240    22.4690     2.2640 
  124.0000   -22.9710    86.2160    12.0250     9.5310    10.2040    22.4450     2.3310 
  124.1250   -22.7860    81.5590    14.5310    11.2770    12.5760    22.5440     2.4170 
  124.2500   -22.6260    74.8080    17.5050    13.5510    16.3830    22.8760     2.4950 
  124.3750   -22.5130    74.6900    20.0900    15.7630    20.8610    23.2910     2.5430 
  124.5000   -22.4870    77.7950    21.4470    17.2690    24.5100    23.5990     2.5600 
  124.6250   -22.5400    76.4540    20.9900    17.5010    25.3130    23.7120     2.5530 
  124.7500   -22.6320    69.6520    18.5780    16.1160    23.6410    23.6070     2.5270 
  124.8750   -22.7520    63.5780    15.4120    13.8930    20.3600    23.1980     2.4850 
  125.0000   -22.8950    63.4540    12.4280    11.5390    15.5830    22.4850     2.4270 
  125.1250   -23.0440    68.3160    10.1660     9.5540    11.2080    21.7890     2.3620 
  125.2500   -23.1730    72.2720     8.8350     8.2140     9.1830    21.4950     2.3060 
  125.3750   -23.2690    75.6750     8.0910     7.3680     8.5840    21.4220     2.2700 
  125.5000   -23.3330    79.3800     7.7070     6.8880     8.3780    21.4170     2.2540 
  125.6250   -23.3960    82.1690     7.5040     6.6460     8.2940    21.4140     2.2500 
  125.7500   -23.4690    83.2060     7.3860     6.5540     7.7550    21.4120     2.2500 
  125.8750   -23.5420    83.8970     7.3140     6.5330     7.0930    21.4110     2.2490 
  126.0000   -23.6190    85.1430     7.2940     6.5650     6.8200    21.4120     2.2490 
  126.1250   -23.6870    86.3690     7.3270     6.6380     6.9300    21.4140     2.2510 
  126.2500   -23.7540    88.0820     7.3810     6.7280     7.1620    21.4100     2.2560 
  126.3750   -23.8210    87.6970     7.4050     6.7930     7.3010    21.3880     2.2600 
  126.5000   -23.8640    84.3880     7.3770     6.8050     7.3310    21.3490     2.2600 
  126.6250   -23.8750    82.2560     7.2980     6.7580     7.2710    21.2970     2.2590 
  126.7500   -23.8910    83.0570     7.1870     6.6570     7.1670    21.2620     2.2590 
  126.8750   -23.9320    82.0620     7.0770     6.5360     7.0410    21.2520     2.2610 
  127.0000   -23.9860    76.5160     6.9840     6.4170     6.9140    21.2460     2.2650 
  127.1250   -24.0620    70.6700     6.9110     6.3150     6.8490    21.2040     2.2700 
  127.2500   -24.1470    72.6590     6.8640     6.2440     6.8340    21.1420     2.2740 
  127.3750   -24.2200    79.1740     6.8480     6.2040     6.8620    21.1220     2.2760 
  127.5000   -24.2880    81.9000     6.8810     6.2050     6.9260    21.1720     2.2760 
  127.6250   -24.3350    76.7860     6.9920     6.2610     7.0230    21.2800     2.2730 
  127.7500   -24.3360    69.5940     7.2270     6.4030     7.1960    21.3700     2.2670 
  127.8750   -24.2670    67.4270     7.5660     6.6230     7.5440    21.4290     2.2580 
  128.0000   -24.1330    69.3060     7.9630     6.8940     8.1700    21.4740     2.2470 
  128.1250   -23.9850    72.1030     8.3370     7.1640     8.9380    21.5090     2.2350 
  128.2500   -23.8590    70.2470     8.5590     7.3410     9.6550    21.4970     2.2250 
  128.3750   -23.7830    65.1300     8.5800     7.3810     9.8280    21.4530     2.2200 
  128.5000   -23.7560    64.4380     8.4150     7.2780     9.0080    21.3620     2.2190 
  128.6250   -23.7820    70.9600     8.1530     7.0870     7.9950    21.2620     2.2190 
  128.7500   -23.8420    76.4340     7.9470     6.9090     7.7220    21.1800     2.2180 
  128.8750   -23.9270    74.2010     7.9010     6.8320     7.8160    21.1400     2.2140 
  129.0000   -24.0350    67.0610     8.0400     6.8930     7.8940    21.1650     2.2100 
  129.1250   -24.1280    63.1180     8.3260     7.0800     8.1120    21.2040     2.2050 
  129.2500   -24.1940    64.5630     8.6680     7.3400     8.3780    21.2190     2.2030 
  129.3750   -24.2240    66.5220     8.9520     7.5810     8.5360    21.2480     2.2030 
  129.5000   -24.2270    68.9630     9.1130     7.7430     8.6130    21.3220     2.2050 
  129.6250   -24.1930    72.7780     9.1320     7.7980     8.6780    21.3780     2.2060 
  129.7500   -24.1050    74.5560     9.0490     7.7600     8.7200    21.4050     2.2070 
  129.8750   -23.9690    70.8860     9.0100     7.7320     8.7910    21.4080     2.2040 
  130.0000   -23.7730    66.6510     9.1700     7.8260     8.9300    21.3790     2.2000 
  130.1250   -23.5070    65.7420     9.6440     8.1390     9.1310    21.3400     2.2000 
  130.2500   -23.1300    63.7180    10.4280     8.7130     9.3970    21.1870     2.2160 
  130.3750   -22.6640    59.8880    11.1890     9.3410     9.6950    21.1040     2.2560 
  130.5000   -22.1200    56.9810    11.5460     9.7520     9.9170    21.3260     2.3170 
  130.6250   -21.5220    60.6480    11.1850     9.6770     9.9680    21.8310     2.3860 
  130.7500   -20.9060    72.5160     9.9570     8.9150     9.3990    22.3640     2.4320 
  130.8750   -20.3370    84.8000     8.3610     7.7670     7.9190    22.6860     2.4400 
  131.0000   -19.8590    93.3130     6.8650     6.5790     6.1650    23.0640     2.4130 
  131.1250   -19.5060    98.6690     5.7850     5.6370     5.2310    23.5740     2.3720 
  131.2500   -19.2840   103.3440     5.2330     5.1170     5.1210    23.9310     2.3350 
  131.3750   -19.1540   105.7430     4.9900     4.9020     5.1860    23.9750     2.3100 
