~V
VERS. 2.00: Ver 2.00
~W
STRT.M 62.0000:
STOP.M 250.0000:
STEP.M 0.1250:
NULL. -999.2500:
UWI. DF5059:
~C
DEPT.M :
SP.MV :
GR.API :
RML.OHMM :
RI. :
RXO.OHMM :
CALI.CM :
DEN.GM/CC :
~A
# ...
  163.2500   -15.2880    83.9460    63.6090    55.6840    52.8830    24.0280     2.3060 
  163.3750   -15.2920    84.0350    66.2710    56.8590    56.6050    24.1060     2.2860 
  163.5000   -15.2480    82.7920    69.2030    58.8480    62.4910    24.1560     2.2650 
  163.6250   -15.1170    84.0960    71.0150    61.0940    67.3800    24.1690     2.2510 
  163.7500   -14.9810    85.4980    71.2310    62.9190    69.7380    24.1840     2.2450 
  163.8750   -14.8950    84.8740    70.5920    63.9600    69.9370    24.2120     2.2430 
  164.0000   -14.8610    85.2770    69.6470    64.1460    69.0180    24.2380     2.2400 
  164.1250   -14.7980    88.7020    68.6040    63.6250    65.7640    24.1530     2.2360 
  164.2500   -14.7170    89.7010    67.9890    62.8680    63.3060    24.0780     2.2310 
  164.3750   -14.6630    84.0120    67.4570    62.1150    62.4770    24.0380     2.2290 
  164.5000   -14.6760    77.5380    66.9080    61.4950    61.8960    24.0000     2.2300 
  164.6250   -14.7670    77.1870    66.6910    61.1570    60.6650    23.9690     2.2330 
  164.7500   -14.8370    79.0770    66.9410    61.1840    59.8260    23.9460     2.2340 
  164.8750   -14.8930    78.9420    67.7190    61.6440    60.2380    23.9150     2.2340 
  165.0000   -14.8940    76.0310    68.8930    62.4670    61.9230    23.8700     2.2320 
  165.1250   -14.9270    74.7460    69.9570    63.2940    64.4300    23.8370     2.2320 
  165.2500   -14.9810    76.0720    70.2250    63.5530    66.0000    23.7800     2.2330 
  165.3750   -15.0310    76.2630    69.2130    62.7990    65.4270    23.6550     2.2340 
  165.5000   -15.0200    71.9870    66.8680    60.9150    62.2510    23.5150     2.2360 
  165.6250   -14.9370    69.1880    63.7250    58.2710    55.9690    23.4850     2.2400 
  165.7500   -14.9120    72.2200    60.9830    55.8970    49.7210    23.5560     2.2440 
  165.8750   -14.8920    79.7190    59.4930    54.5910    46.2300    23.7080     2.2490 
  166.0000   -14.8900    84.2780    59.6400    54.7990    46.6430    23.8580     2.2520 
  166.1250   -14.8280    83.5470    61.3480    56.6320    50.7810    23.9290     2.2500 
  166.2500   -14.7240    83.1530    63.5260    59.1720    56.6140    23.9420     2.2440 
  166.3750   -14.6380    85.8170    65.2580    61.5620    61.8110    23.9270     2.2360 
  166.5000   -14.5890    88.9450    65.8640    63.0460    63.3040    23.9120     2.2300 
  166.6250   -14.5700    84.1450    64.9170    63.0130    60.0520    23.8680     2.2280 
  166.7500   -14.4600    74.1950    62.8540    61.7270    55.9760    23.8280     2.2300 
  166.8750   -14.3220    69.5280    59.8550    59.3180    53.0420    23.8070     2.2330 
  167.0000   -14.2140    73.0670    55.8990    55.7870    50.8460    23.8280     2.2370 
  167.1250   -14.1420    78.3650    50.7010    50.8740    48.7990    23.9470     2.2410 
  167.2500   -14.0850    78.9170    44.6380    44.9850    46.2450    23.9900     2.2480 
  167.3750   -13.9830    77.0380    38.3910    38.7720    40.4650    23.7890     2.2580 
  167.5000   -13.8950    78.6390    32.9780    33.2030    32.2270    23.2500     2.2700 
  167.6250   -13.8530    82.7100    29.8770    29.6040    27.1230    22.6490     2.2830 
  167.7500   -13.8610    84.6110    29.6070    28.4370    25.4770    22.6090     2.2920 
  167.8750   -13.8720    83.8210    32.6400    30.1680    27.1640    23.0590     2.2930 
  168.0000   -13.8320    82.6270    39.1690    35.1320    34.3610    23.3640     2.2850 
  168.1250   -13.8130    82.5750    49.3730    43.8080    44.6480    23.5520     2.2680 
  168.2500   -13.8400    77.4120    61.6160    54.8450    56.3250    23.8390     2.2470 
  168.3750   -13.8990    67.6820    74.3090    66.7710    67.8890    24.0530     2.2270 
  168.5000   -13.9160    61.3980    85.7020    77.7700    79.5460    24.0880     2.2110 
  168.6250   -13.8720    64.4780    93.9290    85.7880    88.7210    24.0690     2.2020 
  168.7500   -13.8600    73.0250    99.1140    90.7380    96.0770    24.1720     2.1980 
  168.8750   -13.8560    78.7650   101.6830    93.0020   100.9410    24.3010     2.1970 
  169.0000   -13.8650    76.3760   102.1600    93.1460   101.1340    24.3500     2.1980 
  169.1250   -13.8080    68.5800   100.6870    91.4090    96.9850    24.3040     2.2020 
  169.2500   -13.6870    65.8840    97.9440    88.5120    92.2060    24.2340     2.2080 
  169.3750   -13.5790    69.7930    94.4200    84.9430    87.4110    24.1840     2.2140 
  169.5000   -13.5150    70.2590    90.7170    81.2790    81.2340    24.1800     2.2200 
  169.6250   -13.4660    67.6850    87.5420    78.2130    75.1560    24.2370     2.2270 
  169.7500   -13.3730    71.9000    85.2010    76.0460    72.7920    24.2990     2.2330 
  169.8750   -13.2770    78.5090    83.7580    74.8540    72.2600    24.2830     2.2390 
  170.0000   -13.2200    77.2430    83.0530    74.4960    72.0380    24.1950     2.2450 
  170.1250   -13.2320    65.7700    82.7520    74.6670    72.0070    24.1580     2.2470 
  170.2500   -13.2680    59.7810    82.3260    74.8010    72.0710    24.1490     2.2440 
  170.3750   -13.2760    62.6220    81.4740    74.5400    72.1410    24.1330     2.2380 
  170.5000   -13.2670    68.7840    80.1410    73.7440    71.6600    24.0780     2.2300 
  170.6250   -13.2920    73.0700    78.6070    72.5530    69.9320    23.9380     2.2240 
  170.7500   -13.3450    76.0660    77.4900    71.5180    66.5760    23.7790     2.2220 
  170.8750   -13.3890    76.8250    77.3800    71.1890    63.6320    23.5960     2.2220 
  171.0000   -13.3810    73.0540    78.7440    72.0560    63.4770    23.3950     2.2230 
  171.1250   -13.3310    66.8640    82.0500    74.6520    67.2860    23.3210     2.2250 
  171.2500   -13.3310    64.8620    86.8140    78.6640    72.7060    23.3460     2.2260 
  171.3750   -13.3620    69.6140    92.5730    83.7560    78.3680    23.4630     2.2270 
  171.5000   -13.4030    78.4470    98.7520    89.4370    84.1260    23.5850     2.2280 
  171.6250   -13.3920    85.0120   104.7200    95.1430    89.4770    23.6550     2.2300 
  171.7500   -13.3630    84.2650   110.1050   100.4330    94.9060    23.6960     2.2310 
  171.8750   -13.3700    75.3950   114.6680   105.0450   101.1880    23.7070     2.2330 
  172.0000   -13.4200    65.8190   118.0360   108.7360   108.1410    23.6930     2.2340 
  172.1250   -13.4940    65.2160   119.6650   110.9160   114.9990    23.6030     2.2340 
  172.2500   -13.4890    73.1870   119.3050   111.2850   120.1760    23.5130     2.2350 
  172.3750   -13.4470    83.2100   116.8940   109.3660   121.9190    23.6310     2.2360 
  172.5000   -13.3930    87.7770   112.1040   104.9230   119.2530    23.8100     2.2360 
  172.6250   -13.4090    89.8160   105.9330    98.0370   111.6300    23.8790     2.2380 
  172.7500   -13.4560    91.1700    99.1530    90.2500   101.7030    23.8610     2.2410 
  172.8750   -13.4570    87.8990    91.8880    82.9560    89.3330    23.8370     2.2460 
  173.0000   -13.4580    83.8830    85.8320    77.4190    75.5920    23.8000     2.2500 
  173.1250   -13.4760    89.5080    83.2780    74.9380    68.6100    23.7250     2.2510 
  173.2500   -13.5310    97.6950    83.6580    75.2140    70.3520    23.6460     2.2470 
  173.3750   -13.5990    96.5300    86.2930    77.7790    76.9740    23.6140     2.2390 
  173.5000   -13.6390    87.2290    90.1130    81.7450    84.2160    23.5890     2.2320 
  173.6250   -13.6420    79.4230    93.6490    85.8050    90.0080    23.5260     2.2280 
  173.7500   -13.6450    73.8920    95.7610    88.7180    92.9650    23.4440     2.2270 
  173.8750   -13.6610    74.8180    95.9960    89.8880    93.3610    23.4040     2.2270 
  174.0000   -13.6370    86.6320    94.4890    89.2830    91.3410    23.3020     2.2270 
  174.1250   -13.5640    97.1620    91.6370    87.1460    86.1940    23.0630     2.2270 
  174.2500   -13.5270    95.6230    88.2310    84.2670    80.4530    22.9890     2.2280 
  174.3750   -13.5030    89.1080    84.5840    81.0080    75.5590    23.0790     2.2290 
