~V
VERS. 2.00: Ver 2.00
~W
STRT.M 55.0000:
STOP.M 271.0000:
STEP.M 0.1250:
NULL. -999.2500:
UWI. DF5032:
~C
DEPT.M :
SP.MV :
GR.API :
CALI.CM :
RXO.OHMM :
RI. :
RML.OHMM :
DEN.GM/CC :
~A
# ...
  246.2500   -23.0700    78.8290    24.3450    51.4100    47.9540    51.6870     2.2410 
  246.3750   -23.0590    83.3630    24.3010    49.5990    45.5860    49.1600     2.2480 
  246.5000   -23.0670    85.1910    24.2830    48.0170    43.7960    47.2510     2.2490 
  246.6250   -23.0630    82.9050    24.3140    45.8440    42.4130    45.7750     2.2460 
  246.7500   -23.0300    79.0340    24.3430    44.6440    41.3420    44.6320     2.2530 
  246.8750   -22.9720    75.7690    24.3250    45.1570    40.7560    44.0060     2.2740 
  247.0000   -22.9080    74.8160    24.2360    45.2490    41.0060    44.2730     2.3000 
  247.1250   -22.8560    76.8550    24.1180    42.8180    42.9530    46.3510     2.3150 
  247.2500   -22.8060    79.5670    24.1080    40.3610    47.1140    50.7900     2.3120 
  247.3750   -22.7380    80.9910    24.2050    43.0020    53.9230    58.0560     2.2960 
  247.5000   -22.6350    80.2970    24.2790    57.3090    63.3110    68.0730     2.2760 
  247.6250   -22.5000    77.1200    24.2410    89.4890    74.5480    80.0630     2.2530 
  247.7500   -22.3580    73.1090    24.1630   124.4710    85.3410    91.5790     2.2320 
  247.8750   -22.2240    70.4530    24.1090   147.1930    93.4190   100.1980     2.2220 
  248.0000   -22.0900    70.2610    24.1050   153.1440    97.0330   104.0540     2.2290 
  248.1250   -21.9310    71.5150    24.0750   146.0830    95.1600   102.0550     2.2480 
  248.2500   -21.7390    72.2980    24.0830   132.3160    90.1350    96.6940     2.2650 
  248.3750   -21.5280    73.0460    24.1560   111.5040    84.1670    90.3260     2.2700 
  248.5000   -21.3210    75.2050    24.2500    86.9300    79.2640    85.0950     2.2660 
  248.6250   -21.1340    78.2920    24.2630    69.9260    76.8900    82.5610     2.2660 
  248.7500   -20.9510    79.5090    24.2230    68.0870    76.6270    82.2810     2.2890 
  248.8750   -20.7500    78.4510    24.2100    80.8140    77.9060    83.6450     2.3390 
  249.0000   -20.5210    77.1230    24.1520    95.0210    80.0510    85.9340     2.4070 
  249.1250   -20.2720    77.2250    24.0110    96.1530    82.3080    88.3420     2.4600 
  249.2500   -20.0240    78.7970    23.9420    88.4470    83.9720    90.1180     2.4730 
  249.3750   -19.7830    82.0040    23.9940    87.0870    84.4240    90.6010     2.4530 
  249.5000   -19.5330    86.3820    24.0160   103.5420    83.1450    89.2360     2.4300 
  249.6250   -19.2470    90.0800    24.0340   137.0910    79.5960    85.4490     2.4260 
  249.7500   -18.9230    92.1550    24.0390   159.2050    74.4970    80.0090     2.4200 
  249.8750   -18.5760    92.6250    23.9880   147.4370    68.7720    73.9000     2.3960 
  250.0000   -18.2270    91.2200    23.9300   110.0600    63.6430    68.4270     2.3610 
  250.1250   -17.8840    88.4000    23.9110    77.2780    60.7630    65.3540     2.3460 
  250.2500   -17.5300    86.3710    23.9410    62.2380    60.5640    65.1420     2.3640 
  250.3750   -17.1470    85.9080    23.9710    59.3820    62.6180    67.3330     2.4120 
  250.5000   -16.7310    85.0450    23.9460    67.6420    65.2780    70.1710     2.4760 
  250.6250   -16.3010    80.8790    23.8210   103.2050    65.3950    70.2960     2.5370 
  250.7500   -15.8870    74.9320    23.7570   168.0420    61.0090    65.6170     2.5820 
  250.8750   -15.4980    70.2450    23.7130   225.2970    51.9630    55.9650     2.6000 
  251.0000   -15.1250    68.2950    23.7160   222.7980    40.1770    43.3890     2.5800 
  251.1250   -14.7580    68.0400    23.7620   154.4350    28.7880    31.2370     2.5210 
  251.2500   -14.4040    67.2340    23.7850    79.8460    19.7620    21.6060     2.4530 
  251.3750   -14.0910    65.4380    23.8330    32.8190    13.5130    14.9390     2.3930 
  251.5000   -13.8440    63.8760    23.9020    12.1070     9.6990    10.8690     2.3490 
  251.6250   -13.6790    64.3590    23.9210     6.5180     7.8520     8.8980     2.3240 
  251.7500   -13.5620    66.1190    23.8990     5.0630     7.0060     7.9950     2.3130 
  251.8750   -13.4720    68.0010    23.8550     4.8030     6.7920     7.7670     2.3130 
  252.0000   -13.3990    70.1460    23.8170     4.8030     6.9740     7.9610     2.3150 
  252.1250   -13.3600    72.4250    23.8770     4.9110     7.3910     8.4070     2.3200 
  252.2500   -13.3580    73.0190    23.9100     5.1280     7.8670     8.9140     2.3310 
  252.3750   -13.3830    71.5420    23.8900     5.5550     8.3200     9.3980     2.3460 
  252.5000   -13.4070    69.6310    23.8480     6.3090     8.7000     9.8030     2.3630 
  252.6250   -13.4010    68.9790    23.8660     7.4310     8.9440    10.0640     2.3760 
  252.7500   -13.3660    69.1280    24.0110     8.4870     9.0430    10.1690     2.3840 
  252.8750   -13.3200    70.1930    24.1490     9.0630     8.9940    10.1170     2.3870 
  253.0000   -13.2790    72.3990    24.1830     9.1090     8.8130     9.9240     2.3830 
  253.1250   -13.2440    74.1360    24.0980     8.9270     8.5330     9.6240     2.3710 
  253.2500   -13.1960    73.8680    24.0530     8.8710     8.2150     9.2860     2.3560 
  253.3750   -13.1180    72.6580    24.0350     8.7670     7.8980     8.9470     2.3440 
  253.5000   -13.0130    73.1030    24.0100     8.5250     7.6060     8.6350     2.3330 
  253.6250   -12.9030    75.7110    24.0080     8.2280     7.3510     8.3640     2.3210 
  253.7500   -12.8110    77.0880    24.0020     7.9310     7.1200     8.1170     2.3090 
  253.8750   -12.7410    75.8280    24.0160     7.7590     6.9030     7.8850     2.3020 
  254.0000   -12.6750    73.3810    24.0300     7.8380     6.6990     7.6670     2.3040 
  254.1250   -12.5900    72.1080    24.0760     8.0540     6.5180     7.4750     2.3140 
  254.2500   -12.4870    71.9420    24.0960     7.9780     6.3680     7.3150     2.3260 
  254.3750   -12.3790    72.2330    24.1060     7.4670     6.2560     7.1950     2.3320 
  254.5000   -12.2830    72.6700    24.1000     6.8960     6.1780     7.1120     2.3240 
  254.6250   -12.1980    72.8930    24.0840     6.8840     6.1310     7.0620     2.3100 
  254.7500   -12.1040    72.4500    24.1740     7.2520     6.1070     7.0360     2.3000 
  254.8750   -11.9810    71.0000    24.3770     7.5130     6.1040     7.0330     2.2990 
  255.0000   -11.8300    68.3680    24.5690     7.3710     6.1250     7.0560     2.3010 
  255.1250   -11.6720    65.6080    24.4800     6.8500     6.1710     7.1050     2.3000 
  255.2500   -11.5340    65.2750    24.2380     6.3490     6.2310     7.1680     2.3010 
  255.3750   -11.4220    68.7900    24.0580     6.3240     6.2890     7.2300     2.3070 
  255.5000   -11.3270    74.0840    23.9860     7.0030     6.3260     7.2700     2.3190 
  255.6250   -11.2320    76.5750    23.9950     8.0370     6.3130     7.2560     2.3270 
  255.7500   -11.1340    76.1580    24.1050     8.5300     6.2390     7.1770     2.3300 
  255.8750   -11.0480    75.3040    24.1840     8.0240     6.1120     7.0410     2.3290 
  256.0000   -10.9890    75.1470    24.1590     6.8850     5.9530     6.8720     2.3280 
  256.1250   -10.9650    74.5020    24.1160     5.9970     5.8020     6.7110     2.3240 
  256.2500   -10.9510    73.2800    24.0930     5.6880     5.6940     6.5960     2.3190 
  256.3750   -10.9260    72.7050    24.1030     5.7270     5.6470     6.5450     2.3210 
  256.5000   -10.8820    73.1830    24.1060     5.8840     5.6660     6.5660     2.3300 
  256.6250   -10.8270    73.8100    24.0630     6.0580     5.7520     6.6580     2.3370 
  256.7500   -10.7820    73.6560    24.0310     6.2310     5.8760     6.7900     2.3380 
  256.8750   -10.7520    72.7540    24.0220     6.3970     6.0150     6.9380     2.3370 
  257.0000   -10.7250    71.6750    24.0150     6.5530     6.1440     7.0760     2.3340 
  257.1250   -10.6770    71.2920    23.9620     6.7740     6.2360     7.1740     2.3330 
  257.2500   -10.6050    71.7230    23.9020     7.0060     6.2830     7.2240     2.3360 
  257.3750   -10.5250    72.2610    23.8490     7.0460     6.2850     7.2260     2.3430 
