~V
VERS. 2.00: Ver 2.00
~W
STRT.M 60.0000:
STOP.M 268.0000:
STEP.M 0.1250:
NULL. -999.2500:
UWI. DF5039:
~C
DEPT.M :
DEN.GM/CC :
GR.API :
CALI.CM :
RXO.OHMM :
RI. :
RML.OHMM :
SP.MV :
~A
# ...
  262.5000     2.4470    61.5030    23.5320    14.8150    14.8040    16.3060   -10.3530 
  262.6250     2.4410    61.5030    23.4790    14.3280    14.8040    16.2990   -10.3090 
  262.7500     2.4340    61.5030    23.4160    14.4920    14.8020    16.2900   -10.2710 
  262.8750     2.4280    61.5030    23.3670    14.7690    14.8010    16.2860   -10.2820 
  263.0000     2.4270    61.5030    23.3460    14.5510    14.8010    16.2860   -10.3380 
  263.1250     2.4330    61.5030    23.3430    14.5650    14.8010    16.2860   -10.4250 
  263.2500     2.4430    61.5030    23.3420    14.8090    14.8010    16.2860   -10.5710 
  263.3750     2.4550    61.5030    23.3410    14.8140    14.8010    16.2860   -10.5800 
  263.5000     2.4650    61.5030    23.3400    14.8700    14.8010    16.2860   -10.6350 
  263.6250     2.4660    61.5030    23.3400    15.2630    14.8010    16.2860   -10.8150 
  263.7500     2.4560    61.5030    23.3400    15.4340    14.8010    16.2860   -10.8560 
  263.8750     2.4390    61.5030    23.3410    15.1690    14.8010    16.2860   -10.8210 
  264.0000     2.4210    61.5030    23.3400    14.6170    14.8010    16.2860   -10.7180 
  264.1250     2.4120    61.5030    23.3300    13.9650    14.8010    16.2860   -10.6020 
  264.2500     2.4120    61.5030    23.2940    13.6450    14.8010    16.2860   -10.5500 
  264.3750     2.4200    61.5030    23.2220    13.5280    14.8010    16.2860   -10.5930 
  264.5000     2.4320    61.5030    23.0710    12.9230    14.8010    16.2860   -10.6630 
  264.6250     2.4390    61.5030    22.7450    11.5410    14.8010    16.2860   -10.6810 
  264.7500     2.4310    61.5030    22.2280    10.0010    14.8010    16.2860   -10.6870 
  264.8750     2.3930    61.5030    21.5780     8.3970    14.8010    16.2860   -10.6630 
  265.0000     2.3210    61.5030    20.8400     6.7050    14.8010    16.2860   -10.7390 
  265.1250     2.2360    61.5030    19.7220     5.4900    14.8010    16.2860   -10.8210 
  265.2500     2.1660    61.5030    18.2080     4.7150    14.8010    16.2860   -10.8750 
  265.3750     2.1230    61.5030    16.7760     4.4440    14.8010    16.2860   -10.9130 
  265.5000     2.1040    61.5030    15.9750     4.3970    14.8010    16.2860   -10.8920 
  265.6250     2.1030    61.5030    15.8780     4.3940    14.8010    16.2860   -10.8150 
  265.7500     2.1070    61.5030    15.9160     4.3940    14.8010    16.2860   -10.8120 
  265.8750     2.1120    61.5030    15.9200     4.3950    14.8010    16.2860   -10.8460 
  266.0000     2.1150    61.5030    15.9190     4.3970    14.8010    16.2860   -10.8290 
  266.1250     2.1170    61.5030    15.9190     4.3980    14.8010    16.2860   -10.8210 
  266.2500     2.1180    61.5030    15.9190     4.3960    14.8010    16.2860  -999.2500 
  266.3750     2.1180    61.5030    15.9190     4.3940    14.8010    16.2860  -999.2500 
  266.5000     2.1170    61.5030    15.9190     4.3940    14.8010    16.2860  -999.2500 
  266.6250     2.1130    61.5030    15.9190     4.3940    14.8010    16.2860  -999.2500 
  266.7500     2.1080    61.5030    15.9190     4.3940    14.8010    16.2860  -999.2500 
  266.8750     2.1040    61.5030    15.9190     4.3940    14.8010    16.2860  -999.2500 
  267.0000     2.1030    61.5030    15.9190     4.3940    14.8010    16.2860  -999.2500 
  267.1250     2.1060    61.5030    15.9190     4.3940    14.8010    16.2860  -999.2500 
  267.2500     2.1150    61.5030    15.9190     4.3940    14.8010    16.2860  -999.2500 
  267.3750     2.1270    61.5030    15.9190     4.3940    14.8010    16.2860  -999.2500 
  267.5000     2.1360    61.5030    15.9190     4.3930    14.8010    16.2860  -999.2500 
  267.6250     2.1350    61.5030    15.9190     4.3930    14.8010    16.2860  -999.2500 
  267.7500     2.1260    61.5030    15.9190     4.3930    14.8010    16.2860  -999.2500 
  267.8750     2.1180  -999.2500  -999.2500  -999.2500  -999.2500  -999.2500  -999.2500 
  268.0000  -999.2500  -999.2500  -999.2500  -999.2500  -999.2500  -999.2500  -999.2500 
