~V
VERS. 2.00: Ver 2.00
~W
STRT.M 65.0000:
STOP.M 272.0000:
STEP.M 0.1250:
NULL. -999.2500:
UWI. DF5002:
~C
DEPT.M :
DEN.GM/CC :
GR.API :
CALI.CM :
RXO.OHMM :
RI. :
RML.OHMM :
SP.MV :
~A
# ...
  233.7500     2.2750    81.3920    24.2160    27.7120    19.8430    21.8190   -11.5080 
  233.8750     2.2540    75.3920    24.3230    51.6660    30.4750    32.3710   -11.9330 
  234.0000     2.2320    70.6500    24.4070    91.0950    45.8750    47.7090   -12.3340 
  234.1250     2.2050    67.5820    24.4360   131.9590    64.5910    67.2100   -12.7470 
  234.2500     2.1780    66.2570    24.4390   156.2350    81.2590    85.0910   -13.1300 
  234.3750     2.1570    68.0230    24.4440   164.7380    92.1380    96.3380   -13.5270 
  234.5000     2.1430    72.6310    24.4600   155.7190    96.8380   100.4490   -13.9380 
  234.6250     2.1380    74.4930    24.4930   143.9010    97.4680   100.7960   -14.2970 
  234.7500     2.1380    71.3400    24.5080   129.7760    97.1640   100.9650   -14.6340 
  234.8750     2.1370    66.6890    24.5120   125.8710    96.9840   101.7120   -15.0170 
  235.0000     2.1330    64.3370    24.5120   125.8300    97.2900   102.9970   -15.4450 
  235.1250     2.1240    63.8630    24.5120   125.3300    98.1610   104.5480   -15.9010 
  235.2500     2.1170    62.3610    24.5120   123.0340    99.1670   105.8210   -16.3270 
  235.3750     2.1170    61.0490    24.5010   117.1140    99.6810   106.0570   -16.7610 
  235.5000     2.1340    61.0490    24.4680   110.3340    98.9030   104.3650   -17.2140 
  235.6250     2.1670    61.9270    24.3940   107.0410    95.9650    99.9600   -17.6140 
  235.7500     2.1940    63.8500    24.3240   102.1950    91.4600    93.9830   -18.0100 
  235.8750     2.2050    67.5530    24.2480    94.1760    86.3030    87.7230   -18.3060 
  236.0000     2.1990    71.0840    24.2810    83.7650    81.4060    82.1680   -18.5810 
  236.1250     2.1910    71.3380    24.3120    72.2360    77.1600    77.5500   -18.7360 
  236.2500     2.1900    71.1350    24.3350    64.9580    73.0200    73.1800   -18.8890 
  236.3750     2.1940    72.8990    24.3370    63.5100    68.4060    68.8270   -18.9220 
  236.5000     2.1980    75.4720    24.3440    66.1800    63.4810    64.4080   -18.9280 
  236.6250     2.2040    75.0490    24.3640    66.7450    59.0020    60.3950   -18.9190 
  236.7500     2.2130    74.4760    24.3910    63.2510    55.5340    57.2880   -18.8760 
  236.8750     2.2260    75.4180    24.3940    58.6620    53.3090    55.2890   -18.8660 
  237.0000     2.2320    76.1670    24.3780    58.8280    52.1200    54.1960   -18.8310 
  237.1250     2.2210    75.1890    24.3760    65.4710    51.3460    53.4440   -18.8870 
  237.2500     2.2020    74.5250    24.3540    68.2550    50.2220    52.3770   -18.9130 
  237.3750     2.1870    75.3810    24.2530    63.7530    48.5680    50.8580   -19.0530 
  237.5000     2.1820    76.8150    24.1390    59.9610    46.7280    49.1740   -19.2150 
  237.6250     2.1850    78.4050    24.0890    58.0710    45.4160    47.9440   -19.4510 
  237.7500     2.1830    77.7230    24.0820    56.4600    44.9280    47.4810   -19.7400 
  237.8750     2.1740    74.4690    24.0820    55.5920    45.1710    47.7940   -20.0600 
  238.0000     2.1660    72.7270    24.0730    57.6490    45.7750    48.6110   -20.3920 
  238.1250     2.1710    76.8300    24.0460    59.4870    46.2810    49.5000   -20.7260 
  238.2500     2.1800    80.6110    24.0040    57.5120    46.5420    50.1980   -21.0820 
  238.3750     2.1820    79.4650    23.9800    53.9470    46.7240    50.7830   -21.3500 
  238.5000     2.1740    75.7070    24.0140    52.7000    47.1220    51.5270   -21.5940 
  238.6250     2.1630    74.1990    24.1350    55.3030    48.0400    52.8090   -21.6890 
  238.7500     2.1570    75.2680    24.2590    58.9540    49.2060    54.4610   -21.6920 
  238.8750     2.1550    78.2260    24.3180    61.7610    49.9700    55.8650   -21.5120 
  239.0000     2.1550    81.5720    24.3280    60.0680    49.5230    56.1060   -21.2520 
  239.1250     2.1590    83.5240    24.3260    54.0460    47.0370    54.1160   -20.8860 
  239.2500     2.1670    83.8570    24.3280    48.8120    43.0500    50.2540   -20.3980 
  239.3750     2.1790    84.8250    24.3260    44.5500    38.3280    45.2490   -19.8880 
  239.5000     2.1970    88.8840    24.2990    39.9950    33.7380    40.0910   -19.2820 
  239.6250     2.2160    93.4660    24.2350    35.5750    30.0840    35.7840   -18.6710 
  239.7500     2.2280    94.6550    24.2250    30.4430    27.4650    32.5760   -18.1440 
  239.8750     2.2340    93.4120    24.2930    26.0080    25.7840    30.4220   -17.6960 
  240.0000     2.2340    91.2400    24.3540    24.4490    24.7630    29.0640   -17.2940 
  240.1250     2.2250    90.6480    24.3860    25.4860    24.0310    28.1300   -16.9490 
  240.2500     2.2170    92.0780    24.3900    26.8100    23.2490    27.2240   -16.6770 
  240.3750     2.2210    94.1240    24.3710    26.0760    22.4650    26.3710   -16.4380 
  240.5000     2.2470    94.2040    24.3510    23.7740    22.0380    25.9180   -16.2380 
  240.6250     2.2860    91.7850    24.3480    22.7860    22.6990    26.6350   -16.1410 
  240.7500     2.3220    90.0860    24.3560    24.0840    24.8450    28.9850   -16.0430 
  240.8750     2.3470    90.1690    24.3630    28.7520    28.8440    33.4280   -16.0000 
  241.0000     2.3650    90.7000    24.3640    49.7010    34.7820    40.0660   -15.9880 
  241.1250     2.3780    93.2750    24.3590    75.6020    41.9270    48.0160   -15.9500 
  241.2500     2.3810    96.6030    24.3430    86.2750    47.8310    54.5930   -16.0220 
  241.3750     2.3700    97.4010    24.3050    75.4770    50.5400    57.7620   -16.0930 
  241.5000     2.3530    93.8680    24.2400    60.2450    50.0740    57.4880   -16.2200 
  241.6250     2.3440    88.5120    24.2400    55.5490    48.4880    55.7840   -16.4490 
  241.7500     2.3510    86.5750    24.2830    55.6210    48.1400    55.2450   -16.6130 
  241.8750     2.3740    86.8880    24.3110    53.9360    50.0380    57.1340   -16.8010 
  242.0000     2.4100    87.6610    24.2530    55.4110    54.5740    62.0360   -16.9950 
  242.1250     2.4530    88.9510    24.1920    66.2850    62.1030    70.3660   -17.1530 
  242.2500     2.4890    88.2250    24.1400    82.5850    71.2880    80.4180   -17.3210 
  242.3750     2.4920    85.1060    24.1220    94.3640    80.0940    89.8360   -17.4980 
  242.5000     2.4500    82.7250    24.1360    96.0220    85.5490    95.6610   -17.5980 
  242.6250     2.3840    85.0950    24.1210    90.3210    84.2860    94.6650   -17.6640 
  242.7500     2.3530    88.5280    24.0560    87.6180    78.0560    88.3030   -17.7330 
  242.8750     2.3810    89.0540    23.9750    80.6760    69.4700    78.9020   -17.7600 
  243.0000     2.4380    87.9890    23.8190    67.7010    60.8530    69.0030   -17.8180 
  243.1250     2.4550    86.9500    23.7270    58.8470    53.9340    60.8870   -17.8680 
  243.2500     2.4150    87.0310    23.7630    56.7780    49.0910    55.2630   -17.8430 
  243.3750     2.3600    87.3390    23.9620    52.4520    46.5330    52.4080   -17.8990 
  243.5000     2.3540    86.1660    24.1700    44.9050    46.5010    52.5740   -18.0250 
  243.6250     2.4320    86.2520    24.3590    43.3090    49.9860    56.9570   -18.0710 
  243.7500     2.5280    87.9590    24.2390    49.5510    57.1790    65.6970   -18.1960 
  243.8750     2.5840    90.6990    24.0670    66.9030    68.4410    78.6640   -18.2980 
  244.0000     2.5910    93.2440    24.1300   100.2320    82.1760    93.1540   -18.3790 
  244.1250     2.5780    94.5340    24.3280   137.4490    88.5600    99.3790   -18.5390 
  244.2500     2.5520    93.0970    24.4120   146.5240    78.4620    89.7780   -18.7330 
  244.3750     2.5060    89.5060    24.3910   113.8840    57.3780    67.8750   -18.8950 
  244.5000     2.4530    89.5980    24.3520    63.7450    37.6010    45.0440   -19.0320 
  244.6250     2.4130    96.1540    24.3340    32.4780    25.1580    29.6710   -19.2320 
  244.7500     2.3760   102.7120    24.2980    18.0200    17.7780    20.5220   -19.4470 
  244.8750     2.3340   105.5900    24.2600    13.0270    13.7140    15.4920   -19.6660 
