~V
VERS. 2.00: Ver 2.00
~W
STRT.M 55.0000:
STOP.M 271.0000:
STEP.M 0.1250:
NULL. -999.2500:
UWI. DF5009:
~C
DEPT.M :
GR.API :
CALI.CM :
RXO.OHMM :
RI. :
RML.OHMM :
DEN.GM/CC :
SP.MV :
~A
# ...
  122.5000   100.9140    25.0670     4.8270     4.5140     4.9780     2.2670   -16.9640 
  122.6250   102.8590    25.0380     4.7370     4.3080     4.7760     2.2800   -17.1100 
  122.7500   101.1070    24.9720     4.7300     4.1630     4.6490     2.2900   -17.1620 
  122.8750    99.2010    24.9210     4.7160     4.0870     4.6090     2.2910   -17.2920 
  123.0000    99.4690    24.9000     4.5650     4.0880     4.6700     2.2830   -17.6470 
  123.1250    97.7450    24.8650     4.5090     4.1830     4.8500     2.2690   -18.0700 
  123.2500    92.5450    24.7880     4.7550     4.3490     5.1070     2.2550   -18.5010 
  123.3750    87.9720    24.6970     5.0530     4.5630     5.4020     2.2430   -18.9560 
  123.5000    86.9060    24.6240     5.2870     4.8050     5.7150     2.2340   -19.2940 
  123.6250    86.7460    24.6010     5.5800     5.0750     6.0530     2.2250   -19.6220 
  123.7500    85.3670    24.5720     5.7240     5.3730     6.4320     2.2130   -19.9230 
  123.8750    84.1300    24.4480     5.8730     5.7050     6.8590     2.1960   -20.2320 
  124.0000    84.5440    24.2550     6.3650     6.0600     7.3070     2.1790   -20.5140 
  124.1250    84.5060    24.1870     6.9810     6.3940     7.6900     2.1700   -20.6350 
  124.2500    82.0260    24.2800     7.2590     6.6560     7.9450     2.1760   -20.7710 
  124.3750    78.0280    24.4170     7.3250     6.8290     8.0650     2.1960   -20.7280 
  124.5000    74.9920    24.5110     7.2870     6.9330     8.0950     2.2170   -20.6790 
  124.6250    75.5580    24.5680     7.1010     7.0170     8.1130     2.2240   -20.6230 
  124.7500    77.4220    24.5890     7.3560     7.1350     8.1910     2.2120   -20.5140 
  124.8750    79.2450    24.5820     7.9160     7.3090     8.3600     2.1910   -20.3970 
  125.0000    81.0690    24.5710     8.2320     7.5400     8.6190     2.1710   -20.2520 
  125.1250    80.6000    24.5710     8.1950     7.8060     8.9340     2.1610   -20.1220 
  125.2500    77.1980    24.5720     8.1180     8.0410     9.1920     2.1590   -19.8250 
  125.3750    74.0020    24.5770     8.0450     8.1300     9.2380     2.1650   -19.6240 
  125.5000    73.8730    24.5950     7.9690     7.9320     8.9000     2.1770   -19.3980 
  125.6250    74.6490    24.6180     7.7840     7.2920     8.0160     2.2030   -19.0560 
  125.7500    76.0660    24.6410     7.1330     6.3580     6.7950     2.2410   -18.8490 
  125.8750    81.8500    24.6960     5.7950     5.3340     5.5150     2.2860   -18.6420 
  126.0000    90.6190    24.8240     4.4240     4.4340     4.4780     2.3240   -18.4830 
  126.1250    95.0680    25.0240     3.8570     3.8590     3.9590     2.3330   -18.3170 
  126.2500    96.2960    25.1910     3.7460     3.6310     3.9450     2.3120   -18.3150 
  126.3750    96.0490    25.2350     4.0810     3.7740     4.4350     2.2740   -18.4830 
  126.5000    92.5550    25.1070     4.9060     4.2960     5.3970     2.2350   -18.6660 
  126.6250    84.9490    24.8570     6.3560     5.2150     6.7490     2.2080   -19.0490 
  126.7500    78.2940    24.6660     7.4870     6.3330     8.1550     2.1890   -19.4350 
  126.8750    74.0970    24.5980     8.1080     7.4210     9.3010     2.1770   -19.7380 
  127.0000    71.3010    24.5510     8.3320     8.2250     9.9580     2.1700   -19.8740 
  127.1250    70.5940    24.4300     8.3120     8.5390    10.0380     2.1720   -19.9520 
  127.2500    72.4650    24.3540     8.2490     8.5530     9.8890     2.1860   -20.1120 
  127.3750    75.8420    24.3820     8.2340     8.4940     9.8100     2.2130   -20.0570 
  127.5000    78.4200    24.4030     8.2240     8.5460     9.9870     2.2510   -19.9770 
  127.6250    77.0450    24.3010     8.2550     8.8180    10.4690     2.2950   -19.9070 
  127.7500    75.4090    24.1790     8.4740     9.2240    11.0600     2.3300   -19.6660 
  127.8750    76.9920    24.1290     8.7210     9.6160    11.5210     2.3370   -19.4300 
  128.0000    80.2280    24.1380     8.8250     9.7940    11.6140     2.3100   -19.2270 
  128.1250    80.9270    24.1520     8.7140     9.5760    11.1760     2.2660   -19.1540 
  128.2500    80.0630    24.1430     8.7550     9.0800    10.4290     2.2280   -18.9950 
  128.3750    77.6810    24.1180     8.6070     8.4560     9.5880     2.2040   -18.7320 
  128.5000    73.3010    24.0970     8.2470     7.8540     8.8440     2.1970   -18.5200 
  128.6250    71.3070    24.0890     7.7170     7.4030     8.3520     2.2000   -18.2100 
  128.7500    75.0760    24.0870     7.3280     7.1180     8.0890     2.2030   -17.9400 
  128.8750    81.6480    24.0860     7.1370     6.9810     8.0060     2.2050   -17.7850 
  129.0000    86.5830    24.0880     6.9850     6.9440     8.0140     2.2050   -17.6900 
  129.1250    87.8460    24.0990     6.8460     6.9040     7.9490     2.2100   -17.5190 
  129.2500    86.1240    24.1070     7.0020     6.7280     7.6610     2.2250   -17.2260 
  129.3750    82.0250    24.1170     7.2600     6.3510     7.1080     2.2490   -17.0710 
  129.5000    78.6000    24.1610     6.8810     5.8180     6.3940     2.2770   -16.9890 
  129.6250    81.0870    24.2680     5.6970     5.2930     5.7720     2.2970   -16.8880 
  129.7500    87.4100    24.4060     4.9100     4.9420     5.4510     2.3010   -16.9550 
  129.8750    91.7860    24.5270     4.9510     4.8520     5.5180     2.2860   -17.0040 
  130.0000    91.5750    24.5810     5.4030     5.0390     5.9490     2.2600   -17.0130 
  130.1250    88.8730    24.5170     6.3380     5.4840     6.6480     2.2360   -17.0330 
  130.2500    85.4950    24.3830     7.4680     6.0550     7.4090     2.2260   -17.1350 
  130.3750    81.2160    24.2520     8.2930     6.6780     8.1450     2.2370   -17.3380 
  130.5000    76.8170    24.1810     8.5450     7.3190     8.8430     2.2710   -17.3910 
  130.6250    74.3830    24.2170     8.7370     7.9710     9.5280     2.3140   -17.5220 
  130.7500    73.6890    24.3340    10.3040     8.5970    10.1650     2.3360   -17.6080 
  130.8750    74.2710    24.5030    15.3670     9.1080    10.6210     2.3150   -17.5740 
  131.0000    74.7740    24.6490    18.6640     9.3770    10.7390     2.2590   -17.5380 
  131.1250    73.6840    24.6400    15.6250     9.2820    10.4210     2.1990   -17.4370 
  131.2500    72.9390    24.5070    10.7360     8.9760     9.9030     2.1560   -17.4400 
  131.3750    72.9570    24.3690     9.1780     8.6310     9.4210     2.1340   -17.3150 
  131.5000    72.9200    24.3170     8.9360     8.4000     9.1540     2.1270   -17.2510 
  131.6250    72.8080    24.3230     8.8910     8.3920     9.1700     2.1310   -17.2230 
  131.7500    72.6060    24.3250     8.8410     8.5080     9.2690     2.1380   -17.1110 
  131.8750    71.1010    24.3250     8.8470     8.5780     9.2240     2.1490   -16.9790 
  132.0000    68.3550    24.3250     8.7520     8.4340     8.8710     2.1620   -16.7450 
  132.1250    68.0920    24.3490     8.4730     7.9630     8.1410     2.1820   -16.6840 
  132.2500    71.1610    24.4140     7.6500     7.2850     7.2320     2.2060   -16.6380 
  132.3750    75.3120    24.5310     6.4770     6.5390     6.3260     2.2330   -16.5050 
  132.5000    79.8010    24.7040     5.4440     5.8550     5.5760     2.2580   -16.3790 
  132.6250    84.6540    24.9070     5.1800     5.3460     5.0790     2.2760   -16.2820 
  132.7500    90.0950    25.0250     4.8980     4.9990     4.7720     2.2870   -16.2500 
  132.8750    94.9140    24.9870     4.7830     4.7840     4.5890     2.2950   -16.4430 
  133.0000    97.3830    24.8740     4.9550     4.6520     4.4650     2.3040   -16.7810 
  133.1250    95.8420    24.8720     4.9680     4.5570     4.3590     2.3110   -16.9870 
  133.2500    91.6330    24.9840     4.7420     4.4770     4.2760     2.3140   -17.2200 
  133.3750    87.9730    25.1100     4.6120     4.4280     4.2560     2.3110   -17.6000 
  133.5000    88.7650    25.1870     4.6980     4.4410     4.3380     2.2990   -18.0680 
  133.6250    95.3280    25.2250     4.8520     4.5650     4.5650     2.2790   -18.6000 
