~V
VERS. 2.00: Ver 2.00
~W
STRT.M 59.0000:
STOP.M 253.0000:
STEP.M 0.1250:
NULL. -999.2500:
UWI. DF5043:
~C
DEPT.M :
SP.MV :
GR.API :
CALI.CM :
RXO.OHMM :
RI. :
RML.OHMM :
DEN.GM/CC :
~A
# ...
  171.5000   -42.1150    68.9130    24.0360   141.8330   102.8660   111.3220     2.1940 
  171.6250   -42.0480    70.2360    23.8630   147.0580    93.0100    99.8240     2.1890 
  171.7500   -41.9820    72.0980    23.6100   131.0050    82.6310    88.0570     2.2010 
  171.8750   -41.9190    74.0570    23.3960   106.9490    72.8260    77.1330     2.2270 
  172.0000   -41.8520    74.9850    23.3030    87.9940    64.3870    67.8040     2.2500 
  172.1250   -41.7810    74.8100    23.3100    72.4430    57.8190    60.6060     2.2590 
  172.2500   -41.7070    75.4620    23.3180    59.2490    53.4510    55.9170     2.2520 
  172.3750   -41.6410    79.1970    23.3040    51.2310    51.8070    54.3660     2.2330 
  172.5000   -41.5820    83.2870    23.3560    47.2190    52.4350    55.4690     2.2240 
  172.6250   -41.5250    84.1730    23.4530    45.3160    55.3100    59.1900     2.2370 
  172.7500   -41.4610    81.2520    23.5780    45.8610    60.4310    65.5160     2.2680 
  172.8750   -41.3890    77.1960    23.7610    49.9750    68.1050    74.7870     2.2890 
  173.0000   -41.3150    74.0770    23.9650    56.0830    77.6280    86.2970     2.2810 
  173.1250   -41.2440    71.9860    24.0840    64.3010    88.3040    99.4020     2.2460 
  173.2500   -41.1750    71.6410    24.0900    77.1770    98.9510   112.8460     2.2080 
  173.3750   -41.0970    73.3100    23.9020    95.9790   107.5140   124.1160     2.1960 
  173.5000   -40.9990    73.8880    23.5830   115.1740   112.7090   131.2410     2.2030 
  173.6250   -40.8820    72.0950    23.3090   131.9520   113.9270   133.1070     2.2110 
  173.7500   -40.7510    70.5390    23.1470   140.1490   111.4230   129.8750     2.2080 
  173.8750   -40.6230    72.8020    23.0430   131.6440   105.8170   122.3740     2.2000 
  174.0000   -40.5200    76.6880    22.9860   112.2780    98.8460   113.0890     2.1950 
  174.1250   -40.4580    79.2430    23.1650    93.6610    91.4690   103.3550     2.1920 
  174.2500   -40.4510    79.8320    23.5850    84.4620    84.1560    93.8770     2.1920 
  174.3750   -40.5010    79.7570    24.0420    83.2040    76.8400    84.3800     2.1990 
  174.5000   -40.5800    80.1850    24.2570    81.2540    69.2250    74.4900     2.2180 
  174.6250   -40.6560    81.4350    24.3080    75.2940    61.2650    64.7660     2.2470 
  174.7500   -40.6970    83.4710    24.2860    67.1140    53.3530    55.9900     2.2820 
  174.8750   -40.6660    85.5300    24.2430    57.9550    46.3800    48.7320     2.3050 
  175.0000   -40.5610    86.2550    24.1850    47.6190    40.9580    43.0870     2.3080 
  175.1250   -40.3900    85.8250    24.1240    37.3790    37.5740    39.5650     2.3000 
  175.2500   -40.1700    86.2260    24.1220    29.2840    36.6340    38.5860     2.3040 
  175.3750   -39.9270    89.1020    24.0850    23.9870    38.9900    41.0380     2.3280 
  175.5000   -39.6970    92.1570    23.8720    23.1460    44.3820    46.6520     2.3400 
  175.6250   -39.5030    94.4910    23.5700    30.0110    52.8050    55.4210     2.3210 
  175.7500   -39.3590    95.6050    23.2820    46.4920    63.9220    66.9930     2.2830 
  175.8750   -39.2770    92.9950    23.1500    70.7230    76.8210    80.4210     2.2560 
  176.0000   -39.2340    86.5400    23.1410    94.2970    89.2280    93.3370     2.2500 
  176.1250   -39.2100    79.4360    23.2680   110.2880    99.1670   103.6830     2.2540 
  176.2500   -39.1730    74.9220    23.5450   115.3720   105.3050   110.0720     2.2540 
  176.3750   -39.0890    72.2080    23.8770   111.6470   107.1880   112.0330     2.2430 
  176.5000   -38.9480    69.5500    24.0770   107.0640   106.9240   111.7570     2.2310 
  176.6250   -38.7590    67.8140    24.1140   103.9460   106.0640   110.8630     2.2280 
  176.7500   -38.5450    68.1360    24.0890   102.6640   105.5850   110.3640     2.2310 
  176.8750   -38.3400    70.5140    24.0510   103.4000   106.1590   110.9620     2.2310 
  177.0000   -38.1730    72.8230    24.0110   106.9050   107.9280   112.8030     2.2250 
  177.1250   -38.0620    74.2740    24.0000   113.0410   111.1570   116.1650     2.2150 
  177.2500   -38.0170    75.5500    24.0200   118.8500   116.2490   121.4660     2.2010 
  177.3750   -38.0520    77.3940    24.0330   120.4750   124.3340   129.8820     2.1880 
  177.5000   -38.1420    78.2580    24.0340   116.6450   135.5960   141.6060     2.1840 
  177.6250   -38.2640    77.1810    24.0110   111.1110   149.9980   156.5980     2.1890 
  177.7500   -38.3860    75.6270    23.9240   108.4260   166.6700   173.9540     2.1940 
  177.8750   -38.4680    75.0960    23.8190   114.4050   183.8890   191.8780     2.1830 
  178.0000   -38.4950    73.7620    23.7270   141.0100   199.3650   207.9890     2.1590 
  178.1250   -38.4670    70.0330    23.7830   192.1700   211.2420   220.3520     2.1380 
  178.2500   -38.3970    65.1960    23.9820   251.0960   218.1780   227.5730     2.1330 
  178.3750   -38.3110    64.9170    24.1590   279.3100   219.1150   228.5490     2.1490 
  178.5000   -38.2370    70.5120    24.2250   265.9360   215.8090   225.1070     2.1710 
  178.6250   -38.1890    76.5310    24.2530   236.7000   209.1940   218.2210     2.1890 
  178.7500   -38.1670    76.6380    24.1970   230.4460   199.7930   208.4350     2.2010 
  178.8750   -38.1540    70.9210    24.0120   258.4430   187.3280   195.4580     2.2080 
  179.0000   -38.1250    66.1430    23.8450   282.6800   172.5110   180.0340     2.2090 
  179.1250   -38.0620    64.4500    23.7470   278.2960   156.2960   163.1540     2.2020 
  179.2500   -37.9570    65.3110    23.6890   246.9060   140.3760   146.5810     2.1930 
  179.3750   -37.8070    69.1560    23.6840   199.9760   127.3710   133.0430     2.1860 
  179.5000   -37.6240    73.8330    23.6510   153.5470   118.6790   123.9950     2.1880 
  179.6250   -37.4180    76.8310    23.6140   119.8190   115.3420   120.5210     2.2000 
  179.7500   -37.1930    77.5310    23.6020   103.4610   117.7290   123.0060     2.2180 
  179.8750   -36.9570    77.3900    23.5360   103.4400   125.9570   131.5710     2.2270 
  180.0000   -36.7200    77.3210    23.4920   119.4190   137.5800   143.6710     2.2230 
  180.1250   -36.4920    76.9680    23.4720   152.2020   150.6630   157.2910     2.2100 
  180.2500   -36.2800    76.9940    23.4680   189.7000   162.9790   170.1110     2.1950 
  180.3750   -36.0870    78.9440    23.5180   209.4900   171.8480   179.3440     2.1840 
  180.5000   -35.9030    81.5040    23.6110   209.5190   176.6260   184.3180     2.1840 
  180.6250   -35.7240    82.1860    23.7030   198.7410   177.6010   185.3320     2.1940 
  180.7500   -35.5500    80.5860    23.7610   183.7640   175.9340   183.5980     2.2060 
  180.8750   -35.3840    80.1260    23.8420   167.4210   173.0960   180.6430     2.2120 
  181.0000   -35.2250    81.9320    23.9470   161.9050   170.4060   177.8420     2.2120 
  181.1250   -35.0630    82.3390    24.0370   167.3930   168.1580   175.5030     2.2070 
  181.2500   -34.8870    78.8060    24.0450   172.9060   166.2620   173.5290     2.2010 
  181.3750   -34.6840    76.4870    23.9780   169.9630   164.4460   171.6380     2.2030 
  181.5000   -34.4640    80.6500    23.8790   164.7040   162.5510   169.6660     2.2090 
  181.6250   -34.2410    86.8500    23.8080   159.5470   160.8210   167.8640     2.2090 
  181.7500   -34.0240    87.0540    23.7750   156.8890   159.8110   166.8130     2.1950 
  181.8750   -33.8190    81.1730    23.7650   161.9550   160.5430   167.5750     2.1790 
  182.0000   -33.6220    76.9910    23.7630   168.7710   163.1820   170.3220     2.1760 
  182.1250   -33.4290    75.7510    23.7530   170.2350   167.4020   174.7160     2.1890 
  182.2500   -33.2440    73.7620    23.7450   164.8490   172.2550   179.7670     2.2080 
  182.3750   -33.0780    70.4380    23.7380   161.0010   176.1860   183.8590     2.2190 
  182.5000   -32.9390    68.8240    23.7360   169.3670   177.8660   185.6090     2.2200 
  182.6250   -32.8350    69.1620    23.7820   190.0780   176.2560   183.9330     2.2140 
