~V
VERS. 2.00: Ver 2.00
~W
STRT.M 50.0000:
STOP.M 277.0000:
STEP.M 0.1250:
NULL. -999.2500:
UWI. DF5031:
~C
DEPT.M :
DEN.GM/CC :
GR.API :
CALI.CM :
RXO.OHMM :
RI. :
RML.OHMM :
SP.MV :
~A
# ...
   61.2500     2.1980    66.0930    23.6600     9.5170     6.1560     9.0740   -21.5180 
   61.3750     2.2200    64.3780    23.6670    10.2580     6.4640     9.5020   -21.9520 
   61.5000     2.2300    65.2900    23.6780    10.5500     6.6790     9.7630   -22.4420 
   61.6250     2.2200    68.1560    23.6960     9.8690     6.6410     9.6260   -22.8630 
   61.7500     2.1890    70.2760    23.7580     8.9480     6.3750     9.1660   -23.2780 
   61.8750     2.1490    69.9930    23.8780     8.4450     5.9830     8.5460   -23.6150 
   62.0000     2.1190    69.1490    23.9610     8.0940     5.5960     7.9410   -23.9240 
   62.1250     2.1130    69.3390    23.9820     7.7780     5.3380     7.5170   -24.2190 
   62.2500     2.1220    69.6100    23.9610     7.5340     5.2200     7.2970   -24.4850 
   62.3750     2.1340    71.1050    23.9520     7.4580     5.2100     7.2490   -24.6750 
   62.5000     2.1400    75.4240    23.9490     7.6200     5.2560     7.2930   -24.7290 
   62.6250     2.1390    80.2720    23.9430     7.8710     5.3240     7.3710   -24.6780 
   62.7500     2.1340    81.2120    23.9360     8.0990     5.3990     7.4560   -24.5710 
   62.8750     2.1280    76.9570    23.9210     8.2650     5.4740     7.5410   -24.4820 
   63.0000     2.1220    71.2360    23.8890     8.4120     5.5470     7.6290   -24.3760 
   63.1250     2.1150    68.0510    23.8700     8.5370     5.6160     7.7230   -24.2720 
   63.2500     2.1100    67.5710    23.8640     8.6090     5.6880     7.8150   -24.1900 
   63.3750     2.1130    69.8120    23.8670     8.7220     5.7630     7.8840   -24.2120 
   63.5000     2.1260    73.5650    23.8850     8.9110     5.8290     7.9060   -24.3090 
   63.6250     2.1390    76.7120    23.9170     9.0580     5.8660     7.8630   -24.5140 
   63.7500     2.1450    77.9050    23.9130     8.9940     5.8680     7.7810   -24.7720 
   63.8750     2.1440    78.2490    23.8010     8.6840     5.8360     7.7040   -25.0660 
   64.0000     2.1450    79.5170    23.6790     8.2310     5.7800     7.6690   -25.3390 
   64.1250     2.1510    80.0930    23.6480     7.9370     5.7230     7.6880   -25.6630 
   64.2500     2.1580    77.9070    23.7090     8.0150     5.6820     7.7200   -25.9950 
   64.3750     2.1570    73.6840    23.8060     8.3100     5.6700     7.7380   -26.2360 
   64.5000     2.1460    68.5020    23.8700     8.5420     5.6930     7.7270   -26.4440 
   64.6250     2.1290    65.1770    23.8940     8.5430     5.7540     7.6640   -26.6200 
   64.7500     2.1170    64.2350    23.8980     8.5990     5.8430     7.5790   -26.7940 
   64.8750     2.1200    65.0700    23.8990     8.7580     5.9460     7.5460   -26.9220 
   65.0000     2.1300    67.6040    23.9120     8.9720     6.0360     7.6310   -27.0290 
   65.1250     2.1320    69.9750    23.8140     9.0890     6.0510     7.8280   -27.0950 
   65.2500     2.1190    68.4190    23.6220     9.0560     5.9600     7.9670   -27.0960 
   65.3750     2.1040    65.4620    23.4060     8.8850     5.7580     7.8880   -27.0700 
   65.5000     2.0980    65.7570    23.3070     8.6890     5.4820     7.5450   -27.0230 
   65.6250     2.1050    68.8600    23.3090     8.5000     5.2000     7.0480   -26.8740 
   65.7500     2.1110    69.9030    23.3070     8.2750     4.9840     6.6590   -26.6050 
   65.8750     2.1060    70.5560    23.3030     8.0780     4.8600     6.4980   -26.2910 
   66.0000     2.0900    72.0990    23.2990     8.0110     4.8140     6.5420   -25.9490 
   66.1250     2.0770    72.5460    23.3040     8.1040     4.8360     6.7120   -25.3700 
   66.2500     2.0850    72.6790    23.3660     8.2350     4.9500     6.9760   -24.6710 
   66.3750     2.1290    74.7640    23.5650     8.3450     5.2450     7.4580   -23.9680 
   66.5000     2.2120    76.7190    23.8560     8.7250     5.8300     8.3470   -23.2170 
   66.6250     2.3200    76.1530    24.1580    10.6120     6.8290     9.8820   -22.3610 
   66.7500     2.4200    75.5800    24.3860    15.2820     8.0610    11.8120   -21.5300 
   66.8750     2.4990    78.8310    24.5360    22.4260     9.1210    13.4230   -20.7030 
   67.0000     2.5410    85.8710    24.4430    27.0990     9.4310    13.6520   -19.8190 
   67.1250     2.5220    92.6010    24.3490    22.9410     8.6100    11.9740   -19.0500 
   67.2500     2.4580    97.2420    24.3690    14.2390     7.3140     9.7920   -18.4620 
   67.3750     2.3810   100.2880    24.5330     8.1220     6.1080     8.0760   -17.9690 
   67.5000     2.3250   101.3740    24.7770     6.3970     5.2930     7.1730   -17.5380 
   67.6250     2.3000   100.6160    24.8560     6.7710     4.9890     7.1120   -17.3410 
   67.7500     2.2860   102.0870    24.6820     7.1020     4.9940     7.4470   -17.2780 
   67.8750     2.2760   109.0790    24.4010     6.8930     5.1200     7.8100   -17.2200 
   68.0000     2.2740   115.9650    24.3170     6.4300     5.1940     7.9100   -17.1840 
   68.1250     2.2850   116.6470    24.5650     6.0360     5.1240     7.6670   -17.1670 
   68.2500     2.2980   116.7740    24.7000     5.8570     4.9840     7.3430   -17.1350 
   68.3750     2.3030   119.4080    24.7640     5.7970     4.8580     7.1130   -17.0800 
   68.5000     2.3000   123.0180    24.7560     5.7300     4.8080     7.0490   -17.0490 
   68.6250     2.2920   121.0040    24.7450     5.7150     4.8660     7.1450   -17.0530 
   68.7500     2.2760   114.3370    24.7190     5.9300     4.9890     7.3080   -16.9920 
   68.8750     2.2520   108.8540    24.6130     6.6920     5.1350     7.5030   -16.9670 
   69.0000     2.2330   107.6450    24.4770     7.7110     5.2560     7.6830   -17.0740 
   69.1250     2.2340   111.0790    24.4110     7.7740     5.2980     7.7750   -17.2520 
   69.2500     2.2460   113.5610    24.5290     6.9840     5.2590     7.7600   -17.3790 
   69.3750     2.2520   113.1050    24.7510     6.2160     5.1610     7.6580   -17.4460 
   69.5000     2.2440   110.4970    24.8790     5.9060     5.0340     7.5090   -17.5500 
   69.6250     2.2320   108.3220    24.9050     5.9000     4.9260     7.3740   -17.7040 
   69.7500     2.2260   107.5580    24.9010     5.9970     4.9030     7.3560   -17.9610 
   69.8750     2.2360   106.8880    24.8920     6.1950     5.0360     7.5680   -18.2560 
   70.0000     2.2710   102.9710    24.8620     6.4370     5.3740     8.0920   -18.5140 
   70.1250     2.3330    96.7460    24.7400     7.0340     5.9500     8.9880   -18.8080 
   70.2500     2.3870    90.4800    24.5720     8.6990     6.6320    10.0550   -19.2390 
   70.3750     2.3950    84.7420    24.4340    11.2530     7.2370    10.9830   -19.7720 
   70.5000     2.3420    80.4370    24.2840    12.4780     7.5680    11.4330   -20.2760 
   70.6250     2.2540    78.3780    24.0550    10.7900     7.4980    11.2400   -20.7710 
   70.7500     2.1820    77.6490    23.7990     8.7900     7.2120    10.7630   -21.2580 
   70.8750     2.1430    79.1890    23.6920     7.8800     6.8850    10.2890   -21.7370 
   71.0000     2.1300    82.7090    23.6770     7.7680     6.6480     9.9860   -22.1860 
   71.1250     2.1270    83.8740    23.6770     7.8890     6.5680     9.8960   -22.6370 
   71.2500     2.1220    80.6290    23.6770     7.9500     6.5790     9.8770   -22.9600 
   71.3750     2.1130    76.6590    23.6940     7.9350     6.6180     9.8370   -23.1190 
   71.5000     2.1020    76.4630    23.7470     7.9520     6.6530     9.7830   -23.1860 
   71.6250     2.0980    79.2070    23.8480     8.0360     6.7180     9.8260   -23.0820 
   71.7500     2.1010    81.3350    23.8920     8.1100     6.8790    10.0630   -22.8780 
   71.8750     2.1080    81.5900    23.9430     8.2760     7.1800    10.5290   -22.6370 
   72.0000     2.1330    79.7070    24.0310     8.9150     7.5760    11.1320   -22.3570 
   72.1250     2.2060    80.5290    24.1510    10.5990     7.8680    11.5740   -21.8940 
   72.2500     2.3060    86.5710    24.2140    12.4540     7.8440    11.5280   -21.3130 
   72.3750     2.3840    97.0940    24.2960    12.5850     7.4220    10.8380   -20.7550 
