~V
VERS. 2.00: Ver 2.00
~W
STRT.M 55.0000:
STOP.M 277.0000:
STEP.M 0.1250:
NULL. -999.2500:
UWI. DF5040:
~C
DEPT.M :
GR.API :
CALI.CM :
RXO.OHMM :
RI. :
RML.OHMM :
DEN.GM/CC :
SP.MV :
~A
# ...
  257.5000    78.8090    23.0330    10.2590     7.4740     8.3970     2.4090   -21.1510 
  257.6250    77.4210    23.0070    10.7090     7.4850     8.4090     2.3990   -21.1870 
  257.7500    76.4210    23.0750    11.0090     7.4890     8.4130     2.3940   -21.1540 
  257.8750    76.3340    23.2380    11.1870     7.4930     8.4180     2.3940   -21.0430 
  258.0000    76.0490    23.3800    11.3150     7.4970     8.4220     2.3990   -20.8600 
  258.1250    74.6650    23.3570    11.3590     7.4930     8.4170     2.3970   -20.6130 
  258.2500    73.8130    23.2540    11.2820     7.4740     8.3980     2.3820   -20.3390 
  258.3750    74.5220    23.1430    11.1340     7.4480     8.3700     2.3610   -20.0630 
  258.5000    76.2200    23.1630    10.8360     7.4270     8.3470     2.3470   -19.8110 
  258.6250    77.3760    23.3620    10.4210     7.4350     8.3560     2.3430   -19.6070 
  258.7500    78.0620    23.5570    10.1880     7.4830     8.4070     2.3410   -19.4530 
  258.8750    78.6390    23.6690    10.2830     7.5800     8.5100     2.3460   -19.3400 
  259.0000    79.0050    23.7140    10.4270     7.7170     8.6550     2.3720   -19.2510 
  259.1250    78.3550    23.6870    10.4150     7.8780     8.8260     2.4250   -19.1610 
  259.2500    75.6010    23.6260    10.7340     8.0410     9.0000     2.4730   -19.0460 
  259.3750    70.6350    23.5340    12.1540     8.1900     9.1580     2.4880   -18.8890 
  259.5000    65.8200    23.4660    14.5600     8.3180     9.2940     2.4700   -18.6810 
  259.6250    65.6560    23.4620    16.4460     8.4280     9.4110     2.4460   -18.4180 
  259.7500    69.4960    23.6060    18.3780     8.5350     9.5240     2.4350   -18.1250 
  259.8750    73.9000    23.7300    25.0560     8.6390     9.6350     2.4330   -17.8290 
  260.0000    76.0770    23.7890    40.4700     8.7370     9.7390     2.4350   -17.5600 
  260.1250    76.0310    23.8130    56.7080     8.8180     9.8250     2.4440   -17.3620 
  260.2500    75.2290    23.8030    55.8030     8.8820     9.8930     2.4560   -17.2480 
  260.3750    73.5250    23.7180    39.2110     8.9340     9.9480     2.4650   -17.2250 
  260.5000    70.6240    23.5710    22.0970     8.9830    10.0000     2.4700   -17.2880 
  260.6250    68.0530    23.3350    13.3910     9.0300    10.0500     2.4730   -17.4280 
  260.7500    67.6910    22.9950    10.3400     9.0650    10.0870     2.4690   -17.6010 
  260.8750    69.6620    22.6660     9.5900     9.0710    10.0940     2.4570   -17.7760 
  261.0000    72.2970    22.5640     9.7860     9.0330    10.0530     2.4410   -17.9230 
  261.1250    73.4820    22.8440     9.7520     8.9300     9.9440     2.4330   -18.0090 
  261.2500    73.5780    23.2330     9.1730     8.7840     9.7890     2.4370   -18.0330 
  261.3750    72.9590    23.4530     8.4920     8.6210     9.6160     2.4460   -17.9990 
  261.5000    71.0230    23.4890     8.1700     8.4740     9.4600     2.4480   -17.9260 
  261.6250    67.7540    23.5020     8.2480     8.3830     9.3630     2.4420   -17.8350 
  261.7500    65.6320    23.4690     8.5650     8.3570     9.3350     2.4510   -17.7560 
  261.8750    65.5780    23.4410     9.1550     8.3950     9.3760     2.4830   -17.7060 
  262.0000    66.1820    23.4390     9.8160     8.4830     9.4690     2.5170   -17.6920 
  262.1250    66.2560    23.4750     9.9000     8.5960     9.5890     2.5250   -17.7190 
  262.2500    66.6140    23.5270     9.5250     8.6940     9.6930     2.5110   -17.7650 
  262.3750    67.6730    23.5820     9.1600     8.7570     9.7590     2.4920   -17.8060 
  262.5000    68.6890    23.6390     8.9430     8.7750     9.7790     2.4770   -17.8200 
  262.6250    69.1830    23.7170     8.7480     8.7490     9.7510     2.4690   -17.7790 
  262.7500    69.3750    23.7730     8.4560     8.6940     9.6930     2.4630   -17.6890 
  262.8750    68.8350    23.7250     8.1450     8.6200     9.6140     2.4510   -17.5620 
  263.0000    67.4850    23.6440     7.8240     8.5370     9.5270     2.4350   -17.4160 
  263.1250    67.6340    23.6130     7.5000     8.4630     9.4480     2.4290   -17.2810 
  263.2500    70.8530    23.6410     7.2300     8.4120     9.3930     2.4360   -17.1870 
  263.3750    75.1980    23.6940     7.0670     8.3940     9.3740     2.4450   -17.1570 
  263.5000    76.9230    23.7060     7.0340     8.4080     9.3890     2.4470   -17.2080 
  263.6250    74.1070    23.7680     7.1020     8.4490     9.4330     2.4420   -17.3500 
  263.7500    69.8970    23.8850     7.2270     8.5010     9.4880     2.4410   -17.5490 
  263.8750    67.1670    24.0160     7.3890     8.5550     9.5460     2.4450   -17.7770 
  264.0000    67.1000    24.1430     7.4950     8.5980     9.5910     2.4560   -18.0010 
  264.1250    69.1120    24.2030     7.4850     8.6080     9.6010     2.4650   -18.1770 
  264.2500    70.9620    24.2220     7.4460     8.5780     9.5700     2.4650   -18.2840 
  264.3750    71.3040    24.2210     7.4680     8.5120     9.5000     2.4560   -18.3040 
  264.5000    70.1310    24.2190     7.5360     8.4190     9.4010     2.4440   -18.2350 
  264.6250    68.7700    24.2170     7.5880     8.3020     9.2770     2.4390   -18.0780 
  264.7500    68.1680    24.2070     7.6000     8.1740     9.1410     2.4450   -17.8730 
  264.8750    68.0740    24.1840     7.5930     8.0430     9.0020     2.4540   -17.6460 
  265.0000    68.0150    24.1630     7.6360     7.9180     8.8690     2.4630   -17.4270 
  265.1250    67.8050    24.1550     7.8840     7.8070     8.7510     2.4760   -17.2510 
  265.2500    67.4240    24.1430     8.3250     7.7080     8.6460     2.4920   -17.1310 
  265.3750    67.2930    24.1170     8.8560     7.6260     8.5590     2.4950   -17.0720 
  265.5000    67.7280    24.1190     9.3100     7.5610     8.4900     2.4740   -17.0680 
  265.6250    68.2770    24.0660     9.4450     7.5250     8.4510     2.4440   -17.1020 
  265.7500    68.1920    24.0070     9.2680     7.5130     8.4390     2.4380   -17.1400 
  265.8750    67.9520    24.0300     8.8860     7.5320     8.4590     2.4580   -17.1570 
  266.0000    68.7910    24.1330     8.5160     7.5840     8.5150     2.4820   -17.1290 
  266.1250    70.9740    24.2270     8.2950     7.6690     8.6050     2.4880   -17.0280 
  266.2500    72.0570    24.2530     8.3040     7.7590     8.7000     2.4820   -16.8580 
  266.3750    70.7550    24.1500     8.6550     7.8300     8.7750     2.4750   -16.6270 
  266.5000    68.1410    23.9570     9.1700     7.8690     8.8170     2.4720   -16.3510 
  266.6250    65.9310    23.9300     9.4970     7.8660     8.8140     2.4730   -16.0580 
  266.7500    63.8260    23.9760     9.5930     7.8280     8.7730     2.4760   -15.7810 
  266.8750    61.7080    24.0300     9.6070     7.7560     8.6970     2.4800   -15.5450 
  267.0000    60.5160    24.0790     9.5800     7.6630     8.5980     2.4850   -15.3660 
  267.1250    60.2400    24.1280     9.3480     7.5600     8.4890     2.4830   -15.2620 
  267.2500    60.2400    24.1770     8.9390     7.4660     8.3890     2.4690   -15.2210 
  267.3750    60.2400    24.2000     8.4340     7.3810     8.2990     2.4510   -15.2300 
  267.5000    60.2400    24.1970     8.0150     7.3020     8.2140     2.4470   -15.2710 
  267.6250    60.2400    24.1760     7.8020     7.2280     8.1360     2.4650   -15.3190 
  267.7500    60.2400    24.1460     7.7160     7.1670     8.0710     2.4800   -15.3520 
  267.8750    60.2400    24.1340     7.7080     7.1280     8.0300     2.4730   -15.3570 
  268.0000    60.2400    24.1390     7.8020     7.1150     8.0160     2.4450   -15.3250 
  268.1250    60.2400    24.2020     7.9990     7.1320     8.0340     2.4180   -15.2460 
  268.2500    60.2400    24.3350     8.0360     7.1730     8.0770     2.4130   -15.1230 
  268.3750    60.2400    24.5290     7.8910     7.2370     8.1460     2.4270   -14.9530 
  268.5000    60.2400    24.5950     7.7770     7.3210     8.2350     2.4440   -14.7340 
  268.6250    60.2400    24.4470     7.8020     7.4060     8.3250     2.4460   -14.4670 
