~V
VERS. 2.00: Ver 2.00
~W
STRT.M 55.0000:
STOP.M 262.0000:
STEP.M 0.1250:
NULL. -999.2500:
UWI. DF5047:
~C
DEPT.M :
GR.API :
CALI.CM :
RXO.OHMM :
RI. :
RML.OHMM :
DEN.GM/CC :
SP.MV :
~A
# ...
  133.7500    68.6380    24.3190     7.8320     6.2940     6.4800     2.2730   -31.9370 
  133.8750    81.0350    24.4670     5.7490     5.4480     5.6230     2.3040   -31.4740 
  134.0000    90.2940    24.6530     4.4060     4.8100     5.0750     2.3250   -30.8290 
  134.1250    92.7160    24.8410     4.2700     4.5700     5.0260     2.3390   -30.3900 
  134.2500    93.5790    24.9790     4.2820     4.7010     5.3840     2.3530   -30.0970 
  134.3750    92.5980    25.0520     4.6560     5.1410     6.0120     2.3740   -29.7040 
  134.5000    86.8870    25.0620     6.4050     5.7140     6.6590     2.3980   -29.3590 
  134.6250    76.8600    25.0310     8.0270     6.0720     6.9180     2.4100   -29.3430 
  134.7500    72.1620    25.0040     7.6450     6.0190     6.6870     2.4010   -29.3380 
  134.8750    77.4400    25.0160     6.0140     5.6260     6.1400     2.3770   -29.3520 
  135.0000    88.5480    25.0870     4.9690     5.1360     5.5950     2.3470   -29.5970 
  135.1250    95.8450    25.1510     4.6950     4.8300     5.3740     2.3160   -29.7950 
  135.2500    96.2250    25.1210     5.0660     4.8110     5.5240     2.2830   -29.8350 
  135.3750    91.1790    24.9820     5.9300     5.0900     6.0050     2.2500   -30.0030 
  135.5000    83.0680    24.7800     6.6060     5.6240     6.7430     2.2210   -30.3350 
  135.6250    75.6650    24.5610     7.4200     6.3980     7.7050     2.2010   -30.4420 
  135.7500    72.6070    24.3710     8.3140     7.3230     8.7750     2.1930   -30.4570 
  135.8750    71.8380    24.2680     8.9370     8.2880     9.7780     2.1980   -30.5230 
  136.0000    69.3490    24.2970     9.7300     9.0610    10.4290     2.2170   -30.4510 
  136.1250    65.9310    24.4330    12.6270     9.2170    10.2930     2.2520   -30.1520 
  136.2500    67.1140    24.5830    14.3910     8.6740     9.4140     2.2930   -29.8440 
  136.3750    73.3450    24.7150    11.5950     7.6220     8.0800     2.3270   -29.5360 
  136.5000    80.8940    24.8250     6.4660     6.4450     6.7440     2.3390   -29.0300 
  136.6250    87.1200    24.9020     5.3700     5.5250     5.8270     2.3260   -28.4820 
  136.7500    92.2160    24.9490     5.0800     4.9590     5.3520     2.3070   -28.1120 
  136.8750    94.7500    24.9770     5.1010     4.7340     5.2380     2.2910   -27.7640 
  137.0000    92.7100    24.9880     5.1920     4.7740     5.3410     2.2840   -27.3160 
  137.1250    88.8710    24.9620     5.3020     4.9510     5.4840     2.2870   -27.0350 
  137.2500    89.1910    24.9090     5.3520     5.0940     5.5240     2.2940   -26.9350 
  137.3750    93.0180    24.8410     5.2780     5.1260     5.4270     2.3050   -26.8340 
  137.5000    95.9860    24.7660     5.1960     5.0430     5.2310     2.3170   -26.7180 
  137.6250    95.7400    24.6980     5.1230     4.8780     4.9900     2.3260   -26.5940 
  137.7500    96.0120    24.6510     5.0250     4.6890     4.7570     2.3320   -26.4560 
  137.8750    98.6560    24.6310     4.8180     4.5010     4.5540     2.3360   -26.3310 
  138.0000   100.9290    24.6570     4.4930     4.3310     4.3930     2.3390   -26.2730 
  138.1250   100.7660    24.7330     4.3120     4.2000     4.2940     2.3440   -26.1570 
  138.2500    99.8230    24.7990     4.2310     4.1120     4.2530     2.3470   -26.0070 
  138.3750   100.7850    24.8130     4.2230     4.0720     4.2660     2.3460   -25.9040 
  138.5000   103.2840    24.7760     4.2470     4.0780     4.3230     2.3390   -25.9070 
  138.6250   102.9420    24.7220     4.4050     4.1300     4.4140     2.3280   -25.9110 
  138.7500   100.2210    24.7100     4.5310     4.2120     4.5240     2.3170   -25.8490 
  138.8750    99.2900    24.7800     4.4730     4.3120     4.6490     2.3110   -25.8270 
  139.0000   100.6030    24.9030     4.5820     4.4210     4.7910     2.3080   -25.8340 
  139.1250    99.5660    24.9890     4.8350     4.5430     4.9710     2.3060   -25.8610 
  139.2500    95.9420    25.0040     5.1050     4.7040     5.2290     2.2990   -25.8790 
  139.3750    92.5250    24.9820     5.2790     4.9530     5.6400     2.2930   -25.9250 
  139.5000    89.9370    24.9620     5.5470     5.3640     6.3080     2.2930   -25.9430 
  139.6250    87.9440    24.9590     6.5180     6.0550     7.3390     2.3080   -25.9740 
  139.7500    86.3420    24.9560     8.3770     6.9610     8.5460     2.3390   -26.0560 
  139.8750    85.0890    24.9410    10.0820     7.9010     9.6240     2.3820   -26.1250 
  140.0000    82.8460    24.9180    11.6180     8.5870    10.2360     2.4290   -26.2670 
  140.1250    79.7080    24.9000    13.2390     8.7440    10.1880     2.4680   -26.4240 
  140.2500    77.3250    24.8880    12.7030     8.5960     9.9330     2.4900   -26.4400 
  140.3750    76.1030    24.8750     9.9350     8.4930    10.0130     2.5010   -26.3020 
  140.5000    76.1360    24.8650     8.3040     8.7900    10.8980     2.5090   -26.2480 
  140.6250    73.3420    24.8710    11.7990     9.8860    12.9830     2.5270   -26.3720 
  140.7500    65.8080    24.8840    15.4130    11.7970    15.9440     2.5540   -26.3980 
  140.8750    56.4670    24.8910    17.6310    14.3780    19.2460     2.5840   -26.2270 
  141.0000    50.4340    24.8920    19.2750    17.0700    21.9940     2.6080   -26.0170 
  141.1250    50.0280    24.8930    20.2930    18.7510    23.0040     2.6190   -26.0030 
  141.2500    51.0040    24.8960    19.7810    19.1110    22.4980     2.6200   -26.1350 
  141.3750    52.0870    24.8970    17.4710    18.5650    21.2530     2.6130   -26.2360 
  141.5000    53.0240    24.8950    15.2350    17.7590    20.0750     2.6030   -26.1570 
  141.6250    52.6950    24.8910    15.1890    17.2070    19.5160     2.5940   -25.9740 
  141.7500    50.4980    24.8840    16.2170    17.0690    19.5710     2.5890   -25.8940 
  141.8750    47.8370    24.8640    17.4650    17.3540    20.1390     2.5910   -25.9980 
  142.0000    47.1050    24.8280    17.6540    17.9850    21.0570     2.6010   -26.0960 
  142.1250    48.6080    24.7920    17.6110    18.8470    22.1370     2.6130   -25.9780 
  142.2500    49.5090    24.7730    18.3890    19.7250    23.1200     2.6190   -25.7630 
  142.3750    48.7100    24.7670    20.3070    20.4400    23.7700     2.6150   -25.6720 
  142.5000    47.5130    24.7670    22.1760    20.7870    23.8510     2.6020   -25.8090 
  142.6250    48.0260    24.7700    21.4820    20.4750    23.0830     2.5850   -25.9270 
  142.7500    50.5300    24.7700    19.3560    19.5850    21.7130     2.5700   -25.9950 
  142.8750    53.1470    24.7580    16.2090    18.3780    20.1400     2.5620   -26.0040 
  143.0000    56.0440    24.7310    14.1880    17.2520    18.8540     2.5570   -26.0170 
  143.1250    59.5200    24.7120    13.5270    16.6530    18.3500     2.5520   -26.0670 
  143.2500    61.5690    24.7440    13.9960    16.6680    18.6120     2.5470   -26.1750 
  143.3750    61.7140    24.8350    15.3540    17.2660    19.5060     2.5410   -26.2330 
  143.5000    60.8420    24.9420    18.1620    18.2890    20.7510     2.5350   -26.1810 
  143.6250    60.0960    25.0120    19.7720    19.4290    21.9020     2.5250   -26.1580 
  143.7500    57.6400    25.0490    19.0880    20.2560    22.5430     2.5150   -26.1260 
  143.8750    55.9610    25.0720    18.0470    20.4730    22.4390     2.5060   -26.0710 
  144.0000    58.5080    25.0730    18.3980    19.9760    21.5840     2.5000   -26.0960 
  144.1250    60.4290    25.0470    18.2960    18.8370    20.1660     2.4990   -26.1630 
  144.2500    58.1330    25.0190    17.1620    17.4930    18.6780     2.5000   -26.2030 
  144.3750    55.4950    25.0060    14.9000    16.2840    17.4910     2.5040   -26.2240 
  144.5000    55.4710    25.0070    13.0040    15.4840    16.8790     2.5090   -26.1810 
  144.6250    55.7740    25.0030    12.8890    15.3380    17.0480     2.5190   -26.1420 
  144.7500    55.5150    24.9850    13.7410    15.7290    17.7370     2.5320   -26.1720 
  144.8750    56.0880    24.9520    15.0390    16.4690    18.6130     2.5440   -26.1710 
