~V
VERS. 2.00: Ver 2.00
~W
STRT.M 50.0000:
STOP.M 276.0000:
STEP.M 0.1250:
NULL. -999.2500:
UWI. DF5011:
~C
DEPT.M :
DEN.GM/CC :
GR.API :
CALI.CM :
RXO.OHMM :
RI. :
RML.OHMM :
SP.MV :
~A
   50.0000     1.9660    57.7150    24.4300     1.0130     0.4090     0.7800  -999.2500 
   50.1250     1.9830    57.0090    25.2910     0.9290     0.4060     0.7360    22.1660 
   50.2500     2.0140    54.3900    25.5670     0.8850     0.4010     0.7240    22.1660 
   50.3750     2.0460    52.3950    25.6340     0.8730     0.3990     0.7250    21.4990 
   50.5000     2.0680    51.3480    25.6290     0.8800     0.3990     0.7360    20.5950 
   50.6250     2.0790    49.6010    25.6260     0.8800     0.4000     0.7530    19.6910 
   50.7500     2.0840    47.4020    25.6270     0.8800     0.3980     0.7700    18.6080 
   50.8750     2.0930    46.4070    25.6250     0.8910     0.3930     0.7790    17.5220 
   51.0000     2.1070    48.2850    25.6290     0.9130     0.3840     0.7780    16.5280 
   51.1250     2.1240    51.7170    25.6500     0.9250     0.3750     0.7660    15.4940 
   51.2500     2.1380    53.7040    25.6820     0.9670     0.3690     0.7420    14.5420 
   51.3750     2.1460    55.3530    25.7030     1.0860     0.3680     0.7120    13.7490 
   51.5000     2.1490    59.0400    25.7070     1.2480     0.3700     0.6840    13.1850 
   51.6250     2.1460    63.8460    25.7040     1.3600     0.3710     0.6650    12.6270 
   51.7500     2.1330    64.5250    25.7030     1.3870     0.3720     0.6590    12.2290 
   51.8750     2.1130    61.4530    25.7020     1.4040     0.3720     0.6630    12.0780 
   52.0000     2.0900    57.5840    25.7010     1.4180     0.3720     0.6720    12.1100 
   52.1250     2.0710    53.1330    25.7010     1.4080     0.3710     0.6820    12.2670 
   52.2500     2.0640    48.4030    25.7030     1.4060     0.3710     0.6880    12.6190 
   52.3750     2.0720    45.6020    25.7040     1.4200     0.3710     0.6840    13.2370 
   52.5000     2.0880    44.6540    25.7040     1.4350     0.3710     0.6690    13.8820 
   52.6250     2.1010    44.5620    25.7030     1.4390     0.3710     0.6430    14.5610 
   52.7500     2.0940    44.9060    25.7030     1.4300     0.3710     0.6110    15.4120 
   52.8750     2.0730    45.0800    25.7040     1.4090     0.3710     0.5850    16.3600 
   53.0000     2.0510    44.8400    25.7040     1.3970     0.3700     0.5680    17.1710 
   53.1250     2.0370    45.0980    25.7030     1.4010     0.3690     0.5650    17.8670 
   53.2500     2.0360    46.2470    25.7010     1.4090     0.3680     0.5750    18.7210 
   53.3750     2.0410    45.5260    25.7010     1.4180     0.3690     0.5920    19.5020 
   53.5000     2.0470    43.6910    25.7020     1.4310     0.3710     0.6100    20.2640 
   53.6250     2.0510    43.9920    25.7040     1.4440     0.3740     0.6230    21.0690 
   53.7500     2.0510    46.7180    25.7040     1.4450     0.3770     0.6250    21.7690 
   53.8750     2.0500    48.2890    25.7030     1.4410     0.3800     0.6160    22.3470 
   54.0000     2.0500    47.8690    25.7030     1.4570     0.3830     0.6000    23.0630 
   54.1250     2.0510    47.7710    25.7030     1.4970     0.3880     0.5810    23.8690 
   54.2500     2.0540    48.8840    25.7030     1.5360     0.3940     0.5650    24.4780 
   54.3750     2.0630    48.4640    25.7030     1.5450     0.3990     0.5560    25.0220 
   54.5000     2.0800    47.6090    25.7040     1.5210     0.4020     0.5540    25.6030 
   54.6250     2.0980    48.2490    25.7030     1.4900     0.4040     0.5560    26.2910 
   54.7500     2.1060    49.8100    25.7040     1.4740     0.4060     0.5570    27.0700 
   54.8750     2.1010    49.1190    25.7050     1.4600     0.4090     0.5520    27.7060 
   55.0000     2.0910    46.7010    25.7060     1.4650     0.4140     0.5370    28.1500 
   55.1250     2.0820    45.2070    25.7050     1.4810     0.4190     0.5120    28.6150 
   55.2500     2.0740    45.7120    25.7070     1.5100     0.4230     0.4780    28.9370 
   55.3750     2.0650    46.6520    25.7150     1.5250     0.4240     0.4440    29.1000 
   55.5000     2.0630    46.1300    25.7310     1.4990     0.4250     0.4140    29.1900 
   55.6250     2.0840    43.6840    25.7430     1.3790     0.4250     0.3940    29.2010 
   55.7500     2.1290    43.4910    25.6860     1.1420     0.4240     0.3850    29.0920 
   55.8750     2.1670    45.9760    25.5280     0.9450     0.4230     0.3820    29.0150 
   56.0000     2.1700    48.2030    25.3240     0.8680     0.4240     0.3810    29.0560 
   56.1250     2.1340    49.0220    25.1750     0.8760     0.4270     0.3810    28.9810 
   56.2500     2.0890    49.9000    25.1360     0.9100     0.4310     0.3810    28.9020 
   56.3750     2.0680    50.0840    25.1380     0.9680     0.4350     0.3810    28.8990 
   56.5000     2.0750    48.6050    25.1400     1.0270     0.4390     0.3810    28.8550 
   56.6250     2.0950    47.6970    25.1410     1.0860     0.4420     0.3810    28.6090 
   56.7500     2.1050    48.3300    25.1440     1.1240     0.4450     0.3810    28.2890 
   56.8750     2.0990    47.9740    25.1680     1.1160     0.4470     0.3810    28.0480 
   57.0000     2.0870    47.0180    25.2540     1.0590     0.4480     0.3810    27.6380 
   57.1250     2.0740    46.8180    25.4080     0.9700     0.4480     0.3810    27.0900 
   57.2500     2.0640    46.6240    25.5510     0.8960     0.4470     0.3810    26.4440 
   57.3750     2.0560    45.9370    25.6150     0.8640     0.4450     0.3810    25.7540 
   57.5000     2.0520    45.5410    25.6210     0.8820     0.4460     0.3810    24.9000 
   57.6250     2.0560    45.2000    25.6170     0.9590     0.4480     0.3810    24.0710 
   57.7500     2.0690    44.0610    25.6190     1.0570     0.4530     0.3810    23.1450 
   57.8750     2.0880    43.5810    25.6210     1.1220     0.4600     0.3810    21.9840 
   58.0000     2.1070    44.8380    25.6200     1.1340     0.4670     0.3810    20.8470 
   58.1250     2.1210    46.1220    25.6190     1.1210     0.4740     0.3810    19.7210 
   58.2500     2.1200    45.6740    25.6190     1.1110     0.4790     0.3810    18.5650 
   58.3750     2.1060    44.4940    25.6170     1.1100     0.4830     0.3810    17.2630 
   58.5000     2.0830    43.8700    25.6050     1.1080     0.4860     0.3810    15.9970 
   58.6250     2.0590    43.3200    25.5810     1.0950     0.4900     0.3810    14.5790 
   58.7500     2.0390    42.8490    25.5480     1.0810     0.4960     0.3810    13.0830 
   58.8750     2.0270    43.6120    25.5170     1.0760     0.5010     0.3810    11.6210 
   59.0000     2.0240    44.7390    25.4900     1.0750     0.5020     0.3810     9.8880 
   59.1250     2.0260    44.8760    25.4210     1.0660     0.4940     0.3810     8.1190 
   59.2500     2.0310    43.7170    25.1820     1.0380     0.4700     0.3810     6.2910 
   59.3750     2.0370    42.2590    24.7990     1.0040     0.4360     0.3810     4.2640 
   59.5000     2.0440    41.1290    24.4260     0.9710     0.3980     0.3810     1.8620 
   59.6250     2.0490    40.6380    24.2100     0.9450     0.3680     0.3810    -0.6830 
   59.7500     2.0540    40.8820    24.1700     0.9340     0.3520     0.3810    -3.4130 
   59.8750     2.0790    41.6950    24.1680     0.9820     0.3470     0.3810    -6.4570 
   60.0000     2.1360    43.8680    24.0620     1.2170     0.3520     0.3820    -9.8160 
   60.1250     2.2110    47.6910    23.7610     1.9810     0.3820     0.3920   -13.7740 
   60.2500     2.2680    51.8550    23.3350     4.2200     0.5000     0.4500   -18.2210 
   60.3750     2.2860    55.7360    23.0170     6.6370     0.7830     0.6270   -22.9240 
   60.5000     2.2680    59.1360    22.8650     8.0270     1.3300     1.0320   -27.5950 
   60.6250     2.2330    60.2840    22.7510     8.2730     2.1740     1.7240   -32.1770 
   60.7500     2.2130    59.3280    22.5000     7.9560     3.1540     2.5200   -36.5340 
   60.8750     2.2130    59.0150    22.1870     7.5490     3.9780     3.1040   -40.5800 
   61.0000     2.2160    60.2220    21.9730     7.3280     4.5630     3.4560   -44.0400 
   61.1250     2.2090    60.6520    21.9420     7.3200     4.9600     3.6950   -46.8300 
