~V
VERS. 2.00: Ver 2.00
~W
STRT.M 57.0000:
STOP.M 276.0000:
STEP.M 0.1250:
NULL. -999.2500:
UWI. DF5005:
~C
DEPT.M :
GR.API :
RML.OHMM :
RI. :
RXO.OHMM :
CALI.CM :
DEN.GM/CC :
SP.MV :
~A
# ...
  124.5000    97.3690     7.0530     6.3240     6.9810    22.9580     2.2460   -17.4360 
  124.6250   100.9360     7.1000     6.3430     7.1040    23.1080     2.2680   -17.5330 
  124.7500   104.9330     7.2690     6.4520     7.2620    23.3990     2.2970   -17.6580 
  124.8750   104.5650     7.4930     6.6610     7.5880    23.7380     2.3210   -17.8590 
  125.0000   101.0040     7.7570     6.9040     8.0370    23.9090     2.3280   -18.1060 
  125.1250    95.5680     7.9950     7.1250     8.3150    23.9280     2.3130   -18.4490 
  125.2500    88.5170     8.1650     7.2820     8.1980    23.8510     2.2820   -18.8710 
  125.3750    83.0370     8.2540     7.3650     8.0720    23.7280     2.2460   -19.3440 
  125.5000    81.6720     8.3270     7.4320     8.1390    23.6580     2.2170   -19.8630 
  125.6250    82.8500     8.4540     7.5500     8.1970    23.6340     2.1970   -20.3810 
  125.7500    84.0390     8.7030     7.7800     8.2520    23.6270     2.1900   -20.8780 
  125.8750    85.7320     9.1210     8.1690     8.3900    23.5910     2.2030   -21.2870 
  126.0000    88.5170     9.6360     8.6450     8.6340    23.5030     2.2350   -21.5460 
  126.1250    91.4520    10.1370     9.1000     8.8860    23.3950     2.2770   -21.6630 
  126.2500    91.1880    10.4650     9.3960     9.0260    23.3240     2.3130   -21.6700 
  126.3750    87.6970    10.4070     9.3470     8.9760    23.3060     2.3220   -21.4960 
  126.5000    84.0900     9.9450     8.9760     8.6450    23.3150     2.3090   -21.1300 
  126.6250    81.2550     9.1870     8.3850     8.1540    23.3830     2.2860   -20.6580 
  126.7500    81.2950     8.3470     7.7540     7.5780    23.5530     2.2670   -20.0760 
  126.8750    85.8460     7.7170     7.2900     7.1440    23.7290     2.2590   -19.3730 
  127.0000    91.9180     7.5470     7.0630     6.9950    23.8100     2.2530   -18.7180 
  127.1250    94.3650     7.7240     7.0580     7.1890    23.8290     2.2440   -18.1130 
  127.2500    93.2060     8.0760     7.1990     7.4380    23.8470     2.2340   -17.4990 
  127.3750    93.1700     8.3420     7.3650     7.5240    23.9030     2.2260   -16.8420 
  127.5000    94.8650     8.3650     7.4410     7.3760    23.9900     2.2250   -16.2960 
  127.6250    97.6460     8.1400     7.3790     7.1070    24.0820     2.2310   -15.8840 
  127.7500   101.4150     7.7750     7.1790     6.7570    24.1410     2.2420   -15.5390 
  127.8750   104.6280     7.4120     6.8630     6.4990    24.1600     2.2540   -15.2210 
  128.0000   105.8160     7.1060     6.4900     6.2280    24.1620     2.2670   -14.9340 
  128.1250   104.4200     6.8180     6.0830     6.0120    24.1620     2.2820   -14.6790 
  128.2500   102.4710     6.4840     5.6620     5.8410    24.1560     2.3000   -14.4820 
  128.3750   100.8780     6.0650     5.2620     5.7510    24.1340     2.3190   -14.4020 
  128.5000    98.8880     5.6430     4.9370     5.7150    24.0800     2.3360   -14.4080 
  128.6250    96.7840     5.3650     4.7660     5.8620    23.9770     2.3440   -14.5010 
  128.7500    93.4990     5.4320     4.8630     6.2920    23.7900     2.3420   -14.6760 
  128.8750    89.5710     6.1860     5.4690     7.2460    23.6380     2.3400   -14.9490 
  129.0000    84.8190     7.6620     6.6490     8.9620    23.6000     2.3510   -15.2580 
  129.1250    76.9840     9.7540     8.3830    11.5110    23.7600     2.3840   -15.5950 
  129.2500    68.8500    12.0710    10.4280    14.5690    23.9370     2.4380   -15.9690 
  129.3750    66.8990    13.8170    12.1790    17.5470    23.9900     2.4940   -16.3990 
  129.5000    70.5740    14.4000    13.0380    19.0800    23.9690     2.5240   -16.8960 
  129.6250    73.0220    13.6530    12.7220    18.8120    23.9280     2.5080   -17.4440 
  129.7500    71.5210    11.9530    11.4310    15.7640    23.8520     2.4480   -18.0310 
  129.8750    71.2010    10.0650     9.7400    11.7340    23.7940     2.3680   -18.6510 
  130.0000    74.0990     8.6450     8.2710     9.5120    23.7650     2.3000   -19.2810 
  130.1250    77.0240     7.9450     7.2980     8.9310    23.7580     2.2590   -19.8330 
  130.2500    76.9830     8.0740     7.0000     8.9560    23.7710     2.2500   -20.2630 
  130.3750    74.4020     9.2720     7.6840     9.7660    23.8250     2.2740   -20.6460 
  130.5000    70.5220    11.3490     9.2720    12.5170    23.9210     2.3150   -20.9740 
  130.6250    65.8880    13.9980    11.5820    17.3130    24.0210     2.3630   -21.1830 
  130.7500    61.2450    16.5550    14.1300    23.0930    24.1140     2.4030   -21.3430 
  130.8750    57.1640    17.9410    15.9650    27.4890    24.1290     2.4160   -21.5590 
  131.0000    55.6560    17.6760    16.4320    25.9380    24.0250     2.3960   -21.8030 
  131.1250    57.5620    16.0240    15.4480    18.8900    23.7750     2.3500   -22.1020 
  131.2500    62.7010    13.7770    13.6030    12.9210    23.5340     2.2950   -22.4640 
  131.3750    67.0020    12.1700    11.8000    11.0660    23.4400     2.2490   -22.8200 
  131.5000    69.4100    11.3160    10.5120    10.4420    23.4230     2.2200   -23.1110 
  131.6250    71.3800    10.7840     9.7670    10.2220    23.4250     2.2060   -23.3330 
  131.7500    70.7690    10.4330     9.4360    10.0410    23.4290     2.2030   -23.4950 
  131.8750    69.0850    10.3520     9.3710     9.8050    23.4300     2.2060   -23.5600 
  132.0000    70.6910    10.3390     9.3780     9.6450    23.4290     2.2090   -23.5220 
  132.1250    75.8900    10.3410     9.3820     9.5280    23.4260     2.2110   -23.3960 
  132.2500    79.5250    10.3430     9.3580     9.4090    23.4180     2.2120   -23.2620 
  132.3750    77.7130    10.3400     9.3170     9.3740    23.4010     2.2100   -23.1500 
  132.5000    74.8640    10.3310     9.2780     9.4170    23.3780     2.2070   -23.0260 
  132.6250    72.1510    10.3030     9.2520     9.4870    23.3680     2.2030   -22.9070 
  132.7500    68.8850    10.2900     9.2450     9.5430    23.3630     2.2020   -22.8090 
  132.8750    67.0560    10.3410     9.2700     9.5930    23.3520     2.2040   -22.6970 
  133.0000    70.9360    10.4790     9.3390     9.6940    23.3250     2.2090   -22.5430 
  133.1250    77.4130    10.7510     9.4710     9.8250    23.2900     2.2180   -22.4020 
  133.2500    78.9860    11.1460     9.6790    10.0490    23.2520     2.2290   -22.2950 
  133.3750    74.2330    11.6580     9.9680    10.3240    23.2380     2.2370   -22.1820 
  133.5000    72.2240    12.0350    10.2930    10.6040    23.2320     2.2430   -22.0780 
  133.6250    74.6800    12.2160    10.6020    10.9040    23.2230     2.2430   -22.0470 
  133.7500    75.5020    12.2130    10.8410    11.2450    23.1920     2.2380   -22.0500 
  133.8750    71.0530    12.0740    10.9500    11.6570    23.1440     2.2310   -22.0260 
  134.0000    69.0720    11.9040    10.9620    11.9990    23.1090     2.2250   -21.9730 
  134.1250    71.8050    11.7810    10.9420    12.1270    23.0970     2.2270   -21.8820 
  134.2500    76.1140    11.7810    10.9790    12.0110    23.0960     2.2360   -21.7310 
  134.3750    79.6930    11.9470    11.1310    11.9730    23.0830     2.2500   -21.5050 
  134.5000    81.7080    12.1110    11.2920    12.9200    23.0460     2.2610   -21.2030 
  134.6250    80.5930    12.0640    11.2780    14.8600    23.0270     2.2600   -20.8130 
  134.7500    75.0810    11.5840    10.9000    17.0360    23.1920     2.2470   -20.3630 
  134.8750    69.5800    10.6220    10.0130    18.4520    23.6090     2.2240   -19.9310 
  135.0000    68.4180     9.4140     8.8440    16.5980    24.0950     2.2040   -19.5690 
  135.1250    72.2500     8.3180     7.6710    11.3080    24.3440     2.1940   -19.3080 
  135.2500    78.1240     7.6110     6.7700     7.4740    24.3750     2.1940   -19.2140 
  135.3750    80.6790     7.2160     6.4030     6.8890    24.3230     2.2020   -19.3770 
  135.5000    80.4430     7.3730     6.5490     7.3620    24.2170     2.2100   -19.7350 
  135.6250    78.4400     8.0270     7.1540     8.2340    24.0110     2.2130   -20.2450 
