~V
VERS. 2.00: Ver 2.00
~W
STRT.M 55.0000:
STOP.M 271.0000:
STEP.M 0.1250:
NULL. -999.2500:
UWI. DF5028:
~C
DEPT.M :
SP.MV :
GR.API :
RML.OHMM :
RI. :
RXO.OHMM :
CALI.CM :
DEN.GM/CC :
~A
# ...
  212.5000   -18.5380    63.2190   137.0520   127.2600   125.9330    23.9810     2.2190 
  212.6250   -18.5090    62.7440   132.6590   122.6170   102.7540    23.9420     2.2240 
  212.7500   -18.3820    62.4500   131.9050   121.2070    88.7100    23.9180     2.2200 
  212.8750   -18.3750    60.8120   134.0410   122.5810    84.5540    23.8920     2.2110 
  213.0000   -18.2880    59.4950   137.6570   125.6070    87.4270    23.7910     2.2000 
  213.1250   -18.2180    61.9670   140.6510   128.5020    95.3460    23.5440     2.1910 
  213.2500   -18.1930    65.2190   141.3640   129.5910   106.1400    23.2200     2.1810 
  213.3750   -18.0500    65.1110   139.1580   128.0570   116.5980    22.9760     2.1710 
  213.5000   -17.9520    61.4820   134.3520   123.9360   117.3040    22.9670     2.1600 
  213.6250   -17.7110    59.9630   128.0060   117.9920   100.8800    23.1520     2.1550 
  213.7500   -17.5740    62.2260   121.9760   112.0080    79.0560    23.2050     2.1570 
  213.8750   -17.3810    65.6350   117.2360   107.0560    65.6840    22.9940     2.1650 
  214.0000   -17.2260    66.4490   114.1640   103.6780    63.9520    22.6760     2.1760 
  214.1250   -17.0910    64.6960   112.6670   102.0230    71.3740    22.6200     2.1840 
  214.2500   -16.8750    64.6570   111.6300   101.1210    80.9800    22.9090     2.1870 
  214.3750   -16.7590    66.2250   110.0320   100.0080    86.6680    23.3740     2.1870 
  214.5000   -16.5850    66.6060   107.1710    97.9320    86.0040    23.7680     2.1860 
  214.6250   -16.4840    64.7030   102.6250    94.3220    80.5760    23.9210     2.1890 
  214.7500   -16.2710    63.1820    96.9850    89.5900    75.0110    23.9310     2.1950 
  214.8750   -16.1030    62.3770    91.0330    84.3280    72.0730    23.9060     2.2030 
  215.0000   -15.8890    62.2740    85.6600    79.3110    70.1720    23.9160     2.2100 
  215.1250   -15.7140    63.7900    81.8150    75.4250    64.5370    24.0130     2.2140 
  215.2500   -15.5440    65.8140    79.6490    72.9790    56.1790    24.1370     2.2150 
  215.3750   -15.3700    65.5020    79.2270    72.1230    49.1350    24.2040     2.2130 
  215.5000   -15.3030    62.8460    80.3080    72.6760    45.8040    24.1930     2.2100 
  215.6250   -15.1600    64.2210    82.5020    74.3280    46.7390    24.1470     2.2050 
  215.7500   -15.1480    69.0320    84.9700    76.3510    50.0110    24.1160     2.2010 
  215.8750   -15.0850    72.5610    87.1190    78.2330    53.7800    24.0980     2.1970 
  216.0000   -15.0960    72.1160    88.5000    79.5410    56.4770    24.0720     2.1930 
  216.1250   -15.1140    68.7250    88.7890    79.9040    57.4880    24.0550     2.1900 
  216.2500   -15.1230    67.6630    88.2110    79.4470    57.5960    24.0580     2.1870 
  216.3750   -15.1870    68.9100    86.9300    78.3370    57.5020    24.0640     2.1830 
  216.5000   -15.1750    69.6110    85.2650    76.8600    57.3920    24.0580     2.1810 
  216.6250   -15.2570    68.6190    83.6310    75.3810    56.8720    24.0320     2.1820 
  216.7500   -15.3030    67.4160    82.2650    74.1400    56.2060    23.9910     2.1870 
  216.8750   -15.3810    66.2110    81.2260    73.2000    55.7920    23.9440     2.2000 
  217.0000   -15.4310    64.1500    80.4150    72.5150    55.3390    23.9250     2.2200 
  217.1250   -15.4150    62.7150    79.5140    71.8740    53.7650    23.9590     2.2440 
  217.2500   -15.4860    63.1590    78.1160    70.9140    52.9840    23.9950     2.2630 
  217.3750   -15.4940    64.0800    75.8950    69.3130    55.0670    24.0050     2.2700 
  217.5000   -15.5530    65.1610    72.7390    66.9000    59.6120    23.9880     2.2630 
  217.6250   -15.5870    66.5530    68.7540    63.6640    61.7780    23.9880     2.2480 
  217.7500   -15.6790    67.6910    64.6350    60.1470    56.8460    24.0250     2.2350 
  217.8750   -15.7660    67.7600    60.9170    56.8280    48.0430    24.0820     2.2300 
  218.0000   -15.9620    67.7030    58.0010    54.1010    40.9850    24.1490     2.2350 
  218.1250   -16.2030    67.2540    56.3280    52.4170    36.9270    24.1770     2.2450 
  218.2500   -16.4930    66.4100    55.7660    51.7400    34.3340    24.1400     2.2530 
  218.3750   -16.8240    66.0920    56.1710    51.9910    32.9900    24.0650     2.2570 
  218.5000   -17.1650    65.9820    57.3070    52.9830    33.3720    24.0100     2.2570 
  218.6250   -17.6090    64.7350    59.0590    54.5800    35.6410    24.0030     2.2570 
  218.7500   -18.0220    62.8060    61.2130    56.5220    38.0590    23.9960     2.2580 
  218.8750   -18.5460    61.8540    63.6650    58.7090    39.0960    23.9850     2.2580 
  219.0000   -18.9650    63.8800    66.3200    61.0380    38.8900    23.9860     2.2560 
  219.1250   -19.4730    66.9030    69.0270    63.3170    39.4720    23.9880     2.2470 
  219.2500   -19.9140    68.2050    71.6470    65.3870    41.7820    23.9750     2.2350 
  219.3750   -20.3740    67.0570    74.1150    67.1780    45.4030    23.9500     2.2240 
  219.5000   -20.9000    64.8560    76.4530    68.7600    49.1270    23.9410     2.2210 
  219.6250   -21.3240    61.4630    79.0000    70.5090    51.3440    23.9580     2.2270 
  219.7500   -21.7880    56.9610    82.3270    73.0140    52.6800    23.9600     2.2400 
  219.8750   -22.1330    54.8290    87.1790    76.9810    53.8780    23.9230     2.2520 
  220.0000   -22.5480    57.3080    94.2520    83.0100    55.5420    23.8740     2.2600 
  220.1250   -22.8960    61.1040   104.5000    91.7680    59.6770    23.8520     2.2610 
  220.2500   -23.2930    62.0130   117.2820   102.3800    68.9290    23.8260     2.2560 
  220.3750   -23.6940    61.8140   131.5690   113.6580    85.5500    23.7780     2.2490 
  220.5000   -24.0130    63.7440   145.5190   123.9720   109.7530    23.7550     2.2430 
  220.6250   -24.3610    66.5340   156.0270   131.0440   137.0600    23.8020     2.2390 
  220.7500   -24.6600    66.2680   161.3730   134.1850   156.4350    23.8640     2.2380 
  220.8750   -25.0180    63.1900   161.1200   133.3500   160.3980    23.8950     2.2400 
  221.0000   -25.3740    61.3550   156.5590   129.4930   145.2560    23.9010     2.2430 
  221.1250   -25.7390    63.5400   150.2150   124.2960   116.0550    23.9140     2.2460 
  221.2500   -26.0540    65.4440   144.9190   119.7790    89.7310    23.9130     2.2490 
  221.3750   -26.3380    64.9420   141.8460   117.0050    70.8530    23.8680     2.2490 
  221.5000   -26.5400    63.4810   141.1190   116.2880    61.0350    23.8120     2.2450 
  221.6250   -26.7200    62.7660   142.0990   117.3770    60.0110    23.8020     2.2320 
  221.7500   -26.7930    61.5200   142.9230   118.7690    63.0960    23.7960     2.2110 
  221.8750   -26.8710    58.6930   142.0070   119.1520    66.8200    23.7290     2.1840 
  222.0000   -26.8510    56.0620   138.4070   117.6210    69.1980    23.6190     2.1560 
  222.1250   -26.7090    55.4110   131.7690   113.5760    72.7450    23.5200     2.1360 
  222.2500   -26.5760    54.6570   123.8700   108.0260    77.0060    23.4190     2.1330 
  222.3750   -26.3340    53.6890   116.5630   102.2010    74.9830    23.3210     2.1470 
  222.5000   -26.1550    54.6250   111.3110    97.3990    63.5610    23.2740     2.1760 
  222.6250   -25.8650    58.3100   108.8520    94.5870    54.4440    23.2870     2.2090 
  222.7500   -25.6120    60.7820   107.8000    93.0620    53.4400    23.2890     2.2330 
  222.8750   -25.2440    60.6640   106.6600    91.8060    57.3280    23.2750     2.2430 
  223.0000   -24.8490    60.5480   103.7920    89.4960    62.0580    23.2740     2.2380 
  223.1250   -24.4710    63.2860    97.9230    84.9370    64.8620    23.2610     2.2220 
  223.2500   -24.0010    65.9590    90.4070    78.8790    63.9430    23.1940     2.1990 
  223.3750   -23.6180    67.0240    82.9390    72.4990    56.6950    23.0920     2.1740 
  223.5000   -23.1950    67.4180    77.3800    67.3770    47.1750    23.0370     2.1500 
  223.6250   -22.9290    67.9520    76.1770    66.0140    40.6790    23.1010     2.1360 
