~V
VERS. 2.00: Ver 2.00
~W
STRT.M 60.0000:
STOP.M 251.0000:
STEP.M 0.1250:
NULL. -999.2500:
UWI. DF5053:
~C
DEPT.M :
GR.API :
RML.OHMM :
RI. :
RXO.OHMM :
CALI.CM :
DEN.GM/CC :
SP.MV :
~A
# ...
  183.7500    50.7490   310.5260   276.5420   223.7420    24.4650     2.1960   -22.0880 
  183.8750    50.3380   298.7440   266.8840   221.8900    24.4950     2.1900   -21.7620 
  184.0000    47.6790   276.8390   249.5690   233.8130    24.4510     2.1830   -21.4550 
  184.1250    42.5380   245.3090   223.7400   236.0220    24.4020     2.1790   -21.1730 
  184.2500    42.2220   208.8300   192.2640   227.4930    24.4230     2.1810   -20.9140 
  184.3750    50.7530   175.0270   161.2470   194.5140    24.4670     2.1900   -20.6390 
  184.5000    62.2740   152.8030   138.9720   134.7340    24.4530     2.2050   -20.3280 
  184.6250    67.5000   143.7940   128.2290    96.8100    24.4000     2.2210   -19.9680 
  184.7500    63.5700   147.6140   129.3530    96.7940    24.3440     2.2330   -19.5760 
  184.8750    53.6910   161.1080   139.9090   122.6820    24.2850     2.2360   -19.1570 
  185.0000    45.0120   177.3080   154.1450   164.3040    24.3090     2.2270   -18.7460 
  185.1250    43.3490   186.1260   163.0450   199.6920    24.4620     2.2120   -18.3300 
  185.2500    49.0900   180.5190   160.2390   211.5880    24.5900     2.1990   -17.9230 
  185.3750    56.7000   159.2930   143.9770   196.6000    24.6040     2.1940   -17.5150 
  185.5000    62.4780   129.2550   118.6300   156.2920    24.5790     2.2000   -17.1050 
  185.6250    66.3980   102.1930    94.2270   102.4880    24.5090     2.2140   -16.6920 
  185.7500    71.2390    82.3240    75.3420    65.1610    24.3900     2.2320   -16.2870 
  185.8750    77.8470    69.2460    62.5230    48.7610    24.2510     2.2490   -15.8740 
  186.0000    82.1610    61.0250    54.4960    43.8680    24.2160     2.2620   -15.4540 
  186.1250    78.0880    54.4130    48.3330    42.0780    24.2780     2.2700   -15.0660 
  186.2500    68.8390    47.9900    42.7060    40.3410    24.3730     2.2770   -14.7180 
  186.3750    65.0670    41.3020    37.0830    36.7870    24.4050     2.2860   -14.4280 
  186.5000    69.8100    34.9750    31.8120    31.2640    24.3120     2.3050   -14.2160 
  186.6250    73.8170    29.9600    27.5510    25.2950    24.2260     2.3300   -14.0890 
  186.7500    76.7810    26.8260    24.7450    20.8850    24.1890     2.3550   -14.0540 
  186.8750    81.6120    25.5650    23.4440    19.5270    24.1900     2.3710   -14.1170 
  187.0000    84.2850    25.6780    23.4250    20.4700    24.2090     2.3720   -14.2500 
  187.1250    81.7980    25.9880    23.7710    22.0980    24.2290     2.3660   -14.4350 
  187.2500    78.4680    25.5980    23.7360    22.6120    24.2340     2.3600   -14.6700 
  187.3750    81.3350    24.1410    22.7490    20.7830    24.2390     2.3560   -14.9480 
  187.5000    87.3320    21.4870    20.5550    18.4930    24.2690     2.3500   -15.2790 
  187.6250    89.2690    18.7380    17.8510    16.6570    24.2890     2.3430   -15.6440 
  187.7500    89.3700    16.4820    15.2860    13.7520    24.2610     2.3340   -16.0080 
  187.8750    92.9180    14.5250    13.3250    10.5220    24.1790     2.3280   -16.3400 
  188.0000    99.3510    13.4080    12.2720     9.1500    24.1500     2.3270   -16.5950 
  188.1250   101.4770    13.0380    11.9230     8.8880    24.1420     2.3290   -16.7520 
  188.2500   102.7690    13.2290    12.1020     9.2890    24.1260     2.3310   -16.8220 
  188.3750   107.2790    13.7380    12.5830     9.9850    24.1100     2.3340   -16.8160 
  188.5000   109.0810    14.2700    13.0890    10.5930    24.0970     2.3380   -16.7340 
  188.6250   104.0410    14.5850    13.3920    10.7720    24.0830     2.3410   -16.6030 
  188.7500    99.1830    14.6120    13.4120    10.6000    24.0180     2.3430   -16.4440 
  188.8750   100.0940    14.4100    13.1950    10.1560    23.9300     2.3410   -16.2800 
  189.0000   105.3250    14.1460    12.8770     9.5350    23.8950     2.3390   -16.1590 
  189.1250   109.4700    13.9820    12.6240     9.2380    23.9270     2.3380   -16.1180 
  189.2500   111.2930    13.9600    12.5180     9.2560    23.9720     2.3400   -16.1270 
  189.3750   110.5480    14.0430    12.5790     9.4210    23.9900     2.3460   -16.1580 
  189.5000   106.1120    14.1930    12.7800     9.5980    23.9670     2.3530   -16.1500 
  189.6250   102.3960    14.3340    13.0060     9.7430    23.9200     2.3580   -16.0850 
  189.7500   103.1980    14.4040    13.1490     9.8790    23.8740     2.3600   -15.9830 
  189.8750   105.0770    14.3170    13.1080     9.9280    23.8480     2.3570   -15.8470 
  190.0000   100.6600    13.9850    12.7770     9.9920    23.8320     2.3530   -15.6580 
  190.1250    94.4810    13.3740    12.2310    10.0600    23.8390     2.3480   -15.4170 
  190.2500    94.6080    12.5060    11.5950    10.0680    23.9040     2.3430   -15.1440 
  190.3750   101.3240    11.7810    11.0760    10.1690    24.0000     2.3390   -14.8770 
  190.5000   104.4740    11.9640    11.2300    10.5620    24.1120     2.3350   -14.6970 
  190.6250    99.4000    14.9110    13.0330    12.4700    24.1980     2.3270   -14.5840 
  190.7500    89.1470    23.0490    18.3740    18.3340    24.2060     2.3160   -14.4720 
  190.8750    75.9260    39.4390    29.8550    33.2550    24.1060     2.3010   -14.3530 
  191.0000    62.6130    68.1900    51.2950    63.0900    23.8680     2.2780   -14.2060 
  191.1250    51.9010   103.4250    80.7180   101.9980    23.5700     2.2480   -14.0300 
  191.2500    45.6670   141.1310   113.4330   143.6750    23.4050     2.2150   -13.8070 
  191.3750    44.3910   171.3560   141.4140   169.0450    23.4940     2.1900   -13.5410 
  191.5000    44.1180   180.1470   153.5480   156.5350    23.7730     2.2000   -13.1970 
  191.6250    41.8350   168.6170   149.4430   144.5660    23.9460     2.2560   -12.7910 
  191.7500    38.5690   144.1830   133.1400   134.4480    23.8180     2.3540   -12.3490 
  191.8750    37.0710   115.7990   110.7790   126.8950    23.5590     2.4650   -11.8760 
  192.0000    39.6830    90.1190    87.9790   122.8210    23.5030     2.5410   -11.3780 
  192.1250    45.4560    69.2470    68.0970   109.9320    23.6460     2.5670   -10.8570 
  192.2500    53.5540    53.2740    52.1750    87.5560    23.8150     2.5580   -10.3350 
  192.3750    60.5480    41.4920    40.0340    67.6260    23.8840     2.5430    -9.8380 
  192.5000    60.3940    32.9820    31.2290    50.4710    23.9750     2.5430    -9.3860 
  192.6250    57.1010    26.2030    24.4530    36.4970    24.0020     2.5520    -9.0050 
  192.7500    54.0410    20.5550    19.3070    22.8050    23.9690     2.5570    -8.7100 
  192.8750    52.3140    16.4310    15.5690    14.3460    24.0150     2.5470    -8.5140 
  193.0000    55.6760    13.9000    13.2400    11.8140    24.0520     2.5210    -8.4390 
  193.1250    65.9450    12.5510    11.9200    10.7590    24.0400     2.4900    -8.4370 
  193.2500    80.0590    12.1370    11.4110    10.6190    24.0110     2.4640    -8.4770 
  193.3750    90.6920    12.3140    11.4580    10.9240    24.0240     2.4490    -8.5080 
  193.5000    92.7440    12.6420    11.7340    11.8340    24.0860     2.4480    -8.5020 
  193.6250    91.6840    12.6910    11.8450    12.6430    24.1190     2.4530    -8.4380 
  193.7500    91.2380    12.2800    11.5870    12.7450    24.1330     2.4570    -8.3240 
  193.8750    92.7200    11.4610    10.9470    11.6810    24.1510     2.4530    -8.1670 
  194.0000    94.6520    10.5350    10.1150    10.3640    24.1750     2.4400    -8.0080 
  194.1250    95.3430     9.9090     9.4390     9.0920    24.2000     2.4280    -7.8860 
  194.2500    95.7700     9.8260     9.1410     8.8230    24.2010     2.4240    -7.7960 
  194.3750    97.4820    10.3590     9.3200     9.4780    24.1560     2.4340    -7.7340 
  194.5000    97.8510    11.4430     9.9850    10.7750    24.0780     2.4590    -7.7030 
  194.6250    95.1720    12.6640    10.8420    12.1070    24.0240     2.4890    -7.6940 
  194.7500    93.0870    13.6370    11.6010    13.0120    23.9840     2.5140    -7.6990 
  194.8750    95.7880    14.0100    11.9740    13.3920    23.9540     2.5260    -7.7160 
