~V
VERS. 2.00: Ver 2.00
~W
STRT.M 55.0000:
STOP.M 271.0000:
STEP.M 0.1250:
NULL. -999.2500:
UWI. DF5009:
~C
DEPT.M :
GR.API :
CALI.CM :
RXO.OHMM :
RI. :
RML.OHMM :
DEN.GM/CC :
SP.MV :
~A
# ...
  167.5000    60.9870    24.7270     8.8090    10.7290    10.8900     2.4420   -19.3980 
  167.6250    61.9370    24.7230     8.4360    10.0620    10.3700     2.4250   -19.8280 
  167.7500    63.0650    24.7250     8.3980     9.6590    10.2450     2.4080   -20.2610 
  167.8750    64.6010    24.7240     8.8300     9.7370    10.8800     2.3850   -20.7030 
  168.0000    64.5930    24.7190    11.0390    10.5870    12.7940     2.3540   -21.2770 
  168.1250    61.2290    24.7250    21.6760    13.0320    17.2140     2.3180   -21.6760 
  168.2500    59.0520    24.7410    38.7740    17.9500    24.8910     2.2870   -22.1310 
  168.3750    61.2070    24.7530    53.2900    26.7080    36.7600     2.2650   -22.7590 
  168.5000    65.3850    24.7520    57.6360    40.3870    53.1880     2.2520   -23.2350 
  168.6250    67.5460    24.7390    55.7400    58.6090    72.9910     2.2460   -23.6050 
  168.7500    68.6720    24.7270    54.4030    76.3210    91.2250     2.2420   -23.9520 
  168.8750    69.6280    24.7200    56.1170    89.2120   103.8430     2.2370   -24.3300 
  169.0000    69.6340    24.7170    56.7600    96.3630   110.4850     2.2280   -24.6260 
  169.1250    70.3840    24.7110    56.3760   100.4270   114.8620     2.2160   -24.8500 
  169.2500    73.3830    24.7000    56.0290   105.4210   121.3920     2.2020   -25.1500 
  169.3750    75.5760    24.6920    57.2510   113.1020   131.7820     2.1910   -25.2540 
  169.5000    73.3780    24.6960    58.4180   124.3440   146.7220     2.1820   -25.3880 
  169.6250    69.6230    24.7070    57.4590   140.1520   166.9530     2.1730   -25.5210 
  169.7500    67.6840    24.7220    56.2400   158.5920   189.6090     2.1630   -25.5710 
  169.8750    66.0710    24.7610    55.5780   175.7940   209.2730     2.1540   -25.5250 
  170.0000    63.0180    24.8220    55.5670   185.9300   218.1720     2.1490   -25.4740 
  170.1250    61.2050    24.8440    56.4950   182.8230   209.5450     2.1490   -25.4480 
  170.2500    63.3140    24.8000    57.1610   170.4550   191.1150     2.1520   -25.3150 
  170.3750    66.1700    24.7100    56.2920   154.4850   170.8760     2.1540   -25.2370 
  170.5000    66.6030    24.6000    51.0290   139.9690   154.0670     2.1550   -25.0770 
  170.6250    66.9050    24.4630    47.9060   129.9570   142.7550     2.1570   -24.9550 
  170.7500    68.5040    24.2960    50.3410   123.1710   134.5920     2.1620   -24.7840 
  170.8750    69.8960    24.0800    50.7920   118.0480   127.7770     2.1670   -24.6550 
  171.0000    70.8720    23.8150    46.8950   113.5160   121.3360     2.1710   -24.5340 
  171.1250    73.3480    23.5880    45.5880   109.3560   115.4160     2.1780   -24.4990 
  171.2500    74.3160    23.4690    45.8960   105.9100   110.7270     2.1890   -24.3180 
  171.3750    72.0890    23.4200    43.6760   103.9460   108.1640     2.2000   -24.0490 
  171.5000    69.6700    23.4390    43.7410   104.1710   108.2640     2.2090   -23.8940 
  171.6250    69.9460    23.7650    51.9830   106.7800   110.8180     2.2090   -23.7410 
  171.7500    70.3600    24.4080    68.2180   109.7940   113.3580     2.2040   -23.7080 
  171.8750    69.4370    25.0740    85.5960   110.6060   112.9140     2.2010   -23.5690 
  172.0000    67.6300    25.4550    94.7290   106.5890   106.8650     2.2070   -23.4300 
  172.1250    66.2930    25.5100    84.8380    96.3150    94.5830     2.2270   -23.2430 
  172.2500    66.7780    25.4660    63.6380    83.5040    80.7590     2.2520   -23.1770 
  172.3750    68.7630    25.3580    42.0860    71.7290    69.1440     2.2740   -23.2850 
  172.5000    70.5510    25.1940    30.8580    63.5380    61.9100     2.2860   -23.2780 
  172.6250    73.0350    25.0700    31.3390    60.7920    60.4400     2.2860   -23.1710 
  172.7500    78.3390    25.0350    36.2090    62.5350    63.3280     2.2790   -23.0120 
  172.8750    84.4640    25.0540    42.2350    67.8550    69.3620     2.2700   -23.0000 
  173.0000    85.9520    25.0730    52.0890    74.9900    76.4960     2.2610   -22.9910 
  173.1250    79.4670    25.0640    64.3200    80.3890    80.9450     2.2540   -22.9340 
  173.2500    73.5410    25.0270    69.4740    81.2330    80.3620     2.2500   -22.9970 
  173.3750    72.8390    24.9580    63.5360    77.2500    75.1060     2.2470   -22.8860 
  173.5000    76.7630    24.8730    51.9380    70.5760    67.8320     2.2440   -22.8080 
  173.6250    80.4870    24.8070    41.2180    64.3910    61.9130     2.2400   -22.7510 
  173.7500    82.2660    24.8060    38.5420    60.6480    58.8720     2.2360   -22.6770 
  173.8750    82.9960    24.9050    43.5790    59.9880    59.0190     2.2370   -22.6200 
  174.0000    83.4910    25.1160    52.0180    62.2960    61.9370     2.2420   -22.4240 
  174.1250    83.9870    25.3820    56.3310    66.9760    66.6810     2.2500   -22.3400 
  174.2500    84.3280    25.5890    59.7680    72.0520    71.2250     2.2570   -22.1610 
  174.3750    83.3560    25.6920    65.8260    75.6940    73.8480     2.2610   -21.9330 
  174.5000    80.3310    25.7200    73.8020    76.4120    73.3910     2.2600   -21.7100 
  174.6250    76.5000    25.7200    75.3020    73.5720    69.6860     2.2570   -21.5740 
  174.7500    76.8220    25.7100    60.5570    69.0340    64.7140     2.2560   -21.5570 
  174.8750    80.5390    25.6400    47.2730    64.1200    59.6900     2.2600   -21.4540 
  175.0000    83.5120    25.4570    41.6270    59.4890    55.1190     2.2710   -21.4170 
  175.1250    82.3800    25.1820    41.3080    55.2170    50.9960     2.2880   -21.4030 
  175.2500    78.0990    24.9410    47.3410    51.0390    47.0560     2.3070   -21.2710 
  175.3750    73.4690    24.7980    49.0840    46.9770    43.3920     2.3200   -21.2110 
  175.5000    71.2800    24.7250    41.3530    43.4890    40.5470     2.3250   -21.2400 
  175.6250    72.4770    24.6800    32.5670    41.7490    39.8180     2.3170   -21.2950 
  175.7500    75.4310    24.6120    33.3010    42.4620    41.9070     2.3020   -21.2950 
  175.8750    79.4350    24.4240    38.5770    46.4370    47.5920     2.2820   -21.2490 
  176.0000    82.9800    24.0900    53.9750    54.5320    57.5460     2.2650   -21.2890 
  176.1250    81.7600    23.7580    77.9750    68.2220    72.8980     2.2530   -21.1590 
  176.2500    77.0750    23.6220    97.9790    86.1880    92.3050     2.2460   -21.1640 
  176.3750    72.5110    23.8180   106.4550   106.4630   114.1480     2.2400   -21.2050 
  176.5000    70.0050    24.3640   106.7970   126.3860   136.2060     2.2330   -21.1550 
  176.6250    69.3530    25.0600   110.4960   143.5750   156.4000     2.2190   -21.1750 
  176.7500    70.5930    25.5480   127.1150   158.3670   174.7290     2.2030   -21.0720 
  176.8750    71.2200    25.7380   146.4410   171.1990   191.2130     2.1900   -21.0070 
  177.0000    69.1460    25.7850   159.1580   181.1500   204.2350     2.1830   -20.8500 
  177.1250    66.3840    25.8250   168.3420   184.3390   208.5330     2.1870   -20.8270 
  177.2500    66.2520    25.8550   172.6850   179.9750   203.0880     2.1990   -20.6550 
  177.3750    67.8970    25.8660   169.1850   169.8690   190.4930     2.2140   -20.4230 
  177.5000    68.7420    25.8620   145.2300   157.8590   175.8290     2.2280   -20.2580 
  177.6250    69.2770    25.8570   118.3160   148.2530   164.3470     2.2360   -20.0030 
  177.7500    71.4070    25.8420   102.5640   142.7770   157.6440     2.2360   -19.8680 
  177.8750    72.1550    25.8410   103.4410   141.3060   154.9510     2.2310   -19.6730 
  178.0000    69.8930    25.8510   101.3940   141.4710   152.8560     2.2260   -19.5810 
  178.1250    67.0470    25.7100    82.2720   136.8960   143.7540     2.2280   -19.3350 
  178.2500    66.9670    25.3280    56.6110   123.0290   124.2900     2.2410   -19.1970 
  178.3750    70.2610    24.8150    41.9590   100.8080    97.7700     2.2650   -19.2550 
  178.5000    73.3340    24.3890    33.7100    76.4790    71.8980     2.2930   -19.1970 
  178.6250    74.5230    24.1830    25.0770    57.7600    53.9490     2.3160   -19.0400 
