~V
VERS. 2.00: Ver 2.00
~W
STRT.M 61.0000:
STOP.M 247.0000:
STEP.M 0.1250:
NULL. -999.2500:
UWI. DF5042:
~C
DEPT.M :
SP.MV :
GR.API :
CALI.CM :
RXO.OHMM :
RI. :
RML.OHMM :
DEN.GM/CC :
~A
# ...
  184.7500   -18.6000    67.3360    24.9610    37.3030    30.5050    32.7160     2.3460 
  184.8750   -18.2330    60.6510    24.8930    48.9720    30.8930    32.2130     2.3920 
  185.0000   -17.8840    55.8480    24.8480    45.9510    25.6330    26.1410     2.4540 
  185.1250   -17.5530    56.7480    24.8220    28.6620    17.9090    17.6710     2.5160 
  185.2500   -17.2260    58.9740    24.7750    12.9350    11.8220    11.1880     2.5570 
  185.3750   -16.8480    58.4480    24.7150     5.6010     8.0050     7.4330     2.5610 
  185.5000   -16.4720    55.5730    24.6760     4.2790     5.9490     5.6640     2.5420 
  185.6250   -16.1220    55.0490    24.6710     4.2000     5.0910     5.0780     2.5140 
  185.7500   -15.7870    57.0770    24.6740     4.1850     4.7540     4.9090     2.4840 
  185.8750   -15.4760    58.2920    24.6780     4.0840     4.6590     4.8860     2.4570 
  186.0000   -15.1740    57.2470    24.6840     3.9120     4.6250     4.8610     2.4310 
  186.1250   -14.8660    55.4900    24.6880     3.8600     4.5800     4.8010     2.4050 
  186.2500   -14.5350    53.8740    24.6890     3.9070     4.5580     4.7760     2.3770 
  186.3750   -14.2370    52.5350    24.6890     3.9840     4.6030     4.8420     2.3510 
  186.5000   -13.9390    51.1880    24.6890     4.0490     4.7400     5.0190     2.3310 
  186.6250   -13.6820    51.0450    24.6890     4.1150     4.9800     5.3170     2.3200 
  186.7500   -13.5040    53.4810    24.6900     4.2200     5.2810     5.6960     2.3150 
  186.8750   -13.4020    59.3280    24.6920     4.3410     5.6060     6.1260     2.3160 
  187.0000   -13.3640    68.0410    24.6950     4.4890     5.9140     6.5790     2.3220 
  187.1250   -13.3500    75.3570    24.7210     4.8510     6.1750     7.0360     2.3350 
  187.2500   -13.3960    80.8990    24.7680     5.3190     6.3980     7.4900     2.3560 
  187.3750   -13.4630    87.4070    24.8140     5.6890     6.5960     7.9400     2.3820 
  187.5000   -13.6150    95.3430    24.8350     5.8470     6.7840     8.3890     2.4040 
  187.6250   -13.8040   100.7480    24.8370     6.1080     6.9760     8.8380     2.4130 
  187.7500   -13.9890   101.9480    24.8680     6.6870     7.1660     9.2650     2.4080 
  187.8750   -14.1640   100.0530    24.9590     7.3580     7.3310     9.6280     2.3910 
  188.0000   -14.3810    96.0860    25.1040     7.9170     7.4400     9.8860     2.3710 
  188.1250   -14.6890    92.7490    25.2350     8.1800     7.4540     9.9960     2.3550 
  188.2500   -15.1340    91.9290    25.3010     8.1990     7.3930    10.0160     2.3480 
  188.3750   -15.6650    92.8360    25.3160     7.9810     7.3050    10.0320     2.3540 
  188.5000   -16.1880    92.9830    25.3170     7.9300     7.2650    10.1490     2.3620 
  188.6250   -16.6650    90.7140    25.2940     7.7260     7.3630    10.4630     2.3650 
  188.7500   -17.1380    88.1860    25.2260     7.8470     7.5960    10.9220     2.3600 
  188.8750   -17.6050    87.2050    25.1360     8.7600     7.9210    11.4250     2.3500 
  189.0000   -18.0420    87.2820    25.0740    10.4190     8.2560    11.8540     2.3420 
  189.1250   -18.4770    84.7110    25.0630    11.2430     8.5200    12.1420     2.3390 
  189.2500   -18.8520    80.6650    25.0660    10.8500     8.7430    12.4090     2.3420 
  189.3750   -19.1660    79.8410    25.0670    10.0610     9.0000    12.7890     2.3470 
  189.5000   -19.4650    81.5160    25.0670     9.7830     9.3490    13.3390     2.3520 
  189.6250   -19.7640    81.8830    25.0550    10.6690     9.7730    13.9570     2.3580 
  189.7500   -20.0490    82.3530    25.0300    12.8220    10.1250    14.3720     2.3670 
  189.8750   -20.2820    84.0560    25.0250    13.7960    10.2450    14.3550     2.3780 
  190.0000   -20.4650    85.7670    25.0980    12.2310    10.0390    13.8410     2.3830 
  190.1250   -20.5510    85.8220    25.2650     9.8080     9.5440    13.0000     2.3740 
  190.2500   -20.5400    87.3080    25.4210     9.0420     8.9900    12.1970     2.3540 
  190.3750   -20.4660    92.2390    25.4590     8.7640     8.5070    11.5870     2.3330 
  190.5000   -20.3010   100.2330    25.3530     8.6430     8.1330    11.1400     2.3210 
  190.6250   -20.0480   108.6470    25.2070     8.4850     7.7990    10.6760     2.3190 
  190.7500   -19.6710   111.4370    25.1280     8.1190     7.4050    10.0700     2.3240 
  190.8750   -19.2270   107.3850    25.0930     7.4830     6.9480     9.3820     2.3350 
  191.0000   -18.7040    99.8020    25.0250     6.5070     6.5210     8.8040     2.3470 
  191.1250   -18.1960    92.1890    24.9170     5.6340     6.2970     8.6020     2.3600 
  191.2500   -17.7070    86.3650    24.8510     5.5810     6.3320     8.7780     2.3710 
  191.3750   -17.2260    84.3330    24.8680     6.2630     6.5990     9.2080     2.3810 
  191.5000   -16.7600    87.5640    24.9370     7.2920     6.9680     9.6410     2.3930 
  191.6250   -16.3270    92.5150    24.9810     7.8800     7.1880     9.7160     2.4090 
  191.7500   -15.9440    92.6160    24.9590     7.7750     7.0990     9.3300     2.4250 
  191.8750   -15.6100    85.5890    24.8860     6.7380     6.7060     8.6040     2.4310 
  192.0000   -15.3540    74.5280    24.8050     5.5080     6.1620     7.8030     2.4230 
  192.1250   -15.0760    64.4390    24.7530     4.8310     5.6770     7.2150     2.4030 
  192.2500   -14.7850    57.4780    24.7300     4.6270     5.3570     6.8960     2.3810 
  192.3750   -14.5000    53.7870    24.7210     4.5540     5.2170     6.8080     2.3660 
  192.5000   -14.2130    52.6280    24.7190     4.5580     5.2260     6.8720     2.3630 
  192.6250   -13.9290    54.2240    24.7190     4.6180     5.3400     7.0090     2.3680 
  192.7500   -13.6960    57.4300    24.7180     4.6450     5.4850     7.1470     2.3790 
  192.8750   -13.5180    61.2080    24.7270     4.6730     5.6280     7.2620     2.3900 
  193.0000   -13.3500    64.9100    24.7590     4.7680     5.7560     7.3480     2.3970 
  193.1250   -13.2340    68.9800    24.7990     4.8730     5.8630     7.4040     2.4010 
  193.2500   -13.1680    73.9380    24.8250     4.9500     5.9560     7.4420     2.4040 
  193.3750   -13.1330    78.8410    24.8420     5.0030     6.0320     7.4620     2.4080 
  193.5000   -13.1700    83.5530    24.8650     5.1330     6.0850     7.4640     2.4120 
  193.6250   -13.2740    85.8760    24.8940     5.2970     6.1050     7.4390     2.4160 
  193.7500   -13.4050    84.4320    24.9180     5.4440     6.0910     7.3880     2.4170 
  193.8750   -13.5240    81.6430    24.9480     5.4690     6.0420     7.3170     2.4150 
  194.0000   -13.6730    82.0870    25.0120     5.4230     5.9650     7.2370     2.4120 
  194.1250   -13.8380    85.9300    25.1320     5.3600     5.8720     7.1730     2.4050 
  194.2500   -14.0030    88.1190    25.2670     5.3100     5.7820     7.1420     2.3940 
  194.3750   -14.1820    88.4960    25.3770     5.2510     5.7050     7.1430     2.3800 
  194.5000   -14.3670    88.4580    25.4450     5.1310     5.6390     7.1560     2.3660 
  194.6250   -14.5480    88.0470    25.4710     5.1400     5.5780     7.1600     2.3580 
  194.7500   -14.7030    88.2530    25.4760     5.3780     5.5320     7.1770     2.3550 
  194.8750   -14.9020    89.4920    25.4750     5.6130     5.5440     7.2920     2.3560 
  195.0000   -15.2010    89.8080    25.4750     5.7370     5.7010     7.6590     2.3560 
  195.1250   -15.5520    87.9110    25.4750     6.1750     6.1940     8.6070     2.3520 
  195.2500   -15.9390    85.5550    25.4750     7.2570     7.1610    10.3470     2.3470 
  195.3750   -16.3420    81.8930    25.4740     9.4940     8.8030    13.1270     2.3460 
  195.5000   -16.8180    75.1140    25.4730    15.0400    11.3420    17.0940     2.3500 
  195.6250   -17.3610    68.7670    25.4860    20.5380    15.0920    22.2760     2.3570 
  195.7500   -17.9770    68.0720    25.5310    24.3840    19.6680    27.9020     2.3580 
  195.8750   -18.6050    72.2130    25.6040    27.1010    24.4220    33.1330     2.3410 
