~V
VERS. 2.00: Ver 2.00
~W
STRT.M 55.0000:
STOP.M 262.0000:
STEP.M 0.1250:
NULL. -999.2500:
UWI. DF5047:
~C
DEPT.M :
GR.API :
CALI.CM :
RXO.OHMM :
RI. :
RML.OHMM :
DEN.GM/CC :
SP.MV :
~A
# ...
  235.0000    69.1740    24.4700    20.7320    20.5440    20.6410     2.2640   -18.9040 
  235.1250    68.4120    24.4870    18.3440    18.8070    18.7810     2.2650   -18.7130 
  235.2500    69.6250    24.4610    14.4880    16.9070    16.8620     2.2620   -18.6870 
  235.3750    70.9950    24.4460    11.9090    15.2580    15.3030     2.2590   -18.5330 
  235.5000    72.2420    24.4940    12.0110    14.1100    14.3450     2.2580   -18.4100 
  235.6250    74.5070    24.5600    13.3470    13.6500    14.1420     2.2600   -18.3990 
  235.7500    76.4550    24.5620    13.6220    13.7330    14.4650     2.2620   -18.3790 
  235.8750    74.3600    24.5210    12.9240    14.2270    15.1160     2.2630   -18.3320 
  236.0000    68.3900    24.4850    12.3090    14.9220    15.8450     2.2630   -18.2700 
  236.1250    66.2360    24.4540    12.9500    15.5080    16.3470     2.2600   -18.2500 
  236.2500    69.5050    24.4020    13.6490    15.7710    16.4890     2.2580   -18.1510 
  236.3750    73.6010    24.3290    13.6900    15.6570    16.2490     2.2630   -18.1610 
  236.5000    75.6130    24.2330    12.8840    15.1870    15.6590     2.2800   -18.2210 
  236.6250    77.0680    24.1410    11.7690    14.3380    14.7040     2.3130   -18.1750 
  236.7500    81.7660    24.1500    11.2750    13.2230    13.5110     2.3530   -18.1320 
  236.8750    87.9940    24.2730    11.0810    11.9670    12.2280     2.3870   -18.0850 
  237.0000    91.5210    24.3780    10.2020    10.7760    11.0860     2.4010   -18.0740 
  237.1250    91.7610    24.3400     8.0870     9.9660    10.4550     2.3860   -18.0870 
  237.2500    90.1330    24.2720     7.0780     9.6800    10.4820     2.3580   -18.1050 
  237.3750    86.3240    24.2800     7.8700     9.9910    11.2110     2.3290   -18.1920 
  237.5000    80.7100    24.3300     9.8740    10.8810    12.5360     2.3060   -18.1600 
  237.6250    75.7540    24.3440    13.6750    12.2470    14.1740     2.2910   -18.2050 
  237.7500    71.5590    24.3410    16.3740    13.6420    15.5740     2.2820   -18.3090 
  237.8750    67.3860    24.3460    16.1110    14.6200    16.3220     2.2770   -18.3210 
  238.0000    66.0260    24.3580    14.1820    14.8910    16.2650     2.2750   -18.4100 
  238.1250    69.6390    24.3600    13.5680    14.4460    15.5610     2.2770   -18.5610 
  238.2500    73.5990    24.3480    13.7660    13.7420    14.7370     2.2840   -18.6600 
  238.3750    75.3250    24.3380    13.6370    13.0790    14.0990     2.2960   -18.7270 
  238.5000    74.9650    24.3380    12.6070    12.6420    13.7920     2.3120   -18.8250 
  238.6250    73.4000    24.3260    11.6300    12.5150    13.8360     2.3260   -18.9740 
  238.7500    71.4880    24.2980    11.9660    12.5570    14.0170     2.3350   -19.0990 
  238.8750    69.7220    24.2790    13.0370    12.6360    14.1630     2.3360   -19.2150 
  239.0000    69.7980    24.2820    13.5350    12.6410    14.1430     2.3300   -19.3250 
  239.1250    73.8590    24.2870    12.9940    12.5150    13.9090     2.3190   -19.3870 
  239.2500    78.6930    24.2870    11.4760    12.3330    13.6000     2.3050   -19.4860 
  239.3750    80.7470    24.2960    10.4370    12.1760    13.3370     2.2930   -19.6270 
  239.5000    80.6620    24.3050    10.9820    12.0840    13.1760     2.2860   -19.7820 
  239.6250    79.8650    24.3040    12.0970    12.0370    13.0980     2.2860   -19.9650 
  239.7500    77.3440    24.3020    12.1330    11.9990    13.0520     2.2880   -19.9900 
  239.8750    74.7400    24.2740    11.1220    11.9850    13.0480     2.2930   -20.0600 
  240.0000    76.9580    24.1840     9.7090    12.0210    13.1030     2.2990   -20.2460 
  240.1250    79.7140    24.0760     9.4530    12.0990    13.1740     2.3090   -20.3340 
  240.2500    76.3690    24.0380     9.5700    12.0970    13.0970     2.3210   -20.5140 
  240.3750    71.0480    24.0480     9.5070    11.8520    12.7030     2.3310   -20.6260 
  240.5000    71.0800    24.0580     9.0920    11.2660    11.9470     2.3340   -20.6970 
  240.6250    75.7570    24.0900     8.5150    10.4550    11.0670     2.3270   -20.8390 
  240.7500    78.8790    24.1630     8.1050     9.8000    10.5440     2.3220   -21.0390 
  240.8750    79.4580    24.2310     7.7260     9.6070    10.7440     2.3250   -21.2480 
  241.0000    78.3180    24.2580     7.9060    10.0700    11.8140     2.3380   -21.4600 
  241.1250    76.5580    24.2760    10.5430    11.2900    13.6070     2.3570   -21.6730 
  241.2500    73.3150    24.2910    15.7990    12.7580    15.2900     2.3730   -21.8320 
  241.3750    68.8740    24.2760    19.3850    13.7190    15.9960     2.3840   -22.0640 
  241.5000    65.3810    24.2410    18.7790    13.5150    15.2480     2.3900   -22.3080 
  241.6250    65.6370    24.2050    12.4210    12.2360    13.4860     2.3980   -22.4980 
  241.7500    68.8890    24.1730     8.9580    10.9750    12.0920     2.4130   -22.7260 
  241.8750    72.5220    24.1470     7.5870    10.4130    11.9640     2.4330   -22.9160 
  242.0000    74.2890    24.1440     7.9920    10.9950    13.6390     2.4590   -23.0520 
  242.1250    72.2010    24.2130    11.8230    13.4550    17.7530     2.4860   -23.1680 
  242.2500    69.4150    24.2840    17.5430    17.9030    23.7350     2.5100   -23.2470 
  242.3750    68.0690    24.2810    27.3980    23.8840    30.2710     2.5300   -23.2670 
  242.5000    67.2890    24.2210    40.0370    29.1570    34.5360     2.5430   -23.1680 
  242.6250    64.0930    24.1840    46.7150    29.3090    32.6000     2.5390   -23.0230 
  242.7500    59.9420    24.1800    39.4710    24.8740    26.3110     2.5160   -22.8900 
  242.8750    58.4710    24.1700    26.9620    18.9490    19.2050     2.4750   -22.6430 
  243.0000    60.3130    24.1320    14.7710    13.9640    13.7250     2.4280   -22.2960 
  243.1250    64.5910    24.0650     8.7570    10.8900    10.7150     2.3880   -22.0100 
  243.2500    68.9030    23.9930     6.2230     9.1710     9.3050     2.3630   -21.6370 
  243.3750    72.7690    23.9630     6.3230     8.4320     8.9570     2.3550   -21.2590 
  243.5000    75.6460    23.9590     6.8940     8.3930     9.2720     2.3550   -20.9660 
  243.6250    77.9410    23.8840     8.1140     8.8740     9.9650     2.3530   -20.5100 
  243.7500    79.6680    23.7610     9.2500     9.5430    10.7040     2.3520   -20.0780 
  243.8750    79.0320    23.7200     9.9160    10.1890    11.3110     2.3520   -19.7110 
  244.0000    77.5790    23.8320    10.4370    10.6690    11.7020     2.3560   -19.2090 
  244.1250    78.2350    23.9450     9.8920    10.9010    11.8420     2.3620   -18.7270 
  244.2500    78.8870    23.8920     9.2700    10.9550    11.8370     2.3700   -18.4460 
  244.3750    77.4620    23.7450     8.9030    10.9040    11.7790     2.3790   -18.1480 
  244.5000    75.1570    23.7090     9.0600    10.8270    11.7570     2.3870   -17.8850 
  244.6250    73.7000    23.8890     9.6420    10.8000    11.8570     2.3910   -17.7540 
  244.7500    71.7260    24.1180     9.6040    10.8510    12.0830     2.3910   -17.5250 
  244.8750    69.6020    24.2700     9.7340    10.9830    12.4090     2.3880   -17.3100 
  245.0000    69.1950    24.2900    10.3980    11.1720    12.7800     2.3850   -17.2020 
  245.1250    71.3310    24.2060    10.9290    11.3780    13.1280     2.3900   -17.0400 
  245.2500    74.1640    24.1130    11.1000    11.5520    13.3960     2.4040   -16.8090 
  245.3750    75.6620    24.0530    11.1890    11.6530    13.5420     2.4220   -16.5810 
  245.5000    74.7880    24.0110    11.9080    11.6460    13.5340     2.4420   -16.3480 
  245.6250    72.9970    23.9630    12.2190    11.5020    13.3530     2.4590   -16.0800 
  245.7500    73.1260    23.9380    12.1050    11.2750    13.0840     2.4700   -15.8170 
  245.8750    74.2680    23.9620    11.7080    11.0440    12.8390     2.4750   -15.5960 
  246.0000    74.2510    24.0290    11.2240    10.9090    12.7470     2.4780   -15.4090 
  246.1250    71.9780    24.1080    11.5970    10.9950    12.9560     2.4850   -15.2150 
