~V
VERS. 2.00: Ver 2.00
~W
STRT.M 58.0000:
STOP.M 240.0000:
STEP.M 0.1250:
NULL. -999.2500:
UWI. DF5049:
~C
DEPT.M :
GR.API :
RML.OHMM :
RI. :
RXO.OHMM :
CALI.CM :
DEN.GM/CC :
SP.MV :
~A
# ...
  204.2500    68.6230    77.9650    72.4870    99.4020    25.6650     2.4240   -10.0000 
  204.3750    69.0440    80.8990    75.0670   213.1370    25.7390     2.4120    -9.9270 
  204.5000    68.9100    78.5600    73.3720   286.9040    25.6620     2.3890    -9.9000 
  204.6250    69.4210    70.9490    67.0020   136.8720    25.4660     2.3490    -9.8810 
  204.7500    70.5440    62.7780    59.6850    68.6330    25.4250     2.3010    -9.8840 
  204.8750    71.0740    57.2180    54.2060    42.2970    25.5940     2.2600    -9.8970 
  205.0000    69.4200    55.7740    52.1120    36.8280    25.7960     2.2400    -9.9710 
  205.1250    66.9610    59.2380    54.3960    52.1120    25.9300     2.2400   -10.1080 
  205.2500    66.3240    66.0930    59.9490    60.6020    25.9290     2.2450   -10.3070 
  205.3750    66.5710    75.0500    67.7320    63.8120    25.7500     2.2470   -10.5590 
  205.5000    66.4850    84.3800    76.1910    68.0800    25.3990     2.2410   -10.7780 
  205.6250    66.7900    92.0300    83.3830    78.6170    25.2730     2.2290   -10.9930 
  205.7500    68.3430    97.3920    88.5870    88.2580    25.4530     2.2150   -11.1980 
  205.8750    68.8970   100.6140    91.8490    92.4470    25.8730     2.2020   -11.3690 
  206.0000    67.6030   102.1990    93.5420    95.3680    26.3050     2.1930   -11.5660 
  206.1250    68.2000   102.4530    93.8660   101.1190    26.4380     2.1960   -11.7220 
  206.2500    69.1990   101.8040    93.2430   106.0350    26.5050     2.2100   -11.8610 
  206.3750    67.7370   100.1820    91.7020    97.8060    26.5250     2.2270   -11.8950 
  206.5000    65.4950    97.2850    89.1300    89.5690    26.4650     2.2380   -11.9320 
  206.6250    65.6220    92.8020    85.3950    87.5530    26.3740     2.2390   -11.9780 
  206.7500    67.1270    87.8350    81.3640    86.1540    26.3410     2.2490   -11.9990 
  206.8750    67.2870    83.9870    78.2840    83.5930    26.3180     2.2890   -11.9810 
  207.0000    68.4340    83.2210    77.7360    81.5780    26.2210     2.3720   -11.8550 
  207.1250    72.5960    88.2250    82.2760    70.2610    26.1360     2.4910   -11.6630 
  207.2500    73.5830    97.4840    91.1130    62.0590    25.9960     2.5980   -11.3810 
  207.3750    70.2590   105.2000    99.5470    59.9350    25.7440     2.6560   -11.0270 
  207.5000    66.3850   100.8960    97.7960    70.7980    25.4810     2.6440   -10.6120 
  207.6250    67.2580    77.8220    77.1940   116.4060    25.3940     2.5680   -10.1440 
  207.7500    68.5400    50.7220    50.8660   158.0960    25.3660     2.4780    -9.6790 
  207.8750    68.1980    29.9280    30.0710    80.5890    25.3110     2.4090    -9.2870 
  208.0000    70.5790    17.4950    17.6100    23.1530    25.2770     2.3750    -8.9840 
  208.1250    78.5030    11.9070    11.9710    10.4980    25.2320     2.3740    -8.8680 
  208.2500    89.0970     9.5350     9.4130     7.9460    25.1380     2.3820    -8.8780 
  208.3750    98.1060     8.9830     8.5850     8.1140    25.0180     2.3890    -9.0320 
  208.5000   103.0710     9.4230     8.8310     8.4440    24.9350     2.3900    -9.2140 
  208.6250   103.9130    10.2720     9.7440     8.7700    24.8940     2.3860    -9.4550 
  208.7500   104.7900    11.0010    10.7150     8.7480    24.8800     2.3790    -9.7400 
  208.8750   108.4460    11.4020    11.3890     8.7490    24.8640     2.3730    -9.9960 
  209.0000   112.6430    11.4430    11.6210     8.7570    24.8260     2.3690   -10.2210 
  209.1250   115.6890    11.1610    11.4010     8.7370    24.7820     2.3710   -10.3220 
  209.2500   118.2370    10.7590    10.9850     8.7210    24.7150     2.3720   -10.3870 
  209.3750   120.0220    10.4370    10.5890     8.9200    24.6230     2.3660   -10.3860 
  209.5000   119.4870    10.4400    10.4300     9.2870    24.5030     2.3500   -10.4320 
  209.6250   113.8720    11.1560    10.7900     9.1390    24.2940     2.3250   -10.5250 
  209.7500   105.6830    12.6940    11.7540    10.3210    24.0350     2.3030   -10.6920 
  209.8750    97.7220    15.1010    13.4040    12.9280    23.9170     2.2920   -10.9640 
  210.0000    93.0780    18.2660    15.7400    16.6350    23.9030     2.2940   -11.2840 
  210.1250    92.6020    21.9180    18.6580    19.4040    23.8690     2.3090   -11.6630 
  210.2500    92.1720    25.4870    21.6640    22.4000    23.8490     2.3280   -12.0310 
  210.3750    89.4410    28.5820    24.3330    24.4700    23.8980     2.3400   -12.4480 
  210.5000    84.4820    31.0520    26.4390    26.2620    24.0220     2.3360   -12.8670 
  210.6250    79.6230    32.9100    27.9360    28.6470    24.2090     2.3150   -13.2420 
  210.7500    76.8190    34.3690    29.0340    31.2340    24.3250     2.2880   -13.5470 
  210.8750    75.3770    35.4880    29.8150    34.1370    24.4200     2.2640   -13.7550 
  211.0000    75.0170    36.3560    30.3760    38.3330    24.5470     2.2530   -13.8930 
  211.1250    76.3930    37.1610    30.8790    43.2770    24.7900     2.2560   -13.9340 
  211.2500    79.7020    38.1530    31.5260    36.5410    24.9720     2.2660   -13.9380 
  211.3750    82.4680    39.4660    32.4400    31.7880    25.0290     2.2760   -13.9070 
  211.5000    80.6100    40.9930    33.5870    31.9690    25.0230     2.2840   -13.8540 
  211.6250    74.8700    42.2060    34.6390    34.8650    25.0090     2.2890   -13.8010 
  211.7500    71.7300    42.6470    35.2220    37.3990    24.9990     2.2910   -13.6840 
  211.8750    72.1940    42.2350    35.2150    36.0300    24.9880     2.2910   -13.5000 
  212.0000    73.6580    41.2950    34.7920    32.3030    24.9840     2.2880   -13.3160 
  212.1250    75.3290    40.4720    34.3740    29.9480    24.9720     2.2840   -13.1510 
  212.2500    78.4430    40.3090    34.3930    28.9220    24.9700     2.2790   -13.0280 
  212.3750    81.0820    40.9480    35.0260    31.5540    24.9670     2.2760   -12.8800 
  212.5000    80.1760    42.1220    36.1430    36.1980    24.9850     2.2720   -12.7330 
  212.6250    76.0570    43.2840    37.3560    37.8770    24.9990     2.2660   -12.5340 
  212.7500    73.6380    44.0790    38.3200    37.8600    24.9810     2.2620   -12.3390 
  212.8750    74.9910    44.5230    38.9800    36.0420    24.9200     2.2630   -12.1860 
  213.0000    77.9980    44.7070    39.3690    32.3000    24.8500     2.2700   -12.0410 
  213.1250    77.0700    44.4000    39.2860    31.7450    24.8820     2.2850   -11.8680 
  213.2500    73.8460    43.2330    38.4460    34.6900    24.9130     2.3020   -11.6340 
  213.3750    73.9200    40.9610    36.6470    39.3410    24.8980     2.3170   -11.3850 
  213.5000    78.2590    37.8920    34.1320    38.5160    24.8620     2.3280   -11.1310 
  213.6250    83.0550    35.0410    31.6960    31.1120    24.8590     2.3320   -10.8680 
  213.7500    86.2850    33.3920    30.1380    24.3700    24.9310     2.3300   -10.6310 
  213.8750    89.3610    33.4050    29.8600    23.7550    25.0250     2.3250   -10.4560 
  214.0000    90.9800    35.0350    30.9310    28.5620    25.0720     2.3170   -10.3490 
  214.1250    87.0230    37.8400    33.1890    34.5040    25.0760     2.3110   -10.3550 
  214.2500    79.4900    40.6950    35.7640    38.8110    25.0760     2.3060   -10.4190 
  214.3750    72.8690    42.8620    37.9660    39.3770    25.0760     2.3030   -10.5790 
  214.5000    71.6580    44.1460    39.4560    36.4680    25.0760     2.3020   -10.7270 
  214.6250    75.5650    45.1290    40.5240    36.0620    25.0750     2.3050   -10.9220 
  214.7500    78.4700    46.8300    42.0080    38.2580    25.0740     2.3080   -11.1430 
  214.8750    77.0980    49.8940    44.5110    42.6270    25.0720     2.3040   -11.3450 
  215.0000    73.2990    54.6090    48.3690    46.0630    25.0730     2.2900   -11.4960 
  215.1250    70.2190    61.0350    53.7290    47.3400    25.0510     2.2700   -11.5740 
  215.2500    67.1940    68.0490    59.6850    51.4760    24.9900     2.2530   -11.6500 
  215.3750    65.7090    74.2500    65.0680    57.3970    24.9140     2.2460   -11.6390 
