~V
VERS. 2.00: Ver 2.00
~W
STRT.M 58.0000:
STOP.M 276.0000:
STEP.M 0.1250:
NULL. -999.2500:
UWI. DF5012:
~C
DEPT.M :
SP.MV :
GR.API :
CALI.CM :
RXO.OHMM :
RI. :
RML.OHMM :
DEN.GM/CC :
~A
# ...
  249.2500   -29.2980    67.6500    24.7980     7.2200     5.7800     6.5510     2.3130 
  249.3750   -29.3720    68.2760    24.7770     5.6880     5.9040     6.7410     2.3240 
  249.5000   -29.4140    67.8430    24.7690     5.5250     6.0030     6.8810     2.3330 
  249.6250   -29.4340    66.8230    24.7680     5.7780     6.0460     6.9250     2.3400 
  249.7500   -29.3870    64.8380    24.7690     6.0830     6.0330     6.8890     2.3440 
  249.8750   -29.3120    62.7940    24.7690     6.4390     5.9780     6.8000     2.3460 
  250.0000   -29.2860    61.2650    24.7690     6.7430     5.8970     6.6920     2.3490 
  250.1250   -29.2390    60.4300    24.7690     6.5160     5.8080     6.5890     2.3540 
  250.2500   -29.1030    59.5110    24.7690     6.1380     5.7240     6.5000     2.3620 
  250.3750   -28.9310    58.4370    24.7690     5.8450     5.6520     6.4270     2.3700 
  250.5000   -28.7800    58.1550    24.7690     5.5230     5.5980     6.3750     2.3720 
  250.6250   -28.6840    58.6300    24.7690     5.1100     5.5730     6.3540     2.3660 
  250.7500   -28.6520    60.3400    24.7690     4.7840     5.5720     6.3620     2.3540 
  250.8750   -28.6750    62.9380    24.7690     4.7600     5.5950     6.3950     2.3430 
  251.0000   -28.6820    64.9010    24.7690     4.7750     5.6330     6.4390     2.3360 
  251.1250   -28.6820    63.2000    24.7690     4.6180     5.6780     6.4780     2.3360 
  251.2500   -28.8070    58.9070    24.7690     4.4430     5.7140     6.4990     2.3380 
  251.3750   -29.0010    56.9340    24.7690     4.3910     5.7330     6.4930     2.3410 
  251.5000   -29.2130    59.4570    24.7690     4.3640     5.7290     6.4590     2.3440 
  251.6250   -29.3870    61.3490    24.7690     4.3180     5.7010     6.4010     2.3480 
  251.7500   -29.5000    60.5890    24.7740     4.3450     5.6630     6.3390     2.3550 
  251.8750   -29.5390    59.7570    24.7870     4.4800     5.6310     6.2900     2.3620 
  252.0000   -29.5670    60.4060    24.8280     4.6760     5.6180     6.2670     2.3650 
  252.1250   -29.5960    59.7960    24.9240     4.7520     5.6360     6.2810     2.3560 
  252.2500   -29.4780    58.7360    25.0380     4.6700     5.6810     6.3190     2.3380 
  252.3750   -29.2780    58.5350    25.1160     4.5980     5.7450     6.3710     2.3150 
  252.5000   -29.1090    59.8120    25.1520     4.5790     5.8160     6.4290     2.2930 
  252.6250   -29.0380    61.3710    25.2410     4.6260     5.8810     6.4840     2.2770 
  252.7500   -29.0910    61.7780    25.3450     4.7280     5.9300     6.5330     2.2670 
  252.8750   -29.2590    60.9960    25.3070     4.7150     5.9590     6.5740     2.2620 
  253.0000   -29.4200    60.1560    25.0850     4.6530     5.9660     6.6010     2.2620 
  253.1250   -29.4190    60.1250    24.8610     4.7920     5.9430     6.5950     2.2700 
  253.2500   -29.4080    60.6490    24.7860     5.2380     5.8880     6.5480     2.2820 
  253.3750   -29.4930    62.8030    24.8120     5.6670     5.8060     6.4700     2.2960 
  253.5000   -29.6760    67.3180    24.8470     5.7660     5.7210     6.4060     2.3070 
  253.6250   -29.8950    70.8890    24.8660     5.6400     5.6900     6.4460     2.3180 
  253.7500   -30.0970    70.9100    24.8700     5.7070     5.7610     6.6520     2.3340 
  253.8750   -30.2450    68.2580    24.8700     5.9520     5.9750     7.0640     2.3560 
  254.0000   -30.2740    65.4070    24.8680     6.7530     6.3470     7.6850     2.3810 
  254.1250   -30.3280    64.4960    24.8440     8.5570     6.8940     8.5060     2.4080 
  254.2500   -30.4970    63.9140    24.8470    10.4310     7.5560     9.4380     2.4360 
  254.3750   -30.7070    62.3510    24.9450    12.1230     8.2940    10.4320     2.4630 
  254.5000   -30.9030    60.1730    25.1170    14.4810     9.0720    11.4500     2.4880 
  254.6250   -31.0400    60.5880    25.2270    16.7660     9.8750    12.4740     2.5050 
  254.7500   -31.1340    63.0420    25.2020    18.6370    10.7000    13.4940     2.5120 
  254.8750   -31.2470    65.6730    25.0860    22.9760    11.5360    14.4770     2.5110 
  255.0000   -31.4520    69.1370    24.9630    30.9860    12.3370    15.3550     2.5090 
  255.1250   -31.6560    73.3720    24.8790    33.6070    12.9940    16.0070     2.5080 
  255.2500   -31.7200    75.6370    24.8320    31.3740    13.4630    16.4160     2.5100 
  255.3750   -31.6830    73.8050    24.8030    28.4870    13.7490    16.6100     2.5130 
  255.5000   -31.5680    70.3830    24.8050    27.3220    13.9220    16.6940     2.5150 
  255.6250   -31.4420    69.5920    24.8530    26.4290    14.0980    16.8230     2.5170 
  255.7500   -31.3600    69.4930    24.9040    25.6050    14.3640    17.0770     2.5180 
  255.8750   -31.3420    69.2770    24.9300    27.9150    14.7370    17.4430     2.5210 
  256.0000   -31.3360    70.1740    24.9320    32.3850    15.1810    17.8470     2.5270 
  256.1250   -31.2530    72.7930    24.9350    33.6540    15.6000    18.1500     2.5350 
  256.2500   -31.2050    73.5210    24.9470    29.6590    15.9000    18.2700     2.5400 
  256.3750   -31.2200    71.7330    24.9580    24.6300    16.0410    18.1990     2.5350 
  256.5000   -31.3230    68.9410    24.9840    19.4510    16.0440    17.9910     2.5200 
  256.6250   -31.4700    66.6010    25.0440    17.5170    15.9570    17.7140     2.4990 
  256.7500   -31.5670    65.0310    25.1080    15.7440    15.8410    17.4290     2.4810 
  256.8750   -31.6010    65.9410    25.1430    14.7850    15.7210    17.1530     2.4690 
  257.0000   -31.6040    68.5950    25.1440    14.2560    15.6090    16.8920     2.4640 
  257.1250   -31.6060    68.7360    25.1410    13.6950    15.5240    16.6720     2.4600 
  257.2500   -31.6130    67.3070    25.1430    13.0840    15.4870    16.5170     2.4570 
  257.3750   -31.6160    67.9930    25.1450    13.1600    15.5120    16.4450     2.4570 
  257.5000   -31.5680    70.5730    25.1440    13.8510    15.6020    16.4540     2.4620 
  257.6250   -31.4560    72.1220    25.1410    15.3300    15.7370    16.5170     2.4700 
  257.7500   -31.3720    72.1980    25.1400    16.4350    15.8650    16.5640     2.4770 
  257.8750   -31.3340    71.3720    25.1420    16.3340    15.9420    16.5420     2.4810 
  258.0000   -31.3300    68.6160    25.1430    16.0820    15.9400    16.4320     2.4820 
  258.1250   -31.3590    65.8400    25.1430    16.9610    15.8610    16.2520     2.4820 
  258.2500   -31.3690    66.4210    25.1420    18.7690    15.7660    16.0850     2.4810 
  258.3750   -31.3840    67.8500    25.1410    20.0980    15.7030    15.9870     2.4800 
  258.5000   -31.4330    68.3180    25.1400    20.2530    15.6960    15.9690     2.4790 
  258.6250   -31.4990    69.6100    25.1390    20.3340    15.7240    15.9830     2.4790 
  258.7500   -31.5740    71.5960    25.1390    19.4000    15.7220    15.9360     2.4800 
  258.8750   -31.5750    72.0430    25.1400    17.3140    15.6350    15.7710     2.4810 
  259.0000   -31.4640    72.1550    25.1410    15.6020    15.4330    15.4680     2.4780 
  259.1250   -31.3560    73.3320    25.1420    14.7460    15.1080    15.0500     2.4720 
  259.2500   -31.3880    71.0970    25.1420    14.5560    14.7350    14.6060     2.4680 
  259.3750   -31.5110    66.4810    25.1450    14.8490    14.3650    14.1960     2.4700 
  259.5000   -31.5800    65.5100    25.1450    15.0440    14.0390    13.8570     2.4770 
  259.6250   -31.5370    69.1440    25.1040    14.4210    13.8020    13.6330     2.4850 
  259.7500   -31.3780    72.3000    25.0090    13.1890    13.6650    13.5230     2.4900 
  259.8750   -31.1880    74.9460    24.8810    12.4930    13.6440    13.5320     2.4900 
  260.0000   -31.1530    77.4480    24.7830    12.1770    13.7440    13.6570     2.4880 
  260.1250   -31.2910    76.1830    24.8210    12.5330    13.9700    13.8920     2.4890 
  260.2500   -31.3050    71.3210    24.9870    13.0040    14.2540    14.1650     2.4920 
  260.3750   -31.1410    66.7670    25.1900    13.1810    14.5330    14.4150     2.4960 
