~V
VERS. 2.00: Ver 2.00
~W
STRT.M 60.0000:
STOP.M 249.0000:
STEP.M 0.1250:
NULL. -999.2500:
UWI. DF5060:
~C
DEPT.M :
GR.API :
CALI.CM :
RXO.OHMM :
RI. :
RML.OHMM :
DEN.GM/CC :
SP.MV :
~A
# ...
  183.7500    57.4450    24.9240    23.5430    18.4860    19.0720     2.6120   -12.8800 
  183.8750    56.0470    24.8520    17.5560    13.8520    13.6030     2.5790   -12.6510 
  184.0000    57.9950    24.7460    10.3930    10.0720     9.3210     2.5420   -12.4440 
  184.1250    59.9950    24.6840     5.6410     7.7190     6.9020     2.5170   -12.2470 
  184.2500    57.1920    24.6570     3.3520     6.3400     5.6490     2.5110   -12.0810 
  184.3750    51.7290    24.6340     2.9840     5.6500     5.1330     2.5240   -11.9510 
  184.5000    49.5430    24.6070     2.9650     5.4410     5.0760     2.5460   -11.8520 
  184.6250    52.8360    24.6110     3.0490     5.5840     5.3130     2.5580   -11.7650 
  184.7500    55.6210    24.6760     3.2260     5.8360     5.5970     2.5530   -11.7120 
  184.8750    54.7880    24.8010     3.6740     6.0050     5.7300     2.5330   -11.6860 
  185.0000    52.0640    24.9360     4.2530     5.9270     5.5660     2.5020   -11.6630 
  185.1250    50.8250    25.0070     4.1460     5.5150     5.0630     2.4660   -11.6650 
  185.2500    50.5800    25.0030     3.3580     4.9450     4.4510     2.4340   -11.6540 
  185.3750    50.0730    24.9600     2.6680     4.3870     3.9190     2.4110   -11.6530 
  185.5000    49.5800    24.9280     2.3630     3.9750     3.5920     2.3980   -11.6210 
  185.6250    52.3870    24.9520     2.6590     3.8220     3.5570     2.3960   -11.6690 
  185.7500    56.1090    24.9970     2.9960     3.8910     3.7500     2.3970   -11.7420 
  185.8750    57.6720    25.0250     3.1850     4.1320     4.1180     2.3970   -11.8430 
  186.0000    58.6170    25.0140     3.3830     4.4730     4.5850     2.3950   -11.9930 
  186.1250    63.5010    24.9690     3.7840     4.8270     5.0400     2.3920   -12.1270 
  186.2500    69.2510    24.9200     3.9960     5.1260     5.3900     2.3880   -12.2730 
  186.3750    70.4710    24.8710     3.9420     5.3450     5.6030     2.3820   -12.3880 
  186.5000    67.5550    24.7920     3.8550     5.4810     5.6970     2.3740   -12.5350 
  186.6250    62.3930    24.6470     3.9290     5.5310     5.7110     2.3640   -12.6440 
  186.7500    56.2210    24.4970     4.0270     5.5240     5.7080     2.3570   -12.7520 
  186.8750    51.6430    24.4150     4.0450     5.4920     5.7270     2.3580   -12.8560 
  187.0000    51.0740    24.4250     3.9830     5.4650     5.7840     2.3670   -12.9380 
  187.1250    53.7120    24.4770     3.9740     5.4620     5.8720     2.3770   -13.1420 
  187.2500    53.6250    24.4930     4.0990     5.4720     5.9620     2.3820   -13.3130 
  187.3750    49.7780    24.4800     4.2440     5.4840     6.0470     2.3810   -13.4890 
  187.5000    45.9580    24.4830     4.3110     5.4950     6.1360     2.3780   -13.6330 
  187.6250    46.0530    24.5040     4.3330     5.5220     6.2580     2.3810   -13.8770 
  187.7500    49.7170    24.4930     4.3400     5.5810     6.4270     2.3930   -14.1030 
  187.8750    55.0720    24.4480     4.3510     5.6800     6.6410     2.4080   -14.3520 
  188.0000    61.3140    24.4110     4.4600     5.8130     6.8780     2.4190   -14.5790 
  188.1250    68.0710    24.4020     4.6510     5.9650     7.1200     2.4210   -14.7250 
  188.2500    73.1820    24.4020     4.8100     6.1240     7.3730     2.4160   -14.9660 
  188.3750    77.5850    24.4600     4.8840     6.3010     7.6710     2.4100   -15.2710 
  188.5000    82.4990    24.6170     4.9910     6.5160     8.0470     2.4050   -15.6650 
  188.6250    88.4690    24.8240     5.5800     6.7960     8.5220     2.4040   -15.9700 
  188.7500    93.5720    24.9930     6.4810     7.1250     9.0290     2.4070   -16.3300 
  188.8750    95.4230    25.1220     7.1980     7.4590     9.4760     2.4130   -16.6760 
  189.0000    94.2110    25.2490     7.4450     7.7300     9.7680     2.4170   -17.0490 
  189.1250    92.0770    25.3660     7.4650     7.8500     9.8250     2.4160   -17.4280 
  189.2500    91.7090    25.4470     7.5720     7.8240     9.7230     2.4080   -17.7200 
  189.3750    94.4640    25.4920     7.5450     7.6900     9.5450     2.3960   -17.9540 
  189.5000    97.6630    25.5150     7.3170     7.5130     9.3710     2.3790   -18.1170 
  189.6250    99.0370    25.5330     7.1440     7.3660     9.2620     2.3610   -18.3210 
  189.7500    98.5970    25.5590     7.1650     7.2770     9.2210     2.3460   -18.4800 
  189.8750    95.4000    25.6000     7.1020     7.2490     9.2430     2.3400   -18.6290 
  190.0000    90.7250    25.6280     6.8750     7.2670     9.3220     2.3410   -18.7880 
  190.1250    87.4400    25.6090     6.8240     7.3240     9.4580     2.3510   -18.8550 
  190.2500    86.7860    25.5820     7.2240     7.4070     9.6220     2.3620   -18.9250 
  190.3750    85.4560    25.5980     7.4490     7.5190     9.7980     2.3700   -18.9730 
  190.5000    83.4850    25.6580     7.1200     7.6630     9.9800     2.3740   -19.0020 
  190.6250    85.4020    25.7050     7.1560     7.8390    10.1610     2.3720   -18.9330 
  190.7500    86.9540    25.6750     7.5090     8.0190    10.3290     2.3690   -18.8150 
  190.8750    85.3270    25.5540     7.9540     8.1730    10.4660     2.3670   -18.6570 
  191.0000    83.8590    25.4040     8.2060     8.2800    10.5640     2.3690   -18.4220 
  191.1250    85.7690    25.3250     8.0620     8.3180    10.6140     2.3750   -18.2420 
  191.2500    87.6640    25.3280     7.9090     8.3080    10.6350     2.3840   -18.0070 
  191.3750    87.1190    25.3660     7.8000     8.2680    10.6300     2.3960   -17.7310 
  191.5000    86.7750    25.3840     7.7660     8.2130    10.5900     2.4080   -17.4030 
  191.6250    90.0090    25.3390     7.9430     8.1270    10.4570     2.4160   -17.0650 
  191.7500    96.2430    25.2840     7.9090     7.9760    10.1930     2.4150   -16.7320 
  191.8750   101.0220    25.2750     7.6220     7.7360     9.8040     2.4040   -16.4090 
  192.0000   100.7040    25.3050     7.3090     7.4340     9.3600     2.3910   -16.1350 
  192.1250    98.0690    25.3120     6.8780     7.1610     9.0220     2.3870   -15.8400 
  192.2500    98.7930    25.2860     6.1750     7.0210     8.9110     2.3940   -15.5860 
  192.3750   100.2910    25.2480     5.4860     7.0650     9.0610     2.4090   -15.3670 
  192.5000    97.0890    25.2210     5.4580     7.2660     9.3790     2.4250   -15.1590 
  192.6250    91.3220    25.2290     6.3310     7.4900     9.6180     2.4340   -14.9690 
  192.7500    87.9430    25.2400     7.0230     7.5560     9.5430     2.4330   -14.7680 
  192.8750    86.3280    25.2090     6.9130     7.3780     9.0820     2.4250   -14.5440 
  193.0000    82.8850    25.1120     5.8600     6.9850     8.3580     2.4130   -14.3410 
  193.1250    75.1800    24.9530     4.7560     6.5210     7.6510     2.4020   -14.2070 
  193.2500    65.3980    24.7740     4.2430     6.1540     7.1780     2.3930   -14.1520 
  193.3750    56.7470    24.6220     4.1880     5.9550     6.9830     2.3890   -14.1340 
  193.5000    54.0010    24.5380     4.2920     5.9280     7.0030     2.3940   -14.2010 
  193.6250    56.3450    24.5260     4.5210     6.0310     7.1160     2.4050   -14.2210 
  193.7500    57.9770    24.5430     4.6810     6.1530     7.1910     2.4150   -14.2650 
  193.8750    57.7960    24.5680     4.6420     6.2260     7.1800     2.4210   -14.3140 
  194.0000    59.0170    24.5830     4.4470     6.2290     7.0940     2.4210   -14.3530 
  194.1250    62.3970    24.5670     4.3000     6.1850     6.9790     2.4190   -14.4170 
  194.2500    64.8210    24.5440     4.2310     6.1440     6.8840     2.4160   -14.4840 
  194.3750    66.9430    24.5210     4.1960     6.1270     6.8340     2.4120   -14.5240 
  194.5000    71.6330    24.4860     4.1380     6.1390     6.8330     2.4070   -14.5180 
  194.6250    78.5060    24.4370     4.2270     6.1670     6.8730     2.4060   -14.5940 
  194.7500    82.2810    24.4270     4.4380     6.1930     6.9150     2.4070   -14.6830 
  194.8750    82.7040    24.5030     4.7190     6.2040     6.9300     2.4090   -14.8260 
