~V
VERS. 2.00: Ver 2.00
~W
STRT.M 60.0000:
STOP.M 248.0000:
STEP.M 0.1250:
NULL. -999.2500:
UWI. DF5054:
~C
DEPT.M :
SP.MV :
GR.API :
CALI.CM :
RXO.OHMM :
RI. :
RML.OHMM :
DEN.GM/CC :
~A
# ...
   93.7500   -21.4900    73.6100    23.7060     9.8060     7.6010     8.2920     2.1460 
   93.8750   -21.4560    74.1580    23.7230     9.7830     7.4990     8.2350     2.1540 
   94.0000   -21.4000    73.5770    23.7680     9.8690     7.4420     8.2210     2.1520 
   94.1250   -21.3270    72.9740    23.7730     9.9470     7.4230     8.2270     2.1430 
   94.2500   -21.2440    73.0790    23.7400     9.8010     7.4290     8.2380     2.1410 
   94.3750   -21.1600    73.9690    23.7020     9.4840     7.4560     8.2510     2.1430 
   94.5000   -21.0750    75.1650    23.7090     9.2440     7.5000     8.2660     2.1420 
   94.6250   -20.9810    76.2190    23.7690     9.2060     7.5520     8.2910     2.1370 
   94.7500   -20.8730    76.4790    23.8030     9.2770     7.5950     8.3220     2.1380 
   94.8750   -20.7380    75.1980    23.8150     9.3420     7.6010     8.3340     2.1410 
   95.0000   -20.5590    72.8090    23.8180     9.3260     7.5390     8.2850     2.1400 
   95.1250   -20.3290    72.6770    23.8070     9.2910     7.3650     8.1160     2.1370 
   95.2500   -20.0610    77.7130    23.7670     9.2740     7.0980     7.8340     2.1420 
   95.3750   -19.7610    86.3930    23.7000     9.1650     6.7660     7.4710     2.1570 
   95.5000   -19.4460    93.1530    23.6540     8.7080     6.4180     7.0900     2.1740 
   95.6250   -19.1630    92.6180    23.6880     7.7580     6.1310     6.7860     2.1910 
   95.7500   -18.9510    88.4110    23.7580     6.7520     5.9480     6.6130     2.2060 
   95.8750   -18.8330    84.4050    23.8020     6.2780     5.8940     6.6000     2.2200 
   96.0000   -18.8080    81.2380    23.8200     6.6760     5.9670     6.7390     2.2300 
   96.1250   -18.8640    78.3890    23.8450     7.7340     6.1610     7.0020     2.2280 
   96.2500   -18.9490    77.2350    23.8400     8.6210     6.4200     7.3140     2.2100 
   96.3750   -19.0390    77.6880    23.8250     8.9510     6.7050     7.6250     2.1780 
   96.5000   -19.1070    78.1910    23.8110     8.9840     6.9790     7.8980     2.1500 
   96.6250   -19.0990    79.5580    23.7920     9.1370     7.2130     8.1090     2.1380 
   96.7500   -18.9840    82.4500    23.7640     9.5410     7.4030     8.2680     2.1360 
   96.8750   -18.7510    83.4280    23.7490    10.4430     7.5440     8.3800     2.1360 
   97.0000   -18.4020    79.5280    23.7890    12.0410     7.6290     8.4430     2.1400 
   97.1250   -17.9310    73.7760    23.8490    13.3090     7.6320     8.4380     2.1530 
   97.2500   -17.3780    71.1100    23.8250    12.6990     7.5590     8.3580     2.1650 
   97.3750   -16.7500    71.0260    23.7100    10.8160     7.4100     8.1880     2.1690 
   97.5000   -16.0490    71.4910    23.6510     9.4230     7.1890     7.9290     2.1660 
   97.6250   -15.2730    72.7440    23.7120     9.0740     6.8910     7.5820     2.1650 
   97.7500   -14.4560    75.6320    23.7520     8.8910     6.5480     7.1900     2.1730 
   97.8750   -13.6160    81.0990    23.7690     8.3900     6.1860     6.7790     2.1880 
   98.0000   -12.7800    89.9060    23.7900     7.6650     5.8270     6.3720     2.2040 
   98.1250   -11.9910    99.0170    23.8720     6.8660     5.4940     6.0000     2.2190 
   98.2500   -11.2770   103.0450    24.0170     6.0000     5.2000     5.6840     2.2400 
   98.3750   -10.6730   101.2390    24.1730     5.1170     4.9670     5.4490     2.2720 
   98.5000   -10.2040    97.8810    24.2480     4.4820     4.8090     5.3040     2.3010 
   98.6250    -9.8970    98.7670    24.2210     4.3580     4.7380     5.2570     2.3070 
   98.7500    -9.7080   103.0780    24.1510     4.5380     4.7270     5.2770     2.2960 
   98.8750    -9.6200   107.0420    24.0690     4.6940     4.7540     5.3420     2.2870 
   99.0000    -9.6140   107.6110    24.0110     4.6870     4.7950     5.4170     2.2870 
   99.1250    -9.6700   105.0630    23.9870     4.7030     4.8140     5.4500     2.2890 
   99.2500    -9.7530   103.6530    23.9960     4.8750     4.7960     5.4230     2.2880 
   99.3750    -9.8470   104.8130    24.0480     5.0540     4.7460     5.3490     2.2890 
   99.5000    -9.9460   107.4060    24.1540     5.0070     4.6850     5.2560     2.2970 
   99.6250   -10.0630   110.3090    24.2300     4.7260     4.6530     5.1980     2.3140 
   99.7500   -10.2110   113.1740    24.2760     4.4770     4.6830     5.2220     2.3310 
   99.8750   -10.3880   114.7730    24.2960     4.3630     4.7930     5.3520     2.3380 
  100.0000   -10.5910   114.2300    24.2980     4.5300     4.9870     5.5890     2.3260 
  100.1250   -10.8280   112.3440    24.2850     5.1800     5.2570     5.9130     2.3040 
  100.2500   -11.0950   109.5730    24.2450     5.9130     5.5460     6.2470     2.2880 
  100.3750   -11.3860   104.3170    24.1630     6.4060     5.8050     6.5300     2.2860 
  100.5000   -11.6910    97.3090    24.0810     6.5690     5.9880     6.7110     2.2920 
  100.6250   -11.9930    92.9440    24.0340     6.5360     6.0470     6.7370     2.2940 
  100.7500   -12.2770    92.0610    24.0060     6.5200     5.9990     6.6420     2.2870 
  100.8750   -12.5390    92.2840    23.9850     6.5660     5.8990     6.5000     2.2690 
  101.0000   -12.7810    91.9420    23.9670     6.6490     5.8490     6.4510     2.2490 
  101.1250   -13.0050    90.9490    23.9440     6.7340     6.0190     6.7290     2.2360 
  101.2500   -13.2350    89.1630    23.9210     6.8050     6.4910     7.4330     2.2420 
  101.3750   -13.4990    86.2030    23.9190     6.9730     7.3280     8.5980     2.2700 
  101.5000   -13.8170    82.2380    23.9410     7.9640     8.5260    10.1430     2.3200 
  101.6250   -14.2110    77.6590    23.9950    14.4150     9.9640    11.8070     2.3860 
  101.7500   -14.6670    73.5280    24.0430    29.5990    11.2710    13.1580     2.4480 
  101.8750   -15.1720    72.7590    24.0290    48.2250    12.0790    13.8290     2.4810 
  102.0000   -15.7020    76.6510    23.9720    55.7210    12.1400    13.6070     2.4640 
  102.1250   -16.2320    82.7490    23.8770    42.5580    11.3960    12.4740     2.3920 
  102.2500   -16.7380    86.9510    23.7880    25.1550    10.3070    10.9800     2.3010 
  102.3750   -17.2040    87.9720    23.7310    13.8480     9.2220     9.5530     2.2280 
  102.5000   -17.6190    87.1030    23.7180     9.3190     8.3790     8.4960     2.1990 
  102.6250   -17.9680    86.5080    23.7420     8.6630     7.9300     7.9950     2.2170 
  102.7500   -18.2530    85.7370    23.8000     9.3950     7.7880     7.8810     2.2340 
  102.8750   -18.4740    83.1310    23.8110    10.3800     7.8540     7.9910     2.2240 
  103.0000   -18.6400    79.1470    23.7200    10.6580     8.0130     8.1690     2.1910 
  103.1250   -18.7570    77.2200    23.6380    10.0730     8.1560     8.2940     2.1630 
  103.2500   -18.8370    77.1490    23.6430     9.7490     8.2350     8.3400     2.1490 
  103.3750   -18.8830    77.4220    23.6620     9.7010     8.2450     8.3210     2.1410 
  103.5000   -18.8890    78.7110    23.6760     9.7390     8.2040     8.2730     2.1330 
  103.6250   -18.8300    80.7070    23.6830     9.6740     8.1390     8.2340     2.1290 
  103.7500   -18.7100    80.1920    23.6580     9.5550     8.0760     8.2220     2.1310 
  103.8750   -18.5380    76.9060    23.5810     9.5480     8.0240     8.2420     2.1380 
  104.0000   -18.3280    74.9560    23.5410    10.3370     7.9910     8.2990     2.1470 
  104.1250   -18.0800    77.9280    23.6320    12.9030     8.0040     8.4150     2.1580 
  104.2500   -17.8040    80.9660    23.7610    15.9930     8.0820     8.5900     2.1680 
  104.3750   -17.4980    79.8010    23.7500    16.7220     8.2270     8.8200     2.1710 
  104.5000   -17.1590    75.0310    23.6550    14.4620     8.4330     9.0950     2.1660 
  104.6250   -16.7930    71.1240    23.5770    13.1160     8.6680     9.3780     2.1540 
  104.7500   -16.4240    70.6180    23.5980    16.4870     8.8670     9.6040     2.1420 
  104.8750   -16.0580    73.9140    23.6780    24.3530     8.9720     9.7070     2.1400 
