~V
VERS. 2.00: Ver 2.00
~W
STRT.M 50.0000:
STOP.M 258.0000:
STEP.M 0.1250:
NULL. -999.2500:
UWI. DF5038:
~C
DEPT.M :
GR.API :
CALI.CM :
RXO.OHMM :
RI. :
RML.OHMM :
DEN.GM/CC :
SP.MV :
~A
# ...
  252.5000    62.5990    25.5270     8.2900     9.3550    10.7890     2.3770   -23.6890 
  252.6250    62.5990    25.4730     8.2250     9.3590    10.7840     2.3730   -23.6740 
  252.7500    62.5990    25.4440     8.1820     9.3630    10.7800     2.3700   -23.5950 
  252.8750    62.5990    25.4210     8.1270     9.3660    10.7770     2.3700   -23.5760 
  253.0000    62.5990    25.3670     8.0890     9.3660    10.7760     2.3770   -23.4900 
  253.1250    62.5990    25.2410     8.1140     9.3660    10.7760     2.3850   -23.3690 
  253.2500    62.5990    25.0900     8.2250     9.3660    10.7760     2.3930   -23.4000 
  253.3750    62.5990    24.9910     8.5260     9.3660    10.7760     2.4020   -23.4360 
  253.5000    62.5990    24.9690     9.8930     9.3660    10.7760     2.4110   -23.4650 
  253.6250    62.5990    24.9750    11.2350     9.3660    10.7760     2.4190   -23.5090 
  253.7500    62.5990    24.9760    11.0460     9.3660    10.7760     2.4290   -23.6730 
  253.8750    62.5990    24.9740    10.2130     9.3660    10.7760     2.4400   -23.7840 
  254.0000    62.5990    24.9450    10.0910     9.3660    10.7760     2.4440   -23.9120 
  254.1250    62.5990    24.8660     9.7590     9.3660    10.7760     2.4320   -24.0920 
  254.2500    62.5990    24.8000     9.2080     9.3660    10.7760     2.4140   -24.1440 
  254.3750    62.5990    24.7960     8.8030     9.3660    10.7760     2.4080   -24.1440 
  254.5000    62.5990    24.5800     7.8550     9.3660    10.7760     2.4100  -999.2500 
  254.6250    62.5990    23.8010     6.7990     9.3660    10.7760     2.3430  -999.2500 
  254.7500    62.5990    21.7900     5.7530     9.3660    10.7760     2.1660  -999.2500 
  254.8750    62.5990    19.4000     5.3590     9.3660    10.7760     1.9420  -999.2500 
  255.0000    62.5990    17.6090     5.2520     9.3660    10.7760     1.7910  -999.2500 
  255.1250    62.5990    16.8370     5.2390     9.3660    10.7760     1.7760  -999.2500 
  255.2500    62.5990    16.7870     5.2380     9.3660    10.7760     1.8070  -999.2500 
  255.3750    62.5990    16.8270     5.2380     9.3660    10.7760     1.8220  -999.2500 
  255.5000    62.5990    16.8280     5.2380     9.3660    10.7760     1.8170  -999.2500 
  255.6250    62.5990    16.8270     5.2400     9.3660    10.7760     1.8140  -999.2500 
  255.7500    62.5990    16.8270     5.2390     9.3660    10.7760     1.8170  -999.2500 
  255.8750    62.5990    16.8270     5.2400     9.3660    10.7760     1.8180  -999.2500 
  256.0000    62.5990    16.8270     5.2390     9.3660    10.7760     1.8120  -999.2500 
  256.1250    62.5990    16.8270     5.2360     9.3660    10.7760     1.8050  -999.2500 
  256.2500    62.5990    16.8270     5.2390     9.3660    10.7760     1.8020  -999.2500 
  256.3750    62.5990    16.8270     5.2390     9.3660    10.7760     1.8070  -999.2500 
  256.5000    62.5990    16.8270     5.2370     9.3660    10.7760     1.8130  -999.2500 
  256.6250    62.5990    16.8270     5.2380     9.3660    10.7760     1.8130  -999.2500 
  256.7500    62.5990    16.8270     5.2390     9.3660    10.7760     1.8090  -999.2500 
  256.8750    62.5990    16.8270     5.2400     9.3660    10.7760     1.8070  -999.2500 
  257.0000    62.5990    16.8270     5.2390     9.3660    10.7760     1.8090  -999.2500 
  257.1250    62.5990    16.8270     5.2370     9.3660    10.7760     1.8100  -999.2500 
  257.2500    62.5990    16.8270     5.2400     9.3660    10.7760     1.8000  -999.2500 
  257.3750    62.5990    16.8250     5.2420     9.3660    10.7760     1.8310  -999.2500 
  257.5000    62.5990    16.8210     5.2420     9.3660    10.7760     1.9670  -999.2500 
  257.6250    62.5990    16.8180     5.2380     9.3660    10.7760     2.1840  -999.2500 
  257.7500    62.5990    16.8170     5.2340     9.3660    10.7760     2.3570  -999.2500 
  257.8750    62.5990    16.8170     5.2340     9.3660    10.7760     2.4450  -999.2500 
  258.0000  -999.2500  -999.2500  -999.2500  -999.2500  -999.2500     2.4740  -999.2500 
