~V
VERS. 2.00: Ver 2.00
~W
STRT.M 58.0000:
STOP.M 240.0000:
STEP.M 0.1250:
NULL. -999.2500:
UWI. DF5049:
~C
DEPT.M :
GR.API :
RML.OHMM :
RI. :
RXO.OHMM :
CALI.CM :
DEN.GM/CC :
SP.MV :
~A
# ...
  215.5000    67.7440    78.2330    68.6810    63.3200    24.8640     2.2510   -11.6110 
  215.6250    70.9440    79.1160    69.7270    70.3350    24.8040     2.2600   -11.5310 
  215.7500    71.2330    78.4560    69.3990    67.9310    24.6750     2.2670   -11.4190 
  215.8750    70.4850    77.9530    69.0480    59.0190    24.5380     2.2700   -11.2540 
  216.0000    71.1570    79.0640    69.9250    53.8700    24.4660     2.2730   -11.0730 
  216.1250    69.0810    82.6600    72.9190    61.1720    24.4770     2.2820   -10.8770 
  216.2500    63.6600    87.4440    77.1230    74.9730    24.4860     2.2960   -10.6440 
  216.3750    59.6540    91.5430    81.0750    83.0550    24.4910     2.3140   -10.4000 
  216.5000    59.9900    92.8100    82.9770    82.6880    24.5100     2.3300   -10.1240 
  216.6250    63.1270    89.1290    80.8310    74.8660    24.4810     2.3370    -9.7990 
  216.7500    65.9420    81.8120    75.3320    64.9400    24.3830     2.3360    -9.4420 
  216.8750    68.1960    72.6740    67.8100    56.9630    24.2770     2.3280    -9.0410 
  217.0000    69.9530    63.4940    59.8210    50.7470    24.2480     2.3150    -8.5990 
  217.1250    70.8230    55.7120    52.7600    45.9520    24.3110     2.3000    -8.1120 
  217.2500    70.9580    49.6830    47.1470    41.0960    24.4790     2.2880    -7.6380 
  217.3750    70.7250    45.4360    43.1060    37.0600    24.7680     2.2840    -7.1930 
  217.5000    69.8340    42.6710    40.4370    34.9590    25.0910     2.2890    -6.8050 
  217.6250    66.2860    40.9330    38.8010    34.7040    25.3070     2.3000    -6.4990 
  217.7500    63.2750    39.4370    37.4930    34.8540    25.3770     2.3070    -6.1860 
  217.8750    65.3760    37.7520    36.0920    34.9990    25.3290     2.3070    -5.9360 
  218.0000    70.8780    35.6870    34.3650    32.7260    25.2250     2.2990    -5.7280 
  218.1250    72.5380    33.3890    32.3710    28.7890    25.2460     2.2900    -5.5550 
  218.2500    71.3780    31.3190    30.5090    26.6410    25.3690     2.2840    -5.4270 
  218.3750    73.2510    29.8150    29.0940    26.3260    25.5110     2.2810    -5.3130 
  218.5000    77.7940    29.0280    28.2880    26.6860    25.5880     2.2780    -5.1960 
  218.6250    77.2400    28.9240    28.1010    26.5670    25.5960     2.2760    -5.0570 
  218.7500    70.8920    29.0080    28.1170    27.3280    25.5820     2.2780    -4.9780 
  218.8750    63.7580    28.8500    27.9450    28.9710    25.5630     2.2830    -4.8760 
  219.0000    61.1280    28.1850    27.3170    28.5120    25.5500     2.2890    -4.7600 
  219.1250    62.9890    27.0240    26.2220    26.3700    25.5400     2.2910    -4.6210 
  219.2500    64.3090    25.8110    25.0560    24.1170    25.5270     2.2900    -4.4430 
  219.3750    64.0680    24.9180    24.1450    22.3420    25.5150     2.2890    -4.2850 
  219.5000    63.2390    24.5670    23.6920    22.0160    25.5020     2.2960    -4.1070 
  219.6250    63.6250    24.8270    23.7880    23.3370    25.4910     2.3100    -3.9220 
  219.7500    64.4900    25.4070    24.2050    25.0260    25.4660     2.3260    -3.7320 
  219.8750    65.3990    26.1040    24.7650    25.7860    25.4220     2.3350    -3.5560 
  220.0000    66.3850    26.7820    25.3230    25.4210    25.3530     2.3340    -3.4470 
  220.1250    67.6310    27.3690    25.7790    25.4340    25.3340     2.3230    -3.4210 
  220.2500    70.3200    27.8790    26.1290    25.0550    25.3150     2.3120    -3.4630 
  220.3750    72.2660    28.2840    26.3630    26.4310    25.2650     2.3090    -3.5090 
  220.5000    70.7280    28.5130    26.4400    26.8340    25.1750     2.3140    -3.6130 
  220.6250    66.7220    28.5040    26.3090    26.1370    25.1020     2.3230    -3.7670 
  220.7500    63.7640    28.4020    26.0880    24.8830    25.0090     2.3270    -3.9110 
  220.8750    64.3680    28.4200    25.9530    24.1160    24.8960     2.3210    -4.0550 
  221.0000    66.8400    28.8000    26.1150    25.3030    24.8240     2.3070    -4.1320 
  221.1250    66.4050    29.8010    26.8240    27.3670    24.8190     2.2870    -4.1870 
  221.2500    61.9230    31.3200    28.0250    29.3440    24.8860     2.2680    -4.1580 
  221.3750    57.1630    33.2070    29.6030    32.2490    25.0290     2.2540    -4.1290 
  221.5000    56.9490    35.2830    31.3960    36.0110    25.1680     2.2460    -4.0490 
  221.6250    60.9870    37.3360    33.2030    36.2650    25.2460     2.2470    -3.9660 
  221.7500    64.5330    39.1110    34.7800    37.1040    25.2660     2.2530    -3.9210 
  221.8750    65.1040    40.3320    35.8760    37.9050    25.2720     2.2590    -3.8860 
  222.0000    62.9230    40.7580    36.2730    38.2050    25.2800     2.2600    -3.8820 
  222.1250    61.6160    40.0670    35.6830    38.4260    25.2940     2.2540    -3.8460 
  222.2500    61.7750    38.4030    34.2200    35.8760    25.3010     2.2520    -3.8570 
  222.3750    61.1720    36.0230    32.0900    31.9630    25.3180     2.2640    -3.8680 
  222.5000    59.4470    33.5030    29.7890    29.6650    25.3310     2.2950    -3.8820 
  222.6250    60.2120    31.7370    28.0650    28.2020    25.3250     2.3340    -3.8760 
  222.7500    63.9890    31.1700    27.2990    25.8620    25.2760     2.3570    -3.8470 
  222.8750    66.5270    31.9350    27.6270    24.6440    25.1710     2.3510    -3.8380 
  223.0000    64.4650    33.7880    28.9280    28.6120    25.0110     2.3190    -3.8310 
  223.1250    59.6610    35.9840    30.7490    40.3670    24.7590     2.2740    -3.9050 
  223.2500    57.7730    37.4940    32.2370    37.9830    24.5340     2.2340    -4.0300 
  223.3750    59.0980    37.8390    32.8920    32.9190    24.4400     2.2080    -4.2080 
  223.5000    61.8110    37.1310    32.6490    29.2660    24.4310     2.1970    -4.4400 
  223.6250    64.6010    35.8840    31.7740    28.8390    24.4400     2.2020    -4.6660 
  223.7500    66.9150    34.6930    30.7610    28.7400    24.4620     2.2140    -4.9010 
  223.8750    66.7670    33.6310    29.7400    30.3720    24.5190     2.2270    -5.0940 
  224.0000    63.4400    32.4570    28.6030    32.0320    24.5880     2.2330    -5.2800 
  224.1250    61.5200    30.8620    27.1470    29.9230    24.6230     2.2290    -5.4370 
  224.2500    63.7730    29.0660    25.5500    25.5100    24.6640     2.2210    -5.5070 
  224.3750    67.6920    27.5070    24.1520    22.6040    24.7150     2.2120    -5.5250 
  224.5000    69.3530    26.6130    23.2910    21.7850    24.7970     2.2030    -5.4780 
  224.6250    68.5970    26.8100    23.3060    22.6140    24.8930     2.1960    -5.4430 
  224.7500    66.3890    27.9430    24.1050    23.3210    25.0410     2.1950    -5.3560 
  224.8750    63.2030    29.7430    25.5290    25.3250    25.2570     2.2060    -5.2800 
  225.0000    61.5480    31.6790    27.1910    29.2130    25.4100     2.2320    -5.1640 
  225.1250    63.5110    32.8380    28.3390    30.1130    25.4510     2.2660    -5.0150 
  225.2500    64.8720    32.6420    28.3710    28.9220    25.4150     2.2940    -4.8630 
  225.3750    64.3230    30.8870    27.0160    28.5850    25.3200     2.3090    -4.6630 
  225.5000    65.6260    27.8490    24.4520    28.6310    25.1910     2.3070    -4.4660 
  225.6250    69.6650    24.1610    21.2260    26.0310    25.0630     2.2890    -4.2730 
  225.7500    73.7370    20.6510    18.1120    21.9070    25.1070     2.2670    -4.0880 
  225.8750    78.6170    17.7830    15.5280    16.4580    25.2940     2.2570    -3.9210 
  226.0000    85.3530    15.8250    13.6950    13.1570    25.4310     2.2700    -3.7670 
  226.1250    89.8310    14.9270    12.7390    11.4480    25.4730     2.3140    -3.6210 
  226.2500    89.0080    14.6530    12.3450    10.8630    25.4670     2.3700    -3.4750 
  226.3750    86.1160    14.6190    12.2360    11.7950    25.4260     2.4160    -3.3540 
  226.5000    83.0620    14.4470    12.1040    13.5030    25.3310     2.4380    -3.2100 
  226.6250    79.5320    13.8280    11.6640    12.6950    25.2120     2.4330    -3.0350 
