~V
VERS. 2.00: Ver 2.00
~W
STRT.M 60.0000:
STOP.M 277.0000:
STEP.M 0.1250:
NULL. -999.2500:
UWI. DF5010:
~C
DEPT.M :
GR.API :
CALI.CM :
RXO.OHMM :
RI. :
RML.OHMM :
SP.MV :
DEN.GM/CC :
~A
   60.0000    49.3030    23.8130     0.8870     0.2060     0.2530     0.5120     2.1740 
   60.1250    50.1090    23.8130     1.0010     0.2100     0.2540    -2.8000     2.2020 
   60.2500    53.3290    23.8130     1.7580     0.3080     0.2580    -6.5640     2.3330 
   60.3750    59.4700    23.8130     8.1970     0.5770     0.2940   -10.8670     2.5310 
   60.5000    66.7820    23.8130    25.8080     1.1940     0.4600   -15.5730     2.6860 
   60.6250    73.1870    23.8130    48.0820     2.6070     1.1900   -20.5080     2.7000 
   60.7500    77.5170    23.8130    50.7550     4.6350     2.7430   -25.5220     2.6120 
   60.8750    79.3400    23.8130    34.4640     6.2400     4.2410   -30.4540     2.4800 
   61.0000    78.0380    23.8130    17.2090     6.6250     4.6460   -35.1730     2.3480 
   61.1250    75.6270    23.8130    10.3680     6.1900     4.3850   -39.3970     2.2510 
   61.2500    75.2450    23.8130     8.9240     5.7110     4.1420   -42.9780     2.1950 
   61.3750    75.5670    23.8120     8.3200     5.4050     4.0500   -45.8260     2.1750 
   61.5000    74.4300    23.8130     7.8830     5.3190     4.1200   -47.9640     2.1700 
   61.6250    73.0880    23.8320     7.6160     5.4400     4.3150   -49.4530     2.1620 
   61.7500    73.8920    23.8700     7.3700     5.6320     4.5230   -50.5170     2.1510 
   61.8750    75.0090    23.9250     7.2090     5.8160     4.6900   -51.2980     2.1440 
   62.0000    73.3540    23.9900     7.1750     5.9580     4.8140   -51.9720     2.1420 
   62.1250    69.5040    24.0530     7.2370     6.0520     4.9090   -52.5470     2.1400 
   62.2500    67.7170    24.0930     7.3480     6.1140     4.9850   -53.1220     2.1400 
   62.3750    68.0920    24.1070     7.6560     6.1510     5.0420   -53.5920     2.1440 
   62.5000    69.6730    24.1070     8.0670     6.1600     5.0760   -54.0220     2.1520 
   62.6250    70.9360    24.1070     8.3310     6.1240     5.0770   -54.4000     2.1520 
   62.7500    70.3910    24.1070     8.3110     6.0450     5.0490   -54.6320     2.1410 
   62.8750    66.9710    24.1070     8.1950     5.9340     5.0070   -54.7490     2.1290 
   63.0000    61.9390    24.1070     8.0580     5.8230     4.9770   -54.7410     2.1250 
   63.1250    58.6820    24.1070     7.8460     5.7570     4.9980   -54.6790     2.1310 
   63.2500    60.1930    24.1070     7.5950     5.7610     5.0840   -54.6220     2.1420 
   63.3750    66.8420    24.1070     7.7560     5.8460     5.2370   -54.5890     2.1550 
   63.5000    75.1000    24.1070     8.3060     6.0030     5.4370   -54.4430     2.1640 
   63.6250    79.8650    24.1070     8.4450     6.1990     5.6440   -54.2430     2.1660 
   63.7500    79.4350    24.1070     8.3410     6.3800     5.8140   -54.1740     2.1680 
   63.8750    75.9090    24.1070     8.2980     6.5040     5.9210   -54.2150     2.1740 
   64.0000    72.0230    24.1070     8.4150     6.5460     5.9570   -54.3390     2.1820 
   64.1250    71.4320    24.1060     8.4160     6.4930     5.9250   -54.3130     2.1810 
   64.2500    74.7150    24.1110     8.4480     6.3880     5.8670   -54.2200     2.1750 
   64.3750    77.1990    24.1280     8.5400     6.2590     5.8040   -54.2820     2.1700 
   64.5000    76.0690    24.1540     8.5370     6.1330     5.7560   -54.5220     2.1670 
   64.6250    75.1240    24.1720     8.2890     6.0230     5.7300   -54.7830     2.1630 
   64.7500    77.5420    24.1760     8.2160     5.9200     5.7080   -54.9700     2.1540 
   64.8750    80.6220    24.1750     8.3930     5.8000     5.6490   -55.1900     2.1460 
   65.0000    81.3860    24.1750     8.5710     5.6410     5.5120   -55.3390     2.1420 
   65.1250    79.5290    24.1750     8.6590     5.4570     5.3200   -55.6120     2.1440 
   65.2500    77.9360    24.1750     8.7030     5.3620     5.2410   -55.8910     2.1480 
   65.3750    77.5730    24.1740     8.7570     5.5270     5.5090   -56.1250     2.1610 
   65.5000    77.9940    24.1700     8.9010     6.1650     6.3820   -56.3950     2.1990 
   65.6250    76.3500    24.1920     9.7370     7.6320     8.2660   -56.5550     2.2890 
   65.7500    73.7230    24.2750    14.5030     9.9090    11.0970   -56.7240     2.4160 
   65.8750    73.3780    24.4100    28.6920    12.6080    14.3160   -56.9710     2.5410 
   66.0000    75.2450    24.5380    43.8120    14.5490    16.2670   -57.3100     2.6030 
   66.1250    76.2790    24.5410    39.5690    14.0150    14.8650   -57.6540     2.5420 
   66.2500    76.5520    24.3960    23.2940    11.8230    11.7880   -58.1390     2.4160 
   66.3750    75.3330    24.1830    11.7850     9.3550     8.9120   -58.6100     2.2910 
   66.5000    71.9870    24.0270     8.8860     7.4270     6.9840   -58.9810     2.2100 
   66.6250    67.3680    23.9920     8.5590     6.3160     6.0790   -59.4220     2.1740 
   66.7500    65.1820    23.9970     8.4750     5.7760     5.7760   -59.8070     2.1580 
   66.8750    67.1920    23.9980     8.4280     5.6460     5.8460   -60.1150     2.1500 
   67.0000    71.4020    23.9980     8.4900     5.7610     6.0860   -60.3600     2.1480 
   67.1250    73.1850    23.9980     9.2720     5.9740     6.3350   -60.5330     2.1480 
   67.2500    71.8100    24.0000    13.2040     6.1610     6.5050   -60.4820     2.1480 
   67.3750    69.9790    24.0030    16.8930     6.2740     6.5750   -60.3430     2.1490 
   67.5000    68.1370    23.9970    16.0480     6.2940     6.5460   -60.2250     2.1490 
   67.6250    65.8270    23.9710     9.7540     6.2250     6.4370   -60.0880     2.1460 
   67.7500    64.6220    23.9230     8.4620     6.1130     6.3050   -60.0330     2.1420 
   67.8750    67.4430    23.8630     8.2370     5.9920     6.1870   -59.8870     2.1390 
   68.0000    72.7980    23.8110     7.9880     5.8890     6.1100   -59.6150     2.1350 
   68.1250    74.0970    23.7850     7.8440     5.8200     6.0880   -59.3670     2.1340 
   68.2500    70.9810    23.7760     7.9060     5.7690     6.0940   -59.2830     2.1360 
   68.3750    67.2040    23.7720     7.9520     5.7200     6.1000   -59.1670     2.1400 
   68.5000    66.0610    23.7700     7.8830     5.6590     6.0910   -58.9810     2.1420 
   68.6250    66.6880    23.7700     7.6610     5.5880     6.0610   -58.8240     2.1370 
   68.7500    67.2370    23.7620     7.4420     5.5230     6.0260   -58.6480     2.1250 
   68.8750    67.8420    23.7380     7.2710     5.4860     6.0190   -58.3500     2.1110 
   69.0000    68.1140    23.7040     7.1960     5.5090     6.0800   -58.1640     2.1070 
   69.1250    68.5820    23.6820     7.2360     5.6290     6.2480   -58.0550     2.1280 
   69.2500    68.6870    23.6760     7.5700     5.8230     6.4870   -57.8040     2.1650 
   69.3750    67.7470    23.6820     8.2040     6.0470     6.7440   -57.6480     2.2040 
   69.5000    66.7270    23.6810     9.0780     6.2390     6.9440   -57.4990     2.2320 
   69.6250    67.6160    23.6120     9.3330     6.3130     6.9970   -57.2450     2.2350 
   69.7500    69.5680    23.4730     9.0100     6.2580     6.9060   -56.9770     2.2170 
   69.8750    71.2180    23.3340     8.5340     6.0960     6.7090   -56.8230     2.1920 
   70.0000    72.3250    23.2640     8.3810     5.8790     6.4700   -56.7240     2.1730 
   70.1250    73.9670    23.2610     8.2990     5.6700     6.2580   -56.4300     2.1670 
   70.2500    75.5790    23.2650     8.0830     5.5110     6.1130   -56.1990     2.1710 
   70.3750    76.2910    23.2650     7.6460     5.4170     6.0430   -56.0420     2.1790 
   70.5000    77.2380    23.2650     7.2610     5.3820     6.0330   -55.9430     2.1840 
   70.6250    78.0190    23.2640     7.1330     5.3820     6.0460   -55.8470     2.1800 
   70.7500    77.9830    23.2590     7.4770     5.3790     6.0380   -55.7750     2.1710 
   70.8750    77.3510    23.2970     7.7550     5.3550     5.9920   -55.7720     2.1670 
   71.0000    77.9320    23.4350     7.6740     5.3140     5.9220   -55.6630     2.1760 
   71.1250    79.3200    23.6360     7.2310     5.2940     5.8860   -55.6660     2.1930 
