~V
VERS. 2.00: Ver 2.00
~W
STRT.M 55.0000:
STOP.M 262.0000:
STEP.M 0.1250:
NULL. -999.2500:
UWI. DF5047:
~C
DEPT.M :
GR.API :
CALI.CM :
RXO.OHMM :
RI. :
RML.OHMM :
DEN.GM/CC :
SP.MV :
~A
# ...
  156.2500    58.3090    25.6390    47.6210    55.1450    67.0830     2.2520   -35.7760 
  156.3750    58.3480    25.6810    54.0930    71.4770    84.3110     2.2270   -36.4550 
  156.5000    60.2530    25.6990    61.6260    86.7010   100.3290     2.2100   -37.0510 
  156.6250    62.3520    25.7560    73.6740   100.1570   114.5760     2.2020   -37.7100 
  156.7500    62.7430    25.8470    88.9470   112.2390   127.4620     2.1990   -38.4150 
  156.8750    62.0160    25.9270   104.8990   122.1040   137.9850     2.2000   -38.9910 
  157.0000    62.3400    25.9760   114.3370   128.1370   144.1450     2.2020   -39.4610 
  157.1250    63.2520    26.0000   113.7030   128.6420   143.9220     2.2020   -39.9490 
  157.2500    63.0790    26.0340   114.3860   125.5370   139.7070     2.2020   -40.4160 
  157.3750    62.0360    26.0990   107.8410   120.9660   134.1190     2.2040   -40.8360 
  157.5000    60.3550    26.1850    91.5850   117.0540   129.5430     2.2080   -41.2850 
  157.6250    60.0710    26.2390    82.9770   115.7890   127.9640     2.2130   -41.6750 
  157.7500    62.8800    26.2520    84.7320   117.3140   129.2050     2.2160   -41.9190 
  157.8750    66.8690    26.2490    88.2410   121.0750   132.4360     2.2150   -42.2180 
  158.0000    68.7310    26.2490    94.6270   125.7630   136.0960     2.2120   -42.5350 
  158.1250    67.4170    26.2630   109.9650   129.1580   137.7300     2.2080   -42.7780 
  158.2500    66.7390    26.2930   115.9190   129.7850   136.1330     2.2060   -42.9840 
  158.3750    67.5070    26.3240   105.5250   127.3220   131.3850     2.2050   -43.1210 
  158.5000    68.2170    26.3560    82.8170   122.5720   124.7420     2.2050   -43.2920 
  158.6250    67.8930    26.4000    72.7620   117.0360   118.0890     2.2060   -43.4590 
  158.7500    67.6030    26.4480    80.1370   112.3110   112.8790     2.2060   -43.6580 
  158.8750    67.8300    26.4600    84.2630   109.2340   109.7550     2.2080   -43.8150 
  159.0000    67.0080    26.4070    79.6240   108.1960   108.8700     2.2130   -43.9200 
  159.1250    67.5550    26.3290    78.9920   109.4640   110.2790     2.2190   -44.0500 
  159.2500    70.7510    26.2870    84.7470   112.2730   113.1370     2.2220   -44.1790 
  159.3750    72.9420    26.2800    91.6740   116.0860   116.9290     2.2200   -44.4000 
  159.5000    70.6130    26.2660    95.9350   120.2940   121.0860     2.2160   -44.5060 
  159.6250    66.5340    26.2280    99.3360   124.0070   124.7720     2.2140   -44.5420 
  159.7500    64.6500    26.1810   101.1570   126.6120   127.4600     2.2150   -44.6280 
  159.8750    64.4240    26.1520   106.6780   128.1080   129.2690     2.2180   -44.6950 
  160.0000    62.7260    26.1780   122.6730   129.2540   131.1040     2.2220   -44.7560 
  160.1250    60.2130    26.2380   132.6300   131.7250   134.8280     2.2230   -44.7590 
  160.2500    59.9070    26.2560   132.9590   136.7790   141.5990     2.2230   -44.6730 
  160.3750    61.5980    26.2280   129.6540   145.1200   152.0360     2.2220   -44.6200 
  160.5000    62.5200    26.2130   125.3120   156.7910   166.0680     2.2200   -44.5540 
  160.6250    61.6950    26.2280   180.3540   171.5720   183.2480     2.2170   -44.4160 
  160.7500    60.4270    26.2180   248.2760   187.8100   201.6510     2.2130   -44.3840 
  160.8750    59.6210    26.1760   248.1000   204.4550   220.0920     2.2090   -44.2600 
  161.0000    60.2730    26.1270   209.9260   221.0640   238.1580     2.2030   -44.0300 
  161.1250    61.9000    26.0960   230.0870   237.9140   256.0850     2.1960   -43.9860 
  161.2500    60.8680    26.0710   276.1250   254.4320   273.0570     2.1880   -43.8560 
  161.3750    58.0640    26.0160   315.6040   267.8060   285.6650     2.1810   -43.6300 
  161.5000    58.2030    25.9180   339.1300   273.4810   288.7000     2.1750   -43.6030 
  161.6250    60.4040    25.8200   321.3210   265.9290   276.5520     2.1730   -43.4300 
  161.7500    60.6090    25.7610   284.2010   247.9440   253.5520     2.1740   -43.2460 
  161.8750    59.2970    25.7330   231.7370   222.8770   223.8640     2.1800   -43.1710 
  162.0000    59.8570    25.7150   178.5440   193.4550   190.5270     2.1870   -42.9380 
  162.1250    62.9300    25.7090   149.9520   162.1860   156.9800     2.1960   -42.7300 
  162.2500    65.1250    25.7110   149.3990   133.2250   127.7870     2.2050   -42.6910 
  162.3750    64.2490    25.7080   123.6690   110.1090   106.1270     2.2140   -42.5280 
  162.5000    61.9650    25.6860    86.9640    95.0170    93.2910     2.2230   -42.3520 
  162.6250    61.5760    25.6410    58.5440    90.0810    90.5360     2.2260   -42.3320 
  162.7500    61.6910    25.6020    51.2660    93.5050    95.4840     2.2240   -42.1300 
  162.8750    61.2840    25.5860    70.9610   104.0990   106.5940     2.2160   -42.0370 
  163.0000    61.5700    25.5860   113.1090   119.3010   121.0740     2.2050   -42.1080 
  163.1250    63.0820    25.5850   146.3150   133.6120   133.1470     2.1960   -41.8960 
  163.2500    64.2800    25.5890   156.5490   140.5740   137.0020     2.1900   -41.7880 
  163.3750    63.9650    25.6100   142.5210   137.2840   130.7740     2.1870   -41.8030 
  163.5000    63.5490    25.6560   109.1650   125.8590   117.6680     2.1880   -41.7480 
  163.6250    65.1940    25.7620    77.1100   111.4000   103.2180     2.1930   -41.7070 
  163.7500    68.6400    25.9330    69.7130    98.4000    91.0590     2.2000   -41.6390 
  163.8750    70.9400    26.1150    66.5240    88.1630    81.9690     2.2080   -41.5240 
  164.0000    70.6160    26.2460    61.8400    80.8320    75.7550     2.2160   -41.4680 
  164.1250    69.8060    26.3140    61.4850    76.1620    72.0020     2.2230   -41.5990 
  164.2500    70.0820    26.3700    61.1370    72.9480    69.5600     2.2310   -41.6290 
  164.3750    70.8560    26.4090    60.3580    70.7200    68.0010     2.2360   -41.5180 
  164.5000    71.3150    26.4200    57.2750    69.2700    67.1690     2.2370   -41.4560 
  164.6250    69.6970    26.4240    53.1990    68.8540    67.4580     2.2310   -41.5060 
  164.7500    66.6540    26.4400    54.2870    69.8470    69.3700     2.2230   -41.5680 
  164.8750    64.5600    26.4630    57.5570    72.9930    73.7290     2.2150   -41.6450 
  165.0000    63.7550    26.4790    61.5220    79.1610    81.4020     2.2080   -41.7480 
  165.1250    61.8670    26.4800    71.9880    90.0100    93.8530     2.2000   -41.7500 
  165.2500    61.9660    26.4840    95.4200   105.1990   110.2620     2.1930   -41.7760 
  165.3750    65.1080    26.4990   125.6670   123.0140   128.4790     2.1850   -41.9760 
  165.5000    67.1220    26.5240   150.6830   138.9060   143.5960     2.1760   -41.9920 
  165.6250    61.8380    26.5520   161.0430   144.5290   146.9300     2.1690   -41.8690 
  165.7500    55.2980    26.5780   152.5370   138.3970   138.0440     2.1660   -41.9800 
  165.8750    54.3660    26.5970   122.9520   124.2960   122.1020     2.1700   -42.1050 
  166.0000    58.9170    26.6050    81.2380   108.7420   106.2480     2.1790   -42.1140 
  166.1250    63.4700    26.6050    58.5120    97.5540    95.8350     2.1910   -42.1540 
  166.2500    63.7390    26.6090    58.7490    91.3880    90.4670     2.2000   -42.2210 
  166.3750    61.2650    26.6120    65.6140    89.0340    88.5110     2.2010   -42.2650 
  166.5000    60.1990    26.5940    71.0740    88.5100    87.8210     2.1960   -42.3650 
  166.6250    62.1360    26.4470    74.8490    87.4040    85.9900     2.1910   -42.5050 
  166.7500    63.2120    26.1610    73.8930    84.2000    81.9670     2.1920   -42.6570 
  166.8750    62.1710    25.9410    69.3790    78.8340    76.1140     2.2030   -42.7730 
  167.0000    61.2600    26.0020    60.0540    72.4520    69.8120     2.2210   -42.8400 
  167.1250    63.5080    26.2830    52.0890    66.9420    65.0080     2.2420   -42.9300 
  167.2500    66.9030    26.4780    50.3320    63.4540    62.6610     2.2600   -42.9930 
  167.3750    69.1430    26.5290    48.7140    62.6770    63.4290     2.2700   -42.9960 
