~V
VERS. 2.00: Ver 2.00
~W
STRT.M 60.0000:
STOP.M 261.0000:
STEP.M 0.1250:
NULL. -999.2500:
UWI. DF5055:
~C
DEPT.M :
SP.MV :
GR.API :
RML.OHMM :
RI. :
RXO.OHMM :
CALI.CM :
DEN.GM/CC :
~A
# ...
   71.2500   -25.8850    91.3390     8.5850     6.8930     7.6190    23.9730     2.2460 
   71.3750   -25.0530    94.8830     8.2910     6.6710     7.6680    24.0710     2.2710 
   71.5000   -24.2600    96.6650     7.9260     6.3900     7.0420    24.2040     2.2860 
   71.6250   -23.4630    99.4580     7.5870     6.1090     6.4790    24.2850     2.2850 
   71.7500   -22.6910   102.7150     7.3350     5.8820     5.8890    24.3210     2.2720 
   71.8750   -22.0140   101.8810     7.1610     5.7290     5.9220    24.2550     2.2470 
   72.0000   -21.5150    97.0920     7.0140     5.6400     6.2940    24.0730     2.2150 
   72.1250   -21.2790    92.2730     6.8730     5.6100     6.0910    23.8790     2.1850 
   72.2500   -21.2030    89.7620     6.8360     5.6660     6.0160    23.7990     2.1630 
   72.3750   -21.1590    87.3080     7.1340     5.9150     6.5670    23.7820     2.1600 
   72.5000   -21.1220    82.9910     8.0670     6.5120     7.3050    23.7440     2.1840 
   72.6250   -21.0220    78.7980     9.9720     7.7150     8.3580    23.6270     2.2470 
   72.7500   -20.7150    76.4000    12.4720     9.4350    10.8410    23.5560     2.3380 
   72.8750   -20.1610    77.3960    14.7710    11.2730    16.7200    23.8100     2.4320 
   73.0000   -19.4380    81.6000    15.6970    12.3700    22.9150    24.4030     2.5020 
   73.1250   -18.5710    87.2950    14.1850    11.6900    21.4610    24.7750     2.5180 
   73.2500   -17.5850    96.6980    11.3710     9.8980    12.9620    24.8290     2.4860 
   73.3750   -16.5460   108.3470     8.5640     7.9390     7.0800    24.9550     2.4200 
   73.5000   -15.5000   115.8030     6.5740     6.4120     5.2370    25.3930     2.3360 
   73.6250   -14.6280   113.1950     5.6880     5.5590     5.0730    25.6830     2.2540 
   73.7500   -13.9980   109.1020     5.4890     5.1940     5.0480    25.8260     2.1900 
   73.8750   -13.5940   109.3600     5.6520     5.1660     5.0690    25.9080     2.1610 
   74.0000   -13.3450   110.3890     5.8680     5.2860     5.1120    25.9200     2.1700 
   74.1250   -13.1590   109.0020     5.8740     5.3400     5.1520    25.9260     2.2140 
   74.2500   -13.0080   107.1380     5.6580     5.2480     5.1190    25.9380     2.2640 
   74.3750   -12.9100   106.2800     5.3440     5.0680     5.0890    25.9380     2.3050 
   74.5000   -12.9450   105.3850     5.1490     4.9480     5.0590    25.9240     2.3260 
   74.6250   -13.1050   104.1860     5.4420     5.1300     5.0550    25.8530     2.3280 
   74.7500   -13.3490   102.9180     6.3990     5.7400     5.3530    25.6970     2.3260 
   74.8750   -13.7350    97.6410     8.0850     6.8690     6.4240    25.5120     2.3360 
   75.0000   -14.2720    86.6260    10.3330     8.4910     8.7590    25.3550     2.3660 
   75.1250   -15.0530    75.2760    12.5260    10.2700    11.2840    25.2250     2.4040 
   75.2500   -16.0970    69.8970    13.7930    11.4730    13.2850    24.9870     2.4190 
   75.3750   -17.3670    70.3700    13.6870    11.6260    14.0720    24.6900     2.3900 
   75.5000   -18.7430    71.3580    12.5150    10.8820    11.9040    24.5630     2.3110 
   75.6250   -20.1130    70.6230    11.1400     9.8440    11.1020    24.9980     2.1980 
   75.7500   -21.4100    69.0630    10.2460     9.0320    10.2080    26.0320     2.0850 
   75.8750   -22.5490    67.3650     9.9610     8.5830     9.8750    27.1910     1.9960 
   76.0000   -23.5090    64.5680    10.1430     8.4680     9.8590    27.6740     1.9460 
   76.1250   -24.2250    60.5010    10.5150     8.5670     9.8530    26.9940     1.9500 
   76.2500   -24.6850    60.0470    10.7870     8.6710     9.8320    25.8540     1.9930 
   76.3750   -24.8230    63.9440    10.8740     8.6920     9.7640    24.8940     2.0590 
   76.5000   -24.6810    67.2510    10.8340     8.6380     9.8410    24.4280     2.1300 
   76.6250   -24.3700    67.3290    10.8620     8.6150     9.5560    24.3750     2.1860 
   76.7500   -24.0700    66.9300    11.1460     8.7450     9.4460    24.4330     2.2180 
   76.8750   -23.8390    66.3880    11.7510     9.0870     9.6590    24.4920     2.2210 
   77.0000   -23.6560    63.7680    12.5910     9.6100    10.0890    24.5370     2.1960 
   77.1250   -23.4900    61.2780    13.3840    10.1620    10.2360    24.5670     2.1520 
   77.2500   -23.3440    60.8460    13.7950    10.5070    10.0550    24.5000     2.1070 
   77.3750   -23.2980    61.1140    13.6500    10.4910     9.8060    24.3070     2.0760 
   77.5000   -23.3820    63.8620    13.0340    10.1300     9.8680    24.0390     2.0640 
   77.6250   -23.5090    69.7420    12.2400     9.5860    10.0130    23.7360     2.0680 
   77.7500   -23.5300    73.9500    11.5890     9.0830    10.0680    23.4540     2.0790 
   77.8750   -23.4300    74.0970    11.1930     8.7130     9.9890    23.2590     2.0900 
   78.0000   -23.2840    72.1880    11.0290     8.4920     9.8100    23.1670     2.1010 
   78.1250   -23.1810    72.3190    10.9870     8.3840     9.6650    23.1470     2.1140 
   78.2500   -23.1370    73.9260    10.9560     8.3160     9.5390    23.1690     2.1250 
   78.3750   -23.1250    74.3960    10.9460     8.2780     9.5090    23.2180     2.1340 
   78.5000   -23.1510    71.4740    11.0090     8.2940     9.6280    23.2800     2.1400 
   78.6250   -23.3350    66.8090    11.1860     8.3920     9.8760    23.2680     2.1420 
   78.7500   -23.6700    63.5740    11.4280     8.5510    10.2810    23.1990     2.1440 
   78.8750   -24.1160    62.6370    11.6630     8.7400    10.8070    23.1230     2.1450 
   79.0000   -24.6250    64.1560    11.8070     8.9090    10.7910    23.0780     2.1460 
   79.1250   -25.1900    65.4810    11.7780     8.9900    10.6580    23.0470     2.1440 
   79.2500   -25.7620    63.7280    11.6140     8.9750    10.6320    23.0220     2.1390 
   79.3750   -26.2870    61.3120    11.3730     8.8800    10.7010    22.9930     2.1330 
   79.5000   -26.6950    61.5510    11.1280     8.7440    10.7370    22.9600     2.1270 
   79.6250   -26.9320    62.3090    10.9550     8.6190    10.5750    22.9280     2.1220 
   79.7500   -27.0780    61.1020    10.8700     8.5340    10.4550    22.8950     2.1180 
   79.8750   -27.1500    60.4310    10.8620     8.4960    10.3980    22.8540     2.1160 
   80.0000   -27.1380    60.9460    10.9070     8.5000    10.3610    22.7970     2.1130 
   80.1250   -27.0480    61.5580    10.9570     8.5320    10.2870    22.7700     2.1090 
   80.2500   -26.9030    62.9490    10.9420     8.5530    10.1470    22.7890     2.1040 
   80.3750   -26.7100    64.7770    10.8080     8.5240     9.9900    22.8710     2.0990 
   80.5000   -26.4430    65.1160    10.5570     8.4220     9.9810    22.9930     2.0960 
   80.6250   -26.1110    66.8640    10.2580     8.2600     9.9850    23.0740     2.1000 
   80.7500   -25.6600    71.6650    10.0380     8.1040     9.5350    23.1070     2.1090 
   80.8750   -25.0880    75.2200     9.9940     8.0100     8.6570    23.1280     2.1230 
   81.0000   -24.4700    73.7560    10.1750     8.0200     8.2160    23.1500     2.1390 
   81.1250   -23.8070    70.2890    10.5770     8.1550     8.8990    23.1470     2.1520 
   81.2500   -23.1190    69.0450    11.0300     8.3430     9.4370    23.1320     2.1590 
   81.3750   -22.4470    69.9540    11.3560     8.4990     9.6060    23.1260     2.1610 
   81.5000   -21.8310    71.9300    11.4060     8.5340     9.6070    23.1370     2.1600 
   81.6250   -21.2980    74.9230    11.1020     8.3810     9.6440    23.1410     2.1590 
   81.7500   -20.8910    76.9980    10.6520     8.1280     9.6100    23.1520     2.1570 
   81.8750   -20.6050    75.4270    10.2870     7.8960     9.2490    23.1740     2.1510 
   82.0000   -20.3990    70.9170    10.2090     7.7990     8.7140    23.2310     2.1450 
   82.1250   -20.2500    68.8520    10.5600     7.9400     8.8530    23.3950     2.1530 
   82.2500   -20.1640    70.9630    11.1920     8.2630    10.3260    23.6150     2.1810 
   82.3750   -20.1730    74.4650    11.9050     8.6800    13.2920    23.8420     2.2190 
