~V
VERS. 2.00: Ver 2.00
~W
STRT.M 55.0000:
STOP.M 271.0000:
STEP.M 0.1250:
NULL. -999.2500:
UWI. DF5009:
~C
DEPT.M :
GR.API :
CALI.CM :
RXO.OHMM :
RI. :
RML.OHMM :
DEN.GM/CC :
SP.MV :
~A
# ...
   66.2500   107.3790    25.3360     6.2180     5.1960     7.0050     2.2270   -22.5760 
   66.3750   107.3390    25.4180     6.1230     5.5250     7.5230     2.1930   -23.0430 
   66.5000   104.1750    25.4730     6.8140     5.9540     8.1310     2.1500   -23.6010 
   66.6250    97.7250    25.3560     7.9520     6.3690     8.6350     2.1120   -24.1710 
   66.7500    88.4580    25.0600     8.8170     6.6530     8.8960     2.0870   -24.8060 
   66.8750    79.3250    24.6850     9.1660     6.7620     8.8940     2.0750   -25.3670 
   67.0000    74.3270    24.3860     9.2860     6.7160     8.7120     2.0730   -25.8820 
   67.1250    76.4960    24.2690     9.2780     6.5740     8.4740     2.0800   -26.3640 
   67.2500    81.2590    24.2510     9.1210     6.4260     8.2810     2.0910   -26.7550 
   67.3750    83.3210    24.2550     8.8520     6.3090     8.1520     2.1040   -27.0490 
   67.5000    81.4220    24.2500     8.5610     6.2250     8.0620     2.1160   -27.2180 
   67.6250    78.6470    24.2830     8.4990     6.1640     7.9940     2.1220   -27.3630 
   67.7500    79.0450    24.4030     8.6090     6.1310     7.9610     2.1240   -27.3860 
   67.8750    81.8400    24.5940     8.7040     6.1460     7.9880     2.1250   -27.3490 
   68.0000    83.9280    24.7630     8.6470     6.2210     8.0800     2.1260   -27.2430 
   68.1250    83.8270    24.8040     8.6280     6.3610     8.2180     2.1310   -27.0520 
   68.2500    83.8500    24.7590     8.8700     6.5200     8.3430     2.1360   -26.8190 
   68.3750    83.8520    24.7010     9.5570     6.6510     8.4090     2.1380   -26.5580 
   68.5000    81.7410    24.6640    10.2040     6.7130     8.3890     2.1360   -26.2610 
   68.6250    78.2780    24.6450     9.8870     6.6740     8.2640     2.1290   -25.9540 
   68.7500    76.9180    24.6440     9.0720     6.5450     8.0500     2.1230   -25.6050 
   68.8750    77.3400    24.6790     8.6090     6.3270     7.7380     2.1250   -25.2560 
   69.0000    78.6280    24.7660     8.4940     6.0290     7.3290     2.1380   -24.9000 
   69.1250    82.7600    24.9250     8.2710     5.6830     6.8700     2.1640   -24.5270 
   69.2500    89.1810    25.1600     7.4420     5.3620     6.4650     2.1890   -24.1680 
   69.3750    94.6600    25.4290     6.2490     5.1300     6.2110     2.2040   -23.8780 
   69.5000    97.5780    25.5850     5.4600     5.0350     6.1790     2.2040   -23.6560 
   69.6250    96.6140    25.4140     5.8920     5.1200     6.4160     2.1920   -23.5060 
   69.7500    93.4430    25.0410     6.6050     5.3310     6.8150     2.1780   -23.5220 
   69.8750    90.4930    24.6810     7.1850     5.6100     7.2700     2.1670   -23.6240 
   70.0000    87.8410    24.4600     7.5550     5.8810     7.6630     2.1580   -23.7720 
   70.1250    82.6230    24.3380     7.8270     6.0490     7.8540     2.1520   -23.9870 
   70.2500    76.6460    24.2100     7.9000     6.0820     7.8300     2.1470   -24.2230 
   70.3750    74.7540    24.1050     7.9360     5.9960     7.6430     2.1430   -24.4370 
   70.5000    77.2760    24.0890     7.9610     5.8720     7.4460     2.1430   -24.6260 
   70.6250    79.6470    24.1690     7.9980     5.9010     7.6200     2.1590   -24.7360 
   70.7500    80.7870    24.2320     8.0350     6.3020     8.5860     2.1980   -24.6930 
   70.8750    78.9300    24.1750     8.4140     7.3590    10.8150     2.2610   -24.6180 
   71.0000    74.8700    23.9870    10.8040     9.4080    14.6550     2.3440   -24.5340 
   71.1250    72.5730    23.7460    18.8650    12.8870    20.1460     2.4260   -24.4700 
   71.2500    71.3100    23.6430    29.3850    17.0480    25.5560     2.4710   -24.4370 
   71.3750    69.4500    23.9320    38.6960    20.0810    28.2490     2.4510   -24.4630 
   71.5000    69.3670    24.5840    41.4690    19.9520    26.2400     2.3800   -24.5400 
   71.6250    72.7160    25.0180    28.7840    16.6450    20.5620     2.2920   -24.7290 
   71.7500    74.0050    24.9220    15.3070    12.9520    15.1180     2.2160   -24.9370 
   71.8750    71.6630    24.5900     9.1320    10.0940    11.3850     2.1640   -25.0940 
   72.0000    71.4030    24.4350     7.9390     8.2810     9.3950     2.1380   -25.2480 
   72.1250    75.6800    24.4980     7.7010     7.4260     8.7880     2.1340   -25.3970 
   72.2500    79.0750    24.5670     7.7990     7.1220     8.8200     2.1380   -25.5560 
   72.3750    80.0870    24.5660     8.0330     7.1600     9.1290     2.1410   -25.6730 
   72.5000    78.1750    24.4540     8.1940     7.3530     9.4590     2.1440   -25.7420 
   72.6250    73.4870    24.3530     8.3010     7.5510     9.6580     2.1480   -25.6890 
   72.7500    69.3960    24.4420     8.3940     7.6840     9.7280     2.1530   -25.6780 
   72.8750    67.6940    24.5750     8.4390     7.7360     9.6920     2.1560   -25.6860 
   73.0000    68.8320    24.3730     8.3850     7.7090     9.5750     2.1520   -25.6510 
   73.1250    70.7800    23.5780     8.2050     7.6100     9.3940     2.1420   -25.5910 
   73.2500    72.0310    22.6190     8.0260     7.4780     9.2050     2.1330   -25.5320 
   73.3750    72.9020    21.9130     7.9220     7.3420     9.0460     2.1310   -25.4900 
   73.5000    73.5030    21.6330     7.8520     7.2230     8.9430     2.1370   -25.4550 
   73.6250    73.8960    21.7140     7.6620     7.1380     8.9050     2.1490   -25.4690 
   73.7500    73.2140    21.8930     7.3750     7.0770     8.8970     2.1580   -25.4610 
   73.8750    72.4920    22.0100     7.0520     7.0300     8.8970     2.1600   -25.4540 
   74.0000    73.7820    22.0960     6.9750     6.9930     8.9050     2.1530   -25.4800 
   74.1250    76.4420    22.4480     7.1090     6.9760     8.9370     2.1360   -25.5180 
   74.2500    77.7590    22.8910     7.2790     6.9820     8.9920     2.1210   -25.5350 
   74.3750    75.4970    23.1200     7.4270     7.0030     9.0580     2.1120   -25.5060 
   74.5000    71.8640    23.1440     7.7170     7.0290     9.1200     2.1110   -25.4800 
   74.6250    70.6280    23.3590     8.3440     7.0560     9.1730     2.1150   -25.4030 
   74.7500    72.4660    23.8100     8.9140     7.0790     9.2160     2.1180   -25.3670 
   74.8750    75.0170    24.1740     8.9980     7.0910     9.2360     2.1230   -25.3260 
   75.0000    75.0020    24.3310     8.8990     7.0820     9.2210     2.1310   -25.2600 
   75.1250    73.0880    24.3430     9.1350     7.0430     9.1630     2.1420   -25.1580 
   75.2500    73.0660    24.3770     9.0890     6.9870     9.0920     2.1510   -25.0310 
   75.3750    76.1850    24.4730     8.6580     6.9320     9.0500     2.1510   -24.9690 
   75.5000    78.9120    24.5920     8.3740     6.9010     9.0700     2.1430   -24.9000 
   75.6250    77.2660    24.6450     8.5180     6.9110     9.1540     2.1330   -24.8620 
   75.7500    75.2470    24.5930     8.7770     6.9400     9.2310     2.1280   -24.7660 
   75.8750    74.0430    24.4950     8.8580     6.9540     9.2290     2.1270   -24.6840 
   76.0000    71.1100    24.4520     8.9230     6.9200     9.1190     2.1290   -24.6740 
   76.1250    67.9490    24.4960     8.9440     6.8520     8.9940     2.1370   -24.6760 
   76.2500    68.5500    24.5170     8.8390     6.8550     9.0510     2.1550   -24.6930 
   76.3750    72.9460    24.4680     8.6320     7.0290     9.4210     2.1910   -24.6680 
   76.5000    76.5640    24.4220     8.5540     7.4150    10.0950     2.2450   -24.6440 
   76.6250    77.8810    24.5060     9.2190     7.9570    10.8800     2.3050   -24.6060 
   76.7500    78.6220    24.6890    11.9410     8.4340    11.4220     2.3360   -24.6140 
   76.8750    76.6710    24.8250    13.8060     8.6370    11.4730     2.3160   -24.6070 
   77.0000    72.9680    24.8020    12.6840     8.4660    10.9840     2.2620   -24.5770 
   77.1250    74.2100    24.6740     9.2490     7.9610    10.1270     2.2110   -24.5600 
   77.2500    78.7920    24.6040     8.7980     7.3610     9.2590     2.1790   -24.5370 
   77.3750    80.7840    24.6370     8.7830     6.8110     8.5650     2.1660   -24.5050 
