~V
VERS. 2.00: Ver 2.00
~W
STRT.M 61.0000:
STOP.M 253.0000:
STEP.M 0.1250:
NULL. -999.2500:
UWI. DF5045:
~C
DEPT.M :
GR.API :
CALI.CM :
RXO.OHMM :
RI. :
RML.OHMM :
DEN.GM/CC :
SP.MV :
~A
# ...
  139.7500    74.6010    23.3070    23.9190    11.2290    12.4450     2.4010   -18.0800 
  139.8750    79.0290    22.8510    15.8480    10.3320    11.0600     2.2900   -18.1470 
  140.0000    85.5620    22.6730    10.9630     9.2440     9.6460     2.2280   -17.9900 
  140.1250    91.1930    22.6420     9.1770     8.2270     8.4550     2.2040   -17.9430 
  140.2500    95.1930    22.6880     8.4800     7.3830     7.5500     2.2050   -17.8570 
  140.3750    98.0100    22.8340     7.7600     6.7360     6.8950     2.2260   -17.5470 
  140.5000   100.2900    23.0510     6.7870     6.2840     6.4310     2.2600   -17.2980 
  140.6250   102.5300    23.3370     5.9300     5.9550     6.0710     2.2880   -17.1260 
  140.7500   104.2250    23.6250     5.3360     5.7230     5.7960     2.2930   -16.8340 
  140.8750   104.1480    23.8740     4.9930     5.5720     5.6020     2.2830   -16.5590 
  141.0000   102.9050    24.0190     4.9070     5.5060     5.4900     2.2750   -16.4910 
  141.1250   103.4750    24.0910     5.0040     5.4940     5.4350     2.2790   -16.3140 
  141.2500   106.2550    24.1620     5.1150     5.5180     5.4240     2.2900   -16.1030 
  141.3750   108.8270    24.3170     5.0370     5.5550     5.4420     2.3050   -16.0830 
  141.5000   109.2850    24.5940     4.7940     5.5750     5.4590     2.3220   -16.0760 
  141.6250   108.8400    24.8390     4.6100     5.5530     5.4420     2.3300   -15.9550 
  141.7500   107.6350    24.9080     4.6260     5.4620     5.3590     2.3180   -15.9060 
  141.8750   104.6310    24.7070     4.8010     5.2810     5.1960     2.2870   -15.9590 
  142.0000   102.2010    24.2260     4.9770     5.0100     4.9720     2.2590   -15.8340 
  142.1250   104.8270    23.8400     4.9000     4.7310     4.7870     2.2520   -15.7100 
  142.2500   111.8980    23.7680     4.5010     4.5400     4.7650     2.2680   -15.7170 
  142.3750   117.8580    23.8640     4.0400     4.5330     5.0320     2.2950   -15.6440 
  142.5000   116.4790    23.9150     4.0640     4.8590     5.7680     2.3170   -15.4540 
  142.6250   109.4220    23.9200     4.8410     5.5580     6.9560     2.3470   -15.3990 
  142.7500    99.5930    24.0230     7.6820     6.6730     8.5580     2.4030   -15.3770 
  142.8750    89.4240    24.2170    14.5240     8.1850    10.4680     2.4840   -15.2120 
  143.0000    81.9870    24.2730    25.1820    10.0160    12.5140     2.5330   -15.1430 
  143.1250    78.2360    24.0600    30.9210    11.8900    14.4300     2.5120   -15.1570 
  143.2500    77.1200    23.6990    29.0180    13.5750    16.0150     2.4470   -15.0020 
  143.3750    75.7640    23.5710    25.0430    14.9030    17.1720     2.4050   -14.8170 
  143.5000    71.3030    23.8730    24.9580    15.7840    17.8970     2.4350   -14.8040 
  143.6250    65.5820    24.2950    25.5700    16.3640    18.4000     2.5010   -14.6630 
  143.7500    61.7160    24.5860    24.4440    16.7690    18.8210     2.5600   -14.4120 
  143.8750    60.6510    24.7000    22.7850    17.1160    19.2490     2.5920   -14.3040 
  144.0000    59.8180    24.7120    22.3800    17.4400    19.6670     2.6050   -14.2200 
  144.1250    57.5750    24.6970    22.6370    17.7110    20.0170     2.6170   -14.0260 
  144.2500    55.5850    24.6830    22.9590    17.9210    20.2940     2.6300   -13.9480 
  144.3750    55.7090    24.6820    22.9650    18.0990    20.5270     2.6390   -13.9600 
  144.5000    57.6810    24.6940    22.5730    18.2810    20.7460     2.6350   -13.8050 
  144.6250    59.5690    24.6940    22.6220    18.4870    20.9790     2.6260   -13.6750 
  144.7500    60.6030    24.6840    22.8560    18.7340    21.2390     2.6220   -13.7150 
  144.8750    60.1580    24.6750    22.6980    19.0280    21.5370     2.6290   -13.6970 
  145.0000    57.5800    24.6790    22.4690    19.3800    21.8860     2.6400   -13.5490 
  145.1250    54.3340    24.6960    23.0830    19.7750    22.2640     2.6430   -13.5540 
  145.2500    52.2590    24.7090    24.3250    20.1780    22.6170     2.6340   -13.5930 
  145.3750    52.1300    24.7050    25.4340    20.5360    22.8720     2.6150   -13.5210 
  145.5000    53.9090    24.6850    25.9090    20.7540    22.9140     2.5990   -13.5360 
  145.6250    57.0490    24.6760    25.6900    20.7620    22.6940     2.5980   -13.6640 
  145.7500    60.9530    24.6770    25.4120    20.4980    22.1740     2.6080   -13.6550 
  145.8750    64.3380    24.6610    25.2570    19.9640    21.3780     2.6170   -13.6380 
  146.0000    66.2980    24.6080    24.4180    19.1920    20.3780     2.6120   -13.8310 
  146.1250    67.9020    24.5600    22.8470    18.3320    19.3500     2.5950   -13.9170 
  146.2500    69.7840    24.5520    20.9020    17.4990    18.4300     2.5740   -13.9200 
  146.3750    71.6350    24.5320    18.8270    16.7960    17.7160     2.5650   -14.0630 
  146.5000    72.5890    24.4780    17.1080    16.3180    17.2900     2.5840   -14.2110 
  146.6250    72.7860    24.4700    16.4450    16.0500    17.1020     2.6120   -14.2170 
  146.7500    72.6420    24.5170    16.8100    15.9780    17.1210     2.6180   -14.3150 
  146.8750    72.4850    24.5620    17.6540    16.0710    17.3070     2.5940   -14.4510 
  147.0000    72.0250    24.5560    18.4190    16.2960    17.6170     2.5630   -14.3960 
  147.1250    71.0680    24.5090    18.6680    16.5770    17.9660     2.5520   -14.4030 
  147.2500    70.0670    24.4740    18.2010    16.8500    18.2830     2.5590   -14.4930 
  147.3750    69.6620    24.4830    17.5620    17.0470    18.4920     2.5690   -14.4290 
  147.5000    69.6860    24.5340    17.9400    17.0820    18.5070     2.5760   -14.2950 
  147.6250    69.3220    24.5360    19.2250    16.9410    18.3310     2.5820   -14.3190 
  147.7500    68.5520    24.4860    20.2030    16.6220    17.9780     2.5840   -14.3100 
  147.8750    67.4680    24.4370    19.8260    16.1690    17.5130     2.5700   -14.1800 
  148.0000    66.5520    24.4290    17.8790    15.6880    17.0680     2.5400   -14.1820 
  148.1250    66.6750    24.4580    16.1990    15.3010    16.7720     2.5170   -14.2240 
  148.2500    67.6320    24.4900    15.7410    15.0900    16.7110     2.5210   -14.1510 
  148.3750    67.6960    24.4970    16.4780    15.0980    16.9110     2.5470   -14.1210 
  148.5000    65.2790    24.4700    17.6070    15.3420    17.3450     2.5700   -14.2590 
  148.6250    62.2610    24.4330    18.5810    15.7150    17.8500     2.5740   -14.2970 
  148.7500    60.7300    24.4130    19.3380    16.1160    18.2920     2.5630   -14.2590 
  148.8750    61.4730    24.4160    19.7160    16.4330    18.5500     2.5460   -14.3850 
  149.0000    63.5450    24.4210    19.7950    16.5320    18.5030     2.5320   -14.4840 
  149.1250    65.2410    24.4150    19.7240    16.4160    18.2130     2.5240   -14.4440 
  149.2500    66.4780    24.4110    19.1660    16.1340    17.7590     2.5240   -14.5410 
  149.3750    67.7910    24.4160    17.9630    15.7590    17.2410     2.5290   -14.7220 
  149.5000    68.9010    24.4070    16.7710    15.3630    16.7550     2.5350   -14.7270 
  149.6250    69.4440    24.3810    16.1310    14.9900    16.3330     2.5390   -14.7950 
  149.7500    70.0080    24.3310    15.6130    14.6230    15.9390     2.5450   -15.0110 
  149.8750    70.6200    24.2540    14.9860    14.2230    15.5130     2.5520   -15.1100 
  150.0000    69.8400    24.1780    14.6500    13.7420    14.9900     2.5540   -15.2270 
  150.1250    67.8610    24.1820    14.6830    13.1850    14.3850     2.5460   -15.5380 
  150.2500    67.0340    24.2750    14.6140    12.5970    13.7610     2.5290   -15.7780 
  150.3750    69.4340    24.3810    13.9810    12.0610    13.2230     2.5080   -15.9300 
  150.5000    74.2660    24.4360    12.6360    11.7120    12.9270     2.4930   -16.2700 
  150.6250    77.9200    24.4300    11.5630    11.6020    12.9110     2.4870   -16.6360 
  150.7500    78.7620    24.4330    11.5270    11.7600    13.1790     2.4880   -16.8810 
  150.8750    77.3270    24.4660    12.6640    12.1760    13.6910     2.4890   -17.2180 
