~V
VERS. 2.00: Ver 2.00
~W
STRT.M 55.0000:
STOP.M 271.0000:
STEP.M 0.1250:
NULL. -999.2500:
UWI. DF5028:
~C
DEPT.M :
SP.MV :
GR.API :
RML.OHMM :
RI. :
RXO.OHMM :
CALI.CM :
DEN.GM/CC :
~A
# ...
  246.2500   -12.3980    51.2580    23.4370    19.7660    38.1700    23.8550     2.6100 
  246.3750   -12.2010    46.4440    19.1220    16.5240    23.4570    24.0630     2.6110 
  246.5000   -12.0440    44.9890    15.4280    13.5770    18.3660    24.1450     2.5910 
  246.6250   -11.8840    47.9360    12.7800    11.2800    17.8830    24.0540     2.5420 
  246.7500   -11.7390    52.3190    11.0870     9.5870    15.8880    24.0330     2.4810 
  246.8750   -11.5890    53.6140     9.9440     8.4440    11.8770    24.1400     2.4290 
  247.0000   -11.4760    51.1760     9.2450     7.7450     9.2010    24.2710     2.3990 
  247.1250   -11.3820    49.9880     8.9110     7.4110     8.4590    24.3250     2.3960 
  247.2500   -11.3110    52.8420     8.7870     7.2870     8.1420    24.3310     2.4050 
  247.3750   -11.2410    56.1030     8.7910     7.2910     7.6780    24.2570     2.4170 
  247.5000   -11.1650    55.7110     8.8360     7.3360     7.2340    24.1050     2.4270 
  247.6250   -11.1040    53.3280     8.8460     7.3460     7.0430    24.0470     2.4290 
  247.7500   -11.0150    54.5170     8.8070     7.3070     7.0050    24.1380     2.4250 
  247.8750   -10.9680    58.7100     8.7250     7.2250     6.9930    24.2580     2.4170 
  248.0000   -10.8780    60.3350     8.6170     7.1170     6.9870    24.2910     2.4080 
  248.1250   -10.8080    58.1900     8.4950     6.9950     7.0130    24.2680     2.4050 
  248.2500   -10.7070    56.9250     8.3760     6.8760     7.0160    24.2710     2.4090 
  248.3750   -10.6020    56.1220     8.2690     6.7690     6.9770    24.2920     2.4190 
  248.5000   -10.5060    53.4390     8.1780     6.6780     6.9460    24.3140     2.4290 
  248.6250   -10.4070    50.7330     8.1040     6.6040     6.9230    24.3280     2.4370 
  248.7500   -10.3320    50.4850     8.0410     6.5410     6.8500    24.3390     2.4380 
  248.8750   -10.2430    52.3220     7.9840     6.4840     6.7570    24.3470     2.4320 
  249.0000   -10.2190    53.4290     7.9360     6.4360     6.7260    24.3480     2.4200 
  249.1250   -10.1780    52.9050     7.9000     6.4000     6.7350    24.3430     2.4060 
  249.2500   -10.1910    51.8420     7.8710     6.3710     6.7020    24.3320     2.3970 
  249.3750   -10.1870    51.9040     7.8450     6.3450     6.6380    24.3050     2.3940 
  249.5000   -10.2310    53.9540     7.8240     6.3240     6.6010    24.2620     2.3920 
  249.6250   -10.2660    56.2530     7.8090     6.3090     6.6210    24.2270     2.3890 
  249.7500   -10.3440    58.6330     7.8050     6.3050     6.6670    24.2080     2.3830 
  249.8750   -10.4170    60.4170     7.8110     6.3110     6.7130    24.1890     2.3780 
  250.0000   -10.5490    60.8310     7.8230     6.3230     6.7370    24.1570     2.3790 
  250.1250   -10.6770    60.8330     7.8410     6.3410     6.7290    24.1250     2.3880 
  250.2500   -10.8570    61.0510     7.8610     6.3610     6.7250    24.0880     2.4010 
  250.3750   -11.0830    60.3180     7.8800     6.3800     6.7400    24.0330     2.4120 
  250.5000   -11.3050    58.1350     7.8980     6.3980     6.7750    23.9650     2.4190 
  250.6250   -11.5250    58.1130     7.9160     6.4160     6.8160    23.8990     2.4190 
  250.7500   -11.7080    59.8370     7.9390     6.4390     6.8160    23.8470     2.4160 
  250.8750   -11.8410    58.1810     7.9710     6.4710     6.7790    23.8370     2.4100 
  251.0000   -11.8910    53.5820     8.0150     6.5150     6.7680    23.9090     2.4020 
  251.1250   -11.9230    53.1690     8.0640     6.5640     6.8370    24.0870     2.3980 
  251.2500   -11.8850    57.0220     8.1070     6.6070     6.9970    24.3130     2.4010 
  251.3750   -11.8100    59.0190     8.1330     6.6330     7.1950    24.4810     2.4180 
  251.5000   -11.7080    56.2280     8.1330     6.6330     7.3440    24.4660     2.4460 
  251.6250   -11.6010    53.6140     8.1070     6.6070     7.3170    24.2360     2.4810 
  251.7500   -11.4920    53.6720     8.0660     6.5660     7.0890    23.9620     2.5090 
  251.8750   -11.4050    53.7030     8.0180     6.5180     6.7660    23.7660     2.5200 
  252.0000   -11.3240    53.2610     7.9750     6.4750     6.5180    23.6950     2.5090 
  252.1250   -11.2120    54.8720     7.9490     6.4490     6.4720    23.7340     2.4780 
  252.2500   -11.1220    58.2180     7.9420     6.4420     6.4840    23.7610     2.4440 
  252.3750   -11.0140    59.8960     7.9490     6.4490     6.4180    23.6830     2.4160 
  252.5000   -10.9090    58.7720     7.9620     6.4620     6.3060    23.5380     2.4000 
  252.6250   -10.7670    56.8340     7.9650     6.4650     6.2290    23.4480     2.3950 
  252.7500   -10.6160    55.9940     7.9510     6.4510     6.2000    23.4390     2.3900 
  252.8750   -10.4510    55.3990     7.9180     6.4180     6.2710    23.4860     2.3820 
  253.0000   -10.2560    55.9660     7.8670     6.3670     6.6360    23.5480     2.3710 
  253.1250   -10.0530    59.2680     7.8080     6.3080     7.4560    23.5760     2.3660 
  253.2500    -9.8440    60.9450     7.7700     6.2700     8.2790    23.5690     2.3680 
  253.3750    -9.6250    58.5680     7.7890     6.2890     8.3920    23.5980     2.3750 
  253.5000    -9.4130    54.5740     7.9100     6.4100     7.6960    23.7320     2.3820 
  253.6250    -9.2100    53.4850     8.1880     6.6880     7.1260    23.9360     2.3850 
  253.7500    -9.0590    54.8810     8.5990     7.0990     7.0270    24.0850     2.3900 
  253.8750    -8.9220    55.9000     9.1060     7.6060     7.1650    24.1370     2.4010 
  254.0000    -8.8700    55.4060     9.6390     8.1390     7.3520    24.1350     2.4210 
  254.1250    -8.8230    55.1000    10.0800     8.5800     7.5440    24.1470     2.4440 
  254.2500    -8.7790    56.8090    10.3530     8.8530     7.7290    24.1740     2.4610 
  254.3750    -8.7530    58.7600    10.4280     8.9280     7.7980    24.2040     2.4670 
  254.5000    -8.7050    59.1170    10.3200     8.8200     7.6730    24.2310     2.4630 
  254.6250    -8.6950    59.6870    10.1010     8.6010     7.5160    24.2520     2.4550 
  254.7500    -8.6470    60.3410     9.8990     8.3990     7.5090    24.2550     2.4490 
  254.8750    -8.6140    58.7790     9.7830     8.2830     7.5430    24.2390     2.4470 
  255.0000    -8.5340    56.3940     9.7930     8.2930     7.3850    24.2100     2.4490 
  255.1250    -8.4570    57.7740     9.9340     8.4340     7.0530    24.1790     2.4560 
  255.2500    -8.3700    60.3610    10.1210     8.6210     6.8930    24.1590     2.4640 
  255.3750    -8.2780    62.1290    10.2840     8.7840     7.0070    24.1490     2.4700 
  255.5000    -8.1930    63.1570    10.3670     8.8670     7.3130    24.1450     2.4740 
  255.6250    -8.1240    62.3020    10.3230     8.8230     7.6990    24.1510     2.4740 
  255.7500    -8.0710    59.2000    10.1810     8.6810     8.0950    24.1570     2.4710 
  255.8750    -8.0220    55.8210     9.9800     8.4800     8.4930    24.1540     2.4660 
  256.0000    -7.9670    56.0820     9.7620     8.2620     8.7300    24.1430     2.4600 
  256.1250    -7.9610    59.0100     9.5770     8.0770     8.4270    24.1350     2.4550 
  256.2500    -7.9510    59.2340     9.4500     7.9500     7.8260    24.1240     2.4510 
  256.3750    -7.9420    57.9600     9.3730     7.8730     7.3990    24.0960     2.4490 
  256.5000    -7.9420    57.6190     9.3360     7.8360     7.4150    24.0450     2.4480 
  256.6250    -7.9380    58.6620     9.3260     7.8260     7.8710    23.9810     2.4480 
  256.7500    -7.9120    58.8380     9.3350     7.8350     8.4490    23.9450     2.4480 
  256.8750    -7.8860    58.4860     9.3630     7.8630     8.7380    23.9690     2.4450 
  257.0000    -7.8570    58.2980     9.4120     7.9120     8.3860    24.0390     2.4360 
  257.1250    -7.8050    56.6740     9.4780     7.9780     7.7090    24.0970     2.4210 
  257.2500    -7.7680    54.0040     9.5490     8.0490     7.3290    24.1140     2.4060 
  257.3750    -7.7410    52.3290     9.6140     8.1140     7.3830    24.0930     2.3950 
