~V
VERS. 2.00: Ver 2.00
~W
STRT.M 60.0000:
STOP.M 271.0000:
STEP.M 0.1250:
NULL. -999.2500:
UWI. DF5026:
~C
DEPT.M :
SP.MV :
GR.API :
CALI.CM :
RXO.OHMM :
RI. :
RML.OHMM :
DEN.GM/CC :
~A
# ...
  183.7500   -43.8380    73.5960    24.5570    36.8020    47.0280    52.4030     2.2750 
  183.8750   -44.0300    77.5150    24.5770    37.1030    46.3460    52.8470     2.2820 
  184.0000   -44.1940    79.4070    24.5830    41.6160    49.0640    56.9770     2.2760 
  184.1250   -44.2810    77.9700    24.6000    52.9210    55.6970    65.1430     2.2600 
  184.2500   -44.3870    75.4110    24.6120    67.1680    65.4540    76.4030     2.2420 
  184.3750   -44.5060    72.2740    24.6000    83.4530    77.7730    90.1260     2.2270 
  184.5000   -44.6210    69.7260    24.5750   108.9340    91.6370   105.2290     2.2200 
  184.6250   -44.6470    69.9780    24.5290   149.5560   105.1030   119.6480     2.2190 
  184.7500   -44.6920    72.4750    24.4000   167.1120   116.0600   131.3130     2.2180 
  184.8750   -44.8590    75.0940    24.1830   140.3100   123.5610   139.5250     2.2180 
  185.0000   -45.1090    75.8680    23.9730    89.3270   128.5010   145.7040     2.2250 
  185.1250   -45.3760    73.6510    23.8990    70.3350   134.4020   154.1540     2.2480 
  185.2500   -45.6100    70.5560    23.9480    64.5190   145.8120   169.4910     2.2870 
  185.3750   -45.8700    68.0460    24.0880    96.8520   166.4530   195.5460     2.3330 
  185.5000   -46.1710    65.3190    24.2870   180.1630   197.6710   234.0720     2.3720 
  185.6250   -46.5480    60.2670    24.4570   282.7800   236.2330   281.4530     2.3700 
  185.7500   -46.8850    56.1330    24.5560   327.6860   269.8550   321.1330     2.3330 
  185.8750   -47.0800    55.8860    24.6090   288.3470   287.1760   337.4780     2.2870 
  186.0000   -47.2510    58.7100    24.6510   219.1720   284.6070   328.0630     2.2500 
  186.1250   -47.3770    59.8310    24.6760   188.3690   269.1220   305.7580     2.2250 
  186.2500   -47.4400    59.8080    24.6810   188.2160   254.0570   286.3710     2.2090 
  186.3750   -47.4930    63.0800    24.6830   191.8820   244.3410   273.9690     2.2000 
  186.5000   -47.5190    69.0770    24.6850   181.7340   240.3030   267.9020     2.1930 
  186.6250   -47.5620    72.2090    24.6830   161.4890   240.1760   265.9560     2.1870 
  186.7500   -47.6070    70.5940    24.6800   138.2540   240.4340   264.3990     2.1840 
  186.8750   -47.6530    66.8150    24.6780   122.0940   239.5240   261.6180     2.1840 
  187.0000   -47.5980    63.2980    24.6780   134.4860   237.4030   257.5180     2.1880 
  187.1250   -47.5620    60.9480    24.6780   143.9510   234.5190   252.4100     2.1960 
  187.2500   -47.5280    61.0570    24.6780   137.7620   230.3200   245.5520     2.2020 
  187.3750   -47.2980    63.1440    24.6780   134.2510   223.0780   235.0700     2.2020 
  187.5000   -46.8910    65.3700    24.6780   154.3080   211.5120   219.9350     2.1950 
  187.6250   -46.3720    66.3830    24.6780   188.7800   195.7530   201.1940     2.1840 
  187.7500   -45.8840    66.6400    24.6780   183.9910   179.0410   182.6610     2.1740 
  187.8750   -45.3550    66.7130    24.6790   151.9780   163.8090   166.8430     2.1670 
  188.0000   -44.7370    66.2740    24.6800   120.9310   151.6110   155.0730     2.1650 
  188.1250   -44.0370    65.4810    24.6820   152.6190   143.8920   148.5200     2.1670 
  188.2500   -43.2890    67.4430    24.6830   182.4040   140.4500   146.5200     2.1720 
  188.3750   -42.5580    70.9870    24.6800   159.4190   141.7230   149.2680     2.1770 
  188.5000   -41.8890    71.2920    24.6700   142.7210   148.1970   157.1810     2.1810 
  188.6250   -41.2880    67.4330    24.6450   206.1330   161.7500   172.3490     2.1820 
  188.7500   -40.5890    64.3750    24.5670   301.4230   182.8380   195.7130     2.1800 
  188.8750   -39.8220    63.5460    24.3950   695.3290   212.8500   229.5530     2.1770 
  189.0000   -39.1130    62.7410    24.1630  1325.6250   252.3920   275.5720     2.1730 
  189.1250   -38.4770    60.9580    24.0270  1517.0060   301.6870   335.1840     2.1680 
  189.2500   -37.9570    58.6070    24.0930  1320.3880   355.9560   402.5880     2.1650 
  189.3750   -37.5200    56.7940    24.3230  1412.8540   410.3510   471.6900     2.1640 
  189.5000   -37.1490    55.7090    24.5780  1678.1540   458.9920   535.3220     2.1650 
  189.6250   -36.8180    55.1340    24.7150  1462.7210   493.7890   582.8350     2.1640 
  189.7500   -36.5050    54.7790    24.7500  1100.1750   512.7060   608.5330     2.1590 
  189.8750   -36.1560    55.8870    24.7490   782.7310   514.4560   607.9720     2.1480 
  190.0000   -35.6910    57.4220    24.7470   575.6170   498.7760   580.5140     2.1350 
  190.1250   -35.1710    56.5650    24.7500   420.5450   460.7020   519.1700     2.1280 
  190.2500   -34.6820    53.7950    24.7590   330.9190   396.9050   415.7320     2.1320 
  190.3750   -34.2060    52.1720    24.7680   235.0620   305.2740   279.6710     2.1530 
  190.5000   -33.6480    54.3590    24.7570   153.5560   203.7820   160.8320     2.1890 
  190.6250   -32.9170    60.7080    24.7090   107.9550   125.8550    94.8200     2.2430 
  190.7500   -32.1070    65.5490    24.6430    75.9970    77.3290    60.9670     2.3120 
  190.8750   -31.3620    65.9590    24.5860    43.2610    51.5300    45.1680     2.3880 
  191.0000   -30.6950    65.6140    24.5540    22.7270    40.5650    39.6030     2.4620 
  191.1250   -30.0150    66.2530    24.5350    53.0910    40.0520    41.4320     2.5240 
  191.2500   -29.2560    64.3180    24.5080   142.7290    44.8020    47.4990     2.5730 
  191.3750   -28.4780    59.3850    24.4640   202.0510    51.1600    54.4830     2.6040 
  191.5000   -27.7310    55.4420    24.4080   167.9570    53.2460    55.4560     2.6160 
  191.6250   -27.0750    56.0990    24.3310    80.0180    44.7650    43.9820     2.6080 
  191.7500   -26.4770    57.0230    24.2410    37.0320    31.5470    29.1570     2.5900 
  191.8750   -25.8660    56.6840    24.1710    25.3960    19.9500    17.7630     2.5640 
  192.0000   -25.2780    56.7330    24.1430    17.9200    12.2840    10.8510     2.5320 
  192.1250   -24.7480    58.3280    24.1430     8.3060     8.3130     7.4770     2.4990 
  192.2500   -24.2720    58.4450    24.1470     3.9260     6.1870     5.8070     2.4760 
  192.3750   -23.8420    53.6440    24.1910     3.8250     5.1330     5.1140     2.4640 
  192.5000   -23.4790    47.3080    24.2930     4.1700     4.7030     4.9270     2.4610 
  192.6250   -23.2350    46.9970    24.4030     4.0190     4.6370     4.9350     2.4580 
  192.7500   -23.1430    51.8270    24.4590     3.6680     4.6680     4.9210     2.4500 
  192.8750   -23.2170    56.7470    24.4650     3.4130     4.6940     4.8590     2.4370 
  193.0000   -23.3810    57.9350    24.4620     3.2820     4.7180     4.8150     2.4270 
  193.1250   -23.5800    57.5500    24.4620     3.2270     4.8180     4.9050     2.4280 
  193.2500   -23.7630    59.2160    24.4620     3.2980     5.0230     5.1340     2.4390 
  193.3750   -23.8950    63.4340    24.4640     3.6190     5.3100     5.4500     2.4550 
  193.5000   -24.0030    66.5530    24.4690     4.4200     5.5940     5.7560     2.4670 
  193.6250   -24.0430    65.0510    24.4260     5.2260     5.7170     5.8870     2.4650 
  193.7500   -24.0220    62.3170    24.3190     5.2380     5.5980     5.7740     2.4490 
  193.8750   -24.0100    60.5850    24.1960     4.5410     5.2430     5.4270     2.4230 
  194.0000   -24.0710    59.6310    24.1230     3.8700     4.7420     4.9330     2.3950 
  194.1250   -24.2440    58.1880    24.1180     3.5120     4.2220     4.4290     2.3720 
  194.2500   -24.5070    55.0710    24.1190     3.2280     3.7850     4.0290     2.3550 
  194.3750   -24.8790    51.7240    24.1220     2.8420     3.4730     3.7880     2.3430 
  194.5000   -25.3390    49.5660    24.1620     2.2310     3.2990     3.7230     2.3340 
  194.6250   -25.8400    49.7830    24.2500     2.0840     3.2840     3.8580     2.3270 
  194.7500   -26.3030    50.5340    24.3270     2.3160     3.4010     4.1490     2.3250 
  194.8750   -26.7210    49.8570    24.3580     2.6360     3.6370     4.5690     2.3310 
