~V
VERS. 2.00: Ver 2.00
~W
STRT.M 55.0000:
STOP.M 253.0000:
STEP.M 0.1250:
NULL. -999.2500:
UWI. DF5051:
~C
DEPT.M :
SP.MV :
GR.API :
RML.OHMM :
RI. :
RXO.OHMM :
CALI.CM :
DEN.GM/CC :
~A
# ...
  178.7500   -18.0050    59.8600   159.5880   153.4040   148.2500    24.3470     2.2550 
  178.8750   -17.9730    63.0210   146.9650   140.2440   132.2690    24.2350     2.2580 
  179.0000   -17.9780    65.1400   133.5150   127.8640   118.8570    24.0680     2.2590 
  179.1250   -17.9230    65.1070   121.0020   116.6580   107.9360    23.9870     2.2630 
  179.2500   -17.8830    65.8850   109.5050   106.2400   100.0500    24.1240     2.2720 
  179.3750   -17.8340    67.5360    98.9230    96.4740    93.0710    24.3570     2.2850 
  179.5000   -17.7640    67.8160    89.5520    87.5980    82.9510    24.4680     2.2970 
  179.6250   -17.6890    66.6860    82.6100    80.7480    71.6140    24.3840     2.3020 
  179.7500   -17.5660    67.3900    78.7700    76.6740    63.9750    24.2950     2.2980 
  179.8750   -17.4420    70.6670    78.6600    76.0390    64.8530    24.2620     2.2880 
  180.0000   -17.2570    72.7060    82.4420    79.0380    73.4320    24.2520     2.2770 
  180.1250   -17.0940    70.9360    90.0820    85.6200    91.9260    24.2310     2.2700 
  180.2500   -16.8910    68.2480    99.7630    93.9980   112.4620    24.2010     2.2680 
  180.3750   -16.6970    67.6930   110.2910   102.9930   122.8470    24.1720     2.2700 
  180.5000   -16.5490    69.0550   121.2930   112.3200   115.9370    24.1230     2.2700 
  180.6250   -16.3590    68.8690   135.1490   124.3040   103.2730    24.0610     2.2630 
  180.7500   -16.2410    66.6380   155.9740   142.6140   110.7080    24.0220     2.2490 
  180.8750   -16.1690    62.8310   187.8910   170.6310   146.8520    24.0200     2.2310 
  181.0000   -16.1950    58.5750   231.9200   208.7380   206.3760    24.0490     2.2150 
  181.1250   -16.2090    54.5720   282.9140   251.7630   281.1940    24.0910     2.2070 
  181.2500   -16.2810    51.9970   326.7650   287.8670   331.2540    24.1770     2.2070 
  181.3750   -16.3660    52.5480   350.6850   307.2010   335.5130    24.3050     2.2130 
  181.5000   -16.4330    54.7650   348.5710   305.5670   311.7260    24.4110     2.2210 
  181.6250   -16.5130    55.0750   324.8970   286.0820   278.4620    24.4830     2.2280 
  181.7500   -16.4970    54.2000   296.8580   262.0160   249.5280    24.4880     2.2310 
  181.8750   -16.4090    53.6580   272.0160   240.0380   226.6050    24.4630     2.2290 
  182.0000   -16.1770    53.5070   252.1760   222.4880   210.1660    24.4320     2.2240 
  182.1250   -15.9620    54.3330   236.4730   209.5540   197.8180    24.4080     2.2180 
  182.2500   -15.6920    56.9600   222.2120   198.8690   186.0760    24.4060     2.2140 
  182.3750   -15.3580    59.2760   207.0440   188.3490   173.4530    24.4320     2.2130 
  182.5000   -15.0300    58.5280   189.7110   175.7400   165.7590    24.4470     2.2140 
  182.6250   -14.6530    55.0970   168.5030   158.8010   165.1460    24.4120     2.2180 
  182.7500   -14.3490    52.4480   146.5200   138.7320   162.4720    24.3240     2.2230 
  182.8750   -14.0870    53.0530   126.1380   118.0880   149.0910    24.2190     2.2310 
  183.0000   -13.8700    57.9380   107.2860    99.9870   113.6050    24.1070     2.2400 
  183.1250   -13.6850    63.4500    93.6920    87.2820    77.2390    24.0260     2.2470 
  183.2500   -13.5190    64.2550    84.6590    78.8400    62.1430    24.0080     2.2490 
  183.3750   -13.3980    61.1620    78.0760    72.6880    61.4270    24.0080     2.2500 
  183.5000   -13.2470    58.9160    71.3600    66.4110    65.3190    23.9590     2.2560 
  183.6250   -13.1070    60.4840    62.1600    57.8130    65.1850    23.8900     2.2730 
  183.7500   -12.8900    62.5010    50.9150    47.3040    56.0140    23.7970     2.3000 
  183.8750   -12.6420    64.8870    39.4710    36.6090    41.4020    23.7240     2.3280 
  184.0000   -12.3930    67.5020    29.9790    27.7370    28.6920    23.7260     2.3490 
  184.1250   -12.1010    69.2840    24.2400    22.3740    20.3360    23.8600     2.3520 
  184.2500   -11.7890    70.6190    22.0360    20.3140    17.4950    23.9400     2.3400 
  184.3750   -11.4440    72.0960    23.8300    21.9910    23.0570    23.9430     2.3160 
  184.5000   -11.0810    72.4040    30.6540    28.3680    38.5770    24.0110     2.2880 
  184.6250   -10.6790    68.6820    44.7980    41.5870    62.6690    24.2730     2.2650 
  184.7500   -10.3390    63.0750    65.1650    60.6220    90.6120    24.5550     2.2500 
  184.8750    -9.9990    59.1170    89.3030    83.1800   110.5910    24.7150     2.2420 
  185.0000    -9.6280    58.1740   112.2490   104.6250   113.2710    24.7740     2.2400 
  185.1250    -9.1900    59.1810   125.6690   117.1720   116.7710    24.8000     2.2500 
  185.2500    -8.7150    58.3200   126.1150   117.5790   126.4930    24.8120     2.2800 
  185.3750    -8.2230    56.1690   113.2480   105.5350   135.8030    24.7620     2.3340 
  185.5000    -7.7110    54.7190    90.2250    84.0210   133.7940    24.6180     2.4080 
  185.6250    -7.2310    56.3460    63.5640    59.1410   105.8610    24.4500     2.4830 
  185.7500    -6.6770    59.1800    40.8950    38.0790    62.9340    24.3440     2.5400 
  185.8750    -6.1410    61.9070    25.0110    23.4040    30.1610    24.2610     2.5700 
  186.0000    -5.6550    63.1840    15.3430    14.4860    13.6940    24.1950     2.5770 
  186.1250    -5.2870    60.4780    10.4450     9.8900     8.4960    24.1420     2.5670 
  186.2500    -5.0170    56.8350     8.1790     7.3580     5.9600    24.0590     2.5500 
  186.3750    -4.8240    54.8130     7.1390     6.0780     5.4040    23.9360     2.5330 
  186.5000    -4.7450    53.3820     7.0050     5.6480     5.7460    23.9060     2.5220 
  186.6250    -4.7730    51.7320     8.1660     6.3050     7.4620    24.0070     2.5230 
  186.7500    -4.9250    51.0130    11.2370     8.5990    11.3100    24.0630     2.5340 
  186.8750    -5.1140    51.8140    17.0340    13.3710    20.0590    24.0840     2.5560 
  187.0000    -5.3680    51.8010    25.7510    21.0040    38.9710    24.1740     2.5850 
  187.1250    -5.5950    49.6610    36.1340    30.6340    64.9280    24.2980     2.6210 
  187.2500    -5.8320    48.8400    44.6580    38.9460    94.0130    24.3950     2.6560 
  187.3750    -6.0680    50.7590    47.8000    42.4750   113.9310    24.4200     2.6810 
  187.5000    -6.2890    53.4970    43.6950    39.2190   101.4990    24.4010     2.6880 
  187.6250    -6.5000    55.2530    34.0550    30.8700    64.7820    24.4100     2.6720 
  187.7500    -6.6890    57.2810    24.7710    22.8730    34.5000    24.4670     2.6440 
  187.8750    -6.9240    59.9130    18.1350    17.2100    18.6880    24.5460     2.6120 
  188.0000    -7.1320    60.2490    14.1860    13.8290    12.4950    24.5620     2.5820 
  188.1250    -7.3600    56.5120    12.7270    12.1900    10.9950    24.4770     2.5590 
  188.2500    -7.5710    54.0170    12.2740    11.3710    10.6320    24.4220     2.5430 
  188.3750    -7.7680    55.0520    11.8470    10.9960    10.3820    24.4900     2.5300 
  188.5000    -7.9740    56.7080    11.5390    10.8170    10.0010    24.5690     2.5170 
  188.6250    -8.1070    55.4510    11.3460    10.6600    10.0340    24.6100     2.5030 
  188.7500    -8.2030    51.6730    11.1520    10.4110    10.4150    24.6340     2.4910 
  188.8750    -8.2260    48.7440    10.8640    10.0160    10.6740    24.6450     2.4870 
  189.0000    -8.2000    48.9810    10.4360     9.4560    10.6620    24.6480     2.4940 
  189.1250    -8.1540    53.1830     9.8950     8.7620     9.7310    24.6490     2.5100 
  189.2500    -8.0840    62.7590     9.2940     8.0860     8.7410    24.6480     2.5220 
  189.3750    -8.0320    76.6030     8.8380     7.5910     7.8050    24.6350     2.5190 
  189.5000    -7.9800    89.9460     8.7790     7.4260     7.4420    24.6060     2.5010 
  189.6250    -8.0560    98.4070     9.3400     7.7680     8.0400    24.5750     2.4830 
  189.7500    -8.2090   102.5780    10.3780     8.5330     9.3000    24.5990     2.4780 
  189.8750    -8.4440   101.8750    11.7050     9.5820    11.0310    24.6230     2.4920 
