~V
VERS. 2.00: Ver 2.00
~W
STRT.M 55.0000:
STOP.M 278.0000:
STEP.M 0.1250:
NULL. -999.2500:
UWI. DF5019:
~C
DEPT.M :
DEN.GM/CC :
GR.API :
CALI.CM :
RXO.OHMM :
RI. :
RML.OHMM :
SP.MV :
~A
# ...
  268.7500     2.4370    69.0070    24.2870     7.6620     5.8700     7.8050    -5.8010 
  268.8750     2.4320    69.0070    24.2850     7.6750     5.9700     7.9080    -5.7080 
  269.0000     2.4290    69.0070    24.2360     7.4230     5.9880     7.9270    -5.6180 
  269.1250     2.4250    69.0070    24.1820     6.9870     5.9310     7.8680    -5.5490 
  269.2500     2.4180    69.0070    24.1540     6.5590     5.8710     7.8060    -5.5360 
  269.3750     2.4150    69.0070    24.1480     6.3580     5.8490     7.7830    -5.5770 
  269.5000     2.4160    69.0070    24.1470     6.5790     5.8790     7.8140    -5.6180 
  269.6250     2.4190    69.0070    24.1470     7.6950     6.0020     7.9420    -5.6810 
  269.7500     2.4200    69.0070    24.1470    10.7700     6.2140     8.1630    -5.7460 
  269.8750     2.4160    69.0070    24.1470    15.8060     6.4520     8.4100    -5.7890 
  270.0000     2.4090    69.0070    24.1470    18.1400     6.6060     8.5700    -5.8320 
  270.1250     2.4030    69.0070    24.1470    14.7770     6.5990     8.5630    -5.8990 
  270.2500     2.4080    69.0070    24.1460    10.1480     6.4960     8.4560    -5.9540 
  270.3750     2.4290    69.0070    24.1310     8.4350     6.3900     8.3460    -5.9950 
  270.5000     2.4570    69.0070    24.0760    10.0470     6.3540     8.3080    -6.0510 
  270.6250     2.4780    69.0070    24.0070    13.1670     6.3980     8.3540    -6.0950 
  270.7500     2.4840    69.0070    24.0360    13.9770     6.4600     8.4180    -6.1240 
  270.8750     2.4780    69.0070    24.1670    12.0080     6.5050     8.4650    -6.1400 
  271.0000     2.4650    69.0070    24.2710     9.9020     6.5320     8.4930    -6.1610 
  271.1250     2.4570    69.0070    24.3100     9.5190     6.5560     8.5180    -6.1290 
  271.2500     2.4600    69.0070    24.3350     9.5870     6.5840     8.5470    -6.0790 
  271.3750     2.4670    69.0070    24.3390     9.4590     6.6120     8.5770    -5.9830 
  271.5000     2.4570    69.0070    24.2950     8.9120     6.6350     8.6000    -5.9050 
  271.6250     2.4330    69.0070    24.2000     8.2980     6.6430     8.6080    -5.8580 
  271.7500     2.4160    69.0070    24.1040     7.7420     6.6370     8.6020    -5.8010 
  271.8750     2.4180    69.0070    24.0860     7.1250     6.6200     8.5850    -5.7630 
  272.0000     2.4340    69.0070    24.2160     6.5420     6.6050     8.5690    -5.7710 
  272.1250     2.4460    69.0070    24.2340     6.3120     6.5990     8.5630    -5.7950 
  272.2500     2.4470    69.0070    24.2640     6.3190     6.5990     8.5630    -5.8320 
  272.3750     2.4380    69.0070    24.2820     6.2210     6.5990     8.5630    -5.8910 
  272.5000     2.4180    69.0070    24.4580     6.0370     6.5910     8.5550    -5.8990 
  272.6250     2.3980    69.0070    24.6780     5.9200     6.5910     8.5550    -5.8260 
  272.7500     2.3890    69.0070    24.6770     5.8450     6.5910     8.5550    -5.7310 
  272.8750     2.3920    69.0070    24.4640     5.9400     6.5910     8.5550    -5.6140 
  273.0000     2.3990    69.0070    24.3200     6.3050     6.5910     8.5550    -5.4900 
  273.1250     2.4010    69.0070    24.3150     6.7540     6.5910     8.5550    -5.4150 
  273.2500     2.3970    69.0070    24.3430     6.8730     6.5910     8.5550    -5.3190 
  273.3750     2.3870    69.0070    24.3580     6.6500     6.5910     8.5550    -5.2090 
  273.5000     2.3750    69.0070    24.3610     6.3470     6.5910     8.5550    -5.0630 
  273.6250     2.3710    69.0070    24.4030     6.2870     6.5910     8.5550    -4.9470 
  273.7500     2.3760    69.0070    24.4580     6.4500     6.5910     8.5550    -4.8680 
  273.8750     2.3880    69.0070    24.4200     6.5710     6.5910     8.5550    -4.8070 
  274.0000     2.3960    69.0070    24.2980     6.4530     6.5910     8.5550    -4.7280 
  274.1250     2.3940    69.0070    24.1740     6.2970     6.5910     8.5550    -4.6500 
  274.2500     2.3870    69.0070    24.1440     6.2720     6.5910     8.5550    -4.6020 
  274.3750     2.3840    69.0070    24.1610     6.2580     6.5910     8.5550    -4.6010 
  274.5000     2.3870    69.0070    24.1670     6.1740     6.5910     8.5550    -4.6910 
  274.6250     2.3920    69.0070    24.0570     6.2430     6.5910     8.5550    -4.8370 
  274.7500     2.4030    69.0070    23.9480     6.3830     6.5910     8.5550    -4.9900 
  274.8750     2.4040    69.0070    23.9070     6.4510     6.5910     8.5550    -5.1240 
  275.0000     2.3040    69.0070    23.9640     6.5180     6.5910     8.5550    -5.1790 
  275.1250     2.0750    69.0070    23.9220     6.4560     6.5910     8.5550    -5.2020 
  275.2500     1.8040    69.0070    23.7840     6.3060     6.5910     8.5550    -5.2000 
  275.3750     1.6200    69.0070    23.5510     5.9710     6.5910     8.5550    -5.1620 
  275.5000     1.5830    69.0070    23.1300     5.5890     6.5910     8.5550    -5.1180 
  275.6250     1.5990    69.0070    22.3670     5.2800     6.5910     8.5550    -5.0630 
  275.7500     1.6160    69.0070    21.6990     5.1640     6.5910     8.5550    -5.0450 
  275.8750     1.6210    69.0070    21.4340     5.1390     6.5910     8.5550    -5.0450 
  276.0000     1.6200    69.0070    21.4080     5.1400     6.5910     8.5550    -5.0750 
  276.1250     1.6180    69.0070    21.3950     5.1420     6.5910     8.5550    -5.1390 
  276.2500     1.6160    69.0070    21.3800     5.1420     6.5910     8.5550    -5.2490 
  276.3750     1.6140    69.0070    21.3740     5.1410     6.5910     8.5550    -5.4270 
  276.5000     1.6140    69.0070    21.3760     5.1420     6.5910     8.5550    -5.6000 
  276.6250     1.6140    69.0070    21.3750     5.1420     6.5910     8.5550    -5.6880 
  276.7500     1.6120    69.0070    21.3690     5.1420     6.5910     8.5550    -5.6820 
  276.8750     1.6090    69.0070    21.3640     5.1440     6.5910     8.5550    -5.6850 
  277.0000     1.6060    69.0070    21.3570     5.1460     6.5910     8.5550    -5.7710 
  277.1250     1.6050    69.0070    21.3490     5.1490     6.5910     8.5550    -5.7980 
  277.2500     1.6040    69.0070    21.3460     5.1520     6.5910     8.5550    -5.7220 
  277.3750     1.6030    69.0070    21.3480     5.1550     6.5910     8.5550    -5.6000 
  277.5000     1.6070    69.0070    21.3530     5.1560     6.5910     8.5550    -5.5750 
  277.6250     1.6180  -999.2500  -999.2500  -999.2500  -999.2500  -999.2500    -5.5750 
  277.7500     1.6230  -999.2500  -999.2500  -999.2500  -999.2500  -999.2500  -999.2500 
  277.8750     1.6210  -999.2500  -999.2500  -999.2500  -999.2500  -999.2500  -999.2500 
  278.0000     1.6730  -999.2500  -999.2500  -999.2500  -999.2500  -999.2500  -999.2500 
