~V
VERS. 2.00: Ver 2.00
~W
STRT.M 65.0000:
STOP.M 272.0000:
STEP.M 0.1250:
NULL. -999.2500:
UWI. DF5002:
~C
DEPT.M :
DEN.GM/CC :
GR.API :
CALI.CM :
RXO.OHMM :
RI. :
RML.OHMM :
SP.MV :
~A
# ...
  166.2500     2.5060    61.5020    24.4640     9.9340    10.7470    11.4860   -13.4440 
  166.3750     2.4720    62.9170    24.3990     9.7170    10.3320    11.0390   -13.8650 
  166.5000     2.4360    62.1600    24.3340     9.5560     9.8120    10.4310   -14.4260 
  166.6250     2.4190    61.7860    24.2860     9.4070     9.4740    10.0130   -15.1250 
  166.7500     2.4220    62.5900    24.2430     9.2960     9.6290    10.1880   -15.8570 
  166.8750     2.4320    65.8450    24.2190    10.0720    10.5760    11.3290   -16.6260 
  167.0000     2.4270    70.5210    24.2590    13.6470    12.6580    13.8180   -17.4520 
  167.1250     2.3950    73.0890    24.3820    23.6730    16.6140    18.4100   -18.3930 
  167.2500     2.3490    73.5770    24.5250    37.3050    22.5540    25.0990   -19.3340 
  167.3750     2.3060    74.2200    24.6320    48.6260    30.2430    33.4930   -20.2200 
  167.5000     2.2770    76.7010    24.6830    54.0730    38.4220    42.0770   -20.9840 
  167.6250     2.2680    79.9030    24.6980    55.8110    44.7140    48.1060   -21.6660 
  167.7500     2.2670    82.3660    24.6980    58.0920    48.5140    51.2210   -22.3110 
  167.8750     2.2610    81.8660    24.6980    60.6240    50.5740    52.6240   -22.9280 
  168.0000     2.2500    77.6020    24.6980    62.0300    51.9380    53.6710   -23.4670 
  168.1250     2.2430    74.2970    24.6980    61.4800    53.2960    55.1740   -23.8480 
  168.2500     2.2430    74.4610    24.6980    61.7230    55.0140    57.3340   -24.2380 
  168.3750     2.2410    74.3620    24.6980    64.5650    57.3710    60.3050   -24.6650 
  168.5000     2.2350    74.0890    24.6980    69.6900    60.6130    64.2240   -25.1870 
  168.6250     2.2370    76.4710    24.6980    75.6340    65.0480    69.3260   -25.7370 
  168.7500     2.2480    77.4200    24.6980    82.4290    70.3720    75.2770   -26.2820 
  168.8750     2.2590    73.9400    24.6980    88.2800    76.1880    81.6450   -26.7620 
  169.0000     2.2620    70.2280    24.6980    92.1180    81.9720    87.8810   -27.2490 
  169.1250     2.2590    70.5210    24.6980    94.1860    87.1400    93.3890   -27.8050 
  169.2500     2.2590    71.1910    24.6980    95.8690    91.5570    98.0670   -28.3890 
  169.3750     2.2620    72.0740    24.6980    97.9950    95.3290   102.0370   -28.9190 
  169.5000     2.2650    74.9010    24.6980   101.9600    98.8040   105.6520   -29.3350 
  169.6250     2.2650    75.5140    24.6980   107.3620   102.5900   109.3550   -29.6640 
  169.7500     2.2570    71.2980    24.6980   111.4250   107.2080   113.3940   -29.9450 
  169.8750     2.2430    67.2680    24.6990   114.7140   113.1310   117.8650   -30.1610 
  170.0000     2.2280    69.0770    24.7040   119.8980   120.5700   122.8460   -30.3350 
  170.1250     2.2170    70.3220    24.7220   126.6480   128.2540   129.1090   -30.3630 
  170.2500     2.2080    65.8890    24.7440   133.2930   132.9240   136.7270   -30.2500 
  170.3750     2.2030    61.8870    24.7620   138.9790   134.3430   140.6040   -30.0460 
  170.5000     2.2040    65.1350    24.7700   143.3540   129.1650   137.7080   -29.8050 
  170.6250     2.2110    70.9760    24.7710   139.3230   115.1700   125.6890   -29.4690 
  170.7500     2.2160    72.0620    24.7710   121.2390    97.2560   108.4930   -29.0090 
  170.8750     2.2170    72.4190    24.7710    91.8300    79.5970    89.9570   -28.4430 
  171.0000     2.2210    76.0450    24.7710    63.3710    64.4640    73.0090   -27.7920 
  171.1250     2.2370    80.1890    24.7710    46.9860    52.6030    59.3570   -27.1720 
  171.2500     2.2570    81.5890    24.7710    40.8270    43.0270    48.4000   -26.6230 
  171.3750     2.2720    80.8900    24.7710    36.6280    35.4700    39.8600   -26.1290 
  171.5000     2.2780    81.2940    24.7710    30.2800    29.9780    33.7250   -25.6440 
  171.6250     2.2890    83.9760    24.7730    24.8400    27.0430    30.4840   -25.2140 
  171.7500     2.3100    86.8420    24.7860    22.8460    26.3570    29.7180   -24.9190 
  171.8750     2.3290    86.2640    24.8020    26.7680    27.9790    31.4850   -24.8240 
  172.0000     2.3310    80.5750    24.7800    41.6920    31.9870    35.9260   -24.8700 
  172.1250     2.3080    74.3570    24.7280    62.2780    38.5930    43.3360   -25.0050 
  172.2500     2.2780    72.4500    24.7030    74.5160    46.5920    52.4410   -25.1560 
  172.3750     2.2600    74.7100    24.6980    74.1410    54.7240    62.0110   -25.3070 
  172.5000     2.2600    76.2620    24.6980    70.9410    62.0790    71.1860   -25.5220 
  172.6250     2.2680    72.0160    24.6980    74.4640    68.6400    79.7010   -25.8140 
  172.7500     2.2650    65.9000    24.6980    90.7820    74.8480    87.3820   -26.1260 
  172.8750     2.2500    64.4260    24.6980   119.2780    79.8120    93.0180   -26.3660 
  173.0000     2.2350    69.8250    24.6980   137.7650    81.5180    94.7690   -26.5170 
  173.1250     2.2370    77.0160    24.6980   119.0530    78.0670    91.0080   -26.6370 
  173.2500     2.2540    79.0070    24.6980    84.9970    72.0420    84.2900   -26.7880 
  173.3750     2.2750    76.1880    24.6980    62.7520    66.0830    77.2350   -26.9670 
  173.5000     2.2880    72.0820    24.6980    58.2050    61.6180    71.5870   -27.1270 
  173.6250     2.2860    70.4200    24.6980    62.3920    58.5360    67.6010   -27.2300 
  173.7500     2.2760    71.6160    24.6980    63.5510    55.3900    63.8670   -27.3160 
  173.8750     2.2670    74.1890    24.6990    58.2770    51.3870    59.4840   -27.4150 
  174.0000     2.2690    77.6800    24.6920    48.9480    46.6540    54.4200   -27.6150 
  174.1250     2.2890    80.1280    24.6670    39.2070    42.3200    49.7190   -27.8540 
  174.2500     2.3150    80.6350    24.6390    34.1000    39.5960    46.6760   -28.0780 
  174.3750     2.3310    79.4200    24.6270    35.9510    39.2880    46.2470   -28.2930 
  174.5000     2.3260    76.9370    24.6250    43.3940    41.7950    49.0110   -28.5540 
  174.6250     2.3020    74.4980    24.6100    52.5180    47.5700    55.5960   -28.9280 
  174.7500     2.2750    70.6490    24.5640    62.8280    55.3760    64.5400   -29.3500 
  174.8750     2.2530    67.2210    24.4650    80.3350    63.3460    73.6640   -29.7950 
  175.0000     2.2410    66.7650    24.3280    93.3970    68.9010    80.0960   -30.1710 
  175.1250     2.2490    68.1700    24.1210    81.6730    70.2110    81.7520   -30.5370 
  175.2500     2.2720    70.2080    24.0400    63.0930    69.7440    81.1390   -30.9610 
  175.3750     2.2900    72.8950    24.0710    55.8650    70.0520    81.0240   -31.4710 
  175.5000     2.2880    74.8880    24.1800    64.2550    72.9100    83.4830   -31.9640 
  175.6250     2.2690    72.3510    24.2770    82.0050    79.7450    90.0350   -32.3860 
  175.7500     2.2550    68.5730    24.3320    97.7160    89.8020    99.7440   -32.7540 
  175.8750     2.2480    68.5950    24.4030   108.0300   102.1300   111.6000   -33.1310 
  176.0000     2.2400    71.5910    24.5050   113.2920   115.7490   124.7880   -33.5440 
  176.1250     2.2300    71.5300    24.5800   115.2180   131.0710   139.9180   -33.9740 
  176.2500     2.2230    66.6930    24.5950   121.5920   149.4120   158.0310   -34.3030 
  176.3750     2.2210    60.3140    24.5720   138.9010   171.9340   179.7120   -34.5730 
  176.5000     2.2170    57.1920    24.5680   162.4210   197.9880   203.8070   -34.7760 
  176.6250     2.2060    59.4480    24.6040   180.3430   224.0310   226.8560   -35.0060 
  176.7500     2.1950    61.5160    24.6340   192.1890   245.8560   245.6950   -35.2310 
  176.8750     2.1930    59.1100    24.5980   203.9350   261.9700   259.4490   -35.4230 
  177.0000     2.1980    54.3920    24.5520   214.7740   273.7440   269.5230   -35.5390 
  177.1250     2.2070    52.0350    24.6020   225.5770   283.8310   278.2950   -35.5870 
  177.2500     2.2110    52.7060    24.6670   234.1590   293.0050   286.4510   -35.6640 
  177.3750     2.2060    56.3100    24.6560   243.5250   297.9350   291.1840   -35.6800 
