~V
VERS. 2.00: Ver 2.00
~W
STRT.M 55.0000:
STOP.M 250.0000:
STEP.M 0.1250:
NULL. -999.2500:
UWI. DF5052:
~C
DEPT.M :
SP.MV :
GR.API :
CALI.CM :
RXO.OHMM :
RI. :
RML.OHMM :
DEN.GM/CC :
~A
# ...
   88.7500   -20.4160    93.0790    22.7630     6.9330     6.0900     6.8250     2.1890 
   88.8750   -20.4560    95.9490    22.7470     6.8290     6.0310     6.7620     2.1880 
   89.0000   -20.5130    94.5410    22.7730     6.7170     5.9690     6.6970     2.1950 
   89.1250   -20.5550    90.1120    22.9350     6.6540     5.9190     6.6450     2.2140 
   89.2500   -20.5670    87.5680    23.1360     6.7230     5.8760     6.5980     2.2300 
   89.3750   -20.5440    88.0420    23.3170     6.9360     5.8250     6.5450     2.2280 
   89.5000   -20.4860    89.6710    23.4570     7.1270     5.7530     6.4680     2.2050 
   89.6250   -20.3900    90.9700    23.5430     7.0130     5.6450     6.3540     2.1810 
   89.7500   -20.2700    92.7260    23.6250     6.7640     5.5200     6.2210     2.1830 
   89.8750   -20.1410    95.6620    23.7340     6.3720     5.3980     6.0920     2.2130 
   90.0000   -20.0220    98.9690    23.9120     5.8080     5.3010     5.9890     2.2530 
   90.1250   -19.9420   100.5720    24.1320     5.3120     5.2470     5.9320     2.2780 
   90.2500   -19.9130   100.0910    24.2600     5.1660     5.2320     5.9160     2.2850 
   90.3750   -19.9430    98.8200    24.2320     5.4070     5.2440     5.9290     2.2780 
   90.5000   -20.0330    98.4220    24.0920     5.9020     5.2800     5.9660     2.2610 
   90.6250   -20.1880    99.1600    24.0020     6.3290     5.3740     6.0670     2.2380 
   90.7500   -20.3870   100.5140    24.0650     6.4330     5.5950     6.3010     2.2220 
   90.8750   -20.6140   101.7900    24.1820     6.3100     6.0430     6.7760     2.2170 
   91.0000   -20.8490   101.2140    24.2030     6.3810     6.8390     7.6200     2.2180 
   91.1250   -21.0640    96.4800    24.1000     7.1720     8.1830     9.0440     2.2290 
   91.2500   -21.2450    89.3790    24.0390     9.2020    10.0500    11.0230     2.2660 
   91.3750   -21.3910    82.3820    24.0710    13.5090    12.3510    13.4620     2.3370 
   91.5000   -21.5160    76.7930    24.1820    20.3490    14.7790    16.0360     2.4290 
   91.6250   -21.6450    73.1110    24.3050    27.8000    16.6400    18.0080     2.4950 
   91.7500   -21.8020    71.2030    24.3560    32.1080    17.4080    18.8220     2.5040 
   91.8750   -22.0030    70.9520    24.3070    31.6860    16.9100    18.2950     2.4680 
   92.0000   -22.2560    71.8850    24.0890    27.6600    15.4130    16.7080     2.4180 
   92.1250   -22.5720    73.3580    23.5590    22.6240    13.4580    14.6350     2.3710 
   92.2500   -22.9320    74.6290    22.9430    17.8540    11.6400    12.7080     2.3170 
   92.3750   -23.3210    76.0760    22.6330    13.8210    10.1930    11.1750     2.2600 
   92.5000   -23.7140    78.6610    22.7670    11.1980     9.1830    10.1040     2.2190 
   92.6250   -24.0760    81.9180    23.1630    10.1920     8.6290     9.5160     2.2040 
   92.7500   -24.3820    82.6160    23.3820     9.9050     8.3670     9.2390     2.2010 
   92.8750   -24.6140    79.7660    23.4250     9.8650     8.3030     9.1710     2.1970 
   93.0000   -24.7640    75.6500    23.3420     9.8940     8.3430     9.2140     2.1930 
   93.1250   -24.8200    73.6310    23.2110     9.9200     8.3930     9.2670     2.2000 
   93.2500   -24.8070    73.5480    23.0660     9.9070     8.3670     9.2390     2.2170 
   93.3750   -24.7370    73.4910    22.9580     9.8040     8.2130     9.0760     2.2270 
   93.5000   -24.6210    72.3660    22.9140     9.5710     7.9060     8.7500     2.2130 
   93.6250   -24.4690    70.9170    22.9340     9.2380     7.4380     8.2540     2.1750 
   93.7500   -24.3010    71.8000    23.0120     8.9300     6.8880     7.6720     2.1360 
   93.8750   -24.1320    75.8010    23.2320     8.5750     6.3290     7.0790     2.1150 
   94.0000   -23.9810    80.9540    23.6890     7.9360     5.8300     6.5500     2.1310 
   94.1250   -23.8680    84.0600    24.3820     6.8080     5.4760     6.1740     2.1830 
   94.2500   -23.7960    84.8380    24.8160     5.7220     5.2860     5.9730     2.2300 
   94.3750   -23.7670    84.4580    24.8240     5.2110     5.2650     5.9510     2.2440 
   94.5000   -23.7820    83.8100    24.4500     5.4890     5.3870     6.0800     2.2270 
   94.6250   -23.8490    82.5890    24.0370     6.3230     5.6150     6.3220     2.1970 
   94.7500   -23.9550    81.2340    23.8460     7.0790     5.8730     6.5960     2.1700 
   94.8750   -24.0860    80.9690    23.8350     7.4880     6.1110     6.8480     2.1480 
   95.0000   -24.2270    82.8550    23.8610     7.6420     6.2940     7.0420     2.1300 
   95.1250   -24.3600    85.7680    23.8650     7.7640     6.4010     7.1550     2.1170 
   95.2500   -24.4790    86.4100    23.8690     7.9040     6.4550     7.2120     2.1140 
   95.3750   -24.5820    84.4700    23.8780     8.0060     6.4830     7.2420     2.1200 
   95.5000   -24.6690    82.5090    23.8880     8.0610     6.5160     7.2770     2.1280 
   95.6250   -24.7380    82.5710    23.8430     8.1260     6.5790     7.3440     2.1300 
   95.7500   -24.7930    82.4170    23.7340     8.2280     6.6730     7.4430     2.1260 
   95.8750   -24.8340    80.8670    23.6260     8.3280     6.7900     7.5670     2.1260 
   96.0000   -24.8660    79.8340    23.5680     8.3890     6.9150     7.7000     2.1370 
   96.1250   -24.8840    81.1230    23.5190     8.4350     7.0200     7.8110     2.1540 
   96.2500   -24.8820    82.4720    23.4500     8.4960     7.0850     7.8800     2.1600 
   96.3750   -24.8450    82.6000    23.4150     8.5310     7.1000     7.8960     2.1500 
   96.5000   -24.7620    82.2670    23.4820     8.4790     7.0720     7.8670     2.1360 
   96.6250   -24.6170    82.1580    23.5450     8.2850     7.0150     7.8060     2.1350 
   96.7500   -24.4200    82.1180    23.5760     8.0320     6.9460     7.7330     2.1480 
   96.8750   -24.1780    82.7100    23.5780     7.7760     6.8630     7.6450     2.1630 
   97.0000   -23.8960    84.6210    23.5600     7.5840     6.7510     7.5260     2.1660 
   97.1250   -23.5740    86.4380    23.5160     7.4910     6.5790     7.3440     2.1510 
   97.2500   -23.2190    86.6140    23.4700     7.4240     6.3400     7.0900     2.1350 
   97.3750   -22.8310    86.9530    23.4470     7.2890     6.0330     6.7650     2.1310 
   97.5000   -22.4120    91.4340    23.4390     6.9580     5.6830     6.3940     2.1430 
   97.6250   -21.9630   100.4340    23.4220     6.3240     5.3390     6.0290     2.1680 
   97.7500   -21.5040   107.0730    23.3840     5.5990     5.0460     5.7190     2.1960 
   97.8750   -21.0540   107.9590    23.3550     5.0380     4.8230     5.4830     2.2210 
   98.0000   -20.6290   105.5040    23.4190     4.7440     4.6700     5.3200     2.2410 
   98.1250   -20.2430   104.1380    23.5620     4.6510     4.5780     5.2220     2.2590 
   98.2500   -19.8950   103.0780    23.6510     4.6760     4.5080     5.1490     2.2650 
   98.3750   -19.5920    99.5530    23.6490     4.7840     4.4420     5.0780     2.2520 
   98.5000   -19.3410    93.7280    23.6280     4.8370     4.3710     5.0030     2.2320 
   98.6250   -19.1670    89.9310    23.8170     4.5690     4.3110     4.9400     2.2350 
   98.7500   -19.0630    90.4530    24.1910     4.1900     4.2910     4.9180     2.2600 
   98.8750   -19.0340    93.2370    24.5400     3.9580     4.3380     4.9680     2.2830 
   99.0000   -19.0810    95.3710    24.6040     3.9950     4.4650     5.1030     2.2850 
   99.1250   -19.2240    95.9100    24.5490     4.2500     4.6690     5.3190     2.2720 
   99.2500   -19.4530    94.7110    24.4780     4.6250     4.8980     5.5620     2.2630 
   99.3750   -19.7630    90.8780    24.3660     5.1910     5.1020     5.7780     2.2540 
   99.5000   -20.1330    85.8320    24.1470     5.8750     5.2430     5.9270     2.2350 
   99.6250   -20.5390    83.8200    23.9210     6.3930     5.3260     6.0150     2.2050 
   99.7500   -20.9390    85.4110    23.8540     6.5330     5.4490     6.1460     2.1860 
   99.8750   -21.3110    87.8380    23.9370     6.3540     5.7220     6.4360     2.1940 
