~V
VERS. 2.00: Ver 2.00
~W
STRT.M 50.0000:
STOP.M 258.0000:
STEP.M 0.1250:
NULL. -999.2500:
UWI. DF5038:
~C
DEPT.M :
GR.API :
CALI.CM :
RXO.OHMM :
RI. :
RML.OHMM :
DEN.GM/CC :
SP.MV :
~A
# ...
   61.2500    57.8100    23.9660     2.0840     0.3100     0.3210     2.2150    13.2950 
   61.3750    67.2840    23.9680     4.4520     0.4410     0.3520     2.2280     8.0310 
   61.5000    74.5370    23.9680     6.7560     0.7500     0.4690     2.1960     2.7690 
   61.6250    76.4810    23.9680     7.2860     1.4150     0.8410     2.1660    -2.3160 
   61.7500    76.8270    23.9710     7.1860     2.4170     1.5350     2.1570    -7.1370 
   61.8750    78.6440    23.9650     7.3130     3.5890     2.4330     2.1580   -11.5140 
   62.0000    80.1200    23.9240     8.7620     4.6640     3.2670     2.1580   -15.2380 
   62.1250    78.1580    23.8490    11.6870     5.4240     3.8470     2.1580   -17.8900 
   62.2500    74.8420    23.7880    13.7580     5.8960     4.2330     2.1550   -19.8830 
   62.3750    73.3880    23.7650    12.7650     6.1170     4.4590     2.1470   -21.3770 
   62.5000    75.3830    23.7660     9.9460     6.1490     4.5530     2.1410   -22.7100 
   62.6250    76.8430    23.7670     8.1040     6.0820     4.5620     2.1440   -23.7440 
   62.7500    74.2180    23.7660     7.8070     6.0150     4.5600     2.1500   -24.6170 
   62.8750    70.2380    23.7660     7.7480     5.9760     4.5780     2.1470   -25.3610 
   63.0000    68.3490    23.7660     7.6470     5.9540     4.6200     2.1380   -26.0350 
   63.1250    69.6160    23.7660     7.5170     5.9330     4.6740     2.1310   -26.6880 
   63.2500    73.2210    23.7660     7.6430     5.9090     4.7360     2.1320   -27.2270 
   63.3750    77.2530    23.7670     8.3120     5.9020     4.8250     2.1370   -27.7210 
   63.5000    78.0290    23.7630     8.6240     5.9450     4.9750     2.1430   -28.1030 
   63.6250    73.7750    23.7630     8.2650     6.0930     5.2290     2.1510   -28.4980 
   63.7500    72.0490    23.8780     7.9770     6.3330     5.5580     2.1670   -28.9600 
   63.8750    73.8850    24.2000     9.1810     6.6150     5.9020     2.1930   -29.4360 
   64.0000    73.9010    24.6400    11.3000     6.8480     6.1700     2.2220   -29.9450 
   64.1250    71.5420    24.9320    11.0620     6.8980     6.2350     2.2270   -30.4410 
   64.2500    71.9010    25.0190     9.0850     6.7580     6.1070     2.2020   -30.9450 
   64.3750    74.5070    25.0130     7.5990     6.5020     5.8750     2.1640   -31.5050 
   64.5000    75.3660    25.0100     7.2840     6.2580     5.6850     2.1470   -32.0740 
   64.6250    72.7470    25.0310     7.4090     6.2010     5.7240     2.1370   -32.6460 
   64.7500    69.5390    25.1110     8.1690     6.4040     6.0520     2.1360   -33.2050 
   64.8750    67.8970    25.2590    10.2920     6.9010     6.6740     2.1420   -33.7420 
   65.0000    67.2400    25.4230    14.2110     7.6410     7.5010     2.1440   -34.2270 
   65.1250    65.5220    25.5110    21.8910     8.4450     8.3020     2.1360   -34.7210 
   65.2500    63.5350    25.5290    28.0100     9.0200     8.7940     2.1250   -35.2340 
   65.3750    63.4180    25.5240    29.2780     9.1660     8.8140     2.1170   -35.6450 
   65.5000    65.0540    25.5240    24.1850     8.8590     8.4010     2.1150   -35.9960 
   65.6250    66.5110    25.5240    15.9520     8.2530     7.7760     2.1140   -36.3820 
   65.7500    66.8830    25.5240    10.0820     7.6440     7.2260     2.1140   -36.7650 
   65.8750    65.4800    25.5240     8.3430     7.1780     6.8640     2.1150   -37.0420 
   66.0000    63.5280    25.5240     8.2040     6.9120     6.7100     2.1140   -37.3560 
   66.1250    63.9380    25.5240     8.3770     6.8540     6.7450     2.1120   -37.6950 
   66.2500    65.7890    25.5240     8.4490     6.9070     6.8660     2.1150   -37.9450 
   66.3750    65.8430    25.5240     8.4400     7.0040     7.0050     2.1240   -38.1680 
   66.5000    65.1040    25.5240     8.4040     7.0940     7.1160     2.1360   -38.4060 
   66.6250    65.9800    25.5240     8.4830     7.1470     7.1740     2.1450   -38.5960 
   66.7500    66.0360    25.5240     8.6440     7.1680     7.1980     2.1490   -38.7040 
   66.8750    64.0570    25.5240     8.7800     7.1670     7.2090     2.1440   -38.9230 
   67.0000    62.4430    25.5240     8.7880     7.1570     7.2320     2.1340   -39.0580 
   67.1250    64.1220    25.5240     8.8130     7.1510     7.2850     2.1280   -39.0800 
   67.2500    66.2170    25.5240     8.9050     7.1560     7.3600     2.1320   -39.0920 
   67.3750    66.9980    25.5240     9.1370     7.1700     7.4400     2.1410   -39.0670 
   67.5000    66.0800    25.5240     9.2750     7.1830     7.5030     2.1480   -39.0340 
   67.6250    64.5960    25.5240     9.2970     7.1810     7.5380     2.1500   -39.0320 
   67.7500    63.1780    25.5240     9.3580     7.1680     7.5590     2.1500   -38.9880 
   67.8750    61.4930    25.5240     9.4110     7.1530     7.5790     2.1490   -38.9670 
   68.0000    60.7130    25.5240     9.3170     7.1440     7.6030     2.1450   -38.9610 
   68.1250    63.0800    25.5240     9.3000     7.1440     7.6290     2.1390   -38.9520 
   68.2500    67.3920    25.5240     9.2580     7.1540     7.6560     2.1350   -38.9420 
   68.3750    68.5080    25.5240     9.1750     7.1790     7.6920     2.1330   -38.9520 
   68.5000    65.6740    25.5240     9.1580     7.2230     7.7450     2.1360   -38.9180 
   68.6250    64.0270    25.5240     9.1960     7.2910     7.8180     2.1410   -38.8910 
   68.7500    64.3990    25.5240     9.2580     7.3570     7.8860     2.1420   -38.8810 
   68.8750    64.6550    25.5240     9.2660     7.3830     7.9070     2.1390   -38.7720 
   69.0000    63.3930    25.5240     9.2190     7.3250     7.8370     2.1390   -38.5090 
   69.1250    63.8960    25.5240     9.1720     7.1370     7.6370     2.1510   -38.3050 
   69.2500    67.0340    25.5240     8.7410     6.8500     7.3460     2.1760   -38.0120 
   69.3750    72.7730    25.5240     7.8380     6.5050     7.0110     2.2060   -37.7240 
   69.5000    82.1860    25.5240     6.8640     6.1570     6.6840     2.2310   -37.4970 
   69.6250    92.0690    25.5240     6.5890     5.8740     6.4300     2.2420   -37.2920 
   69.7500    95.7720    25.5240     6.9270     5.7100     6.3180     2.2420   -37.1000 
   69.8750    91.5250    25.5240     7.1900     5.7480     6.4530     2.2380   -37.1000 
   70.0000    83.7350    25.5240     7.3300     6.0640     6.9280     2.2360   -37.2890 
   70.1250    79.0700    25.5240     7.8880     6.7210     7.8030     2.2530   -37.4840 
   70.2500    76.6460    25.5260     9.1340     7.5970     8.9080     2.2930   -37.7350 
   70.3750    73.7030    25.5310    12.1990     8.5370    10.0240     2.3410   -38.0580 
   70.5000    69.3330    25.4980    14.0720     9.3030    10.8410     2.3750   -38.3810 
   70.6250    66.8280    25.3820    12.7280     9.5750    10.9890     2.3870   -38.7000 
   70.7500    67.7290    25.2490     9.8910     9.3970    10.6030     2.3910   -38.9880 
   70.8750    70.7690    25.1360     9.0590     8.9420     9.9420     2.3860   -39.1850 
   71.0000    74.1330    25.0210     8.9260     8.4090     9.2650     2.3590   -39.3450 
   71.1250    76.4810    24.8950     9.0350     7.9750     8.7780     2.3060   -39.5080 
   71.2500    76.8310    24.8170     9.2440     7.6890     8.5000     2.2460   -39.7420 
   71.3750    76.7360    24.8070     9.4930     7.5270     8.3770     2.1970   -39.9200 
   71.5000    77.5770    24.8330     9.4400     7.4470     8.3550     2.1650   -40.1200 
   71.6250    77.2110    24.9110     9.2210     7.4460     8.4210     2.1520   -40.3290 
   71.7500    74.9520    25.0660     8.9270     7.4970     8.5210     2.1520   -40.5100 
   71.8750    72.2540    25.2570     8.8750     7.5580     8.5910     2.1620   -40.6690 
   72.0000    70.2920    25.4050     8.9250     7.5820     8.5880     2.1740   -40.8090 
   72.1250    69.1400    25.4530     8.8100     7.5410     8.5020     2.1770   -40.9170 
   72.2500    70.1390    25.4530     8.4750     7.4520     8.3710     2.1710   -40.9130 
   72.3750    73.0420    25.4510     8.0340     7.3320     8.2230     2.1560   -41.0090 
