~V
VERS. 2.00: Ver 2.00
~W
STRT.M 60.0000:
STOP.M 261.0000:
STEP.M 0.1250:
NULL. -999.2500:
UWI. DF5055:
~C
DEPT.M :
SP.MV :
GR.API :
RML.OHMM :
RI. :
RXO.OHMM :
CALI.CM :
DEN.GM/CC :
~A
# ...
  195.0000   -17.2760    92.3030    10.7200     8.6510     8.7900    24.3160     2.4470 
  195.1250   -17.4150    95.4200    10.3610     8.2800     8.2930    24.3340     2.4550 
  195.2500   -17.4510    99.0620    10.1320     7.9700     7.8750    24.5060     2.4570 
  195.3750   -17.4460    99.6670    10.1500     7.8060     7.5630    24.7710     2.4520 
  195.5000   -17.4440    98.5270    10.4330     7.8140     7.4400    24.9740     2.4420 
  195.6250   -17.4620    97.3860    10.8870     7.9710     8.3030    25.0200     2.4310 
  195.7500   -17.5570    95.5890    11.2810     8.1550     9.4500    24.9370     2.4240 
  195.8750   -17.8040    92.6660    11.4870     8.2930     9.7610    24.8040     2.4230 
  196.0000   -18.2090    89.9440    11.5200     8.3840     9.7330    24.6720     2.4250 
  196.1250   -18.7150    88.4890    11.5930     8.5440    10.1650    24.5470     2.4230 
  196.2500   -19.2380    87.8560    12.0270     8.9330    10.8950    24.4110     2.4100 
  196.3750   -19.7290    86.0960    13.1470     9.7230    12.1890    24.3090     2.3880 
  196.5000   -20.1260    81.4260    15.2580    11.1060    15.1020    24.2650     2.3660 
  196.6250   -20.3200    76.5090    18.7550    13.4110    20.8190    24.3110     2.3680 
  196.7500   -20.2980    74.6000    23.1470    16.4760    26.5430    24.4210     2.4100 
  196.8750   -19.9640    74.5040    27.2780    19.6540    32.9840    24.5790     2.4900 
  197.0000   -19.2690    74.3180    29.1520    21.4740    37.9700    24.7250     2.5880 
  197.1250   -18.2500    74.7730    26.5000    19.9920    39.7470    24.7890     2.6620 
  197.2500   -16.9570    74.5270    21.0180    16.3180    32.7420    24.7910     2.6800 
  197.3750   -15.4420    70.8570    15.1100    12.2320    18.9810    24.8200     2.6350 
  197.5000   -13.8370    65.1580    10.4930     8.9480     8.5760    24.9900     2.5430 
  197.6250   -12.3050    62.1280     7.9100     6.9590     6.0180    25.3320     2.4410 
  197.7500   -10.9100    63.0140     6.7200     5.8910     5.2240    25.4860     2.3650 
  197.8750    -9.7040    66.2040     6.4840     5.5240     5.0930    25.5480     2.3310 
  198.0000    -8.7270    70.3270     6.8220     5.6700     5.1670    25.7900     2.3370 
  198.1250    -8.0210    75.7850     7.3900     6.1610     5.5640    25.7940     2.3720 
  198.2500    -7.6210    81.3910     7.8750     6.7170     5.9840    25.5060     2.4100 
  198.3750    -7.4900    85.4260     8.1570     7.1740     6.2590    25.1200     2.4400 
  198.5000    -7.5050    87.1660     8.2270     7.4510     6.4310    25.0440     2.4590 
  198.6250    -7.5830    87.7750     8.1110     7.5180     6.4730    25.1570     2.4670 
  198.7500    -7.7230    90.3910     7.9050     7.4520     6.3060    24.9820     2.4680 
  198.8750    -7.9740    93.1190     7.6730     7.3070     6.1130    24.6670     2.4590 
  199.0000    -8.2850    92.2110     7.4670     7.1290     6.1240    24.4890     2.4400 
  199.1250    -8.5710    89.2400     7.3270     6.9470     6.1930    24.4500     2.4110 
  199.2500    -8.8360    89.0730     7.2510     6.7820     6.2130    24.4040     2.3850 
  199.3750    -9.1220    89.6510     7.2480     6.6590     6.1290    24.3730     2.3700 
  199.5000    -9.4990    87.1590     7.3540     6.6210     6.2000    24.3520     2.3680 
  199.6250    -9.9520    84.2770     7.6790     6.7590     6.5810    24.3270     2.3740 
  199.7500   -10.4110    84.5610     8.2810     7.1140     6.8570    24.2670     2.3760 
  199.8750   -10.7970    86.9580     9.1680     7.7030     7.3050    24.1640     2.3680 
  200.0000   -11.1270    88.8610    10.2420     8.4790     8.0270    24.0300     2.3520 
  200.1250   -11.4620    87.9810    11.2400     9.2870     9.2660    23.9430     2.3340 
  200.2500   -11.7520    85.2720    11.9080     9.9100    10.4810    23.9070     2.3180 
  200.3750   -11.9520    83.5810    12.1730    10.2480    10.8290    23.8800     2.3070 
  200.5000   -12.0120    82.5890    12.1970    10.3700    10.3190    23.8450     2.3020 
  200.6250   -12.0130    80.1090    12.3920    10.5240     9.5100    23.8030     2.3040 
  200.7500   -12.0260    78.6600    13.1110    10.9730     9.9500    23.7810     2.3080 
  200.8750   -12.0640    80.2150    14.5260    11.8800    11.1580    23.7720     2.3120 
  201.0000   -12.1520    81.6670    16.5960    13.3030    13.3250    23.7520     2.3090 
  201.1250   -12.3010    80.5140    19.0620    15.1850    15.8220    23.7200     2.2990 
  201.2500   -12.4960    80.1140    21.4200    17.1640    17.2810    23.6990     2.2860 
  201.3750   -12.7330    80.5770    23.4230    18.9900    17.9940    23.6990     2.2750 
  201.5000   -13.0220    81.6340    25.1640    20.6220    18.7560    23.6980     2.2660 
  201.6250   -13.3170    82.5910    27.2490    22.4040    18.8020    23.6880     2.2570 
  201.7500   -13.6080    82.9790    30.4380    24.9120    19.0680    23.6690     2.2470 
  201.8750   -13.9310    81.1110    35.4140    28.7510    20.6370    23.6370     2.2420 
  202.0000   -14.2440    75.9210    42.6340    34.4230    25.3630    23.6270     2.2490 
  202.1250   -14.4880    70.3850    52.4250    42.3960    35.8050    23.7540     2.2680 
  202.2500   -14.6790    68.2360    63.4650    51.6710    53.3820    24.1030     2.2860 
  202.3750   -14.8700    68.7630    73.9860    60.8360    73.9170    24.6170     2.2900 
  202.5000   -15.0860    69.9200    81.9400    68.2260    77.7750    25.0510     2.2770 
  202.6250   -15.3020    69.0580    85.6420    72.3820    71.4440    25.1870     2.2570 
  202.7500   -15.4790    67.9160    86.5600    74.2100    71.0300    25.1680     2.2410 
  202.8750   -15.5930    66.9310    86.1790    74.7710    78.1710    25.0800     2.2310 
  203.0000   -15.6900    67.3970    85.6190    74.9970    79.1490    24.9960     2.2240 
  203.1250   -15.8280    69.3070    85.4780    75.4810    73.4070    24.9630     2.2130 
  203.2500   -15.9910    69.3000    85.7850    76.3420    74.5240    24.9740     2.2010 
  203.3750   -16.1070    66.8860    86.4840    77.5590    77.1890    25.0130     2.1900 
  203.5000   -16.1600    64.0210    87.4650    79.0560    74.8570    25.0460     2.1800 
  203.6250   -16.2350    63.5230    88.4120    80.5970    75.3560    25.0770     2.1740 
  203.7500   -16.3280    65.7170    88.7920    81.7270    80.6090    25.0900     2.1720 
  203.8750   -16.3950    67.2420    88.1960    82.0410    86.2520    25.0940     2.1770 
  204.0000   -16.4480    65.7660    86.7010    81.4900    84.5310    25.0940     2.1880 
  204.1250   -16.5000    63.2690    85.1500    80.6640    76.5790    25.0800     2.2010 
  204.2500   -16.5710    64.3280    84.7090    80.6290    71.2510    25.0330     2.2080 
  204.3750   -16.6930    67.1730    86.2330    82.2460    69.5470    24.9630     2.2020 
  204.5000   -16.8410    69.0250    90.2870    86.1510    69.2010    24.9420     2.1840 
  204.6250   -16.9860    69.1450   109.4370    93.0580    73.7310    25.0330     2.1620 
  204.7500   -17.1780    68.3730   120.0270   102.1880    88.9450    25.1430     2.1460 
  204.8750   -17.4220    66.5700   131.9310   112.5890   100.9890    25.2430     2.1430 
  205.0000   -17.6550    64.3770   143.3340   122.8080   102.5700    25.3110     2.1510 
  205.1250   -17.8200    64.4660   151.3690   130.5810   111.3050    25.3740     2.1640 
  205.2500   -17.9290    65.2690   154.7810   134.7360   120.8150    25.4270     2.1750 
  205.3750   -18.0430    66.0280   153.5360   134.9310   117.7930    25.4800     2.1810 
  205.5000   -18.2090    67.0130   149.0520   131.9660   110.9830    25.5150     2.1810 
  205.6250   -18.2990    66.2020   143.7570   127.6060   107.7750    25.5310     2.1770 
  205.7500   -18.2620    63.0800   140.3060   124.3380   108.5590    25.4980     2.1750 
  205.8750   -18.2460    60.7170   140.5620   124.0110   106.9450    25.4400     2.1750 
  206.0000   -18.3570    61.8140   146.0340   128.1620   103.5210    25.4290     2.1760 
  206.1250   -18.4800    64.1740   158.9340   138.9050   107.8470    25.4450     2.1770 
