~V
VERS. 2.00: Ver 2.00
~W
STRT.M 60.0000:
STOP.M 261.0000:
STEP.M 0.1250:
NULL. -999.2500:
UWI. DF5055:
~C
DEPT.M :
SP.MV :
GR.API :
RML.OHMM :
RI. :
RXO.OHMM :
CALI.CM :
DEN.GM/CC :
~A
# ...
  228.7500   -21.6870    71.4710    52.8960    52.7900    51.5440    25.0650     2.3370 
  228.8750   -20.8150    72.6440    48.5890    48.7100    45.4190    25.0400     2.3250 
  229.0000   -19.9990    69.8090    44.6540    44.8850    40.8860    25.0260     2.3220 
  229.1250   -19.2690    66.9650    40.7650    41.0690    39.5980    25.0260     2.3260 
  229.2500   -18.6410    67.8790    36.6840    37.0740    38.0670    25.0260     2.3280 
  229.3750   -18.0870    70.9250    32.5450    33.0400    34.7120    25.0260     2.3220 
  229.5000   -17.5500    72.4880    28.7360    29.3350    28.2220    25.0190     2.3080 
  229.6250   -17.1370    72.3090    25.8970    26.5410    22.7980    24.9890     2.2910 
  229.7500   -16.8410    72.7850    24.2010    24.7970    20.8740    24.9340     2.2800 
  229.8750   -16.5860    72.7030    23.7010    24.1520    21.9780    24.8790     2.2780 
  230.0000   -16.4480    71.9930    24.3130    24.5590    23.6800    24.8180     2.2840 
  230.1250   -16.4070    71.1400    25.9560    26.0230    25.1450    24.7100     2.2920 
  230.2500   -16.3740    69.3380    28.0900    28.0800    27.0350    24.5940     2.2940 
  230.3750   -16.3300    66.1970    30.2350    30.2760    30.0000    24.5910     2.2900 
  230.5000   -16.2860    64.0040    31.9180    32.0990    33.0190    24.7390     2.2860 
  230.6250   -16.2200    65.8130    32.6700    33.0090    36.0920    24.9100     2.2950 
  230.7500   -16.0900    68.7660    32.5210    32.9740    35.9050    24.9260     2.3190 
  230.8750   -15.9600    69.7550    31.5310    32.0210    33.1740    24.8660     2.3490 
  231.0000   -15.7600    68.6650    29.8360    30.2810    29.9720    24.8160     2.3700 
  231.1250   -15.4420    68.3220    27.5250    27.8710    28.4200    24.8330     2.3730 
  231.2500   -15.1320    68.6440    24.8950    25.1410    28.8700    24.9010     2.3640 
  231.3750   -14.8630    68.6340    22.1940    22.3750    26.6890    24.9210     2.3580 
  231.5000   -14.6580    68.6500    19.7160    19.8770    20.4390    24.8160     2.3610 
  231.6250   -14.5260    70.1570    17.8580    18.0130    16.8560    24.6850     2.3710 
  231.7500   -14.4300    70.2480    16.7600    16.8630    15.2000    24.6160     2.3750 
  231.8750   -14.3540    66.6320    16.5350    16.4980    14.6780    24.5400     2.3670 
  232.0000   -14.3700    62.8010    17.1710    16.9240    14.6410    24.4160     2.3460 
  232.1250   -14.4100    64.2080    18.5370    18.1040    16.3490    24.2890     2.3200 
  232.2500   -14.4050    68.0980    20.0750    19.5850    19.0800    24.1320     2.2970 
  232.3750   -14.4580    69.9380    21.3050    20.9180    21.7410    23.9610     2.2790 
  232.5000   -14.5170    68.2930    21.8470    21.6820    23.6570    23.8140     2.2700 
  232.6250   -14.4310    65.0300    21.5040    21.5780    23.9100    23.7030     2.2700 
  232.7500   -14.3240    63.2110    20.7130    20.9520    21.8420    23.6080     2.2750 
  232.8750   -14.1650    63.6920    19.8600    20.1510    18.9990    23.6210     2.2810 
  233.0000   -13.8790    65.3340    19.1990    19.4300    17.9210    23.7940     2.2860 
  233.1250   -13.6100    66.2570    18.7970    18.8970    17.3980    24.1660     2.2880 
  233.2500   -13.3910    66.9380    18.4870    18.4620    16.9640    24.5500     2.2890 
  233.3750   -13.1290    68.6510    18.1350    18.0300    16.5330    24.7580     2.2880 
  233.5000   -12.8470    71.0210    17.6960    17.5500    16.2940    24.8340     2.2850 
  233.6250   -12.6210    72.3140    17.2750    17.0830    14.7020    24.8940     2.2800 
  233.7500   -12.3980    72.8860    17.0160    16.7420    13.7990    24.9460     2.2750 
  233.8750   -12.2010    73.2720    16.9410    16.5620    13.5430    24.9700     2.2700 
  234.0000   -12.1100    73.8590    16.9370    16.4750    15.5660    25.0270     2.2660 
  234.1250   -12.0570    73.5610    16.7750    16.3200    17.4920    25.0950     2.2630 
  234.2500   -11.9630    72.1590    16.3780    16.0150    18.2560    25.1540     2.2590 
  234.3750   -11.8990    70.4030    15.8740    15.6440    16.5880    25.2040     2.2560 
  234.5000   -11.8710    69.5900    15.5550    15.4220    14.6640    25.2430     2.2510 
  234.6250   -11.8680    71.4210    15.8800    15.7040    14.3370    25.2650     2.2470 
  234.7500   -11.9200    72.9700    16.9980    16.6320    16.2660    25.2790     2.2440 
  234.8750   -11.9570    72.1590    18.9340    18.2870    20.3940    25.2910     2.2430 
  235.0000   -11.9840    69.7090    21.4710    20.5770    24.0760    25.3140     2.2440 
  235.1250   -11.9850    66.7720    23.9550    23.0220    25.4600    25.3610     2.2440 
  235.2500   -11.9450    63.8940    25.5030    24.7320    25.6400    25.4300     2.2450 
  235.3750   -11.8730    61.9200    25.5130    25.0070    26.1220    25.4930     2.2470 
  235.5000   -11.8150    62.4620    23.9160    23.6680    26.9800    25.5310     2.2510 
  235.6250   -11.7800    66.3060    21.1760    21.1190    24.8460    25.5180     2.2580 
  235.7500   -11.7030    71.7270    18.3990    18.4530    19.3000    25.4980     2.2630 
  235.8750   -11.6520    77.8370    16.2480    16.2990    16.0650    25.4940     2.2670 
  236.0000   -11.6330    82.5760    15.0550    14.9510    15.3940    25.4810     2.2720 
  236.1250   -11.6010    82.2220    15.0510    14.6230    14.1740    25.4810     2.2900 
  236.2500   -11.6080    77.3490    15.9370    15.1230    15.3490    25.5010     2.3220 
  236.3750   -11.6940    71.9250    17.4300    16.3080    18.1540    25.4860     2.3590 
  236.5000   -11.8290    71.7360    19.1320    17.9050    23.0240    25.3960     2.3860 
  236.6250   -11.9050    76.3640    20.6110    19.5470    20.8040    25.2790     2.3860 
  236.7500   -11.9910    79.4900    21.7460    20.9710    23.9960    25.3470     2.3630 
  236.8750   -12.0920    77.2070    22.6220    22.1460    25.4600    25.5200     2.3290 
  237.0000   -12.1380    70.6910    23.3890    23.1510    25.1030    25.6430     2.2950 
  237.1250   -12.2100    65.3490    23.9630    23.9030    26.1870    25.7060     2.2670 
  237.2500   -12.2500    64.0260    23.9450    24.0500    27.1670    25.7550     2.2440 
  237.3750   -12.1640    66.0680    22.9140    23.1600    26.9120    25.7960     2.2260 
  237.5000   -11.9560    68.1410    20.8040    21.1520    24.4940    25.8010     2.2250 
  237.6250   -11.7400    67.3160    18.0080    18.4380    20.3130    25.7220     2.2540 
  237.7500   -11.5170    65.7440    15.3190    15.8200    15.1830    25.5890     2.3070 
  237.8750   -11.2780    64.9670    13.1820    13.7100    11.8210    25.4090     2.3710 
  238.0000   -11.0570    65.0050    11.7670    12.2540    10.5060    25.2810     2.4240 
  238.1250   -10.7870    64.5710    11.1160    11.5050    10.0380    25.2700     2.4500 
  238.2500   -10.6250    64.7990    10.9530    11.2350     9.9930    25.2880     2.4510 
  238.3750   -10.5960    67.3510    11.1180    11.3110    10.4520    25.2480     2.4400 
  238.5000   -10.6080    69.9490    11.4800    11.6080    10.8990    25.1510     2.4270 
  238.6250   -10.6870    71.4750    11.9690    12.0400    11.7840    25.0520     2.4190 
  238.7500   -10.7480    73.6400    12.5030    12.5200    12.4110    24.9640     2.4140 
  238.8750   -10.7570    76.2930    13.0200    12.9950    12.4020    24.9080     2.4090 
  239.0000   -10.7550    76.8060    13.4580    13.4070    12.3030    24.9080     2.4040 
  239.1250   -10.7660    73.0310    13.7500    13.6870    12.6130    24.8790     2.4040 
  239.2500   -10.6610    69.4250    13.9180    13.8400    13.0100    24.8630     2.4080 
  239.3750   -10.4550    68.2630    14.0030    13.8950    13.6330    24.8800     2.4170 
  239.5000   -10.2500    68.4230    14.0650    13.9040    14.1980    24.9290     2.4290 
  239.6250   -10.0340    69.5040    14.1800    13.9320    13.5310    25.0020     2.4410 
  239.7500    -9.7970    71.2960    14.3860    14.0240    13.1630    25.0410     2.4490 
  239.8750    -9.5760    72.8390    14.7010    14.2010    13.5800    25.0950     2.4510 
