~V
VERS. 2.00: Ver 2.00
~W
STRT.M 60.0000:
STOP.M 271.0000:
STEP.M 0.1250:
NULL. -999.2500:
UWI. DF5026:
~C
DEPT.M :
SP.MV :
GR.API :
CALI.CM :
RXO.OHMM :
RI. :
RML.OHMM :
DEN.GM/CC :
~A
# ...
  116.2500   -38.0760    96.3660    24.6390     5.9800     5.0500     5.3150     2.2850 
  116.3750   -38.1360   100.5180    24.6400     4.9860     4.9010     5.1550     2.2750 
  116.5000   -38.2710   102.4330    24.6400     4.7870     4.7620     5.0450     2.2560 
  116.6250   -38.4500    97.2260    24.6400     5.6510     4.6580     4.9960     2.2380 
  116.7500   -38.7290    91.8820    24.6400     6.2140     4.5830     4.9690     2.2290 
  116.8750   -38.9440    92.4780    24.6400     5.9410     4.5320     4.9440     2.2290 
  117.0000   -39.1620    96.9150    24.6400     5.5010     4.5060     4.9290     2.2340 
  117.1250   -39.3920    97.8460    24.6400     5.0160     4.5300     4.9760     2.2370 
  117.2500   -39.6560    96.6510    24.6400     5.4610     4.6170     5.1150     2.2330 
  117.3750   -39.8560    94.7270    24.6400     6.2040     4.7620     5.3220     2.2270 
  117.5000   -40.0040    91.8270    24.6400     6.6520     4.9110     5.5090     2.2230 
  117.6250   -40.0820    90.0780    24.6400     6.1220     4.9550     5.5200     2.2240 
  117.7500   -40.1260    93.1330    24.6400     5.4860     4.8400     5.3210     2.2300 
  117.8750   -40.2070   100.0330    24.6400     5.2060     4.5910     4.9840     2.2430 
  118.0000   -40.2600   104.4390    24.6400     4.8270     4.2980     4.6520     2.2640 
  118.1250   -40.3100   102.8110    24.6400     4.1060     4.0880     4.4830     2.2960 
  118.2500   -40.3910   100.5640    24.6420     3.5910     4.0150     4.5130     2.3330 
  118.3750   -40.5630   101.2600    24.6390     3.8440     4.0930     4.7300     2.3670 
  118.5000   -40.8270   102.9720    24.6250     5.3110     4.3120     5.0940     2.3820 
  118.6250   -41.2180   101.6050    24.6070     5.9250     4.6530     5.5570     2.3600 
  118.7500   -41.6450    96.5730    24.5980     5.7180     5.0510     6.0450     2.3140 
  118.8750   -42.1910    88.8900    24.5980     5.9090     5.4710     6.5240     2.2620 
  119.0000   -42.7610    79.8730    24.6000     7.0480     5.8850     6.9690     2.2190 
  119.1250   -43.3270    73.8140    24.6000     8.2400     6.2620     7.3440     2.1890 
  119.2500   -43.8440    72.2970    24.6000     8.8190     6.5770     7.6330     2.1660 
  119.3750   -44.3010    71.7790    24.6050     8.7840     6.8030     7.8150     2.1480 
  119.5000   -44.6640    69.2660    24.6090     8.3880     6.9270     7.8960     2.1360 
  119.6250   -44.8940    67.0510    24.5320     7.9430     6.9700     7.9260     2.1340 
  119.7500   -45.0030    68.4310    24.3630     7.8430     7.0140     7.9830     2.1380 
  119.8750   -44.8960    69.4640    24.1730     8.1610     7.0970     8.0850     2.1450 
  120.0000   -44.7250    67.0330    24.0450     8.6250     7.2030     8.1870     2.1490 
  120.1250   -44.4220    64.0940    23.9980     9.1750     7.2380     8.1510     2.1510 
  120.2500   -44.0570    64.3940    23.9720     9.5420     7.1170     7.8900     2.1560 
  120.3750   -43.6150    67.7660    23.9560     9.3340     6.8090     7.3970     2.1700 
  120.5000   -43.1030    72.4370    23.9430     8.0340     6.3580     6.7680     2.1910 
  120.6250   -42.5580    79.1120    23.9520     6.2510     5.8660     6.1630     2.2170 
  120.7500   -42.0080    85.7590    24.0290     5.0470     5.4360     5.6870     2.2390 
  120.8750   -41.5300    90.1570    24.1760     4.8040     5.1020     5.3570     2.2530 
  121.0000   -41.0710    92.4660    24.3270     4.9490     4.8600     5.1260     2.2620 
  121.1250   -40.7330    94.1210    24.4160     4.7270     4.6790     4.9250     2.2740 
  121.2500   -40.4770    97.2060    24.4920     4.1040     4.5100     4.7070     2.2900 
  121.3750   -40.3480   100.3990    24.5900     3.7690     4.3390     4.4760     2.3070 
  121.5000   -40.3700   102.8970    24.6710     3.6540     4.1700     4.2640     2.3220 
  121.6250   -40.4430   104.8210    24.6900     3.4590     4.0220     4.1020     2.3300 
  121.7500   -40.6080   107.0320    24.6870     3.2460     3.8970     3.9790     2.3370 
  121.8750   -40.7860   109.0550    24.6860     3.1740     3.7880     3.8780     2.3450 
  122.0000   -41.0290   110.1400    24.6860     3.2010     3.6870     3.7920     2.3550 
  122.1250   -41.2680   109.3040    24.6860     3.1580     3.6100     3.7480     2.3580 
  122.2500   -41.5650   105.0840    24.6910     3.1240     3.5850     3.7780     2.3530 
  122.3750   -41.8630    97.5010    24.6970     3.1770     3.6400     3.9110     2.3390 
  122.5000   -42.1690    88.5950    24.6840     3.4230     3.7940     4.1640     2.3180 
  122.6250   -42.5830    83.3210    24.5810     4.1000     4.0860     4.5850     2.2900 
  122.7500   -42.9840    80.6210    24.3840     4.9280     4.5250     5.1870     2.2600 
  122.8750   -43.3980    77.3990    24.1650     5.6840     5.1520     6.0130     2.2390 
  123.0000   -43.7860    72.7190    24.0230     6.1450     6.0010     7.0920     2.2360 
  123.1250   -44.2100    69.3390    23.9940     6.5150     7.0940     8.4160     2.2580 
  123.2500   -44.5760    68.8270    23.9990     7.0560     8.2740     9.7650     2.2900 
  123.3750   -44.9280    69.9450    24.0000     7.6140     9.3110    10.8320     2.3110 
  123.5000   -45.2070    71.5280    24.0000     7.9090     9.9460    11.3020     2.3040 
  123.6250   -45.3960    72.7450    23.9990     8.1620     9.9730    10.9980     2.2680 
  123.7500   -45.5460    73.0550    24.0010     8.2160     9.6280    10.3420     2.2310 
  123.8750   -45.6910    73.2590    24.0130     8.0800     9.1630     9.6970     2.2050 
  124.0000   -45.7620    73.6830    24.0310     8.4310     8.7900     9.2940     2.1910 
  124.1250   -45.8130    73.9730    24.0440     8.7640     8.6570     9.2520     2.1860 
  124.2500   -45.8020    71.8500    24.0470     8.7110     8.7430     9.4720     2.1840 
  124.3750   -45.7320    68.3590    24.0460     8.8100     8.9950     9.8620     2.1810 
  124.5000   -45.6280    66.2320    24.0460     9.0350     9.3070    10.2710     2.1740 
  124.6250   -45.4710    66.5700    24.0460     8.7560     9.4250    10.3510     2.1650 
  124.7500   -45.3110    67.7060    24.0460     8.4330     9.0970     9.8050     2.1600 
  124.8750   -45.0960    68.2980    24.0460     8.1860     8.2240     8.5850     2.1630 
  125.0000   -44.8660    68.9150    24.0460     7.4180     6.9990     7.0450     2.1800 
  125.1250   -44.5650    73.4960    24.0480     5.5660     5.8590     5.8120     2.2100 
  125.2500   -44.2590    81.1690    24.0540     3.8200     5.1210     5.2210     2.2470 
  125.3750   -44.1400    86.3130    24.0590     3.3020     4.9220     5.3870     2.2890 
  125.5000   -44.1210    83.7020    24.0530     5.1930     5.3370     6.3350     2.3370 
  125.6250   -44.1200    75.8660    24.0310    12.2940     6.5340     8.1530     2.3910 
  125.7500   -44.2490    70.4920    24.0120    21.4810     8.3310    10.4690     2.4480 
  125.8750   -44.4520    68.8890    23.9910    26.9550    10.3370    12.6730     2.4950 
  126.0000   -44.6950    68.5810    23.9550    25.2290    11.8560    13.9100     2.5130 
  126.1250   -45.0740    67.0420    23.9300    16.9710    12.1840    13.5870     2.4830 
  126.2500   -45.5030    65.7240    23.9530    10.9520    11.7120    12.5210     2.4220 
  126.3750   -45.7580    65.4180    24.0060     8.6970    10.9150    11.3700     2.3510 
  126.5000   -45.9940    65.1320    24.0440     8.4010    10.1120    10.4470     2.2860 
  126.6250   -46.1800    63.8380    24.0480     8.5310     9.4470     9.8250     2.2410 
  126.7500   -46.3140    63.1420    24.0480     8.7940     8.9100     9.3910     2.2140 
  126.8750   -46.4070    64.6010    24.0510     8.5340     8.5020     9.1110     2.1990 
  127.0000   -46.4090    67.4780    24.0180     7.5020     8.2490     9.0010     2.1910 
  127.1250   -46.4120    69.1080    23.9190     6.9330     8.2220     9.1210     2.1890 
  127.2500   -46.4060    69.1720    23.8110     7.2680     8.3940     9.4230     2.1940 
  127.3750   -46.3170    68.4790    23.7570     7.7990     8.7240     9.8440     2.2090 
