~V
VERS. 2.00: Ver 2.00
~W
STRT.M 59.0000:
STOP.M 260.0000:
STEP.M 0.1250:
NULL. -999.2500:
UWI. DF5044:
~C
DEPT.M :
GR.API :
CALI.CM :
RXO.OHMM :
RI. :
RML.OHMM :
DEN.GM/CC :
SP.MV :
~A
# ...
  182.7500    77.1760    24.0730    84.2930    86.3370    90.2500     2.2430   -35.4200 
  182.8750    76.0720    24.0450    80.2470    87.6530    91.6230     2.2580   -35.2660 
  183.0000    75.6440    24.0520    95.4360    90.7270    94.8280     2.2590   -35.2140 
  183.1250    78.5790    24.0490   116.4600    93.5680    97.7920     2.2520   -35.1050 
  183.2500    81.8310    24.0660   126.6960    94.4490    98.7100     2.2430   -34.9910 
  183.3750    81.3050    24.0870   124.9070    92.4630    96.6390     2.2330   -34.9850 
  183.5000    76.9600    24.1340   115.2860    87.6030    91.5700     2.2240   -34.8950 
  183.6250    74.5430    24.1490   101.0200    80.8710    84.5490     2.2190   -34.7690 
  183.7500    78.3920    24.1490    85.3480    74.3910    77.7890     2.2220   -34.7620 
  183.8750    85.7530    24.1200    72.8960    69.5840    72.7760     2.2320   -34.6980 
  184.0000    89.7700    24.0830    66.4370    67.3710    70.4680     2.2460   -34.6060 
  184.1250    85.5030    24.0490    63.5920    68.8980    72.0610     2.2560   -34.6300 
  184.2500    79.7390    24.0170    63.5570    73.9750    77.3560     2.2590   -34.5820 
  184.3750    78.7110    23.9850    69.9150    82.5660    86.3160     2.2590   -34.5650 
  184.5000    81.4180    23.9420    85.0400    94.0840    98.3290     2.2600   -34.6290 
  184.6250    81.4000    23.8390   102.8700   106.9920   111.7930     2.2580   -34.5900 
  184.7500    78.0930    23.7850   119.6170   118.3840   123.6740     2.2470   -34.5850 
  184.8750    74.5960    23.8230   138.4620   125.6890   131.2940     2.2270   -34.6680 
  185.0000    72.7390    23.9410   161.7850   127.0590   132.7230     2.2050   -34.6750 
  185.1250    71.9250    24.1150   176.0460   121.2370   126.6500     2.1870   -34.7130 
  185.2500    71.5940    24.2660   168.6140   111.1050   116.0830     2.1740   -34.8140 
  185.3750    71.4830    24.3580   142.7890    99.2350   103.7020     2.1720   -34.8030 
  185.5000    71.1720    24.3920   111.7600    87.9460    91.9280     2.1850   -34.8320 
  185.6250    71.0200    24.3860    90.4920    79.1550    82.7580     2.2130   -34.9910 
  185.7500    71.8980    24.3850    80.0430    73.0690    76.4110     2.2400   -35.0260 
  185.8750    73.7320    24.3750    75.5570    69.5640    72.7550     2.2580   -35.0870 
  186.0000    75.7410    24.3800    70.0080    68.3090    71.4470     2.2630   -35.2890 
  186.1250    77.1280    24.3750    63.6790    69.2360    72.4130     2.2550   -35.3990 
  186.2500    77.0800    24.3710    62.5400    71.7760    75.0620     2.2470   -35.5410 
  186.3750    75.2100    24.3790    67.9520    75.7320    79.1880     2.2490   -35.7700 
  186.5000    72.7410    24.3660    77.0270    80.9460    84.6260     2.2560   -35.9040 
  186.6250    71.7040    24.3770    85.4110    87.6050    91.5720     2.2500   -36.0460 
  186.7500    72.0680    24.3720    91.8270    95.5660    99.8750     2.2300   -36.2830 
  186.8750    73.6560    24.3730    99.0590   104.7780   109.4840     2.2060   -36.4250 
  187.0000    77.0790    24.3710   110.9890   115.1370   120.2880     2.1900   -36.5300 
  187.1250    80.2710    24.3600   127.3620   126.7470   132.3970     2.1830   -36.6800 
  187.2500    79.1550    24.3490   142.4970   139.3550   145.5470     2.1770   -36.7030 
  187.3750    73.4970    24.2920   155.3500   152.6500   159.4140     2.1710   -36.7310 
  187.5000    67.1730    24.2030   172.8160   166.0860   173.4270     2.1750   -36.8020 
  187.6250    64.1850    24.0990   192.7760   178.7650   186.6520     2.1950   -36.7030 
  187.7500    64.4390    23.9810   206.1970   190.1910   198.5700     2.2170   -36.5960 
  187.8750    66.8150    23.8630   212.4020   200.2790   209.0910     2.2240   -36.5320 
  188.0000    69.7420    23.7770   219.7140   209.0330   218.2210     2.2130   -36.3440 
  188.1250    71.5150    23.7710   231.2300   215.8180   225.2980     2.1950   -36.1850 
  188.2500    71.7900    23.8340   241.2110   220.1790   229.8470     2.1800   -36.0770 
  188.3750    70.7440    23.9480   244.7370   221.0490   230.7540     2.1720   -35.8700 
  188.5000    68.6090    24.0790   246.7560   217.0720   226.6070     2.1720   -35.7240 
  188.6250    65.2090    24.1860   256.9920   206.0360   215.0950     2.1830   -35.6820 
  188.7500    61.4910    24.2720   265.1070   189.3820   197.7260     2.1950   -35.5270 
  188.8750    60.0020    24.3180   254.2130   169.0310   176.4990     2.1940   -35.4020 
  189.0000    63.1600    24.3330   222.3330   147.7560   154.3100     2.1800   -35.3650 
  189.1250    70.0930    24.3320   179.6740   129.0330   134.7820     2.1660   -35.1840 
  189.2500    76.2330    24.3100   137.4350   114.6320   119.7610     2.1730   -35.0600 
  189.3750    79.7360    24.2590   103.9620   105.3410   110.0710     2.2030   -34.9890 
  189.5000    81.2480    24.1120    87.4350   101.2090   105.7610     2.2400   -34.7910 
  189.6250    81.4640    23.9380    87.7770   102.6220   107.2350     2.2560   -34.6240 
  189.7500    80.6790    23.8910    96.0730   108.4070   113.2680     2.2470   -34.5190 
  189.8750    78.6840    23.9790   108.0080   118.5890   123.8880     2.2280   -34.2960 
  190.0000    75.6840    24.1360   122.5930   133.7290   139.6800     2.2120   -34.0900 
  190.1250    73.1870    24.2950   134.9100   155.6830   162.5770     2.2040   -33.9620 
  190.2500    72.4970    24.3670   145.9080   183.6230   191.7190     2.1990   -33.7070 
  190.3750    72.6620    24.3920   169.8360   216.3900   225.8950     2.1950   -33.4960 
  190.5000    70.8570    24.3810   226.3050   251.1520   262.1520     2.1920   -33.3360 
  190.6250    66.3200    24.3870   303.4770   280.9420   293.2220     2.1870   -33.0050 
  190.7500    63.8980    24.3890   365.0110   298.2510   311.2760     2.1840   -32.7050 
  190.8750    65.2490    24.3930   398.9200   296.8930   309.8600     2.1780   -32.4790 
  191.0000    66.1500    24.3780   405.3430   274.4260   286.4260     2.1690   -32.1200 
  191.1250    62.0990    24.3460   371.4110   232.4800   242.6770     2.1590   -31.7830 
  191.2500    57.9220    24.3300   303.6130   184.4900   192.6230     2.1560   -31.4760 
  191.3750    58.7500    24.3150   229.7640   139.7970   146.0090     2.1620   -31.0520 
  191.5000    64.7460    24.3090   169.4290   103.3840   108.0300     2.1730   -30.6820 
  191.6250    71.3440    24.3240   126.4420    77.8020    81.3470     2.1850   -30.3900 
  191.7500    75.1400    24.3240    94.7970    60.3880    63.1850     2.2030   -30.0100 
  191.8750    76.5780    24.3260    69.2650    49.6070    51.9400     2.2250   -29.6870 
  192.0000    78.3300    24.3070    50.6980    43.9060    45.9940     2.2470   -29.4890 
  192.1250    80.9130    24.2750    44.8860    42.4190    44.4430     2.2670   -29.1930 
  192.2500    80.9990    24.2080    44.7560    43.1890    45.2460     2.2850   -28.9760 
  192.3750    77.8790    24.1270    43.5480    44.9940    47.1290     2.2980   -28.8500 
  192.5000    75.5060    24.0790    41.9550    46.5050    48.7040     2.2970   -28.6080 
  192.6250    78.7670    24.0160    46.2830    46.1940    48.3800     2.2780   -28.4530 
  192.7500    84.8220    23.9180    54.7020    43.8620    45.9480     2.2570   -28.3700 
  192.8750    88.7660    23.8460    61.3080    40.0810    42.0040     2.2440   -28.1790 
  193.0000    88.6620    23.8210    60.0790    35.9810    37.7280     2.2440   -27.9990 
  193.1250    86.4160    23.8590    49.0330    33.0820    34.7050     2.2610   -27.8890 
  193.2500    83.8550    23.9720    36.0660    32.1530    33.7360     2.2890   -27.6890 
  193.3750    79.8640    24.1520    30.4750    33.6250    35.2710     2.3140   -27.5150 
  193.5000    73.8020    24.3230    40.8120    37.6360    39.4540     2.3200   -27.4020 
  193.6250    68.4710    24.4080    66.4510    44.3420    46.4490     2.2960   -27.1560 
  193.7500    65.6400    24.4720    91.5080    52.5850    55.0470     2.2550   -26.9210 
  193.8750    64.6290    24.5410   105.6220    61.2020    64.0330     2.2160   -26.7260 
