~V
VERS. 2.00: Ver 2.00
~W
STRT.M 59.0000:
STOP.M 243.0000:
STEP.M 0.1250:
NULL. -999.2500:
UWI. DF5058:
~C
DEPT.M :
GR.API :
CALI.CM :
RXO.OHMM :
RI. :
RML.OHMM :
DEN.GM/CC :
SP.MV :
~A
# ...
  182.7500    90.8920    24.4940     6.6680     7.0020     9.0670     2.3640   -41.2510 
  182.8750    87.4340    24.7640     6.7470     7.0950     9.1440     2.3680   -41.7420 
  183.0000    85.9990    24.8600     6.4010     7.0470     9.0450     2.3610   -42.2180 
  183.1250    86.9840    24.8580     6.1300     6.9050     8.8840     2.3430   -42.6020 
  183.2500    88.5480    24.8430     5.8630     6.7710     8.7980     2.3210   -42.9180 
  183.3750    90.1740    24.8260     5.7200     6.7040     8.8330     2.3030   -43.1090 
  183.5000    91.4220    24.8130     5.7400     6.7260     8.9780     2.2970   -43.1610 
  183.6250    91.7450    24.8060     6.1040     6.8370     9.1950     2.3060   -43.1790 
  183.7500    88.9520    24.7990     6.3980     7.0030     9.4450     2.3200   -43.0420 
  183.8750    82.7480    24.7820     6.3950     7.2080     9.7300     2.3320   -42.9380 
  184.0000    76.1400    24.7460     6.0260     7.4430    10.0630     2.3340   -42.6160 
  184.1250    73.7200    24.6680     5.8860     7.7120    10.4510     2.3310   -42.2790 
  184.2500    75.6520    24.5870     6.2820     7.9950    10.8440     2.3260   -41.8230 
  184.3750    78.3730    24.5590     6.7250     8.2560    11.1610     2.3260   -41.3580 
  184.5000    79.9600    24.5960     6.9000     8.4360    11.3150     2.3310   -40.7390 
  184.6250    81.0260    24.6060     7.0150     8.4580    11.2210     2.3380   -40.0310 
  184.7500    82.3060    24.5320     6.9990     8.3370    10.9520     2.3460   -39.2640 
  184.8750    84.9380    24.4360     6.5820     8.1180    10.6030     2.3520   -38.2710 
  185.0000    88.7340    24.4030     6.1270     7.8730    10.2760     2.3540   -37.2690 
  185.1250    92.8880    24.4380     6.1360     7.6550    10.0210     2.3570   -36.0690 
  185.2500    96.5320    24.4780     6.2280     7.4490     9.7690     2.3640   -34.8280 
  185.3750    98.3480    24.4980     6.3460     7.2090     9.4310     2.3740   -33.3790 
  185.5000    97.3670    24.4240     6.5440     6.8890     8.9400     2.3830   -31.8730 
  185.6250    91.5030    24.1780     6.3600     6.4720     8.3010     2.3790   -30.2740 
  185.7500    82.2070    23.9120     5.7530     6.0380     7.6650     2.3630   -28.5210 
  185.8750    73.1800    23.8100     5.0790     5.6740     7.1740     2.3430   -26.9130 
  186.0000    66.8540    24.0460     4.6560     5.4490     6.9060     2.3300   -25.2560 
  186.1250    63.3890    24.7560     4.4540     5.4050     6.8800     2.3340   -23.6830 
  186.2500    62.0710    25.5640     4.3820     5.4790     6.9730     2.3470   -22.2070 
  186.3750    63.1940    25.8770     4.5490     5.6030     7.0800     2.3640   -20.9230 
  186.5000    64.3560    25.3870     4.9260     5.7060     7.1210     2.3820   -19.9650 
  186.6250    60.6030    24.4470     4.9040     5.7290     7.0510     2.3950   -19.1270 
  186.7500    54.4540    23.6850     4.6660     5.6940     6.9290     2.4010   -18.6030 
  186.8750    50.7070    23.2440     4.5710     5.6420     6.8120     2.3990   -18.1290 
  187.0000    50.0300    23.0190     4.8440     5.6080     6.7410     2.3890   -17.8710 
  187.1250    51.0060    22.8250     5.1980     5.6230     6.7430     2.3760   -17.7270 
  187.2500    52.1700    22.6960     5.5300     5.6810     6.7940     2.3670   -17.6000 
  187.3750    53.3190    22.8840     5.7810     5.7690     6.8740     2.3640   -17.5500 
  187.5000    54.8500    23.3930     5.8360     5.8680     6.9670     2.3640   -17.3450 
  187.6250    57.0620    23.7560     5.6830     5.9690     7.0800     2.3660   -17.2690 
  187.7500    61.5180    23.6220     5.5460     6.0670     7.2090     2.3680   -17.1150 
  187.8750    66.6390    23.1920     5.3840     6.1570     7.3400     2.3710   -17.0560 
  188.0000    70.0030    22.8660     5.2870     6.2270     7.4480     2.3740   -16.9670 
  188.1250    72.3270    22.8850     5.5090     6.2550     7.4850     2.3780   -16.9090 
  188.2500    75.9340    23.1300     5.5890     6.2290     7.4310     2.3810   -16.9060 
  188.3750    81.2800    23.4620     5.2420     6.1370     7.2780     2.3840   -16.8730 
  188.5000    84.7610    23.7820     4.8190     5.9840     7.0390     2.3870   -16.9780 
  188.6250    83.4110    24.0770     4.8010     5.7870     6.7510     2.3890   -16.9790 
  188.7500    80.7290    24.3730     4.9370     5.5910     6.4910     2.3880   -17.1090 
  188.8750    80.2760    24.6290     4.8210     5.4480     6.3410     2.3850   -17.1470 
  189.0000    84.2850    24.7330     4.5170     5.4200     6.3840     2.3830   -17.2630 
  189.1250    89.2050    24.6290     4.2040     5.5940     6.7120     2.3830   -17.4120 
  189.2500    88.7730    24.4980     4.4470     5.9560     7.2640     2.3830   -17.5440 
  189.3750    83.3680    24.4210     5.2680     6.4700     7.9490     2.3820   -17.7330 
  189.5000    78.8670    24.3870     6.3920     7.0530     8.6410     2.3800   -17.8320 
  189.6250    79.3770    24.3730     6.5190     7.5760     9.1840     2.3760   -18.0590 
  189.7500    80.0590    24.3460     6.3650     7.9530     9.5200     2.3710   -18.1990 
  189.8750    79.3210    24.2950     5.8770     8.1480     9.6420     2.3640   -18.4710 
  190.0000    78.3060    24.2480     5.5310     8.1710     9.5760     2.3540   -18.6430 
  190.1250    79.6650    24.2380     5.9470     8.0390     9.3510     2.3430   -18.8150 
  190.2500    81.7350    24.2160     6.4160     7.8370     9.0770     2.3370   -19.0200 
  190.3750    81.4330    24.1390     5.8970     7.6530     8.8780     2.3350   -19.2700 
  190.5000    78.1890    24.0200     5.1090     7.5900     8.9130     2.3390   -19.5170 
  190.6250    75.8870    23.8890     5.3040     7.8290     9.4720     2.3440   -19.7610 
  190.7500    77.0160    23.7540     6.3580     8.4890    10.7030     2.3480   -20.0460 
  190.8750    79.3770    23.6340     7.9300     9.7240    12.7320     2.3470   -20.2580 
  191.0000    81.3390    23.5520     9.8050    11.6430    15.5300     2.3390   -20.5590 
  191.1250    81.4610    23.5140    12.2720    14.2780    18.8110     2.3230   -20.8070 
  191.2500    79.3010    23.4970    16.5630    17.1090    21.8340     2.3040   -21.1330 
  191.3750    75.3910    23.4890    21.1640    19.4970    23.9150     2.2870   -21.3800 
  191.5000    72.4710    23.4860    22.7550    20.8750    24.6770     2.2750   -21.7850 
  191.6250    71.2630    23.4800    18.8840    21.0300    24.2400     2.2720   -22.0880 
  191.7500    71.9610    23.4870    16.0380    20.6520    23.5390     2.2720   -22.3920 
  191.8750    74.3110    23.5330    15.7830    20.2590    23.1630     2.2740   -22.7710 
  192.0000    76.4340    23.6040    16.2110    20.1960    23.4120     2.2740   -23.0290 
  192.1250    75.8300    23.6170    16.9170    20.6730    24.3760     2.2700   -23.3720 
  192.2500    74.0890    23.5450    18.3880    21.5400    25.7410     2.2630   -23.6190 
  192.3750    72.8510    23.4460    21.1950    22.6740    27.3380     2.2590   -23.9490 
  192.5000    72.5890    23.3980    24.4350    24.0370    29.1650     2.2580   -24.1270 
  192.6250    73.4100    23.4250    29.4820    25.8180    31.4970     2.2550   -24.3390 
  192.7500    74.0100    23.4580    31.9070    28.1930    34.5610     2.2460   -24.6060 
  192.8750    72.9150    23.4430    33.8210    31.4090    38.6320     2.2280   -24.7350 
  193.0000    70.9860    23.3710    38.9450    35.7190    43.9740     2.2040   -25.0400 
  193.1250    69.8150    23.2800    45.7920    41.6700    51.1680     2.1810   -25.2940 
  193.2500    68.4000    23.2150    49.8770    49.3440    60.2640     2.1650   -25.6250 
  193.3750    65.7900    23.1730    59.2720    58.9080    71.4120     2.1560   -25.8700 
  193.5000    63.9410    23.1410    98.3830    70.1810    84.4010     2.1510   -26.2440 
  193.6250    63.7230    23.1300   266.2380    82.3690    98.2980     2.1510   -26.6080 
  193.7500    61.9880    23.1440   725.6320    93.6630   110.9500     2.1550   -26.9360 
  193.8750    58.8900    23.1620   884.9340   102.3530   120.2680     2.1630   -27.3580 
