~V
VERS. 2.00: Ver 2.00
~W
STRT.M 67.0000:
STOP.M 277.0000:
STEP.M 0.1250:
NULL. -999.2500:
UWI. DF5013:
~C
DEPT.M :
SP.MV :
GR.API :
RML.OHMM :
RI. :
RXO.OHMM :
CALI.CM :
DEN.GM/CC :
~A
# ...
  269.5000   -11.3390    59.9360     9.4930     9.3860    13.9060    23.6440     2.4270 
  269.6250   -11.3530    59.9360     9.3640     9.3500    12.1000    23.6220     2.4310 
  269.7500   -11.3620    59.9360     9.2470     9.3040    11.0810    23.5980     2.4350 
  269.8750   -11.3100    59.9360     9.1630     9.2740    11.0590    23.5870     2.4350 
  270.0000   -11.2730    59.9360     9.1200     9.2730    12.1270    23.6010     2.4310 
  270.1250   -11.2920    59.9360     9.0960     9.2930    12.8930    23.6470     2.4240 
  270.2500   -11.2920    59.9360     9.0740     9.3250    13.0680    23.7230     2.4170 
  270.3750   -11.2370    59.9360     9.0460     9.3580    12.7900    23.7890     2.4120 
  270.5000   -11.1010    59.9360     9.0120     9.3850    12.1360    23.8580     2.4100 
  270.6250   -10.9710    59.9360     8.9820     9.4040    11.7140    23.9200     2.4090 
  270.7500   -10.8920    59.9360     8.9610     9.4150    11.2460    23.9580     2.4060 
  270.8750   -10.8340    59.9360     8.9520     9.4180    10.6480    23.9690     2.4010 
  271.0000   -10.7580    59.9360     8.9550     9.4170     9.6940    23.9690     2.3920 
  271.1250   -10.6600    59.9360     8.9630     9.4150     8.4390    23.9690     2.3820 
  271.2500   -10.5670    59.9360     8.9720     9.4130     7.4640    23.9690     2.3730 
  271.3750   -10.4980    59.9360     8.9790     9.4130     7.0320    23.9750     2.3680 
  271.5000   -10.5020    59.9360     8.9820     9.4140     6.9770    23.9930     2.3690 
  271.6250   -10.5180    59.9360     8.9820     9.4160     6.9410    24.0160     2.3800 
  271.7500   -10.4860    59.9360     8.9800     9.4180     6.9810    24.0260     2.3990 
  271.8750   -10.4260    59.9360     8.9760     9.4200     7.1990    24.0280     2.4220 
  272.0000   -10.3620    59.9360     8.9720     9.4210     7.8850    24.0410     2.4430 
  272.1250   -10.3040    59.9360     8.9680     9.4210     9.0700    24.0800     2.4590 
  272.2500   -10.2970    59.9360     8.9640     9.4210    10.5110    24.1430     2.4680 
  272.3750   -10.3440    59.9360     8.9610     9.4210    11.8260    24.2020     2.4720 
  272.5000   -10.3870    59.9360     8.9570     9.4210    12.9290    24.2240     2.4710 
  272.6250   -10.3770    59.9360     8.9540     9.4220    13.9080    24.2350     2.4630 
  272.7500   -10.3960    59.9360     8.9520     9.4220    14.9130    24.2340     2.4480 
  272.8750   -10.4750    59.9360     8.9520     9.4220    15.8520    24.1890     2.4310 
  273.0000   -10.5500    59.9360     8.9520     9.4220    16.3440    24.0740     2.4210 
  273.1250   -10.6280    59.9360     8.9520     9.4220    16.3320    23.9280     2.4210 
  273.2500   -10.6830    59.9360     8.9520     9.4220    15.8230    23.7610     2.4320 
  273.3750   -10.6830    59.9360     8.9520     9.4220    15.7190    23.5990     2.4460 
  273.5000   -10.6640    59.9360     8.9520     9.4220    16.3850    23.4540     2.4590 
  273.6250   -10.6830    59.9360     8.9520     9.4220    18.1270    23.3830     2.4700 
  273.7500   -10.7130    59.9360     8.9520     9.4220    20.4790    23.3370     2.4810 
  273.8750   -10.6950    59.9360     8.9520     9.4220    22.2750    23.2950     2.4930 
  274.0000   -10.7040    59.9360     8.9520     9.4220    23.5870    23.2610     2.5060 
  274.1250   -10.7320    59.9360     8.9520     9.4220    21.8430    23.1940     2.5180 
  274.2500   -10.7940    59.9360     8.9520     9.4220    18.5340    23.1010     2.5200 
  274.3750   -10.9540    59.9360     8.9520     9.4220    16.9890    22.9700     2.5060 
  274.5000   -11.1370    59.9360     8.9520     9.4220    16.8760    22.7650     2.4660 
  274.6250   -11.3180    59.9360     8.9520     9.4220    16.8600    21.9880     2.4000 
  274.7500   -11.4630    59.9360     8.9520     9.4220    17.4150    20.0700     2.3180 
  274.8750   -11.6320    59.9360     8.9520     9.4220    18.4900    17.2970     2.2410 
  275.0000   -11.7970    59.9360     8.9520     9.4220    18.9930    16.0130     2.1820 
  275.1250   -11.9280    59.9360     8.9520     9.4220    19.1060    15.6560     2.1460 
  275.2500   -12.0360    59.9360     8.9520     9.4220    19.0950    15.6510     2.1310 
  275.3750   -12.0410    59.9360     8.9520     9.4220    19.0960    15.6490     2.1270 
  275.5000   -12.0450    59.9360     8.9520     9.4220    19.0970    15.6460     2.1260 
  275.6250  -999.2500    59.9360     8.9520     9.4220    19.0950    15.6440     2.1250 
  275.7500  -999.2500    59.9360     8.9520     9.4220    19.0920    15.6440     2.1230 
  275.8750  -999.2500    59.9360     8.9520     9.4220    19.0880    15.6440     2.1230 
  276.0000  -999.2500    59.9360     8.9520     9.4220    19.0860    15.6440     2.1230 
  276.1250  -999.2500    59.9360     8.9520     9.4220    19.0860    15.6440     2.1230 
  276.2500  -999.2500    59.9360     8.9520     9.4220    19.0850    15.6440     2.1240 
  276.3750  -999.2500    59.9360     8.9520     9.4220    19.0840    15.6440     2.1250 
  276.5000  -999.2500    59.9360     8.9520     9.4220    19.0820    15.6440     2.1250 
  276.6250  -999.2500    59.9360     8.9520     9.4220    19.0810    15.6440     2.1270 
  276.7500  -999.2500    59.9360     8.9520     9.4220    19.0790    15.6440     2.1280 
  276.8750  -999.2500    59.9360     8.9520     9.4220    19.0780    15.6440     2.1300 
  277.0000  -999.2500    59.9360     8.9520     9.4220    19.0760    15.6440     2.1310 
