~V
VERS. 2.00: Ver 2.00
~W
STRT.M 60.0000:
STOP.M 257.0000:
STEP.M 0.1250:
NULL. -999.2500:
UWI. DF5064:
~C
DEPT.M :
SP.MV :
GR.API :
RML.OHMM :
RI. :
RXO.OHMM :
CALI.CM :
DEN.GM/CC :
~A
# ...
  183.7500   -24.5590    61.8490   138.2370   134.7300   113.6720    27.4170     2.2470 
  183.8750   -24.3380    61.9710   133.7850   130.0190   111.2850    27.4080     2.2520 
  184.0000   -24.0710    63.1430   127.6560   124.6490   121.0360    27.4080     2.2560 
  184.1250   -23.7470    61.9050   122.9060   121.1920   121.0080    27.4040     2.2520 
  184.2500   -23.3930    60.3820   120.0650   119.2720   105.5710    27.3980     2.2430 
  184.3750   -23.0040    62.4510   117.1460   116.4290    93.3190    27.3900     2.2350 
  184.5000   -22.5610    66.3340   110.8520   109.3990    98.9370    27.3690     2.2380 
  184.6250   -22.0700    65.4880    97.4630    95.2380   123.5160    27.3290     2.2640 
  184.7500   -21.6160    62.5330    79.1820    76.9750   135.8100    27.2980     2.3050 
  184.8750   -21.1880    63.1720    60.4990    59.0270   109.8070    27.2750     2.3460 
  185.0000   -20.7900    67.5300    45.7850    45.2640    55.9820    27.2410     2.3730 
  185.1250   -20.4780    71.7940    37.7230    38.0990    29.2090    27.1800     2.3750 
  185.2500   -20.2450    73.9620    34.7400    35.9270    22.5190    27.1140     2.3590 
  185.3750   -20.0470    74.1680    35.7730    37.6650    29.3010    27.0870     2.3360 
  185.5000   -19.8540    71.8300    39.8860    42.4020    43.6300    27.0820     2.3110 
  185.6250   -19.6580    66.3270    46.6380    49.7380    56.6960    27.0800     2.2880 
  185.7500   -19.4390    60.1180    54.9980    58.5310    61.2240    27.0790     2.2700 
  185.8750   -19.1820    56.6580    64.2890    67.7460    53.1450    27.0570     2.2670 
  186.0000   -18.8320    57.0090    73.4330    75.7620    46.9160    26.9510     2.2970 
  186.1250   -18.2940    57.7030    80.0190    79.4900    55.8610    26.6970     2.3730 
  186.2500   -17.6110    54.6480    81.7740    77.3300    81.7580    26.4310     2.4740 
  186.3750   -16.8350    49.1230    76.8270    68.8320   149.9460    26.2780     2.5710 
  186.5000   -16.0050    46.1780    65.3610    55.6910   211.0110    26.2310     2.6370 
  186.6250   -15.1640    48.1950    50.1030    41.5400   127.6270    26.2320     2.6540 
  186.7500   -14.3390    52.2970    36.0310    29.6860    64.2810    26.2550     2.6400 
  186.8750   -13.5490    54.9570    25.0130    21.0370    36.9110    26.3240     2.6040 
  187.0000   -12.8600    57.0860    17.2330    15.2780    22.4200    26.5370     2.5500 
  187.1250   -12.3810    60.5850    13.1420    11.9410    13.4470    27.0440     2.4870 
  187.2500   -12.0880    62.1240    10.6810     9.9740     7.6220    27.7080     2.4370 
  187.3750   -11.9790    61.0920     9.3730     8.9640     5.2440    28.1110     2.4110 
  187.5000   -12.0030    59.2870     8.8790     8.6370     4.8960    28.1880     2.4030 
  187.6250   -12.1350    56.6670     9.0130     8.8500     6.0770    27.8020     2.3870 
  187.7500   -12.3240    53.3870     9.4640     9.3400     7.7290    27.5310     2.3490 
  187.8750   -12.5430    51.2710    10.0750     9.9680     7.9300    27.7540     2.3040 
  188.0000   -12.7580    50.6680    10.7290    10.6250     7.2520    28.1880     2.2830 
  188.1250   -12.9440    49.7630    11.3390    11.2100     7.7540    28.0480     2.3210 
  188.2500   -13.0870    50.4870    11.8610    11.6470    10.0580    27.7180     2.4020 
  188.3750   -13.1670    53.7910    12.2400    11.8490    13.5580    27.5540     2.4950 
  188.5000   -13.2010    56.1800    12.4000    11.7360    13.1900    27.5630     2.5610 
  188.6250   -13.2050    55.3110    12.2100    11.2160    14.5160    27.6130     2.5450 
  188.7500   -13.1980    53.4980    11.6990    10.4180    17.5510    27.6500     2.4310 
  188.8750   -13.1950    51.2350    10.9460     9.4910    20.6250    27.7040     2.2230 
  189.0000   -13.2070    49.5850    10.1180     8.6150    14.3290    27.8940     1.9650 
  189.1250   -13.2110    49.6260     9.4660     8.0040     8.8210    28.2340     1.7580 
  189.2500   -13.1950    49.7460     9.1420     7.7230     6.5990    28.4440     1.6810 
  189.3750   -13.1540    48.6260     9.2090     7.7940     6.2710    28.3910     1.7570 
  189.5000   -13.0820    47.0100     9.6430     8.1810     7.0560    28.3210     1.9510 
  189.6250   -12.9900    45.9350    10.3730     8.8120     8.6770    28.1880     2.1830 
  189.7500   -12.9000    44.5620    11.1800     9.4990    10.8160    27.8520     2.3680 
  189.8750   -12.8240    43.3780    11.8920    10.0930    11.7730    27.6160     2.4780 
  190.0000   -12.7530    43.5590    12.3660    10.4770    11.9140    27.5170     2.5310 
  190.1250   -12.6820    46.1100    12.4610    10.5530    11.8410    27.4970     2.5670 
  190.2500   -12.6050    48.5080    12.2550    10.4010    10.7670    27.4980     2.6080 
  190.3750   -12.5110    49.2630    11.8460    10.1010     9.6120    27.5140     2.6400 
  190.5000   -12.4230    49.7800    11.3580     9.7240     9.1360    27.5370     2.6370 
  190.6250   -12.3350    51.1180    10.8730     9.2890     9.9380    27.5260     2.5780 
  190.7500   -12.2190    51.3880    10.3740     8.7770    11.4380    27.5120     2.4840 
  190.8750   -12.0350    50.2640     9.7890     8.1550    11.8200    27.5370     2.3870 
  191.0000   -11.7880    49.6760     9.0580     7.4250     9.0120    27.6290     2.3200 
  191.1250   -11.5070    50.0410     8.1940     6.6560     6.6090    27.7760     2.3010 
  191.2500   -11.2090    50.6140     7.3530     5.9700     4.8340    28.0060     2.3010 
  191.3750   -10.9230    53.7160     6.6880     5.4550     4.2360    28.1920     2.2790 
  191.5000   -10.6520    58.3370     6.3020     5.1490     4.3310    28.0400     2.2030 
  191.6250   -10.3840    58.6420     6.2470     5.0600     5.0410    27.8450     2.0740 
  191.7500   -10.1440    54.7670     6.3850     5.0960     5.2180    28.1480     1.9550 
  191.8750    -9.9810    51.2970     6.6050     5.2080     5.1410    28.9530     1.9060 
  192.0000    -9.8800    51.2140     6.8290     5.3730     5.0840    29.6460     1.9520 
  192.1250    -9.8250    52.0030     7.0660     5.6310     4.9660    29.6230     2.0780 
  192.2500    -9.8320    53.2550     7.4130     6.0200     4.8690    28.8900     2.2140 
  192.3750    -9.9200    58.5760     7.9770     6.5640     5.0350    27.9110     2.3230 
  192.5000   -10.0560    66.9090     8.7900     7.2330     6.0650    27.5990     2.3940 
  192.6250   -10.2410    75.0900     9.7560     7.9180     8.1940    27.7840     2.4290 
  192.7500   -10.4510    81.0590    10.6120     8.4580    10.2490    28.0610     2.4470 
  192.8750   -10.6570    87.3340    11.1500     8.7420    10.9910    28.1590     2.4530 
  193.0000   -10.8680    94.3520    11.2690     8.7370    11.1220    28.1680     2.4500 
  193.1250   -11.1320    96.1640    10.9850     8.4820    11.3640    28.1490     2.4460 
  193.2500   -11.4300    93.4770    10.5440     8.1420    11.0080    28.1380     2.4430 
  193.3750   -11.7370    91.6510    10.1110     7.8200    10.1150    28.1300     2.4420 
  193.5000   -12.0940    94.7180     9.7980     7.5870     9.3650    28.1170     2.4410 
  193.6250   -12.5600   101.4660     9.7160     7.5240     9.5940    28.1080     2.4410 
  193.7500   -13.1360   106.9200     9.8860     7.6470     9.6120    28.0850     2.4430 
  193.8750   -13.8180   107.9530    10.3300     7.9670     9.4510    27.9840     2.4470 
  194.0000   -14.5920   103.3200    11.0150     8.4520     9.9070    27.7220     2.4480 
  194.1250   -15.3540    97.9290    11.8150     9.0050    12.2950    27.2990     2.4460 
  194.2500   -16.0360    93.8710    12.4780     9.4530    15.4250    26.9870     2.4460 
  194.3750   -16.5910    89.3800    12.7820     9.6480    17.2740    26.8450     2.4540 
  194.5000   -17.0100    85.8770    12.5890     9.5090    16.7800    26.8000     2.4630 
  194.6250   -17.2440    88.6350    11.8940     9.0480    15.8910    26.7990     2.4450 
  194.7500   -17.3280    93.5830    11.0650     8.5060    14.4300    26.8750     2.3870 
  194.8750   -17.3090    95.0920    10.4250     8.0880    12.1980    27.1100     2.3000 
