~V
VERS. 2.00: Ver 2.00
~W
STRT.M 59.0000:
STOP.M 275.0000:
STEP.M 0.1250:
NULL. -999.2500:
UWI. DF5021:
~C
DEPT.M :
SP.MV :
GR.API :
CALI.CM :
RXO.OHMM :
RI. :
RML.OHMM :
DEN.GM/CC :
~A
# ...
   81.5000   -15.0100   106.4290    24.3780     7.0320     6.1310     6.2090     2.2430 
   81.6250   -14.5750   113.0290    24.4960     5.9550     5.6820     5.7410     2.2630 
   81.7500   -14.3220   118.6240    24.5740     5.2840     5.3460     5.4360     2.2930 
   81.8750   -14.0590   121.4100    24.5740     5.0780     5.1970     5.3550     2.3220 
   82.0000   -13.8240   120.9220    24.5100     5.1040     5.2150     5.4410     2.3320 
   82.1250   -13.8540   117.0300    24.4380     5.3150     5.3650     5.6450     2.3170 
   82.2500   -13.8980   110.7810    24.4130     5.6670     5.6010     5.9070     2.2820 
   82.3750   -13.9210   105.0700    24.4340     6.0580     5.8780     6.1780     2.2450 
   82.5000   -14.0980   100.7680    24.4310     6.3450     6.1570     6.4290     2.2180 
   82.6250   -14.2570    97.0290    24.4110     6.5470     6.4060     6.6350     2.2080 
   82.7500   -14.2800    94.8190    24.4180     6.6620     6.6000     6.7840     2.2210 
   82.8750   -14.3560    97.6400    24.4860     6.6100     6.7080     6.8610     2.2720 
   83.0000   -14.3850   103.8000    24.5820     6.5770     6.7290     6.8640     2.3470 
   83.1250   -14.2010   109.1150    24.6170     6.9090     6.6490     6.7750     2.4160 
   83.2500   -14.1080   111.7100    24.5740     7.4530     6.4680     6.5970     2.4480 
   83.3750   -14.0520   113.1880    24.4780     7.3450     6.2000     6.3680     2.4270 
   83.5000   -13.8800   114.2350    24.4580     6.7240     5.9400     6.1980     2.3820 
   83.6250   -13.8610   113.6750    24.5010     6.1040     5.7890     6.2010     2.3360 
   83.7500   -14.0100   111.4170    24.5210     5.7920     5.8320     6.4580     2.3060 
   83.8750   -14.1170   108.5030    24.5010     5.9160     6.1570     7.0340     2.3030 
   84.0000   -14.3080   104.1490    24.4520     6.8460     6.7240     7.8250     2.3300 
   84.1250   -14.7620    96.9120    24.4070     9.6990     7.4690     8.7040     2.3820 
   84.2500   -15.1710    88.0160    24.3760    15.0240     8.2550     9.4970     2.4390 
   84.3750   -15.5950    80.8640    24.3000    19.5850     8.8650     9.9790     2.4480 
   84.5000   -16.1950    76.9240    24.1360    19.1310     9.1880    10.1110     2.4000 
   84.6250   -16.7300    76.7430    23.9250    14.5820     9.2060     9.9330     2.3190 
   84.7500   -17.1280    80.3490    23.7550    10.2020     8.9900     9.5590     2.2460 
   84.8750   -17.6000    85.1050    23.6850     8.4400     8.6680     9.1550     2.2060 
   85.0000   -18.0680    86.4670    23.7150     8.1330     8.3720     8.8450     2.1920 
   85.1250   -18.3120    83.9600    23.7440     8.2580     8.1590     8.6660     2.1930 
   85.2500   -18.5910    80.3240    23.7310     8.3420     8.0430     8.5980     2.1970 
   85.3750   -18.8700    77.3250    23.6530     8.2170     7.9960     8.5880     2.1960 
   85.5000   -18.9520    73.9120    23.5650     8.0490     7.9560     8.5660     2.1900 
   85.6250   -19.0360    70.8040    23.5750     8.0090     7.8940     8.5110     2.1840 
   85.7500   -19.1770    70.6160    23.6930     8.0620     7.8080     8.4290     2.1860 
   85.8750   -19.1590    74.6400    23.7790     8.1060     7.7060     8.3360     2.1920 
   86.0000   -19.0850    79.2710    23.8110     8.1370     7.6000     8.2450     2.1870 
   86.1250   -19.1220    82.1200    23.7950     8.1410     7.4980     8.1600     2.1700 
   86.2500   -19.0220    83.0710    23.7840     8.0760     7.4030     8.0880     2.1520 
   86.3750   -18.8280    83.2300    23.7960     7.8720     7.3180     8.0290     2.1540 
   86.5000   -18.7560    83.7980    23.7960     7.6600     7.2410     7.9810     2.1710 
   86.6250   -18.6190    85.3920    23.7440     7.5530     7.1700     7.9410     2.1910 
   86.7500   -18.3840    88.0360    23.6720     7.5970     7.1020     7.9040     2.2030 
   86.8750   -18.2910    90.8050    23.6980     7.7460     7.0370     7.8600     2.2060 
   87.0000   -18.2230    93.1030    23.6710     7.9090     6.9720     7.8120     2.2020 
   87.1250   -18.0170    95.0080    23.5300     8.0370     6.9090     7.7660     2.1940 
   87.2500   -17.9450    96.5500    23.3540     8.0830     6.8600     7.7370     2.1820 
   87.3750   -17.9790    96.8410    23.3400     8.0610     6.8490     7.7490     2.1640 
   87.5000   -17.8930    95.6230    23.4460     8.0290     6.8870     7.8100     2.1470 
   87.6250   -17.8740    92.7850    23.5470     7.9820     6.9740     7.9230     2.1430 
   87.7500   -18.0230    88.0330    23.6370     7.9290     7.1040     8.0760     2.1580 
   87.8750   -18.0880    81.8690    23.7380     8.1300     7.2580     8.2490     2.1770 
   88.0000   -18.1310    77.0800    23.8170     9.1420     7.4090     8.4060     2.1810 
   88.1250   -18.3680    75.5410    23.8430    11.3840     7.5310     8.5220     2.1720 
   88.2500   -18.5380    76.1930    23.8820    14.1610     7.6050     8.5770     2.1640 
   88.3750   -18.6190    76.2310    23.9030    14.3100     7.6100     8.5600     2.1630 
   88.5000   -18.8260    74.9420    23.9150    12.0330     7.5660     8.4980     2.1650 
   88.6250   -18.9980    73.4010    23.9520     9.5020     7.4910     8.4130     2.1700 
   88.7500   -19.0260    72.5070    23.9790     8.3290     7.4040     8.3270     2.1800 
   88.8750   -19.1640    73.4150    23.9570     8.2390     7.3240     8.2600     2.1900 
   89.0000   -19.3170    76.0950    23.9100     8.2400     7.2630     8.2190     2.1900 
   89.1250   -19.2920    79.3910    23.8720     8.1740     7.2260     8.2120     2.1820 
   89.2500   -19.3620    81.7040    23.8990     8.1470     7.2140     8.2410     2.1760 
   89.3750   -19.4690    81.9900    24.0190     8.2790     7.2280     8.2990     2.1850 
   89.5000   -19.4290    80.9610    24.1070     8.4710     7.2560     8.3660     2.1930 
   89.6250   -19.4410    79.1710    24.1380     8.6260     7.2900     8.4290     2.1880 
   89.7500   -19.5380    76.8950    24.1310     8.7090     7.3210     8.4760     2.1710 
   89.8750   -19.4660    73.5120    24.1050     8.6820     7.3430     8.4920     2.1530 
   90.0000   -19.3590    68.8370    24.1080     8.5870     7.3510     8.4730     2.1330 
   90.1250   -19.3680    64.8810    24.1260     8.4820     7.3420     8.4210     2.1070 
   90.2500   -19.2080    64.6460    24.0920     8.3730     7.3160     8.3500     2.0870 
   90.3750   -19.0060    68.8700    23.9260     8.1760     7.2750     8.2780     2.0920 
   90.5000   -18.9310    72.7280    23.7310     7.8980     7.2300     8.2150     2.1140 
   90.6250   -18.7240    73.4340    23.6380     7.6030     7.1900     8.1700     2.1350 
   90.7500   -18.4190    72.2470    23.6450     7.3770     7.1580     8.1450     2.1450 
   90.8750   -18.2400    72.5850    23.7120     7.3280     7.1400     8.1380     2.1450 
   91.0000   -18.0400    75.1270    23.8230     7.4920     7.1370     8.1390     2.1430 
   91.1250   -17.6650    78.2220    23.9950     7.8200     7.1440     8.1350     2.1420 
   91.2500   -17.3810    80.5800    24.1690     8.1410     7.1440     8.1010     2.1460 
   91.3750   -17.0970    82.5100    24.2230     8.2320     7.0930     7.9900     2.1630 
   91.5000   -16.6160    84.4500    24.1940     8.0670     6.9630     7.7830     2.1880 
   91.6250   -16.1720    86.1660    24.1740     7.7930     6.7370     7.4640     2.2100 
   91.7500   -15.7640    88.0600    24.2270     7.5890     6.4170     7.0460     2.2180 
   91.8750   -15.1820    92.0260    24.2930     7.3960     6.0290     6.5700     2.2280 
   92.0000   -14.6100    98.1440    24.3630     7.0220     5.6340     6.1150     2.2560 
   92.1250   -14.2010   105.1450    24.4520     6.3650     5.2830     5.7360     2.2940 
   92.2500   -13.7010   110.8440    24.5670     5.6500     5.0140     5.4680     2.3150 
   92.3750   -13.2540   112.1590    24.5910     5.2090     4.8620     5.3310     2.2990 
   92.5000   -13.0380   110.1500    24.5470     5.0920     4.7940     5.2730     2.2730 
   92.6250   -12.8280   107.8740    24.5200     5.1630     4.7760     5.2500     2.2640 
