~V
VERS. 2.00: Ver 2.00
~W
STRT.M 59.0000:
STOP.M 260.0000:
STEP.M 0.1250:
NULL. -999.2500:
UWI. DF5044:
~C
DEPT.M :
GR.API :
CALI.CM :
RXO.OHMM :
RI. :
RML.OHMM :
DEN.GM/CC :
SP.MV :
~A
# ...
  171.5000    75.0040    24.2830    83.9260    74.4520    84.4080     2.2410   -33.7480 
  171.6250    78.7080    24.3990    86.8420    71.7670    81.2860     2.2350   -33.4580 
  171.7500    78.1830    24.4320    87.0980    69.1740    78.1920     2.2220   -33.2960 
  171.8750    73.0650    24.4130    81.3160    66.9680    75.5060     2.2160   -33.1380 
  172.0000    67.9020    24.3410    71.3710    65.2240    73.3450     2.2250   -32.8610 
  172.1250    66.6020    24.1970    63.7850    63.7210    71.4620     2.2450   -32.6930 
  172.2500    66.6570    23.9510    62.0630    61.9700    69.3490     2.2620   -32.5740 
  172.3750    67.0370    23.7500    66.4260    59.4050    66.4460     2.2690   -32.3640 
  172.5000    69.2190    23.6800    74.9760    55.5410    62.2210     2.2670   -32.2120 
  172.6250    75.2150    23.6080    81.4510    50.1770    56.3170     2.2610   -32.2120 
  172.7500    82.7390    23.5420    78.2710    44.2670    49.6520     2.2550   -32.1340 
  172.8750    88.2630    23.4950    63.0480    38.7210    43.2470     2.2510   -31.9950 
  173.0000    89.8300    23.4890    44.2100    34.3050    38.0730     2.2540   -31.9800 
  173.1250    88.8850    23.5040    32.9740    31.7950    35.1880     2.2640   -31.9330 
  173.2500    88.2590    23.5890    28.6170    31.0930    34.5680     2.2780   -31.8090 
  173.3750    87.4850    23.7700    27.4220    32.1870    36.1750     2.2870   -31.8080 
  173.5000    85.2440    23.9780    29.9310    34.9790    39.7870     2.2880   -31.8070 
  173.6250    82.4420    24.0950    38.0180    39.4170    45.1840     2.2790   -31.6500 
  173.7500    80.8340    24.1810    47.8360    44.7840    51.4670     2.2680   -31.5630 
  173.8750    79.8380    24.2240    55.5910    50.5670    58.0310     2.2590   -31.5810 
  174.0000    77.8750    24.2520    60.4400    56.2970    64.3950     2.2560   -31.4940 
  174.1250    74.8930    24.2780    63.5620    61.5180    70.1600     2.2560   -31.4340 
  174.2500    73.0140    24.2850    66.6950    66.1650    75.3560     2.2550   -31.4620 
  174.3750    73.4480    24.2850    69.2230    70.1980    80.0520     2.2520   -31.3810 
  174.5000    75.9440    24.2830    71.8260    73.2550    84.0160     2.2470   -31.3020 
  174.6250    77.9340    24.2780    77.6190    73.8890    85.6620     2.2330   -31.3760 
  174.7500    76.5040    24.2780    85.3910    71.3880    83.7670     2.2170   -31.4070 
  174.8750    72.4820    24.2630    92.4200    65.8260    77.9870     2.2090   -31.3280 
  175.0000    71.2630    24.2510    96.5060    58.2880    69.2930     2.2160   -31.3370 
  175.1250    78.8760    24.2550    94.0000    50.5820    59.7710     2.2380   -31.3940 
  175.2500    88.5180    24.2540    82.9320    44.4240    51.9020     2.2630   -31.3370 
  175.3750    91.7890    24.2590    63.9190    40.7740    47.1360     2.2900   -31.3110 
  175.5000    87.1460    24.2500    44.5540    40.1260    46.0820     2.3220   -31.3840 
  175.6250    80.5420    24.2400    37.7180    42.9590    49.1250     2.3430   -31.3980 
  175.7500    76.9700    24.2230    45.4380    48.2100    54.7840     2.3380   -31.3750 
  175.8750    75.9230    24.1810    62.9520    54.8000    61.6660     2.3120   -31.4470 
  176.0000    76.4640    24.0990    81.5900    60.9850    67.8080     2.2830   -31.5400 
  176.1250    78.0750    24.0090    91.8990    63.7890    70.1110     2.2640   -31.5430 
  176.2500    79.6260    23.9720    88.2580    61.9490    67.4520     2.2480   -31.6470 
  176.3750    80.4060    23.9450    71.1130    55.7780    60.2480     2.2330   -31.8340 
  176.5000    80.9930    23.9210    47.5980    47.1410    50.4830     2.2280   -31.9110 
  176.6250    84.6610    23.9230    31.7300    38.5950    40.8580     2.2400   -32.0120 
  176.7500    93.1970    23.9990    26.9230    31.7810    33.1420     2.2600   -32.2330 
  176.8750   103.0290    24.1300    26.0950    27.1660    27.9390     2.2810   -32.3960 
  177.0000   107.2230    24.2300    23.6060    24.7570    25.3690     2.2970   -32.5540 
  177.1250   101.9950    24.2220    21.5050    24.7810    25.7510     2.3010   -32.8220 
  177.2500    93.9230    24.1540    23.0890    26.7380    28.3490     2.2990   -33.0350 
  177.3750    87.9760    24.0780    30.1040    30.4410    32.7270     2.3010   -33.2610 
  177.5000    85.3540    24.0730    42.0520    35.5610    38.3230     2.3010   -33.5860 
  177.6250    85.1120    24.0970    53.3810    41.4410    44.3030     2.2880   -33.8510 
  177.7500    84.6480    24.1160    57.7210    46.7830    49.4960     2.2670   -34.1130 
  177.8750    81.8990    24.1230    55.9130    50.5650    53.0490     2.2530   -34.4580 
  178.0000    77.5350    24.1330    52.2210    52.2710    54.5940     2.2500   -34.7450 
  178.1250    75.4430    24.1460    49.9630    51.9650    54.3270     2.2500   -35.0500 
  178.2500    76.8430    24.1580    48.6490    50.9980    53.6590     2.2540   -35.3940 
  178.3750    80.2670    24.1840    47.2920    50.5370    53.8530     2.2600   -35.6410 
  178.5000    84.0380    24.2310    46.2760    51.5840    55.9410     2.2600   -35.9040 
  178.6250    86.5190    24.2850    47.0880    55.5770    61.2680     2.2440   -36.2500 
  178.7500    85.9350    24.3010    49.6710    63.0130    70.1150     2.2200   -36.4890 
  178.8750    81.9260    24.3180    53.9000    74.3940    83.0240     2.2030   -36.7020 
  179.0000    77.0780    24.3390    63.9370    89.6550   100.2300     2.1970   -36.9580 
  179.1250    74.4630    24.3310    92.8460   108.2370   121.8170     2.2010   -37.0970 
  179.2500    73.1490    24.3910   145.2470   127.4920   145.1720     2.2080   -37.2710 
  179.3750    71.2730    24.4290   220.0520   144.8730   167.1630     2.2150   -37.4450 
  179.5000    68.8220    24.4270   304.3440   158.2350   184.4960     2.2150   -37.5030 
  179.6250    66.9320    24.4050   336.9970   166.0470   194.3660     2.2060   -37.5610 
  179.7500    65.6660    24.3790   303.5580   170.3210   199.2560     2.2030   -37.6190 
  179.8750    64.9320    24.3430   245.0020   173.2270   202.3220     2.2190   -37.5900 
  180.0000    65.5730    24.2270   216.8700   176.8370   206.5820     2.2440   -37.5780 
  180.1250    69.7460    24.0030   222.9290   182.7800   214.2080     2.2470   -37.5330 
  180.2500    76.2530    23.7530   227.7640   190.8420   224.7290     2.2270   -37.4070 
  180.3750    81.0810    23.5860   225.9810   200.7090   237.5670     2.2060   -37.3470 
  180.5000    80.7870    23.5340   227.0930   211.9160   251.8910     2.1980   -37.2540 
  180.6250    76.1030    23.5770   239.2680   223.9620   266.7170     2.1960   -37.0600 
  180.7500    71.8140    23.6370   265.7610   236.0510   281.0760     2.1940   -36.9610 
  180.8750    69.4640    23.6040   302.2160   247.4430   294.2670     2.1950   -36.8580 
  181.0000    67.8660    23.4470   334.6650   256.8820   304.8980     2.2000   -36.6980 
  181.1250    66.7180    23.2780   342.7990   261.4270   309.1210     2.1990   -36.6210 
  181.2500    66.9470    23.2670   333.6350   259.8710   305.1350     2.1880   -36.4860 
  181.3750    68.6260    23.4560   307.5700   251.9280   291.1280     2.1800   -36.3210 
  181.5000    70.2010    23.7370   274.0320   238.6450   267.8490     2.1860   -36.2570 
  181.6250    70.3160    23.9500   250.4730   221.2950   237.3870     2.2060   -36.1440 
  181.7500    69.6020    24.0570   236.1110   201.9290   212.0110     2.2200   -35.9880 
  181.8750    68.4930    24.0600   221.5920   181.1940   189.1850     2.2240   -35.9530 
  182.0000    67.1190    24.0060   199.4080   159.8310   166.9040     2.2270   -35.8690 
  182.1250    66.5270    23.9050   175.5630   139.3270   145.5180     2.2350   -35.7400 
  182.2500    67.7180    23.9020   159.8220   120.9740   126.3760     2.2370   -35.7270 
  182.3750    70.6080    23.9940   148.5650   105.7530   110.5000     2.2260   -35.6140 
  182.5000    74.1850    24.0820   132.1970    94.4310    98.6910     2.2150   -35.4750 
  182.6250    76.7070    24.1000   106.2170    88.2790    92.2750     2.2230   -35.4950 
