~V
VERS. 2.00: Ver 2.00
~W
STRT.M 61.0000:
STOP.M 236.0000:
STEP.M 0.1250:
NULL. -999.2500:
UWI. DF5057:
~C
DEPT.M :
GR.API :
RML.OHMM :
RI. :
RXO.OHMM :
CALI.CM :
DEN.GM/CC :
SP.MV :
~A
# ...
  173.5000    55.6100    12.5330    11.4680     9.4410    25.5790     2.4800    -5.6060 
  173.6250    56.1680    12.8210    11.6390     9.1120    25.6150     2.4730    -5.5920 
  173.7500    56.8710    13.1920    11.8460     8.9850    25.6310     2.4690    -5.5660 
  173.8750    58.2620    13.5950    12.0560     9.1920    25.6350     2.4730    -5.5270 
  174.0000    59.1090    13.9470    12.2110     9.7520    25.6200     2.4840    -5.5200 
  174.1250    58.9930    14.1760    12.2600    10.8290    25.5350     2.4990    -5.5020 
  174.2500    58.3660    14.3230    12.2410    11.3960    25.4960     2.5080    -5.4860 
  174.3750    56.2150    14.4410    12.1960    12.4090    25.5630     2.5100    -5.5390 
  174.5000    53.9480    14.5360    12.1450    13.9700    25.6350     2.5090    -5.6180 
  174.6250    55.0190    14.5150    12.0410    15.0170    25.6390     2.5140    -5.6780 
  174.7500    58.3140    14.3000    11.8390    14.2650    25.6240     2.5270    -5.7550 
  174.8750    59.4010    13.8770    11.5280    13.4890    25.6080     2.5400    -5.8450 
  175.0000    56.8270    13.3480    11.1610    12.8070    25.6140     2.5420    -5.9550 
  175.1250    54.4090    12.9710    10.8940    10.8400    25.6090     2.5250    -6.0710 
  175.2500    54.3230    12.9390    10.8630     9.8770    25.6140     2.4960    -6.1450 
  175.3750    56.3130    13.2720    11.1110    11.2220    25.5890     2.4740    -6.1660 
  175.5000    58.4340    13.7800    11.5490    12.5610    25.5050     2.4710    -6.1620 
  175.6250    58.1460    14.0100    11.8930    13.8100    25.4240     2.4930    -6.0900 
  175.7500    55.6150    13.6510    11.8630    15.9470    25.4140     2.5180    -5.9550 
  175.8750    51.7010    12.7000    11.3930    16.9520    25.4460     2.5300    -5.8340 
  176.0000    48.9370    11.4550    10.6490    14.8570    25.4520     2.5200    -5.7320 
  176.1250    50.4590    10.3630     9.9330    11.7380    25.4410     2.4980    -5.6400 
  176.2500    54.1430     9.6370     9.4360    10.2430    25.4120     2.4830    -5.6000 
  176.3750    56.2450     9.2740     9.1970    10.1920    25.3510     2.4840    -5.6030 
  176.5000    55.1600     9.1640     9.1700    11.7820    25.2650     2.5000    -5.6400 
  176.6250    53.4710     9.1730     9.2620    12.4950    25.1700     2.5220    -5.7010 
  176.7500    53.2220     9.1620     9.3320    11.8540    25.1470     2.5370    -5.7870 
  176.8750    53.0010     9.0280     9.2690    10.3640    25.1720     2.5360    -5.8810 
  177.0000    52.0450     8.6270     8.9290     9.1420    25.1780     2.5180    -5.9270 
  177.1250    52.3900     7.7020     8.0470     8.5710    25.3170     2.4880    -5.9740 
  177.2500    54.4490     6.3030     6.6950     8.2980    25.3870     2.4600    -5.9810 
  177.3750    56.7040     4.6790     5.1390     7.4800    25.3290     2.4420    -5.9200 
  177.5000    57.1140     3.1930     3.7210     6.4200    25.2270     2.4380    -5.8240 
  177.6250    57.1530     2.1690     2.7040     4.3090    25.1470     2.4440    -5.6760 
  177.7500    57.7720     1.5790     2.0470     2.8890    25.0340     2.4530    -5.4690 
  177.8750    57.8840     1.3550     1.6930     3.0880    24.9300     2.4590    -5.2440 
  178.0000    58.0730     1.4100     1.5800     4.0290    24.9820     2.4590    -4.9880 
  178.1250    59.1260     1.6980     1.6880     4.1770    25.0190     2.4500    -4.6440 
  178.2500    59.2530     2.1230     1.9530     3.6340    24.9930     2.4360    -4.3170 
  178.3750    57.4810     2.6310     2.3460     3.4430    24.9200     2.4210    -3.9950 
  178.5000    55.5540     3.1650     2.8260     4.0850    24.9150     2.4060    -3.6300 
  178.6250    54.6800     3.6580     3.3380     4.7770    24.8750     2.3920    -3.3510 
  178.7500    53.0010     4.0640     3.8200     5.0920    24.8120     2.3790    -3.1120 
  178.8750    51.8800     4.3500     4.2190     5.0280    24.7380     2.3710    -2.8250 
  179.0000    53.4460     4.5150     4.5070     4.8090    24.6810     2.3710    -2.5930 
  179.1250    54.9400     4.6110     4.6890     4.6900    24.6410     2.3840    -2.4770 
  179.2500    54.4220     4.7330     4.8330     4.7640    24.6490     2.4050    -2.4040 
  179.3750    56.3960     4.9370     4.9850     5.0330    24.7260     2.4280    -2.4430 
  179.5000    63.9860     5.2510     5.1820     5.3970    24.7910     2.4440    -2.6450 
  179.6250    73.7560     5.7170     5.4720     5.8680    24.7090     2.4480    -2.9470 
  179.7500    83.0210     6.3180     5.8620     6.0830    24.7410     2.4450    -3.3720 
  179.8750    90.1970     7.0360     6.3460     6.3940    25.0700     2.4390    -3.9780 
  180.0000    93.0230     7.8070     6.8800     7.1590    25.3820     2.4340    -4.6780 
  180.1250    91.8560     8.4970     7.3670     8.2560    25.5620     2.4270    -5.3810 
  180.2500    90.2130     9.0010     7.7230     8.6720    25.6610     2.4180    -6.1220 
  180.3750    88.8750     9.2830     7.9120     8.7360    25.6910     2.4080    -6.7970 
  180.5000    89.0370     9.3740     7.9520     8.8050    25.7000     2.3990    -7.3300 
  180.6250    91.8440     9.3490     7.8850     8.8790    25.7180     2.3970    -7.7750 
  180.7500    93.8850     9.3020     7.7850     8.9460    25.7490     2.3980    -8.1380 
  180.8750    92.6550     9.2550     7.6750     8.9590    25.7790     2.4010    -8.4010 
  181.0000    90.7480     9.1990     7.5580     8.9330    25.7890     2.4030    -8.5560 
  181.1250    91.0400     9.1260     7.4430     8.7510    25.7740     2.4040    -8.6450 
  181.2500    91.3080     9.0770     7.3580     8.3990    25.7600     2.4030    -8.7130 
  181.3750    91.3570     9.1120     7.3430     8.0680    25.7730     2.3990    -8.7910 
  181.5000    90.8390     9.2930     7.4340     8.1650    25.7850     2.3950    -8.8940 
  181.6250    89.5350     9.6890     7.6730     8.8880    25.7610     2.3940    -9.0130 
  181.7500    89.0250    10.2470     8.0370     9.5630    25.6800     2.3970    -9.1510 
  181.8750    90.2020    10.8890     8.4850    10.1210    25.5760     2.4030    -9.2650 
  182.0000    91.9420    11.4970     8.9490    10.4520    25.5100     2.4110    -9.3350 
  182.1250    91.9490    11.9340     9.3310    10.8550    25.4900     2.4200    -9.4160 
  182.2500    90.3830    12.1800     9.5870    11.9800    25.4970     2.4280    -9.4550 
  182.3750    88.1520    12.2430     9.6990    12.8430    25.5450     2.4390    -9.4290 
  182.5000    87.2680    12.1560     9.6730    11.6010    25.6010     2.4550    -9.3580 
  182.6250    90.5080    11.9330     9.5150    10.9890    25.6170     2.4720    -9.2190 
  182.7500    95.8980    11.5750     9.2430    10.6650    25.6100     2.4810    -8.9620 
  182.8750   100.7550    11.0260     8.8330    10.0320    25.6250     2.4750    -8.5990 
  183.0000   102.7930    10.2710     8.2810     9.3470    25.7040     2.4520    -8.1660 
  183.1250    99.8310     9.3810     7.6360     8.8440    25.6940     2.4220    -7.5360 
  183.2500    93.8790     8.5310     7.0160     7.8810    25.5860     2.3990    -6.7660 
  183.3750    88.4820     7.8580     6.5090     6.3650    25.4250     2.3910    -5.9350 
  183.5000    84.3130     7.4380     6.1720     5.4470    25.2490     2.3950    -5.0910 
  183.6250    78.4390     7.2940     6.0390     5.7720    25.2570     2.3990    -4.2950 
  183.7500    71.0490     7.2860     6.0260     6.3880    25.2860     2.3930    -3.5700 
  183.8750    64.6740     7.3150     6.0690     6.3820    25.3620     2.3760    -2.8930 
  184.0000    59.9920     7.3120     6.1140     5.8680    25.3920     2.3550    -2.3010 
  184.1250    55.2450     7.2470     6.1260     5.5120    25.3600     2.3440    -1.8630 
  184.2500    50.8090     7.1670     6.1190     5.3710    25.3430     2.3480    -1.5020 
  184.3750    48.4070     7.1170     6.1170     5.3720    25.3210     2.3650    -1.2320 
  184.5000    48.7260     7.1120     6.1310     5.4390    25.2960     2.3870    -1.0010 
  184.6250    50.3430     7.1160     6.1440     5.6040    25.2780     2.4020    -0.7410 
