~V
VERS. 2.00: Ver 2.00
~W
STRT.M 67.0000:
STOP.M 277.0000:
STEP.M 0.1250:
NULL. -999.2500:
UWI. DF5013:
~C
DEPT.M :
SP.MV :
GR.API :
RML.OHMM :
RI. :
RXO.OHMM :
CALI.CM :
DEN.GM/CC :
~A
# ...
   89.5000   -19.8410   111.3320     7.3860     5.9220     6.0720    23.7870     2.3070 
   89.6250   -20.1370   106.2320     7.3570     5.9370     6.1290    23.8000     2.2860 
   89.7500   -20.4420    99.3520     7.1110     5.8190     6.2040    23.8040     2.2680 
   89.8750   -20.7690    95.5810     6.6520     5.5590     6.1160    23.8150     2.2520 
   90.0000   -21.0600    98.9720     6.0890     5.2030     5.8820    23.8730     2.2400 
   90.1250   -21.3760   104.9940     5.6750     4.9020     5.5950    23.9770     2.2330 
   90.2500   -21.7610   107.1430     5.6320     4.8070     5.5860    24.0490     2.2340 
   90.3750   -22.1730   103.4230     6.0960     5.0270     6.3970    24.0670     2.2500 
   90.5000   -22.7460    95.5930     7.1150     5.6310     8.1220    24.0250     2.2810 
   90.6250   -23.3690    85.6160     8.3740     6.4420    10.1880    23.9100     2.3110 
   90.7500   -24.0560    74.8190     9.5320     7.2560    12.1970    23.7300     2.3240 
   90.8750   -24.8150    66.9770    10.2420     7.8490    12.6830    23.5920     2.3060 
   91.0000   -25.5300    64.5380    10.2690     8.0290    10.7450    23.5500     2.2610 
   91.1250   -26.1830    63.5210     9.9450     7.9280     9.1370    23.5440     2.2120 
   91.2500   -26.7030    62.2610     9.6110     7.7310     8.6470    23.5440     2.1750 
   91.3750   -27.0620    62.2500     9.4880     7.5990     8.6320    23.5440     2.1570 
   91.5000   -27.2170    64.9010     9.6560     7.6270     8.7100    23.5440     2.1550 
   91.6250   -27.1990    68.8030     9.9600     7.7590     8.8270    23.5440     2.1580 
   91.7500   -27.0340    72.6760    10.2580     7.9230     8.9670    23.5440     2.1600 
   91.8750   -26.7020    74.4860    10.4330     8.0500     9.0630    23.5440     2.1590 
   92.0000   -26.2670    72.2070    10.4010     8.0840     9.0900    23.5420     2.1550 
   92.1250   -25.7770    69.0250    10.2140     8.0260     9.0010    23.5310     2.1520 
   92.2500   -25.2140    68.7290     9.9320     7.8820     8.7960    23.5040     2.1560 
   92.3750   -24.6320    71.1570     9.6100     7.6600     8.4940    23.4930     2.1720 
   92.5000   -23.9410    74.4660     9.2700     7.3640     8.2180    23.5700     2.1980 
   92.6250   -23.2380    78.3040     8.9200     7.0290     7.9290    23.7730     2.2270 
   92.7500   -22.5710    81.7210     8.5690     6.6940     7.5300    24.0240     2.2470 
   92.8750   -21.9350    83.1050     8.2390     6.4070     7.0530    24.1650     2.2510 
   93.0000   -21.4080    85.2710     7.9670     6.2200     6.5570    24.1950     2.2400 
   93.1250   -20.8760    87.9420     7.7570     6.1150     6.4560    24.1930     2.2300 
   93.2500   -20.4120    86.3560     7.5860     6.0530     6.5850    24.1920     2.2300 
   93.3750   -19.9630    83.0830     7.4110     5.9780     6.7290    24.2080     2.2440 
   93.5000   -19.5970    87.5330     7.1850     5.8420     6.5180    24.2590     2.2630 
   93.6250   -19.3350    98.6540     6.9390     5.6620     6.0190    24.3320     2.2750 
   93.7500   -19.0590   107.0740     6.7390     5.4880     5.5520    24.3730     2.2800 
   93.8750   -18.7980   107.1220     6.6450     5.3720     5.4320    24.3900     2.2820 
   94.0000   -18.5170   105.2800     6.6690     5.3450     5.6110    24.4070     2.2940 
   94.1250   -18.2790   108.9660     6.7090     5.3590     5.8260    24.4300     2.3150 
   94.2500   -18.0640   116.6600     6.6690     5.3490     5.9780    24.4260     2.3400 
   94.3750   -17.8760   122.6580     6.4970     5.2660     5.9760    24.4020     2.3600 
   94.5000   -17.7510   120.0680     6.2200     5.0860     5.6900    24.3900     2.3690 
   94.6250   -17.5890   113.5890     5.9520     4.8700     5.3200    24.3870     2.3700 
   94.7500   -17.4640   109.0240     5.7650     4.6760     5.0250    24.3870     2.3670 
   94.8750   -17.3630   109.5520     5.6820     4.5510     4.9030    24.3870     2.3640 
   95.0000   -17.2670   112.4090     5.7000     4.5220     4.9260    24.3870     2.3630 
   95.1250   -17.2200   113.0430     5.7740     4.5640     5.0010    24.3890     2.3630 
   95.2500   -17.1640   112.1810     5.8820     4.6510     5.0950    24.3960     2.3640 
   95.3750   -17.1680   111.8940     6.0060     4.7600     5.1490    24.4170     2.3640 
   95.5000   -17.1940   114.4150     6.1240     4.8690     5.1620    24.4320     2.3610 
   95.6250   -17.2350   114.6600     6.2120     4.9630     5.1780    24.4470     2.3540 
   95.7500   -17.2900   108.9880     6.2500     5.0290     5.2020    24.4530     2.3440 
   95.8750   -17.3330   103.4790     6.2250     5.0510     5.2280    24.4530     2.3360 
   96.0000   -17.3830   106.8190     6.1240     5.0130     5.2250    24.4530     2.3360 
   96.1250   -17.3790   110.6640     5.9730     4.9260     5.1700    24.4530     2.3440 
   96.2500   -17.4250   107.8400     5.7900     4.8010     5.0890    24.4530     2.3560 
   96.3750   -17.4490   102.6310     5.5900     4.6530     5.0070    24.4530     2.3670 
   96.5000   -17.4730   103.1900     5.3840     4.5020     4.9740    24.4530     2.3680 
   96.6250   -17.5280   106.7760     5.2020     4.3800     5.0240    24.4530     2.3580 
   96.7500   -17.5700   109.5970     5.1240     4.3360     5.1210    24.4530     2.3410 
   96.8750   -17.6570   109.6150     5.2750     4.4470     5.2500    24.4510     2.3250 
   97.0000   -17.7420   105.1820     5.8180     4.8210     5.6060    24.4370     2.3250 
   97.1250   -17.8550    99.6980     6.6600     5.4100     6.4470    24.4090     2.3450 
   97.2500   -17.9720    94.3000     7.5900     6.0970     7.7290    24.3740     2.3760 
   97.3750   -18.0720    89.5930     8.2850     6.6890     9.1820    24.3260     2.4050 
   97.5000   -18.1650    89.3670     8.3230     6.9080     9.9950    24.2990     2.4100 
   97.6250   -18.2360    93.4830     7.7610     6.7180     9.1510    24.3140     2.3910 
   97.7500   -18.2990    98.3510     6.9090     6.2370     6.9120    24.3560     2.3580 
   97.8750   -18.3710   100.1850     6.1650     5.6900     5.5550    24.3820     2.3240 
   98.0000   -18.4320    97.3310     5.8290     5.3250     5.3690    24.3870     2.2990 
   98.1250   -18.5020    92.3780     5.8540     5.2080     5.4850    24.3830     2.2830 
   98.2500   -18.5400    90.2340     6.1400     5.3160     5.5870    24.3710     2.2770 
   98.3750   -18.5970    92.7570     6.5440     5.5640     5.7390    24.3480     2.2830 
   98.5000   -18.6620    95.7260     6.8930     5.8220     6.0140    24.3550     2.3030 
   98.6250   -18.7250    96.1410     7.0850     5.9840     6.3940    24.3750     2.3320 
   98.7500   -18.8190    95.7250     7.0900     6.0080     6.8150    24.3850     2.3570 
   98.8750   -18.8590    96.1280     6.9290     5.9020     6.9940    24.3870     2.3690 
   99.0000   -18.9750    95.1070     6.6750     5.7200     6.6480    24.3590     2.3580 
   99.1250   -19.0970    93.9330     6.4480     5.5560     5.9530    24.2930     2.3320 
   99.2500   -19.2510    94.0270     6.3180     5.4660     5.8150    24.2260     2.3030 
   99.3750   -19.4390    94.2960     6.3190     5.4690     5.9010    24.1970     2.2790 
   99.5000   -19.6340    94.8060     6.4680     5.5760     6.0800    24.1860     2.2720 
   99.6250   -19.8840    94.0720     6.6950     5.7450     6.2390    24.1530     2.2800 
   99.7500   -20.1480    91.2660     6.9350     5.9430     6.3870    24.1060     2.2970 
   99.8750   -20.5070    88.4750     7.1390     6.1400     6.4960    24.0590     2.3130 
  100.0000   -20.8490    87.9050     7.2710     6.3080     6.7690    23.9560     2.3120 
  100.1250   -21.2270    88.9740     7.3510     6.4370     7.0880    23.8490     2.2960 
  100.2500   -21.6240    88.1810     7.4120     6.5310     7.0580    23.7740     2.2730 
  100.3750   -21.9900    87.2010     7.5080     6.6140     6.9750    23.7630     2.2540 
  100.5000   -22.3720    87.2640     7.7060     6.7230     6.8440    23.7970     2.2440 
  100.6250   -22.6950    84.6850     7.9950     6.8640     6.8260    23.8010     2.2370 
