~V
VERS. 2.00: Ver 2.00
~W
STRT.M 55.0000:
STOP.M 263.0000:
STEP.M 0.1250:
NULL. -999.2500:
UWI. DF5056:
~C
DEPT.M :
GR.API :
CALI.CM :
RXO.OHMM :
RI. :
RML.OHMM :
DEN.GM/CC :
SP.MV :
~A
# ...
   77.5000    57.9870    26.4690     9.6310     8.5290    10.3300     2.1770   -43.3590 
   77.6250    56.0660    26.4440     9.9330     9.3080    11.3530     2.2230   -43.5130 
   77.7500    55.6140    26.4250     9.7010    10.1220    12.3000     2.2840   -43.5940 
   77.8750    56.4500    26.4180     9.3970    10.7230    12.8610     2.3390   -43.7110 
   78.0000    58.0380    26.4190     9.4540    10.8590    12.7920     2.3570   -43.7550 
   78.1250    60.0340    26.3660    10.8710    10.3800    12.0230     2.3210   -43.9490 
   78.2500    60.5980    26.1510    11.5870     9.5870    10.9750     2.2630   -44.0820 
   78.3750    59.0840    25.7870    11.1610     8.7370     9.9740     2.2080   -44.2280 
   78.5000    56.8930    25.4600    10.6540     8.0190     9.2310     2.1660   -44.3900 
   78.6250    57.2370    25.4140    10.3430     7.5670     8.8650     2.1450   -44.4890 
   78.7500    59.2620    25.5570     9.2290     7.3420     8.7660     2.1370   -44.5510 
   78.8750    60.2610    25.6790     8.8820     7.2880     8.8390     2.1400   -44.5770 
   79.0000    60.3820    25.6520    10.0150     7.3440     8.9950     2.1460   -44.5610 
   79.1250    62.2690    25.5250    11.2820     7.4460     9.1420     2.1520   -44.4930 
   79.2500    64.4330    25.4840    11.4760     7.5220     9.2110     2.1550   -44.4140 
   79.3750    63.7180    25.5520    11.1240     7.5340     9.1740     2.1560   -44.2570 
   79.5000    60.9550    25.6230    11.2850     7.4720     9.0520     2.1580   -44.1400 
   79.6250    61.5810    25.6140    11.8020     7.3530     8.8970     2.1620   -44.0050 
   79.7500    64.3330    25.6250    11.7820     7.2330     8.7760     2.1660   -43.9570 
   79.8750    66.4040    25.7510    10.7940     7.1500     8.7270     2.1670   -43.8710 
   80.0000    66.9660    25.9600     9.8060     7.1260     8.7550     2.1630   -43.9260 
   80.1250    67.6140    26.0980     9.7270     7.1630     8.8440     2.1550   -43.8670 
   80.2500    69.1430    26.0820     9.9990     7.2320     8.9490     2.1450   -43.8990 
   80.3750    70.1880    25.9400    10.4860     7.3130     9.0420     2.1380   -43.9720 
   80.5000    68.2490    25.7590    11.1110     7.3870     9.1060     2.1320   -44.0110 
   80.6250    63.4250    25.6280    11.1800     7.4390     9.1390     2.1270   -44.1460 
   80.7500    60.7910    25.5110    11.1840     7.4790     9.1620     2.1250   -44.1850 
   80.8750    62.5620    25.3450    11.9320     7.5110     9.1730     2.1260   -44.2570 
   81.0000    64.9350    25.1510    12.9720     7.5290     9.1590     2.1270   -44.1520 
   81.1250    63.5010    25.0080    13.2190     7.5170     9.0990     2.1290   -44.1640 
   81.2500    59.9990    24.9630    13.2740     7.4740     9.0080     2.1320   -44.0480 
   81.3750    56.4960    25.0320    13.0540     7.4080     8.9020     2.1340   -43.8730 
   81.5000    54.4550    25.1570    12.7410     7.3310     8.8030     2.1350   -43.6820 
   81.6250    53.9710    25.2200    12.4630     7.2640     8.7280     2.1350   -43.3950 
   81.7500    54.9510    25.2520    12.1480     7.2180     8.6760     2.1360   -43.1120 
   81.8750    55.8970    25.4100    11.7480     7.1890     8.6410     2.1380   -42.8100 
   82.0000    56.0140    25.7080    11.1690     7.1690     8.6140     2.1380   -42.5350 
   82.1250    56.3610    25.8840    10.2560     7.1440     8.5910     2.1340   -42.1940 
   82.2500    58.0130    25.8580     9.7720     7.1070     8.5600     2.1290   -41.9830 
   82.3750    59.7670    25.8070     9.4460     7.0490     8.5000     2.1250   -41.6810 
   82.5000    58.9370    25.8280     8.9720     6.9520     8.3820     2.1240   -41.4250 
   82.6250    57.1430    25.7780     8.7670     6.7910     8.1740     2.1310   -41.1460 
   82.7500    59.5780    25.6380     9.2770     6.5780     7.9100     2.1420   -40.9160 
   82.8750    66.1800    25.5830     9.4650     6.3470     7.6490     2.1560   -40.6490 
   83.0000    72.4460    25.6770     8.5640     6.1530     7.4700     2.1730   -40.4670 
   83.1250    76.1270    25.7840     7.0100     6.0590     7.4410     2.1870   -40.3910 
   83.2500    78.4650    25.7760     6.5100     6.0590     7.5220     2.1930   -40.2080 
   83.3750    78.1790    25.6300     7.1550     6.1260     7.6570     2.1920   -40.2170 
   83.5000    75.4660    25.3970     8.3590     6.2280     7.7960     2.1870   -40.1870 
   83.6250    74.3550    25.2150     8.8970     6.3420     7.9220     2.1840   -40.1880 
   83.7500    74.4990    25.1610     8.5260     6.4700     8.0740     2.1860   -40.1990 
   83.8750    74.1990    25.1690     8.3410     6.6300     8.2970     2.1900   -40.2970 
   84.0000    73.1020    25.1520     8.7710     6.8340     8.5970     2.1920   -40.4130 
   84.1250    71.3510    25.1080     9.4610     7.0650     8.9150     2.1880   -40.4000 
   84.2500    68.6910    25.0790     9.5310     7.2700     9.1590     2.1810   -40.5560 
   84.3750    66.6020    25.0730     9.5180     7.4050     9.2770     2.1750   -40.6020 
   84.5000    65.6120    25.0760     9.4830     7.4480     9.2730     2.1700   -40.6930 
   84.6250    62.8990    25.0750     9.4520     7.4010     9.1950     2.1650   -40.7860 
   84.7500    60.2480    25.0750     9.3810     7.3150     9.1100     2.1590   -40.8430 
   84.8750    61.4570    25.0760     9.3180     7.2160     9.0320     2.1510   -40.8350 
   85.0000    65.5500    25.0710     9.2960     7.1160     8.9520     2.1450   -40.8030 
   85.1250    65.7390    25.0540     9.2010     7.0220     8.8640     2.1420   -40.7420 
   85.2500    63.0950    25.0300     8.9320     6.9540     8.8020     2.1410   -40.6020 
   85.3750    62.6560    24.9970     8.7880     6.9450     8.8280     2.1460   -40.4570 
   85.5000    65.3760    24.9400     9.2690     7.0300     8.9920     2.1600   -40.2480 
   85.6250    66.3390    24.8640    10.3280     7.2310     9.3050     2.1920   -40.0510 
   85.7500    64.9470    24.8720    10.6800     7.4900     9.6500     2.2380   -39.8330 
   85.8750    64.1220    25.0710     9.9870     7.7240     9.8930     2.2840   -39.5830 
   86.0000    64.1950    25.3830     9.2330     7.8390     9.9130     2.3070   -39.2660 
   86.1250    63.9000    25.5400     9.2630     7.7450     9.6330     2.2850   -38.9700 
   86.2500    63.9530    25.4710     9.3010     7.5040     9.1940     2.2360   -38.5370 
   86.3750    64.2350    25.3090     9.1780     7.2070     8.7460     2.1870   -38.1490 
   86.5000    63.4310    25.1920     9.1520     6.9510     8.4190     2.1490   -37.6740 
   86.6250    61.7650    25.1440     8.8700     6.8330     8.3220     2.1290   -37.1110 
   86.7500    62.7770    25.1150     8.7590     6.8570     8.4130     2.1180   -36.5120 
   86.8750    66.8100    25.0550     8.7430     6.9930     8.6190     2.1110   -35.8440 
   87.0000    69.8910    24.9220     9.3690     7.1720     8.8180     2.1080   -35.1240 
   87.1250    67.7630    24.7430    10.1770     7.2590     8.8260     2.1100   -34.2520 
   87.2500    64.1830    24.6170    10.8250     7.1490     8.5520     2.1200   -33.4310 
   87.3750    63.5920    24.6570    10.8870     6.7990     7.9870     2.1400   -32.4230 
   87.5000    69.1790    25.0130    10.2390     6.2490     7.2150     2.1690   -31.5000 
   87.6250    79.6930    25.9080     8.0440     5.6050     6.4060     2.1990   -30.6040 
   87.7500    89.8480    27.0850     6.1700     5.0290     5.7470     2.2240   -29.8140 
   87.8750    96.5120    28.1690     5.3250     4.6220     5.3450     2.2410   -29.1470 
   88.0000    98.3870    28.8180     5.0850     4.4400     5.2380     2.2550   -28.6150 
   88.1250    96.8250    28.9410     4.9820     4.5240     5.4300     2.2680   -28.3420 
   88.2500    93.0250    28.7250     5.5470     4.7820     5.7690     2.2800   -28.1850 
   88.3750    88.7010    28.1840     7.6420     5.1200     6.1210     2.2890   -28.2840 
   88.5000    85.2350    27.4780     9.2340     5.4290     6.3600     2.2890   -28.4440 
   88.6250    81.4240    27.0120     8.7020     5.6100     6.4110     2.2790   -28.8040 
