~V
VERS. 2.00: Ver 2.00
~W
STRT.M 55.0000:
STOP.M 271.0000:
STEP.M 0.1250:
NULL. -999.2500:
UWI. DF5009:
~C
DEPT.M :
GR.API :
CALI.CM :
RXO.OHMM :
RI. :
RML.OHMM :
DEN.GM/CC :
SP.MV :
~A
# ...
  246.2500    80.8680    25.5240     8.7370     7.9180     6.8180     2.3290    -8.8570 
  246.3750    83.1930    25.5000     8.5130     8.2480     7.1390     2.3240    -9.0220 
  246.5000    85.4580    25.4930     7.8740     8.6170     7.4100     2.3220    -9.0770 
  246.6250    88.6560    25.5060     7.6550     8.9060     7.5870     2.3210    -9.0630 
  246.7500    91.2870    25.5250     7.7880     9.1440     7.7510     2.3220    -9.0490 
  246.8750    92.3960    25.5450     8.2590     9.3730     7.9510     2.3220    -9.0220 
  247.0000    92.6360    25.5680     9.2960     9.6090     8.1900     2.3230    -8.9670 
  247.1250    92.4010    25.6040    10.0430     9.8240     8.4370     2.3230    -8.8480 
  247.2500    92.1580    25.6410    10.0480     9.9820     8.6540     2.3230    -8.7080 
  247.3750    92.7330    25.6710     9.9670    10.0550     8.8170     2.3230    -8.5770 
  247.5000    93.2880    25.6880    10.3080    10.0340     8.9120     2.3230    -8.5220 
  247.6250    92.5900    25.6960    10.4320     9.9140     8.9190     2.3190    -8.4700 
  247.7500    91.2100    25.7050    10.3930     9.7290     8.8500     2.3130    -8.3840 
  247.8750    92.1810    25.6940    10.8430     9.4940     8.7150     2.3080    -8.3270 
  248.0000    95.9320    25.6670    11.2830     9.2300     8.5400     2.3060    -8.1800 
  248.1250    99.2980    25.6580    11.5900     8.9700     8.3690     2.3060    -8.1150 
  248.2500   100.7660    25.6710    11.8980     8.7530     8.2370     2.3060    -8.1430 
  248.3750   100.4720    25.6370    12.0120     8.6040     8.1550     2.3060    -8.0990 
  248.5000    99.4780    25.4830    11.7590     8.5230     8.1200     2.3080    -8.0340 
  248.6250    98.7790    25.2420    11.1870     8.4950     8.1120     2.3110    -8.0550 
  248.7500    98.2100    25.0510    10.4540     8.4760     8.1050     2.3100    -8.0670 
  248.8750    97.0590    24.9660     9.4470     8.4600     8.0990     2.3000    -8.0930 
  249.0000    94.7230    24.9870     8.5540     8.4600     8.1130     2.2850    -8.2040 
  249.1250    93.2400    25.1190     8.7090     8.5100     8.1760     2.2730    -8.2660 
  249.2500    92.6140    25.3350     9.2310     8.6070     8.2780     2.2730    -8.2720 
  249.3750    91.3810    25.5450     9.2930     8.7260     8.3850     2.2840    -8.3600 
  249.5000    91.0000    25.6390     9.2800     8.8170     8.4380     2.3020    -8.3330 
  249.6250    92.0750    25.6100     9.5680     8.7960     8.3520     2.3180    -8.3050 
  249.7500    91.9640    25.5680     9.7440     8.6400     8.1270     2.3290    -8.2930 
  249.8750    91.0200    25.5270    10.2120     8.3620     7.8030     2.3330    -8.2350 
  250.0000    90.7940    25.4450    10.7380     8.0140     7.4490     2.3350    -8.2720 
  250.1250    89.7800    25.3670     9.6300     7.6800     7.1600     2.3350    -8.2050 
  250.2500    88.1880    25.3840     8.1160     7.4260     6.9790     2.3350    -8.2260 
  250.3750    87.4960    25.4810     8.0260     7.2790     6.9140     2.3340    -8.3390 
  250.5000    88.1400    25.5850     8.7310     7.2330     6.9370     2.3290    -8.4670 
  250.6250    87.9150    25.6450     8.8460     7.2600     7.0010     2.3210    -8.6500 
  250.7500    87.3330    25.6660     8.7830     7.2940     7.0400     2.3100    -8.8820 
  250.8750    85.3150    25.6530     8.5010     7.2910     7.0170     2.2980    -9.1410 
  251.0000    80.0290    25.6520     8.1850     7.2360     6.9370     2.2890    -9.4000 
  251.1250    74.8520    25.7210     8.1180     7.1540     6.8520     2.2860    -9.6840 
  251.2500    73.6950    25.8110     8.1160     7.1120     6.8330     2.2910    -9.9220 
  251.3750    75.5300    25.8630     8.3150     7.1610     6.9320     2.3030   -10.0950 
  251.5000    79.2070    25.8700     9.0830     7.3420     7.1820     2.3200   -10.2110 
  251.6250    84.9480    25.8660     9.8870     7.6940     7.6060     2.3360   -10.3040 
  251.7500    91.8710    25.8660    10.7080     8.1610     8.1170     2.3470   -10.3460 
  251.8750    97.9290    25.8890    11.0460     8.6520     8.5980     2.3500   -10.3500 
  252.0000   101.2300    25.9290    10.8950     9.0230     8.8950     2.3460   -10.3150 
  252.1250   100.1500    25.9140    10.5760     9.0750     8.8330     2.3340   -10.2300 
  252.2500    98.9450    25.8530     9.7830     8.8240     8.4830     2.3180   -10.2330 
  252.3750    99.6740    25.8130     8.3260     8.3760     7.9870     2.3010   -10.1950 
  252.5000    99.9710    25.8200     7.0890     7.8890     7.5200     2.2830   -10.2170 
  252.6250    97.0360    25.8090     7.7190     7.5250     7.2430     2.2650   -10.3550 
  252.7500    95.2570    25.7710     8.7690     7.3270     7.1590     2.2540   -10.4000 
  252.8750    97.2520    25.7690     9.2200     7.2890     7.2240     2.2530   -10.5060 
  253.0000   100.9590    25.8070     8.7910     7.3780     7.3880     2.2660   -10.6140 
  253.1250   102.1590    25.7760     8.1510     7.5920     7.6520     2.2940   -10.7730 
  253.2500   101.7390    25.6550     8.3610     7.9300     8.0560     2.3310   -10.9680 
  253.3750   100.5910    25.5600     9.7240     8.4480     8.6780     2.3640   -11.0900 
  253.5000   100.4210    25.5960    12.6960     9.2070     9.5790     2.3840   -11.1260 
  253.6250   100.9300    25.7180    15.8780    10.2680    10.7740     2.3880   -11.1100 
  253.7500    99.5720    25.7670    16.6970    11.5070    12.0740     2.3840   -11.0680 
  253.8750    96.6690    25.7260    16.1390    12.7570    13.2780     2.3770   -10.9630 
  254.0000    94.6590    25.6940    16.4400    13.8000    14.1720     2.3660   -10.8640 
  254.1250    95.8370    25.7360    17.6670    14.3460    14.5040     2.3460   -10.6540 
  254.2500    97.6710    25.7910    17.1970    14.3640    14.3100     2.3180   -10.2720 
  254.3750   100.1900    25.7930    15.7140    13.8850    13.6520     2.2880   -10.0060 
  254.5000   103.0880    25.7430    13.8430    13.0110    12.6420     2.2660    -9.7780 
  254.6250   101.9750    25.6950    11.8060    11.8710    11.4130     2.2590    -9.3350 
  254.7500    97.1120    25.6680     9.8350    10.7040    10.1910     2.2650    -9.0520 
  254.8750    91.3890    25.6620     8.3680     9.6840     9.1550     2.2800    -8.7890 
  255.0000    88.6960    25.6670     7.6710     8.9480     8.4490     2.2980    -8.4300 
  255.1250    90.4810    25.6670     7.5340     8.6570     8.2490     2.3150    -8.2840 
  255.2500    93.0020    25.6590     8.6180     8.7810     8.5030     2.3290    -8.1100 
  255.3750    92.9340    25.6470    10.7960     9.2930     9.1440     2.3400    -7.8630 
  255.5000    90.1000    25.5930    12.3180    10.1020    10.0260     2.3490    -7.7170 
  255.6250    90.2120    25.4320    12.4970    11.0010    10.8730     2.3500    -7.6270 
  255.7500    94.6690    25.2650    12.5410    11.6560    11.3730     2.3400    -7.5030 
  255.8750    99.9420    25.2300    12.4530    11.8050    11.3290     2.3230    -7.3610 
  256.0000   101.7070    25.3100    11.4490    11.3570    10.7250     2.3080    -7.1800 
  256.1250    98.4410    25.3550    10.1050    10.4340     9.7500     2.3080    -7.0010 
  256.2500    94.6590    25.3640     9.5640     9.4550     8.8240     2.3260    -6.8660 
  256.3750    93.0290    25.3930     8.6680     8.6990     8.2400     2.3560    -6.7070 
  256.5000    93.2340    25.4140     7.7860     8.3590     8.2030     2.3890    -6.6250 
  256.6250    93.4960    25.3870     9.8510     8.6570     8.9610     2.4170    -6.5820 
  256.7500    93.3100    25.3530    13.7680     9.6010    10.4660     2.4350    -6.5150 
  256.8750    92.9580    25.3310    18.9270    11.2640    12.7070     2.4390    -6.5160 
  257.0000    93.3370    25.3180    24.9710    13.6640    15.5680     2.4320    -6.4900 
  257.1250    95.5830    25.3320    26.5590    16.7470    18.8100     2.4230    -6.4320 
  257.2500    99.6360    25.3590    28.9050    20.0530    21.9900     2.4220    -6.4720 
  257.3750   105.7710    25.3560    35.7910    23.2000    24.8130     2.4330    -6.4520 
