~V
VERS. 2.00: Ver 2.00
~W
STRT.M 72.0000:
STOP.M 259.0000:
STEP.M 0.1250:
NULL. -999.2500:
UWI. DF5020:
~C
DEPT.M :
DEN.GM/CC :
GR.API :
RML.OHMM :
RI. :
RXO.OHMM :
CALI.CM :
SP.MV :
~A
# ...
  128.2500     2.2290    69.6410    11.5990    11.1450    10.1800    23.7090   -32.4310 
  128.3750     2.2420    68.2190    11.8090    11.3460    10.2290    23.6030   -32.4280 
  128.5000     2.2520    66.8100    12.0270    11.5460    10.2830    23.4520   -32.4280 
  128.6250     2.2540    66.6790    12.1810    11.6720    10.2030    23.4800   -32.3420 
  128.7500     2.2470    67.4120    12.2470    11.6920    10.3100    23.6680   -32.2110 
  128.8750     2.2320    68.2120    12.2310    11.6060    10.5270    23.7960   -32.0340 
  129.0000     2.2130    67.6290    12.1600    11.4420    10.6670    23.8310   -31.8050 
  129.1250     2.1940    65.4570    12.0510    11.2360    10.2590    23.8290   -31.6240 
  129.2500     2.1810    63.9820    11.8920    11.0180    10.0550    23.8130   -31.4180 
  129.3750     2.1750    64.8240    11.6540    10.7890    10.1050    23.7730   -31.1930 
  129.5000     2.1750    66.5740    11.3380    10.5590    10.0960    23.7320   -30.9510 
  129.6250     2.1760    67.2220    11.0640    10.4210    10.1640    23.7030   -30.6950 
  129.7500     2.1780    67.4020    11.0660    10.5340    10.1650    23.7050   -30.4170 
  129.8750     2.1860    67.2220    11.5810    11.0990    10.3970    23.7470   -30.1350 
  130.0000     2.2110    66.3790    12.7340    12.2510    11.2680    23.8540   -29.8400 
  130.1250     2.2680    64.7830    14.4170    13.9630    12.9770    24.0700   -29.5520 
  130.2500     2.3470    65.4450    15.9980    15.6970    16.0500    24.3530   -29.2910 
  130.3750     2.4310    68.5730    16.7940    16.8170    20.3920    24.5570   -29.0620 
  130.5000     2.4900    71.5850    16.2520    16.7360    23.9680    24.5640   -28.7720 
  130.6250     2.5000    71.3010    14.1800    15.0660    21.7470    24.3280   -28.5310 
  130.7500     2.4710    68.2980    11.5640    12.5690    15.6430    24.0390   -28.2900 
  130.8750     2.4240    66.0840     9.1920    10.0020    10.9580    23.8690   -28.1080 
  131.0000     2.3790    68.0840     7.4840     7.9140     8.4740    23.8340   -27.8930 
  131.1250     2.3500    75.3630     6.6110     6.6210     6.9480    23.9350   -27.7970 
  131.2500     2.3320    83.0430     6.3270     5.9620     6.0620    24.1310   -27.6850 
  131.3750     2.3180    86.4730     6.4720     5.8130     5.5260    24.2760   -27.6240 
  131.5000     2.3000    84.5470     6.8660     6.0210     5.7070    24.1830   -27.6240 
  131.6250     2.2780    79.0620     7.2990     6.4190     6.3700    23.9610   -27.5990 
  131.7500     2.2590    74.8550     7.5940     6.7930     7.0020    23.8300   -27.6090 
  131.8750     2.2500    73.7250     7.6880     7.0360     7.4470    23.8700   -27.5740 
  132.0000     2.2540    75.5580     7.6200     7.1220     7.4920    24.0380   -27.6000 
  132.1250     2.2690    78.3530     7.4990     7.0990     7.1960    24.2140   -27.5080 
  132.2500     2.2870    79.6370     7.4230     7.0610     7.1670    24.1820   -27.4320 
  132.3750     2.3030    79.4040     7.3970     7.0370     7.7200    24.1030   -27.2830 
  132.5000     2.3140    78.7820     7.3790     7.0060     8.1460    24.0900   -27.1480 
  132.6250     2.3190    80.3980     7.2960     6.9120     7.5210    24.1410   -27.0020 
  132.7500     2.3180    83.3300     7.1300     6.7380     6.8470    24.2410   -26.8620 
  132.8750     2.3130    85.4700     6.9040     6.4970     6.2880    24.3190   -26.7300 
  133.0000     2.3070    84.4370     6.6590     6.2280     6.1800    24.2700   -26.5990 
  133.1250     2.3040    79.3840     6.4310     5.9730     6.1870    24.2210   -26.4740 
  133.2500     2.3050    76.0140     6.2250     5.7500     6.2490    24.3340   -26.3880 
  133.3750     2.3080    76.6940     6.0480     5.5710     6.0020    24.4240   -26.3490 
  133.5000     2.3110    79.2420     5.9120     5.4450     5.7760    24.4830   -26.3790 
  133.6250     2.3120    79.6230     5.8480     5.3950     5.6770    24.5570   -26.4860 
  133.7500     2.3120    78.2480     5.8600     5.4200     5.6740    24.6200   -26.6600 
  133.8750     2.3120    79.3080     5.9410     5.5110     5.9440    24.5500   -26.8890 
  134.0000     2.3140    83.4820     6.0640     5.6470     6.2760    24.4030   -27.1670 
  134.1250     2.3150    86.5560     6.1950     5.7920     6.5850    24.3820   -27.4400 
  134.2500     2.3160    84.7710     6.3050     5.9070     6.6020    24.4890   -27.6460 
  134.3750     2.3140    79.4420     6.3800     5.9670     6.3020    24.5310   -27.8880 
  134.5000     2.3100    76.3970     6.4040     5.9520     6.0450    24.5400   -27.9910 
  134.6250     2.3020    79.1950     6.3370     5.8260     5.6810    24.5670   -28.1160 
  134.7500     2.2950    83.4230     6.1660     5.5930     5.3870    24.5430   -28.1680 
  134.8750     2.2930    85.9460     5.8820     5.2600     5.2180    24.5210   -28.2290 
  135.0000     2.2980    87.7610     5.5090     4.8570     5.1020    24.5510   -28.2410 
  135.1250     2.3110    90.9660     5.1170     4.4520     4.8100    24.6520   -28.3600 
  135.2500     2.3230    93.5270     4.8070     4.1320     4.6170    24.7070   -28.5400 
  135.3750     2.3270    92.9100     4.6860     3.9920     4.7270    24.7030   -28.7470 
  135.5000     2.3200    87.8040     4.8970     4.1670     4.9030    24.6170   -29.0340 
  135.6250     2.3080    80.7700     5.7820     5.0040     5.9060    24.4170   -29.3520 
  135.7500     2.3050    77.1120     7.5250     6.7240     7.8710    24.2390   -29.6840 
  135.8750     2.3220    77.1580    10.2340     9.4900    11.0520    24.2560   -30.0120 
  136.0000     2.3660    74.8840    13.6880    13.1440    16.4720    24.4210   -30.3400 
  136.1250     2.4330    68.5460    17.0650    16.9360    24.2480    24.5290   -30.6490 
  136.2500     2.4970    64.8600    19.2040    19.6450    33.3070    24.5420   -30.9360 
  136.3750     2.5320    66.2700    19.3090    20.3760    39.3180    24.5150   -31.2180 
  136.5000     2.5220    69.1520    17.4730    19.0110    30.0210    24.4150   -31.4700 
  136.6250     2.4650    69.7500    14.7980    16.3350    18.1650    24.2030   -31.6700 
  136.7500     2.3910    70.0640    12.5670    13.7330    11.6500    23.9740   -31.8330 
  136.8750     2.3250    71.5610    11.1220    11.7600     9.9390    23.8370   -31.9550 
  137.0000     2.2760    73.2420    10.4150    10.5350     9.6780    23.7610   -32.0250 
  137.1250     2.2450    72.8060    10.3260    10.0420     9.7080    23.7550   -32.0560 
  137.2500     2.2220    69.4130    10.5470     9.9870     9.6720    23.7410   -32.0460 
  137.3750     2.2000    65.9830    10.9020    10.2020     9.6060    23.7240   -31.9690 
  137.5000     2.1810    65.2080    11.2560    10.5410     9.7020    23.6970   -31.9640 
  137.6250     2.1680    67.1320    11.4900    10.8750     9.6860    23.6810   -31.8860 
  137.7500     2.1640    67.0120    11.5710    11.1220     9.7100    23.6750   -31.8330 
  137.8750     2.1680    63.9110    11.4960    11.2440     9.6720    23.6790   -31.7150 
  138.0000     2.1770    61.8100    11.3090    11.2470     9.6030    23.7020   -31.6410 
  138.1250     2.1880    64.2650    11.1210    11.1830     9.7960    23.7560   -31.5260 
  138.2500     2.1970    68.7240    11.0650    11.1640    10.0100    23.8060   -31.4060 
  138.3750     2.2010    69.8280    11.2100    11.2700    10.2170    23.8290   -31.2260 
  138.5000     2.2020    65.9760    11.5030    11.4880    10.2320    23.8470   -30.9390 
  138.6250     2.2130    62.6840    11.6850    11.6320    10.3300    23.8870   -30.6120 
  138.7500     2.2440    63.0990    11.4650    11.4510    10.8700    23.9540   -30.2580 
  138.8750     2.2940    66.6570    10.7070    10.7930    11.7550    24.0630   -29.9680 
  139.0000     2.3510    72.1980     9.5150     9.7000    13.7730    24.2110   -29.7240 
  139.1250     2.3870    77.6500     8.2620     8.4360    15.1680    24.1880   -29.5610 
  139.2500     2.3890    79.5490     7.3510     7.3800    12.5860    23.9880   -29.4800 
  139.3750     2.3600    77.3560     6.9390     6.7320     8.0070    23.7360   -29.4680 
