~V
VERS. 2.00: Ver 2.00
~W
STRT.M 55.0000:
STOP.M 250.0000:
STEP.M 0.1250:
NULL. -999.2500:
UWI. DF5052:
~C
DEPT.M :
SP.MV :
GR.API :
CALI.CM :
RXO.OHMM :
RI. :
RML.OHMM :
DEN.GM/CC :
~A
# ...
  156.2500   -30.2470   103.2010    24.4700    33.2610    28.8210    30.7140     2.2470 
  156.3750   -30.3340    97.1480    24.5230    34.2510    28.8720    30.7680     2.2430 
  156.5000   -30.4220    91.1170    24.5130    31.8060    29.2570    31.1750     2.2370 
  156.6250   -30.4990    87.2880    24.3860    28.6530    30.2940    32.2700     2.2420 
  156.7500   -30.5680    84.3970    24.1550    30.1980    31.9700    34.0420     2.2540 
  156.8750   -30.6330    83.0270    23.9110    37.3880    34.1640    36.3610     2.2580 
  157.0000   -30.6990    83.1870    23.7300    46.1460    36.5760    38.9110     2.2440 
  157.1250   -30.7700    82.9010    23.5790    50.3020    38.6780    41.1330     2.2220 
  157.2500   -30.8470    82.0330    23.3580    50.6020    40.0230    42.5540     2.2130 
  157.3750   -30.9340    82.2380    23.0580    49.7490    40.3110    42.8580     2.2190 
  157.5000   -31.0370    83.7970    22.7920    48.6780    39.5070    42.0090     2.2300 
  157.6250   -31.1660    85.7940    22.6710    45.7580    37.8570    40.2650     2.2320 
  157.7500   -31.3130    87.8280    22.6690    41.9360    36.0200    38.3240     2.2290 
  157.8750   -31.4710    89.5140    22.7570    38.9610    34.3460    36.5530     2.2290 
  158.0000   -31.6300    89.9180    22.8890    36.9800    33.0000    35.1310     2.2370 
  158.1250   -31.7810    88.9000    23.2090    34.9740    32.1320    34.2140     2.2510 
  158.2500   -31.9190    88.7120    23.5960    33.2170    31.7260    33.7840     2.2640 
  158.3750   -32.0430    91.0410    24.0230    33.8920    31.8010    33.8640     2.2680 
  158.5000   -32.1560    94.4620    24.3390    37.0670    32.3840    34.4800     2.2600 
  158.6250   -32.2600    94.3870    24.4440    38.6760    33.6730    35.8420     2.2430 
  158.7500   -32.3630    90.2370    24.4380    36.8800    35.7580    38.0460     2.2300 
  158.8750   -32.4680    85.6960    24.4100    36.4190    38.8620    41.0940     2.2220 
  159.0000   -32.5760    84.1460    24.3880    42.2330    43.1860    44.9430     2.2190 
  159.1250   -32.6870    84.5290    24.3140    53.5430    48.8960    49.4830     2.2120 
  159.2500   -32.7960    83.1000    24.1670    63.7820    55.3330    55.4940     2.2000 
  159.3750   -32.9030    79.4560    24.0760    72.2020    61.7710    62.0070     2.1840 
  159.5000   -33.0090    75.2800    24.1570    81.4770    67.2550    67.7990     2.1690 
  159.6250   -33.1260    72.5310    24.3070    93.1560    70.3870    71.2630     2.1590 
  159.7500   -33.2600    71.3890    24.3410   103.1430    71.0700    72.1940     2.1550 
  159.8750   -33.4170    71.7670    24.2770   104.3530    69.7600    71.0590     2.1590 
  160.0000   -33.5920    73.0150    24.2170    93.0750    67.4070    68.9140     2.1700 
  160.1250   -33.7720    73.9950    24.1730    76.0700    65.1160    66.9690     2.1860 
  160.2500   -33.9400    74.5630    24.0830    65.6540    63.6500    65.9470     2.2020 
  160.3750   -34.0830    75.0660    23.9830    64.6830    63.2550    66.0530     2.2100 
  160.5000   -34.1950    75.0140    23.9200    68.2450    63.8620    67.1970     2.2090 
  160.6250   -34.2690    73.7890    23.9090    71.5490    65.3590    69.2090     2.2020 
  160.7500   -34.3160    73.1510    23.9600    74.1890    67.3170    71.6190     2.1910 
  160.8750   -34.3510    74.5040    24.0510    77.3200    69.5060    74.1520     2.1760 
  161.0000   -34.3890    76.6380    24.1490    81.0830    71.8180    76.6770     2.1600 
  161.1250   -34.4540    76.8110    24.1620    83.4460    74.3960    79.3580     2.1470 
  161.2500   -34.5500    75.3940    24.0440    85.1130    77.4220    82.4670     2.1390 
  161.3750   -34.6730    74.3930    23.9660    88.7370    80.9940    86.1620     2.1290 
  161.5000   -34.8160    74.7370    24.0180    97.7790    85.0060    90.3780     2.1180 
  161.6250   -34.9640    74.9200    24.2360   110.7550    88.8660    94.5580     2.1130 
  161.7500   -35.0970    73.5280    24.3950   120.8240    91.3260    97.3390     2.1190 
  161.8750   -35.1970    70.9860    24.4910   124.6150    90.9030    96.9890     2.1310 
  162.0000   -35.2490    68.5990    24.5320   125.3760    86.5790    92.2430     2.1420 
  162.1250   -35.2430    67.2990    24.5460   124.3110    78.1100    82.8200     2.1500 
  162.2500   -35.1960    66.9040    24.5280   122.6550    67.7510    71.4000     2.1620 
  162.3750   -35.1240    68.3500    24.5220   116.3050    57.3250    60.1120     2.1820 
  162.5000   -35.0400    72.4760    24.5250   100.9470    48.2700    50.5330     2.2090 
  162.6250   -34.9530    77.4960    24.5290    76.5130    41.7820    43.8940     2.2360 
  162.7500   -34.8670    80.5490    24.5430    52.1300    37.6360    39.8170     2.2530 
  162.8750   -34.7800    82.1070    24.5790    39.4860    35.5280    37.9190     2.2560 
  163.0000   -34.6860    84.0210    24.6160    39.3200    34.9390    37.6480     2.2520 
  163.1250   -34.5740    86.0180    24.6210    43.6010    35.4460    38.5620     2.2550 
  163.2500   -34.4360    85.9910    24.6080    45.1660    36.5170    40.0800     2.2640 
  163.3750   -34.2710    83.5410    24.5900    45.0810    38.0050    42.0290     2.2680 
  163.5000   -34.0850    79.5590    24.5650    45.1890    39.8650    44.3690     2.2640 
  163.6250   -33.8900    75.7040    24.5280    46.5060    42.2230    47.2920     2.2610 
  163.7500   -33.7040    73.0700    24.4920    49.8440    45.1110    50.8870     2.2600 
  163.8750   -33.5350    71.1990    24.4640    56.8290    48.5430    55.2070     2.2530 
  164.0000   -33.3850    69.2550    24.4310    66.9850    52.3610    60.0910     2.2380 
  164.1250   -33.2570    67.7810    24.3940    73.7670    56.1420    65.0400     2.2220 
  164.2500   -33.1490    67.7220    24.3330    74.7610    59.3270    69.3210     2.2100 
  164.3750   -33.0620    68.1290    24.1980    70.6410    61.4230    72.2760     2.2050 
  164.5000   -32.9970    67.3380    23.9490    62.5610    62.0520    73.3930     2.2110 
  164.6250   -32.9510    65.4340    23.5550    54.3480    60.7570    72.0810     2.2280 
  164.7500   -32.9130    64.9620    23.2410    51.4420    57.9140    68.8430     2.2420 
  164.8750   -32.8750    67.3000    23.2730    58.1920    53.8320    64.1100     2.2490 
  165.0000   -32.8310    71.7050    23.6650    68.3260    48.9710    58.4620     2.2490 
  165.1250   -32.7830    76.4270    24.0880    68.1990    43.9350    52.6110     2.2470 
  165.2500   -32.7370    79.1310    24.3730    57.1310    39.3280    47.2680     2.2480 
  165.3750   -32.6960    78.6570    24.4540    42.6230    35.4850    42.8320     2.2540 
  165.5000   -32.6600    76.4840    24.3010    31.7200    32.5510    39.4840     2.2620 
  165.6250   -32.6280    75.2350    23.9140    25.6270    30.6770    37.4130     2.2590 
  165.7500   -32.5960    74.3190    23.3300    20.3350    29.6410    36.3550     2.2430 
  165.8750   -32.5630    71.6420    22.7050    15.6750    29.3940    36.2460     2.2270 
  166.0000   -32.5280    67.6060    22.3870    12.7450    29.9210    37.0710     2.2170 
  166.1250   -32.4940    65.3180    22.7130    12.6010    31.3640    39.0090     2.1990 
  166.2500   -32.4640    66.0650    23.4260    15.4070    33.5890    41.9040     2.1670 
  166.3750   -32.4360    69.8310    24.2870    21.4060    36.4720    45.6090     2.1300 
  166.5000   -32.4090    74.5830    25.0770    28.9350    39.6440    49.6690     2.0980 
  166.6250   -32.3800    76.1900    25.6000    31.8890    42.2370    52.9720     2.0790 
  166.7500   -32.3500    74.2600    25.8800    27.8820    43.4220    54.4560     2.0730 
  166.8750   -32.3240    72.5370    25.8990    20.6290    42.6890    53.4440     2.0830 
  167.0000   -32.3070    73.7070    25.6080    16.8710    40.0730    49.9430     2.1100 
  167.1250   -32.2990    75.8810    25.1780    19.8260    36.0940    44.5890     2.1520 
  167.2500   -32.2850    77.3250    24.8540    23.3160    31.9600    39.0010     2.1960 
  167.3750   -32.2510    79.6430    24.6170    23.7620    28.4050    34.1780     2.2290 
