~V
VERS. 2.00: Ver 2.00
~W
STRT.M 61.0000:
STOP.M 267.0000:
STEP.M 0.1250:
NULL. -999.2500:
UWI. DF5036:
~C
DEPT.M :
SP.MV :
GR.API :
RML.OHMM :
RI. :
RXO.OHMM :
CALI.CM :
DEN.GM/CC :
~A
# ...
  241.0000    -8.6820    58.7350    33.7860    33.5300    32.3260    23.3990     2.4890 
  241.1250    -8.4560    60.9830    25.1130    25.3040    20.4410    23.2890     2.4500 
  241.2500    -8.2750    59.4720    18.0210    18.0410    14.5960    23.2690     2.4060 
  241.3750    -8.1410    56.7650    13.4380    13.0200    11.0830    23.2410     2.3690 
  241.5000    -8.0030    57.0780    11.0050    10.1230     9.6240    23.2040     2.3450 
  241.6250    -7.8810    60.2720    10.1820     8.9180    10.2110    23.2380     2.3380 
  241.7500    -7.8220    62.4800    10.0920     8.5720    11.1880    23.5140     2.3420 
  241.8750    -7.8140    62.2790    10.3380     8.7290    11.8660    23.7390     2.3540 
  242.0000    -7.8550    59.9200    10.6260     9.1190    11.9890    23.7820     2.3700 
  242.1250    -7.9620    55.8530    10.8170     9.5260    12.0480    23.7370     2.3860 
  242.2500    -8.0860    52.6480    10.9390     9.8340    12.3640    23.7350     2.4000 
  242.3750    -8.2430    51.1790    11.0970    10.0350    12.8320    23.7070     2.4100 
  242.5000    -8.4340    53.0000    11.2070    10.1620    13.0180    23.5720     2.4150 
  242.6250    -8.6150    58.1920    11.2590    10.2480    12.6820    23.4630     2.4160 
  242.7500    -8.7600    63.6240    11.2740    10.3080    12.2310    23.4810     2.4140 
  242.8750    -8.8770    66.1650    11.2660    10.3440    11.7250    23.5640     2.4100 
  243.0000    -8.9450    65.3920    11.3210    10.3630    11.6400    23.6070     2.4070 
  243.1250    -8.9550    64.1060    11.3810    10.3900    11.8420    23.5510     2.4070 
  243.2500    -8.9510    63.8570    11.4980    10.4430    11.9960    23.4770     2.4090 
  243.3750    -8.8950    64.7060    11.6860    10.5340    12.1700    23.4570     2.4150 
  243.5000    -8.7970    65.2890    11.9110    10.6600    12.2940    23.4690     2.4260 
  243.6250    -8.7540    63.4490    12.1370    10.8050    12.5900    23.4780     2.4400 
  243.7500    -8.7110    61.4410    12.3260    10.9290    13.6460    23.4450     2.4510 
  243.8750    -8.5950    60.1930    12.4260    10.9980    15.0680    23.3660     2.4550 
  244.0000    -8.5090    60.6780    12.4200    10.9870    16.4300    23.2900     2.4480 
  244.1250    -8.5130    63.8450    12.3110    10.8860    16.9220    23.3410     2.4320 
  244.2500    -8.5120    67.1330    12.1650    10.7440    15.6930    23.3720     2.4140 
  244.3750    -8.4910    66.5820    12.0380    10.6100    13.1300    23.3720     2.3990 
  244.5000    -8.4590    61.6840    11.9690    10.5240    11.6130    23.3550     2.3900 
  244.6250    -8.4270    58.7710    11.9840    10.5160    11.8590    23.2340     2.3900 
  244.7500    -8.4190    60.8980    12.0490    10.5640    12.7190    23.1600     2.3940 
  244.8750    -8.4430    64.4220    12.1310    10.6470    13.9410    23.1980     2.3990 
  245.0000    -8.4150    65.5570    12.2010    10.7370    14.5760    23.3160     2.4030 
  245.1250    -8.3310    63.4800    12.2320    10.8080    14.0340    23.4190     2.4000 
  245.2500    -8.2680    60.6980    12.2270    10.8470    13.1240    23.4950     2.3950 
  245.3750    -8.2370    59.6180    12.1980    10.8510    12.9380    23.5630     2.3910 
  245.5000    -8.2120    60.0140    12.1610    10.8280    13.0120    23.6070     2.3890 
  245.6250    -8.1010    59.6700    12.1390    10.7920    13.0420    23.6100     2.3940 
  245.7500    -7.9490    58.8320    12.1290    10.7540    12.9460    23.5970     2.4010 
  245.8750    -7.8120    60.7850    12.1020    10.7030    12.6180    23.5870     2.4090 
  246.0000    -7.7170    66.3820    12.0170    10.6140    12.1740    23.5580     2.4120 
  246.1250    -7.6120    70.3700    11.8210    10.4510    11.6670    23.4710     2.4090 
  246.2500    -7.4530    67.8740    11.5440    10.2320    11.2840    23.3860     2.4000 
  246.3750    -7.2620    62.4710    11.2580    10.0050    11.0400    23.3620     2.3900 
  246.5000    -7.1050    60.8940    11.0830     9.8600    11.1670    23.4730     2.3850 
  246.6250    -7.0160    64.8620    11.1900     9.9370    11.8550    23.6840     2.3960 
  246.7500    -6.9090    67.8930    11.6040    10.2740    13.4040    23.7250     2.4200 
  246.8750    -6.7840    65.8770    12.2980    10.8690    16.4780    23.5930     2.4530 
  247.0000    -6.6890    62.1730    13.1740    11.6590    20.6620    23.4020     2.4850 
  247.1250    -6.6550    59.6890    14.0460    12.5030    25.1730    23.5580     2.5030 
  247.2500    -6.6210    57.4040    14.7010    13.1980    27.3470    23.7820     2.5070 
  247.3750    -6.5910    55.6290    14.9920    13.5920    25.1050    23.8800     2.4980 
  247.5000    -6.5650    55.1150    14.8700    13.6030    21.8770    23.8950     2.4810 
  247.6250    -6.5570    55.8940    14.3770    13.2240    19.5010    23.9270     2.4600 
  247.7500    -6.5550    55.5410    13.7740    12.6790    18.0780    23.9420     2.4400 
  247.8750    -6.5400    54.5530    13.2520    12.1470    16.2930    23.9270     2.4240 
  248.0000    -6.5150    54.5370    12.9240    11.7550    15.2920    23.9140     2.4150 
  248.1250    -6.4690    56.1360    12.8330    11.5800    15.7180    23.9290     2.4140 
  248.2500    -6.4320    58.9600    12.8900    11.5640    16.6660    23.9510     2.4170 
  248.3750    -6.3770    61.9800    13.0340    11.6620    17.4570    23.9780     2.4220 
  248.5000    -6.3060    63.2280    13.2220    11.8310    17.8250    23.9960     2.4280 
  248.6250    -6.2170    60.3950    13.4550    12.0550    17.4840    24.0030     2.4360 
  248.7500    -6.1230    57.0360    13.7390    12.3260    16.8480    24.0040     2.4450 
  248.8750    -6.0320    56.2420    14.0790    12.6400    16.2340    24.0050     2.4530 
  249.0000    -5.9450    59.3740    14.4500    12.9800    16.0410    24.0050     2.4590 
  249.1250    -5.8240    62.7640    14.7880    13.2910    16.3450    24.0000     2.4610 
  249.2500    -5.7060    62.5430    15.0360    13.5230    16.7960    23.9850     2.4590 
  249.3750    -5.6430    60.2100    15.1650    13.6480    17.0770    23.9640     2.4570 
  249.5000    -5.5770    58.1950    15.1860    13.6640    17.2460    23.9590     2.4560 
  249.6250    -5.4840    57.2930    15.1290    13.5930    16.8120    23.9790     2.4560 
  249.7500    -5.4390    57.1060    15.0460    13.4830    16.2820    23.9920     2.4570 
  249.8750    -5.4090    59.2300    14.9490    13.3570    15.9920    23.9910     2.4590 
  250.0000    -5.3870    62.1650    14.8380    13.2280    16.2210    23.9830     2.4600 
  250.1250    -5.4140    61.0670    14.7370    13.1190    17.0010    23.9790     2.4570 
  250.2500    -5.4350    59.5160    14.7030    13.0720    18.0490    23.9800     2.4500 
  250.3750    -5.4560    62.0020    14.8040    13.1370    19.5430    23.9750     2.4400 
  250.5000    -5.5320    65.5200    15.0800    13.3490    23.3700    23.9520     2.4310 
  250.6250    -5.5970    64.3960    15.5280    13.7140    31.4030    23.9270     2.4240 
  250.7500    -5.6530    62.5160    16.0180    14.1370    41.3100    23.9320     2.4200 
  250.8750    -5.7420    62.9080    16.4350    14.5220    50.1470    23.9380     2.4180 
  251.0000    -5.7690    62.4050    16.6920    14.7880    52.0160    23.9080     2.4160 
  251.1250    -5.7760    60.1150    16.7340    14.8710    39.7380    23.8580     2.4150 
  251.2500    -5.8200    60.1700    16.6460    14.8230    26.2550    23.8400     2.4180 
  251.3750    -5.8270    63.2310    16.5090    14.7030    21.9360    23.8680     2.4270 
  251.5000    -5.7920    65.8240    16.3910    14.5710    22.1540    23.9050     2.4400 
  251.6250    -5.7870    64.4690    16.3410    14.4710    23.5270    23.9340     2.4490 
  251.7500    -5.7820    62.0960    16.3300    14.4020    24.6590    23.8830     2.4490 
  251.8750    -5.7500    62.2880    16.3140    14.3390    24.3610    23.7270     2.4430 
  252.0000    -5.7540    65.4210    16.2540    14.2560    22.9940    23.5650     2.4370 
  252.1250    -5.7730    67.6500    16.1170    14.1270    23.1050    23.4660     2.4400 
