~V
VERS. 2.00: Ver 2.00
~W
STRT.M 65.0000:
STOP.M 258.0000:
STEP.M 0.1250:
NULL. -999.2500:
UWI. DF5030:
~C
DEPT.M :
SP.MV :
GR.API :
RML.OHMM :
RI. :
RXO.OHMM :
CALI.CM :
DEN.GM/CC :
~A
   65.0000    -1.6330    43.6460     0.6620     0.0690     0.2880    25.2070     2.6230 
   65.1250    -4.5720    44.7530     1.0090     0.1500     1.3270    24.8520     2.5600 
   65.2500    -8.4470    49.1910     1.8110     0.3780     3.1160    24.2520     2.4460 
   65.3750   -12.8130    55.3790     2.9650     0.8570     5.7880    23.7520     2.3280 
   65.5000   -17.0470    58.0910     3.9010     1.5640     7.4320    23.4820     2.2340 
   65.6250   -20.9430    58.0660     4.6700     2.4190     8.2270    23.3800     2.1760 
   65.7500   -24.5120    59.5420     5.0540     3.2790     8.3070    23.3560     2.1510 
   65.8750   -27.7480    61.2850     5.0070     3.9650     8.3530    23.3880     2.1480 
   66.0000   -30.6210    60.5130     4.8730     4.4630     8.5140    23.4560     2.1500 
   66.1250   -32.9360    57.7350     4.8630     4.8260     8.7650    23.5210     2.1510 
   66.2500   -34.5640    55.6130     5.0080     5.1080     9.0020    23.5480     2.1500 
   66.3750   -35.6090    55.7230     5.2410     5.3240     9.1590    23.5500     2.1480 
   66.5000   -36.4650    53.5030     5.4710     5.4980     9.2450    23.5590     2.1470 
   66.6250   -37.1700    50.0600     5.6710     5.6450     9.2790    23.5820     2.1450 
   66.7500   -37.6770    49.1360     5.8490     5.7820     9.2920    23.6050     2.1450 
   66.8750   -37.9940    53.3170     6.0320     5.9270     9.3220    23.6780     2.1480 
   67.0000   -38.1380    57.5640     6.2300     6.0850     9.3090    23.7930     2.1550 
   67.1250   -38.0430    56.9990     6.4250     6.2460     9.2790    23.8710     2.1640 
   67.2500   -37.7200    58.8910     6.5900     6.3940     9.2080    23.8590     2.1720 
   67.3750   -37.1430    70.0320     6.6860     6.4880     9.0440    23.8020     2.1730 
   67.5000   -36.3370    84.3860     6.7090     6.5040     8.9720    23.7840     2.1660 
   67.6250   -35.4080    95.9950     6.6610     6.4260     8.9700    23.7630     2.1560 
   67.7500   -34.4180   101.9790     6.5540     6.2560     8.7480    23.7340     2.1480 
   67.8750   -33.4490   102.4660     6.4280     6.0350     8.4790    23.6990     2.1450 
   68.0000   -32.5710   101.5000     6.3820     5.8650     8.3610    23.6720     2.1470 
   68.1250   -31.7810   101.7960     6.5560     5.8710     8.3830    23.6720     2.1540 
   68.2500   -31.0730   102.3970     7.1140     6.1880     8.5840    23.6860     2.1700 
   68.3750   -30.5500   100.0300     8.2410     6.9760     9.5800    23.7210     2.2050 
   68.5000   -30.2490    96.4930     9.7480     8.1150    11.6050    23.8160     2.2580 
   68.6250   -30.0770    90.4490    11.3050     9.3850    14.7670    23.9670     2.3180 
   68.7500   -30.0170    84.5340    12.4350    10.4450    18.4960    24.0800     2.3670 
   68.8750   -30.1380    83.4360    12.5340    10.8260    20.5570    24.0810     2.3740 
   69.0000   -30.3620    83.7990    11.7150    10.4980    20.3140    24.0090     2.3400 
   69.1250   -30.6410    82.4970    10.4070     9.6660    17.6280    23.9560     2.2840 
   69.2500   -31.0060    81.9850     9.1710     8.6950    13.6140    23.9740     2.2310 
   69.3750   -31.4500    85.0410     8.4460     7.9560    10.3750    23.9350     2.2030 
   69.5000   -31.8240    85.9060     8.1740     7.5400     9.2570    23.8820     2.1960 
   69.6250   -32.0880    83.3430     8.2110     7.4110     9.1690    23.8480     2.2000 
   69.7500   -32.2940    81.3190     8.3830     7.4760     9.3580    23.7690     2.2010 
   69.8750   -32.3870    83.9460     8.5230     7.6200     9.7230    23.4810     2.1900 
   70.0000   -32.3580    90.3240     8.5430     7.7340     9.8160    23.1460     2.1700 
   70.1250   -32.2370    95.8090     8.4290     7.7680     9.1150    22.9590     2.1480 
   70.2500   -32.0620    96.8980     8.2060     7.7090     8.2890    22.8900     2.1310 
   70.3750   -31.8360    98.8080     7.9140     7.5580     7.8730    22.8530     2.1310 
   70.5000   -31.6040   104.9680     7.6170     7.3590     7.8240    22.8690     2.1460 
   70.6250   -31.4090   112.1600     7.3530     7.1440     7.7120    22.9720     2.1720 
   70.7500   -31.2620   118.2860     7.1500     6.9460     7.3720    23.1610     2.2000 
   70.8750   -31.1690   121.1100     7.0410     6.8040     6.9450    23.4210     2.2190 
   71.0000   -31.0940   119.0500     7.0290     6.7370     6.8020    23.6200     2.2270 
   71.1250   -31.1250   111.4890     7.1240     6.7620     6.9520    23.7180     2.2280 
   71.2500   -31.2440   101.7540     7.3190     6.8820     7.3020    23.7570     2.2260 
   71.3750   -31.4070    94.7390     7.5880     7.0880     7.9340    23.7780     2.2220 
   71.5000   -31.5830    90.6240     7.8590     7.3260     8.6310    23.7720     2.2180 
   71.6250   -31.7630    90.9970     8.0700     7.5460     9.1510    23.7580     2.2160 
   71.7500   -31.9400    94.7700     8.1810     7.7010     9.3020    23.7630     2.2170 
   71.8750   -32.1040    97.7650     8.1710     7.7440     8.7750    23.7850     2.2220 
   72.0000   -32.2420    98.0190     8.1010     7.7000     8.3710    23.7850     2.2260 
   72.1250   -32.3520    96.5410     8.0320     7.6050     8.1810    23.7580     2.2260 
   72.2500   -32.4650    95.0310     8.0410     7.5180     8.1990    23.7280     2.2220 
   72.3750   -32.5240    94.4790     8.2470     7.5350     8.3560    23.6890     2.2140 
   72.5000   -32.6110    93.7550     8.6740     7.7080     8.5080    23.6310     2.2080 
   72.6250   -32.7710    90.2540     9.2880     8.0480     8.8580    23.5460     2.2110 
   72.7500   -32.8980    81.5950     9.9700     8.5030     9.5660    23.4590     2.2250 
   72.8750   -32.9470    75.3490    10.4890     8.9320    10.5330    23.4520     2.2470 
   73.0000   -33.0230    78.3370    10.6830     9.1810    11.6240    23.5230     2.2640 
   73.1250   -33.1180    85.6000    10.4980     9.1660    12.5210    23.6310     2.2670 
   73.2500   -33.2210    90.6280    10.0160     8.8950    12.3480    23.6800     2.2550 
   73.3750   -33.3910    94.1460     9.4290     8.4790    10.5850    23.6850     2.2330 
   73.5000   -33.5450    99.3110     8.9480     8.1020     9.4150    23.6630     2.2130 
   73.6250   -33.6810    99.0510     8.6630     7.8570     8.9890    23.5990     2.2000 
   73.7500   -33.8990    86.4830     8.5750     7.7680     9.0450    23.4690     2.1930 
   73.8750   -34.1490    69.6990     8.6370     7.8100     9.1800    23.3940     2.1880 
   74.0000   -34.3990    62.3970     8.7410     7.8910     9.2780    23.4300     2.1820 
   74.1250   -34.6360    65.0740     8.8280     7.9590     9.3130    23.5210     2.1750 
   74.2500   -34.7780    67.4940     8.8690     7.9910     9.3010    23.5930     2.1690 
   74.3750   -34.8220    63.4620     8.8570     7.9850     9.2360    23.6190     2.1650 
   74.5000   -34.8600    62.9700     8.8150     7.9610     9.2710    23.6350     2.1660 
   74.6250   -34.8430    70.5940     8.7630     7.9280     9.4280    23.6410     2.1710 
   74.7500   -34.6920    78.0470     8.7120     7.8920     9.6520    23.6500     2.1780 
   74.8750   -34.5140    76.4450     8.6620     7.8570     9.8870    23.6580     2.1840 
   75.0000   -34.3500    73.7880     8.6130     7.8290     9.9110    23.6750     2.1870 
   75.1250   -34.1690    74.6970     8.5740     7.8120     9.7980    23.6700     2.1880 
   75.2500   -33.9660    78.1760     8.5550     7.8070     9.6770    23.6380     2.1860 
   75.3750   -33.7830    81.0110     8.5610     7.8020     9.6380    23.6140     2.1840 
   75.5000   -33.5810    81.9830     8.5750     7.7830     9.6710    23.6060     2.1810 
   75.6250   -33.3300    80.3550     8.5750     7.7350     9.7250    23.6070     2.1770 
   75.7500   -33.0870    79.9590     8.5450     7.6550     9.7410    23.6030     2.1720 
   75.8750   -32.8630    86.2110     8.4720     7.5470     9.5720    23.5940     2.1690 
   76.0000   -32.5620    91.2580     8.3750     7.4350     9.1890    23.5670     2.1700 
   76.1250   -32.2020    89.3690     8.2720     7.3370     8.6750    23.5000     2.1750 
