~V
VERS. 2.00: Ver 2.00
~W
STRT.M 59.0000:
STOP.M 243.0000:
STEP.M 0.1250:
NULL. -999.2500:
UWI. DF5058:
~C
DEPT.M :
GR.API :
CALI.CM :
RXO.OHMM :
RI. :
RML.OHMM :
DEN.GM/CC :
SP.MV :
~A
# ...
  126.5000    96.0180    24.6150     3.1200     3.7160     3.7060     2.3410   -32.3800 
  126.6250    96.2760    24.6860     3.0430     3.5570     3.6050     2.3510   -32.2600 
  126.7500    98.1430    24.6600     2.9790     3.4720     3.5670     2.3600   -32.2220 
  126.8750    97.6870    24.5870     2.8990     3.4850     3.6550     2.3660   -32.2390 
  127.0000    93.2650    24.5130     2.8680     3.6540     3.9620     2.3680   -32.2670 
  127.1250    87.7790    24.4190     3.3980     4.0840     4.6250     2.3660   -32.3330 
  127.2500    82.1080    24.2770     4.6700     4.7700     5.5880     2.3580   -32.4310 
  127.3750    76.1300    24.0650     7.9520     5.6630     6.7220     2.3400   -32.6110 
  127.5000    71.1450    23.8270    10.2500     6.6040     7.7660     2.3110   -32.8150 
  127.6250    68.9260    23.6970    10.4390     7.2550     8.3130     2.2780   -32.9710 
  127.7500    67.3670    23.7390     7.9070     7.4500     8.2890     2.2480   -33.1530 
  127.8750    68.1540    23.8790     6.7990     7.2330     7.8300     2.2260   -33.1900 
  128.0000    73.6840    23.9970     6.2740     6.7880     7.1840     2.2120   -33.2600 
  128.1250    80.0420    24.0970     6.0200     6.2920     6.5700     2.2110   -33.3030 
  128.2500    80.5690    24.2560     5.2280     5.8410     6.0610     2.2180   -33.2130 
  128.3750    79.3210    24.4640     4.9100     5.4490     5.6470     2.2300   -33.1530 
  128.5000    81.0610    24.6340     4.6620     5.1120     5.3120     2.2420   -32.8260 
  128.6250    84.2640    24.6590     4.2970     4.8540     5.0820     2.2520   -32.5560 
  128.7500    87.3820    24.5780     3.6670     4.6980     4.9820     2.2600   -32.1940 
  128.8750    89.9610    24.4880     3.5690     4.6720     5.0350     2.2670   -31.7870 
  129.0000    89.2960    24.4680     3.7530     4.7840     5.2350     2.2730   -31.4810 
  129.1250    84.4920    24.5070     3.9130     5.0210     5.5340     2.2700   -31.1280 
  129.2500    82.0310    24.5130     4.2710     5.2850     5.8030     2.2610   -30.9130 
  129.3750    83.7440    24.5010     4.8450     5.4690     5.9250     2.2520   -30.6280 
  129.5000    85.5020    24.5390     5.0900     5.4810     5.8240     2.2470   -30.4470 
  129.6250    85.0550    24.6240     4.7040     5.2710     5.4930     2.2500   -30.3350 
  129.7500    85.4320    24.6830     4.1080     4.9480     5.0810     2.2580   -30.1870 
  129.8750    89.1980    24.7180     3.5800     4.6070     4.7010     2.2680   -30.1040 
  130.0000    94.8720    24.7640     3.3260     4.3220     4.4240     2.2790   -29.9490 
  130.1250    95.4020    24.7670     3.5360     4.1510     4.2960     2.2900   -29.8230 
  130.2500    91.3660    24.6840     3.7720     4.0780     4.2760     2.3020   -29.6730 
  130.3750    87.9890    24.5640     3.7910     4.0800     4.3250     2.3110   -29.5000 
  130.5000    87.7560    24.4730     3.6980     4.1250     4.4060     2.3130   -29.4860 
  130.6250    88.2790    24.4570     3.8350     4.1820     4.4840     2.3060   -29.3870 
  130.7500    88.6410    24.5470     4.0170     4.2270     4.5340     2.2950   -29.4250 
  130.8750    90.8790    24.7170     3.9910     4.2490     4.5470     2.2870   -29.4810 
  131.0000    94.2760    24.8480     3.8090     4.2470     4.5300     2.2840   -29.5350 
  131.1250    95.7570    24.8110     3.8090     4.2310     4.5050     2.2850   -29.6830 
  131.2500    95.3790    24.6710     3.8280     4.2220     4.4970     2.2880   -29.7530 
  131.3750    94.7620    24.5360     3.7540     4.2250     4.5110     2.2890   -29.9810 
  131.5000    94.6270    24.4630     3.7880     4.2460     4.5440     2.2880   -30.0680 
  131.6250    95.2870    24.4330     3.7150     4.2960     4.6100     2.2830   -30.1980 
  131.7500    94.4940    24.4150     3.7960     4.3880     4.7270     2.2760   -30.3320 
  131.8750    90.4830    24.4520     3.7530     4.5440     4.9200     2.2690   -30.3720 
  132.0000    85.5110    24.5850     3.6060     4.7750     5.1990     2.2670   -30.5170 
  132.1250    84.9670    24.7130     3.7270     5.0740     5.5320     2.2690   -30.5640 
  132.2500    87.1970    24.7650     4.0800     5.3510     5.8030     2.2720   -30.6710 
  132.3750    86.6380    24.8170     4.4160     5.5000     5.8890     2.2680   -30.7260 
  132.5000    83.1220    24.9360     4.5580     5.4320     5.7080     2.2580   -30.7290 
  132.6250    82.9380    25.0520     4.4500     5.1020     5.2470     2.2440   -30.7810 
  132.7500    86.8340    25.2260     4.1110     4.6480     4.6840     2.2370   -30.7460 
  132.8750    93.8090    25.7130     3.8150     4.1950     4.1760     2.2380   -30.7070 
  133.0000   100.5490    26.5920     3.4900     3.8500     3.8410     2.2490   -30.6540 
  133.1250   101.2700    27.2000     3.1820     3.7120     3.7750     2.2660   -30.5820 
  133.2500    98.8490    27.0210     3.0820     3.7720     3.9380     2.2820   -30.5290 
  133.3750    97.8100    26.3670     3.3190     4.0180     4.2970     2.2970   -30.4570 
  133.5000    98.4500    25.8390     3.8250     4.4060     4.7820     2.3120   -30.3830 
  133.6250    94.1950    25.5660     4.4790     4.8560     5.2760     2.3210   -30.3230 
  133.7500    86.5360    25.2390     4.8570     5.2480     5.6600     2.3160   -30.2680 
  133.8750    82.0710    24.9110     4.7360     5.5140     5.8820     2.2930   -30.1950 
  134.0000    82.3290    24.7770     4.4240     5.6410     5.9590     2.2590   -30.0710 
  134.1250    84.2290    24.8390     4.4980     5.6530     5.9410     2.2270   -29.9330 
  134.2500    85.6840    24.9480     4.6110     5.6160     5.9000     2.2070   -29.7570 
  134.3750    86.5070    25.0300     4.8000     5.5670     5.8910     2.1960   -29.5060 
  134.5000    86.2090    25.0780     5.0980     5.5560     6.0050     2.1870   -29.3840 
  134.6250    83.4770    25.1190     5.2730     5.7300     6.4920     2.1820   -29.0760 
  134.7500    79.9620    25.1890     5.4160     6.2250     7.5070     2.1900   -28.7900 
  134.8750    77.8730    25.2530     5.7120     7.1530     9.0880     2.2190   -28.5850 
  135.0000    77.0330    25.2120     7.1610     8.4980    11.0130     2.2700   -28.2130 
  135.1250    74.1800    24.9990    12.2660     9.9300    12.6040     2.3430   -27.9040 
  135.2500    68.3680    24.7630    17.2740    10.8420    13.2290     2.4190   -27.4640 
  135.3750    63.0430    24.6430    17.5490    10.9710    12.8740     2.4750   -27.0600 
  135.5000    62.4020    24.6510    12.8430    10.6380    12.2360     2.4960   -26.5560 
  135.6250    65.4670    24.6800     8.6810    10.5610    12.4290     2.4930   -26.0780 
  135.7500    66.8780    24.6650     9.5120    11.2100    13.8710     2.4950   -25.6490 
  135.8750    64.1310    24.6390    14.9610    12.7890    16.5110     2.5100   -25.1440 
  136.0000    58.7720    24.6300    20.1980    15.2380    19.8290     2.5350   -24.7930 
  136.1250    54.9690    24.6190    24.4720    17.9090    22.5490     2.5580   -24.4580 
  136.2500    52.9710    24.5870    24.1630    19.6420    23.5940     2.5690   -24.2050 
  136.3750    50.4540    24.5560    21.4200    19.9650    22.9520     2.5680   -24.0100 
  136.5000    47.6540    24.5540    17.3780    19.3240    21.5610     2.5600   -23.8170 
  136.6250    46.7770    24.5640    15.9420    18.5430    20.5250     2.5490   -23.7320 
  136.7500    47.3840    24.5550    16.3110    18.0850    20.1230     2.5390   -23.5190 
  136.8750    47.4980    24.5410    17.7570    17.9590    20.1550     2.5300   -23.4360 
  137.0000    47.5200    24.5520    18.6810    18.0130    20.2990     2.5230   -23.3690 
  137.1250    47.8920    24.6160    17.7210    18.0650    20.3140     2.5190   -23.2200 
  137.2500    48.7990    24.6980    16.7320    18.0580    20.2250     2.5160   -23.1530 
  137.3750    50.5350    24.7490    16.5380    18.0420    20.1570     2.5090   -23.0090 
  137.5000    52.6140    24.7510    16.8970    18.0930    20.2100     2.4940   -23.0120 
  137.6250    54.7980    24.7100    18.3620    18.2510    20.3870     2.4730   -22.9240 
