~V
VERS. 2.00: Ver 2.00
~W
STRT.M 59.0000:
STOP.M 243.0000:
STEP.M 0.1250:
NULL. -999.2500:
UWI. DF5058:
~C
DEPT.M :
GR.API :
CALI.CM :
RXO.OHMM :
RI. :
RML.OHMM :
DEN.GM/CC :
SP.MV :
~A
# ...
  104.0000    83.1230    24.6350     5.8630     5.5500     6.1760     2.2000   -33.4280 
  104.1250    83.8120    24.7380     5.4960     5.7810     6.6120     2.2020   -34.0350 
  104.2500    83.9660    24.8420     6.2310     6.2020     7.2630     2.1990   -34.5500 
  104.3750    81.4760    24.8770     7.0560     6.7450     7.9790     2.1890   -35.1730 
  104.5000    75.4510    24.8190     7.8040     7.2550     8.5330     2.1730   -35.6790 
  104.6250    71.3340    24.6930     7.9600     7.4900     8.6540     2.1570   -36.2860 
  104.7500    71.6730    24.5690     7.8720     7.4150     8.4090     2.1460   -36.8330 
  104.8750    74.0520    24.4920     7.3900     7.1450     8.0120     2.1400   -37.3620 
  105.0000    74.3450    24.4350     7.0970     6.8640     7.7140     2.1370   -37.8610 
  105.1250    73.2840    24.3270     7.4830     6.7470     7.7190     2.1360   -38.3480 
  105.2500    73.7550    24.2090     8.0230     6.8240     7.9830     2.1340   -38.8390 
  105.3750    74.0310    24.1460     8.6160     7.0660     8.4020     2.1300   -39.3390 
  105.5000    71.9050    24.1350     9.4260     7.3900     8.8370     2.1230   -39.7770 
  105.6250    67.9270    24.1010    10.5950     7.6760     9.1420     2.1160   -40.2140 
  105.7500    66.2950    23.9700    11.3610     7.8530     9.2950     2.1100   -40.6060 
  105.8750    67.8770    23.7380    11.6550     7.9140     9.3180     2.1070   -40.9980 
  106.0000    69.8200    23.4880    11.1910     7.8830     9.2530     2.1060   -41.3920 
  106.1250    68.1660    23.3680    10.5560     7.7990     9.1460     2.1050   -41.7120 
  106.2500    63.7700    23.3850    10.4710     7.7140     9.0530     2.1020   -41.9910 
  106.3750    59.4100    23.4610    10.9600     7.6480     8.9990     2.1000   -42.1570 
  106.5000    58.7810    23.5310    11.4310     7.6140     9.0060     2.1000   -42.3970 
  106.6250    62.5650    23.5840    11.4350     7.6470     9.1140     2.1060   -42.4250 
  106.7500    65.9280    23.6770    11.1890     7.7590     9.3240     2.1170   -42.4960 
  106.8750    67.1550    23.8720    11.0100     7.9510     9.6210     2.1340   -42.5350 
  107.0000    68.9380    24.1660    10.6340     8.2000     9.9610     2.1530   -42.4800 
  107.1250    71.9540    24.4170    11.6870     8.4400    10.2400     2.1730   -42.4960 
  107.2500    72.5280    24.4930    12.8470     8.5830    10.3510     2.1890   -42.4650 
  107.3750    69.5960    24.4190    13.0300     8.5680    10.2280     2.1950   -42.4190 
  107.5000    66.4560    24.3140    12.3000     8.3930     9.8980     2.1850   -42.3080 
  107.6250    66.3900    24.2700    12.2250     8.1060     9.4620     2.1630   -42.2060 
  107.7500    66.6230    24.2660    11.8940     7.8160     9.0730     2.1380   -42.0950 
  107.8750    65.2420    24.2670    11.5010     7.5980     8.8180     2.1170   -41.8460 
  108.0000    63.4040    24.2690    11.4250     7.5020     8.7270     2.1050   -41.6580 
  108.1250    63.6260    24.2900    11.4970     7.5540     8.7830     2.1040   -41.3460 
  108.2500    65.5900    24.3230    11.6290     7.6970     8.9000     2.1080   -40.9780 
  108.3750    66.3130    24.3400    11.9330     7.8860     9.0280     2.1160   -40.5890 
  108.5000    65.0740    24.3130    12.5200     8.0780     9.1270     2.1260   -40.0140 
  108.6250    62.8270    24.2400    12.4800     8.1960     9.1090     2.1320   -39.5310 
  108.7500    59.8680    24.1500    11.9670     8.1600     8.8910     2.1320   -38.8830 
  108.8750    57.5440    24.0490    11.5810     7.8830     8.3910     2.1260   -38.2170 
  109.0000    57.8250    23.9320    11.4920     7.3250     7.5950     2.1180   -37.4940 
  109.1250    62.3920    23.8400    10.3290     6.5310     6.5990     2.1160   -36.6310 
  109.2500    70.1490    23.8590     7.4080     5.7040     5.6440     2.1280   -35.7900 
  109.3750    79.7200    24.0460     4.4510     4.9880     4.8910     2.1550   -34.8010 
  109.5000    90.6650    24.3140     3.3300     4.4750     4.4220     2.1880   -33.9300 
  109.6250    97.0860    24.4760     3.5450     4.2340     4.2760     2.2180   -33.0560 
  109.7500    93.9860    24.5120     4.1180     4.2050     4.3360     2.2390   -32.2320 
  109.8750    86.1140    24.5090     4.1820     4.3270     4.4990     2.2520   -31.6160 
  110.0000    82.0350    24.5160     3.7560     4.5100     4.6590     2.2600   -31.1300 
  110.1250    85.5410    24.5010     3.6040     4.6430     4.7060     2.2670   -30.8420 
  110.2500    91.2580    24.4630     4.0520     4.6670     4.6310     2.2730   -30.6950 
  110.3750    94.9040    24.4390     4.3780     4.5840     4.4690     2.2800   -30.7560 
  110.5000    95.9930    24.4480     4.2620     4.4370     4.2880     2.2880   -31.0260 
  110.6250    94.6330    24.4880     3.5590     4.3060     4.1820     2.2960   -31.2810 
  110.7500    92.8490    24.5290     3.5240     4.2550     4.1970     2.3030   -31.7000 
  110.8750    91.5550    24.5450     3.6570     4.3140     4.3450     2.3040   -32.1350 
  111.0000    87.7230    24.5340     3.9960     4.4740     4.5970     2.2970   -32.5160 
  111.1250    79.5500    24.5280     4.7180     4.6820     4.8750     2.2820   -32.9950 
  111.2500    71.6430    24.5560     5.2250     4.8430     5.0710     2.2650   -33.4420 
  111.3750    69.2540    24.6020     5.1610     4.8870     5.1150     2.2540   -33.9830 
  111.5000    71.0400    24.6340     4.8100     4.7870     4.9990     2.2520   -34.3800 
  111.6250    71.0700    24.6300     4.4030     4.5880     4.8150     2.2590   -34.8070 
  111.7500    68.3940    24.6110     4.5930     4.4420     4.7690     2.2680   -35.2840 
  111.8750    67.3870    24.6070     5.0580     4.4980     5.0580     2.2780   -35.6360 
  112.0000    69.4940    24.6310     5.7110     4.8850     5.8370     2.2910   -36.0980 
  112.1250    72.9330    24.6720     6.9740     5.7710     7.2450     2.3180   -36.5450 
  112.2500    74.9040    24.7090    11.9590     7.0680     9.0110     2.3610   -36.9920 
  112.3750    73.2890    24.7360    19.8970     8.5350    10.6820     2.4150   -37.4420 
  112.5000    68.4720    24.7080    21.8440     9.6790    11.6510     2.4560   -37.8520 
  112.6250    64.7920    24.5520    15.9870     9.8930    11.3970     2.4440   -38.3870 
  112.7500    64.1510    24.3300    11.3980     9.4160    10.4510     2.3870   -38.8590 
  112.8750    65.6240    24.1430    10.5760     8.6970     9.4290     2.3140   -39.2840 
  113.0000    65.9410    24.0500    10.4890     8.1080     8.7680     2.2490   -39.7110 
  113.1250    63.2760    24.0280    10.5990     7.8580     8.6500     2.2100   -39.9700 
  113.2500    60.8050    24.0610    10.9480     7.8780     8.8670     2.1920   -40.1380 
  113.3750    60.8850    24.1760    11.3960     8.0980     9.2830     2.1870   -40.2110 
  113.5000    61.2940    24.3320    11.4110     8.4610     9.7910     2.1860   -40.1550 
  113.6250    58.4490    24.4540    10.6060     8.8630    10.2060     2.1860   -39.9760 
  113.7500    56.5820    24.5360     9.9270     9.0850    10.2840     2.1940   -39.6560 
  113.8750    59.1000    24.5800    11.0580     8.9290     9.8390     2.2190   -39.2290 
  114.0000    62.9050    24.5610    16.2170     8.3310     8.8700     2.2640   -38.6770 
  114.1250    65.5320    24.4660    18.4790     7.4090     7.6290     2.3150   -38.0580 
  114.2500    70.5260    24.3480    12.7720     6.5070     6.5660     2.3420   -37.4430 
  114.3750    77.0170    24.2090     6.1080     5.8370     5.9250     2.3250   -36.7710 
  114.5000    79.4820    24.0470     5.8960     5.4940     5.7480     2.2810   -36.2710 
  114.6250    75.8050    23.9000     7.1210     5.5150     5.9590     2.2410   -35.8100 
  114.7500    73.0060    23.8210     7.2480     5.7320     6.2670     2.2210   -35.4360 
  114.8750    74.6560    23.8130     6.4850     5.9580     6.4280     2.2200   -35.3370 
  115.0000    79.1550    23.8310     5.9560     5.9970     6.2880     2.2310   -35.1830 
  115.1250    81.4870    23.8270     5.7140     5.7600     5.8640     2.2440   -35.1730 
