~V
VERS. 2.00: Ver 2.00
~W
STRT.M 59.0000:
STOP.M 253.0000:
STEP.M 0.1250:
NULL. -999.2500:
UWI. DF5043:
~C
DEPT.M :
SP.MV :
GR.API :
CALI.CM :
RXO.OHMM :
RI. :
RML.OHMM :
DEN.GM/CC :
~A
# ...
  194.0000   -25.1220    93.4440    24.2420    13.2870     8.8500     9.6630     2.4640 
  194.1250   -25.1300    95.2350    24.1700    12.9340     8.6940     9.5000     2.4890 
  194.2500   -25.1260    96.6250    24.0570    12.1450     8.3550     9.1470     2.4970 
  194.3750   -25.0990    97.2830    24.1150    11.1540     7.8550     8.6270     2.4860 
  194.5000   -25.0490    97.9600    24.2170    10.1660     7.3110     8.0600     2.4630 
  194.6250   -24.9790    97.8660    24.2900     9.2220     6.8180     7.5470     2.4310 
  194.7500   -24.8950    96.3860    24.3340     8.2680     6.4530     7.1670     2.4030 
  194.8750   -24.8070    95.3020    24.4350     7.1440     6.2850     6.9930     2.3980 
  195.0000   -24.7210    95.8050    24.5100     6.2320     6.2760     6.9830     2.4060 
  195.1250   -24.6370    97.0630    24.4190     6.2720     6.3770     7.0880     2.4100 
  195.2500   -24.5530    98.0560    24.2390     7.6270     6.5140     7.2310     2.4040 
  195.3750   -24.4660    98.0320    24.1800     9.5450     6.5850     7.3050     2.4000 
  195.5000   -24.3750    95.7880    24.1890    10.4540     6.5320     7.2500     2.3960 
  195.6250   -24.2790    90.3360    24.1340     9.8110     6.3410     7.0510     2.3920 
  195.7500   -24.1760    82.1720    23.9950     8.1680     6.0440     6.7420     2.3900 
  195.8750   -24.0670    72.6120    23.8600     6.6660     5.7070     6.3910     2.3940 
  196.0000   -23.9530    63.7470    23.7730     5.7830     5.4100     6.0820     2.3910 
  196.1250   -23.8340    57.8230    23.6690     5.4720     5.1940     5.8570     2.3790 
  196.2500   -23.7120    56.4640    23.5250     5.4180     5.0680     5.7260     2.3700 
  196.3750   -23.5820    59.0300    23.4460     5.3650     5.0220     5.6780     2.3770 
  196.5000   -23.4420    61.9570    23.4520     5.2620     5.0200     5.6760     2.3890 
  196.6250   -23.2910    64.2240    23.5320     5.1310     5.0460     5.7030     2.3930 
  196.7500   -23.1350    66.7010    23.5970     5.0440     5.0870     5.7460     2.3840 
  196.8750   -22.9840    70.1080    23.7030     5.1010     5.1380     5.7990     2.3700 
  197.0000   -22.8520    73.2550    23.8390     5.2920     5.1940     5.8570     2.3660 
  197.1250   -22.7480    75.7430    23.8850     5.5200     5.2550     5.9200     2.3750 
  197.2500   -22.6750    78.7040    23.8840     5.7390     5.3180     5.9860     2.3900 
  197.3750   -22.6300    83.4860    23.9330     5.9340     5.3810     6.0520     2.3980 
  197.5000   -22.5980    89.1060    23.9980     6.0010     5.4390     6.1120     2.3930 
  197.6250   -22.5670    93.6860    24.0040     5.9540     5.4910     6.1660     2.3820 
  197.7500   -22.5300    95.4210    23.9020     5.9380     5.5430     6.2200     2.3760 
  197.8750   -22.4850    93.7150    23.6910     6.1250     5.6040     6.2830     2.3820 
  198.0000   -22.4330    91.6160    23.5980     6.4600     5.6750     6.3570     2.3880 
  198.1250   -22.3730    91.1460    23.7090     6.8450     5.7630     6.4500     2.3850 
  198.2500   -22.2990    91.6440    23.8760     7.1610     5.8780     6.5690     2.3770 
  198.3750   -22.2040    91.8470    23.9400     7.4060     6.0320     6.7290     2.3750 
  198.5000   -22.0880    92.4510    23.9830     7.6260     6.2230     6.9280     2.3750 
  198.6250   -21.9580    94.2520    24.0070     7.7270     6.4500     7.1650     2.3740 
  198.7500   -21.8190    97.5020    24.0090     7.7480     6.7050     7.4300     2.3770 
  198.8750   -21.6760   101.7180    23.9980     8.1930     6.9830     7.7190     2.3800 
  199.0000   -21.5330   103.6610    24.0090     8.9380     7.2720     8.0200     2.3740 
  199.1250   -21.3960   100.4730    24.0190     9.4160     7.5710     8.3310     2.3530 
  199.2500   -21.2710    93.1990    24.0100     9.3250     7.8930     8.6670     2.3290 
  199.3750   -21.1700    86.8590    23.9840     9.1480     8.2980     9.0890     2.3180 
  199.5000   -21.0950    84.3930    23.9770     9.5320     8.8550     9.6680     2.3180 
  199.6250   -21.0520    84.7210    23.9610    10.4620     9.6550    10.5010     2.3240 
  199.7500   -21.0440    85.6600    23.9060    11.5080    10.8100    11.7220     2.3340 
  199.8750   -21.0830    86.0100    23.8120    12.5720    12.5390    13.5840     2.3430 
  200.0000   -21.1690    86.6300    23.6850    14.0440    14.8710    16.1070     2.3490 
  200.1250   -21.3030    87.4840    23.5840    16.9880    17.8590    19.2930     2.3490 
  200.2500   -21.4880    86.2790    23.5550    22.8290    21.5070    23.1530     2.3450 
  200.3750   -21.7300    81.5760    23.5800    30.8820    25.8150    27.7060     2.3310 
  200.5000   -22.0140    77.6140    23.5790    38.8400    30.5140    32.6730     2.3030 
  200.6250   -22.3330    77.4460    23.5860    43.7210    35.4400    37.8810     2.2690 
  200.7500   -22.6770    79.7770    23.6020    43.3420    40.4710    43.1980     2.2470 
  200.8750   -23.0430    80.4610    23.5050    38.4180    45.5690    48.5860     2.2430 
  201.0000   -23.4280    79.1360    23.3140    36.0010    50.7430    54.0560     2.2380 
  201.1250   -23.8320    77.8190    23.1870    40.8940    56.0350    59.6490     2.2190 
  201.2500   -24.2560    77.2850    23.2550    52.5880    61.3850    65.3040     2.1940 
  201.3750   -24.6850    77.0750    23.4840    64.7220    66.4550    70.6630     2.1810 
  201.5000   -25.0950    76.7430    23.7180    74.6770    70.8930    75.3540     2.1800 
  201.6250   -25.4630    76.9060    23.8520    83.5790    74.4010    79.0610     2.1850 
  201.7500   -25.7760    78.2000    23.8980    90.4300    76.8150    81.6140     2.1870 
  201.8750   -26.0230    80.3220    23.8680    94.5410    78.1050    82.9770     2.1830 
  202.0000   -26.2220    80.8920    23.8660    95.7370    78.8230    83.7360     2.1800 
  202.1250   -26.3900    78.4770    23.8740    95.1560    79.4330    84.3810     2.1840 
  202.2500   -26.5390    74.6580    23.8130    92.2510    80.3310    85.3300     2.1970 
  202.3750   -26.6830    72.9910    23.6440    88.1680    82.2040    87.3100     2.2150 
  202.5000   -26.8280    73.6380    23.4950    83.6410    85.4670    90.7590     2.2290 
  202.6250   -26.9760    74.9670    23.5010    79.1470    90.3080    95.8750     2.2350 
  202.7500   -27.1220    75.7950    23.6610    81.7670    96.4310   102.3470     2.2330 
  202.8750   -27.2600    75.5260    23.8710   102.5190   103.0980   109.3950     2.2260 
  203.0000   -27.3840    74.4410    24.0220   131.3790   109.1500   115.7920     2.2200 
  203.1250   -27.4910    74.7290    24.0530   150.8260   113.7930   120.6990     2.2220 
  203.2500   -27.5800    77.9460    23.9810   152.4200   116.7400   123.8150     2.2300 
  203.3750   -27.6450    82.0250    23.8980   143.3560   118.1210   125.2740     2.2300 
  203.5000   -27.6910    85.0020    23.9180   135.5360   119.0010   126.2040     2.2180 
  203.6250   -27.7120    87.0410    24.0480   131.4310   120.4380   127.7230     2.1990 
  203.7500   -27.7060    86.8710    24.1880   130.0520   123.4830   130.9420     2.1900 
  203.8750   -27.6630    81.2930    24.2760   133.6040   129.0430   136.8190     2.1950 
  204.0000   -27.5910    73.4170    24.2890   144.8380   136.4610   144.6590     2.2040 
  204.1250   -27.5000    67.7920    24.2670   162.9620   145.1130   153.8040     2.2050 
  204.2500   -27.4060    65.4940    24.2550   182.3670   154.2270   163.4380     2.1950 
  204.3750   -27.3300    64.4250    24.2600   198.4740   162.7340   172.4300     2.1800 
  204.5000   -27.2780    63.8510    24.2470   210.5360   169.8040   179.9030     2.1690 
  204.6250   -27.2480    64.0600    24.2450   216.6560   174.8410   185.2270     2.1640 
  204.7500   -27.2320    64.5810    24.2710   217.8670   177.5130   188.0520     2.1620 
  204.8750   -27.2270    64.4860    24.2480   217.6250   177.3320   187.8590     2.1580 
  205.0000   -27.2340    64.3380    24.1340   215.8660   174.5200   184.8880     2.1560 
  205.1250   -27.2540    64.9290    23.9440   208.5580   168.5360   178.5630     2.1620 
