~V
VERS. 2.00: Ver 2.00
~W
STRT.M 60.0000:
STOP.M 268.0000:
STEP.M 0.1250:
NULL. -999.2500:
UWI. DF5039:
~C
DEPT.M :
DEN.GM/CC :
GR.API :
CALI.CM :
RXO.OHMM :
RI. :
RML.OHMM :
SP.MV :
~A
# ...
   71.2500     2.2350    70.6280    23.8430    10.0210    10.9700    11.6700   -39.6130 
   71.3750     2.1920    72.5970    23.6290     8.3930     9.3810     9.7820   -39.9520 
   71.5000     2.1670    73.6370    23.5250     8.0830     8.3660     8.7970   -40.2580 
   71.6250     2.1600    75.6010    23.5000     8.2990     7.9630     8.5790   -40.5830 
   71.7500     2.1580    80.5240    23.5090     8.9750     7.8700     8.6440   -40.8610 
   71.8750     2.1540    84.6080    23.5620     9.5200     7.8940     8.7360   -41.1230 
   72.0000     2.1450    84.3200    23.6430     9.1760     7.8880     8.7100   -41.3440 
   72.1250     2.1320    81.2110    23.6730     7.9950     7.7770     8.5330   -41.4920 
   72.2500     2.1200    78.6100    23.6350     7.4990     7.6080     8.3000   -41.6230 
   72.3750     2.1120    77.4190    23.5760     7.4000     7.4320     8.0800   -41.7300 
   72.5000     2.1080    77.5050    23.5360     7.3560     7.2830     7.9060   -41.7960 
   72.6250     2.1080    77.3320    23.5460     7.1770     7.1720     7.7850   -41.7970 
   72.7500     2.1070    73.0220    23.6210     7.0070     7.0770     7.6910   -41.8030 
   72.8750     2.1040    67.4690    23.7400     6.9280     6.9870     7.6100   -41.7510 
   73.0000     2.0980    66.1630    23.8380     6.8840     6.8970     7.5420   -41.7130 
   73.1250     2.0900    67.4220    23.8680     6.8210     6.8160     7.4950   -41.6450 
   73.2500     2.0820    67.0930    23.8670     6.7860     6.7540     7.4720   -41.5530 
   73.3750     2.0770    65.5630    23.8650     6.8380     6.7200     7.4840   -41.4680 
   73.5000     2.0760    64.7920    23.8640     6.9190     6.7250     7.5410   -41.3690 
   73.6250     2.0800    64.3260    23.8650     7.0120     6.7720     7.6540   -41.2180 
   73.7500     2.0870    64.1680    23.8650     7.0160     6.8430     7.7920   -41.0420 
   73.8750     2.0980    65.9640    23.8640     7.0120     6.9150     7.9230   -40.8610 
   74.0000     2.1070    68.0740    23.8640     7.0150     6.9730     8.0180   -40.6660 
   74.1250     2.1140    69.1390    23.8770     7.0140     7.0040     8.0620   -40.4740 
   74.2500     2.1160    70.5060    23.9000     7.0020     7.0200     8.0850   -40.2870 
   74.3750     2.1160    72.7750    23.9200     7.0800     7.0440     8.1230   -40.0770 
   74.5000     2.1170    73.7560    23.9330     7.2690     7.0900     8.1950   -39.8710 
   74.6250     2.1210    71.8690    23.9470     7.5380     7.1630     8.2970   -39.6870 
   74.7500     2.1310    70.6900    23.9730     7.7590     7.2350     8.3870   -39.4700 
   74.8750     2.1430    72.0960    24.0030     7.9290     7.2760     8.4290   -39.2540 
   75.0000     2.1530    75.1100    23.9910     7.9320     7.2600     8.4000   -39.0000 
   75.1250     2.1580    76.5210    23.8810     7.7420     7.1780     8.3060   -38.7900 
   75.2500     2.1560    77.0330    23.7380     7.5250     7.0780     8.2060   -38.5660 
   75.3750     2.1480    77.4490    23.6430     7.5280     7.0020     8.1450   -38.3570 
   75.5000     2.1390    76.4040    23.6200     7.6730     6.9760     8.1390   -38.1390 
   75.6250     2.1310    73.4320    23.6250     7.9490     7.0100     8.1860   -37.9110 
   75.7500     2.1260    69.4990    23.6260     7.8880     7.0730     8.2450   -37.6750 
   75.8750     2.1250    65.1290    23.6250     7.5550     7.1340     8.2860   -37.3990 
   76.0000     2.1260    62.2760    23.6260     7.3560     7.1640     8.2850   -37.0860 
   76.1250     2.1260    65.4130    23.6270     7.3700     7.1440     8.2250   -36.6980 
   76.2500     2.1260    71.2450    23.6110     7.4200     7.0830     8.1210   -36.2870 
   76.3750     2.1250    74.1170    23.5530     7.3310     6.9880     7.9830   -35.8220 
   76.5000     2.1280    72.3090    23.4550     7.1200     6.8690     7.8180   -35.3430 
   76.6250     2.1360    70.5060    23.3620     6.8210     6.7200     7.6190   -34.8680 
   76.7500     2.1510    72.5840    23.3080     6.5830     6.5380     7.3800   -34.3490 
   76.8750     2.1730    76.6890    23.2810     6.4460     6.3160     7.0970   -33.8730 
   77.0000     2.2010    78.9970    23.2640     6.2590     6.0540     6.7870   -33.4340 
   77.1250     2.2270    79.6790    23.2650     5.9340     5.7780     6.5030   -33.0320 
   77.2500     2.2440    83.3790    23.3010     5.6800     5.5510     6.3240   -32.6810 
   77.3750     2.2500    89.6110    23.3690     5.5640     5.4420     6.3210   -32.4000 
   77.5000     2.2470    92.3880    23.4400     5.5570     5.5000     6.5180   -32.1610 
   77.6250     2.2420    90.0820    23.4670     5.6980     5.7320     6.8730   -31.9700 
   77.7500     2.2420    88.3270    23.4580     6.0950     6.0150     7.2160   -31.8480 
   77.8750     2.2450    88.1840    23.4470     6.5320     6.2210     7.4030   -31.7230 
   78.0000     2.2530    87.8080    23.4740     6.5360     6.2670     7.3790   -31.6480 
   78.1250     2.2730    88.7750    23.6070     6.0890     6.1800     7.2300   -31.5980 
   78.2500     2.3050    92.8590    23.8230     5.7930     6.1040     7.1480   -31.5600 
   78.3750     2.3430    96.3570    24.0340     5.8820     6.1240     7.2120   -31.5460 
   78.5000     2.3730    95.4150    24.1540     6.6510     6.2420     7.3880   -31.5690 
   78.6250     2.3690    93.2040    24.1590     8.0220     6.3730     7.5170   -31.5920 
   78.7500     2.3330    92.7060    24.1240     8.9380     6.3880     7.4470   -31.6890 
   78.8750     2.2840    93.3490    24.0930     8.2160     6.2310     7.1590   -31.8330 
   79.0000     2.2370    93.2850    24.0610     6.6710     5.9580     6.7860   -32.0130 
   79.1250     2.1980    93.6680    23.9970     5.8150     5.7360     6.5760   -32.2140 
   79.2500     2.1690    95.4620    23.8960     5.8530     5.6940     6.6460   -32.4150 
   79.3750     2.1520    94.9190    23.7620     6.0540     5.8670     6.9740   -32.5800 
   79.5000     2.1510    89.2090    23.6200     6.4860     6.1930     7.4080   -32.6720 
   79.6250     2.1640    83.0720    23.5700     7.2350     6.4800     7.6570   -32.6660 
   79.7500     2.1840    83.4180    23.6570     8.0340     6.5300     7.5480   -32.6140 
   79.8750     2.2050    89.0680    23.8290     7.8940     6.2790     7.0850   -32.4950 
   80.0000     2.2200    94.6570    23.9810     6.6440     5.8090     6.4330   -32.3570 
   80.1250     2.2290    97.8120    24.0610     5.1790     5.3050     5.8490   -32.2020 
   80.2500     2.2360    99.5620    24.1000     4.7780     4.9380     5.5010   -32.0570 
   80.3750     2.2400   100.1370    24.0780     4.7880     4.7830     5.4440   -31.9520 
   80.5000     2.2380    99.8390    23.9490     5.1540     4.8610     5.6590   -31.9060 
   80.6250     2.2290    98.0280    23.6830     5.3960     5.1600     6.0770   -31.9520 
   80.7500     2.2160    94.9320    23.3760     5.6010     5.5460     6.5190   -31.9930 
   80.8750     2.1990    90.2300    23.1260     5.8820     5.9090     6.8480   -32.0680 
   81.0000     2.1790    84.5590    22.9970     6.0310     6.1570     6.9880   -32.1010 
   81.1250     2.1670    79.6770    23.0120     5.9690     6.2330     6.9310   -32.1170 
   81.2500     2.1660    78.3340    23.0840     5.6410     6.2000     6.7920   -32.0680 
   81.3750     2.1780    82.2430    23.1520     5.4410     6.1160     6.6410   -31.9820 
   81.5000     2.2000    89.6100    23.1590     5.3460     6.0130     6.5000   -31.8920 
   81.6250     2.2230    93.2750    23.0340     5.3380     5.8730     6.3310   -31.8180 
   81.7500     2.2410    91.2710    22.8790     5.2970     5.6640     6.0860   -31.7460 
   81.8750     2.2530    89.6460    22.8190     5.1800     5.3740     5.7540   -31.6830 
   82.0000     2.2650    92.1140    22.9020     4.9180     5.0250     5.3690   -31.6570 
   82.1250     2.2730    96.9470    23.1040     4.5890     4.6760     5.0090   -31.6710 
   82.2500     2.2730   102.0550    23.4110     4.5540     4.3850     4.7350   -31.7720 
   82.3750     2.2670   106.4990    23.8250     4.6840     4.1770     4.5610   -31.9300 
