~V
VERS. 2.00: Ver 2.00
~W
STRT.M 55.0000:
STOP.M 274.0000:
STEP.M 0.1250:
NULL. -999.2500:
UWI. DF5018:
~C
DEPT.M :
SP.MV :
GR.API :
CALI.CM :
RXO.OHMM :
RI. :
RML.OHMM :
DEN.GM/CC :
~A
# ...
   77.5000   -30.4430    71.0770    22.9230     9.1240     7.1750     8.8630     2.1260 
   77.6250   -30.4870    69.5510    22.9340     9.2910     7.2810     8.4560     2.1250 
   77.7500   -30.4220    68.5470    22.9750     9.9060     8.0680     8.8390     2.1450 
   77.8750   -30.3190    68.5420    23.0770    11.9970     9.8930    10.5200     2.2080 
   78.0000   -30.1620    66.9890    23.2820    18.8200    13.1070    14.0520     2.3190 
   78.1250   -29.9090    63.2520    23.6020    35.6030    17.9530    19.9240     2.4490 
   78.2500   -29.7020    61.3680    23.9010    54.4560    22.7530    25.7520     2.5370 
   78.3750   -29.4300    61.6270    24.0450    58.2050    24.6990    27.5190     2.5520 
   78.5000   -29.1860    61.8540    23.9490    42.6240    22.4060    23.7370     2.5050 
   78.6250   -28.9480    61.5570    23.5130    24.8350    17.8480    18.0080     2.4200 
   78.7500   -28.7440    63.8300    22.9760    15.5240    13.8580    13.8420     2.3230 
   78.8750   -28.5580    67.9670    22.6580    12.2770    11.0550    11.5310     2.2350 
   79.0000   -28.3510    70.9670    22.5670    11.5070     9.3300    10.5760     2.1760 
   79.1250   -28.3190    70.2530    22.5690    11.3120     8.5130    10.5990     2.1490 
   79.2500   -28.2900    67.7280    22.5860    10.8730     8.2180    11.1400     2.1320 
   79.3750   -28.3570    65.6680    22.6320    10.2260     8.2400    11.8900     2.1160 
   79.5000   -28.4540    65.3330    22.6890     9.6520     8.3760    12.3900     2.1050 
   79.6250   -28.6180    66.9980    22.7210     9.2920     8.4340    12.2210     2.1070 
   79.7500   -28.8330    70.0460    22.7360     9.0400     8.3890    11.6170     2.1180 
   79.8750   -29.0610    73.2050    22.7420     8.9860     8.3120    10.8260     2.1340 
   80.0000   -29.3330    75.7620    22.7390     9.1870     8.2600    10.1050     2.1480 
   80.1250   -29.4930    77.4980    22.7350     9.4890     8.2420     9.7340     2.1500 
   80.2500   -29.6530    78.9940    22.7380     9.6330     8.2470     9.7590     2.1440 
   80.3750   -29.6900    80.5880    22.7540     9.7230     8.2890    10.1930     2.1480 
   80.5000   -29.7170    80.3960    22.7940    10.4050     8.3890    10.9760     2.1830 
   80.6250   -29.6610    75.5480    22.8780    13.0160     8.5690    11.9570     2.2650 
   80.7500   -29.5590    69.8880    23.0160    17.2020     8.7650    12.7240     2.3490 
   80.8750   -29.4750    67.0280    23.2250    18.3830     8.8740    12.9830     2.3770 
   81.0000   -29.3450    67.7210    23.4510    14.9530     8.8300    12.7600     2.3290 
   81.1250   -29.3100    69.1850    23.6800    11.5970     8.6550    12.4230     2.2410 
   81.2500   -29.2500    70.5130    23.8000    10.4360     8.4830    12.3830     2.1780 
   81.3750   -29.2410    71.3810    23.8950    10.3410     8.4060    12.6610     2.1530 
   81.5000   -29.2290    71.2660    23.9900    10.5150     8.4640    13.0030     2.1500 
   81.6250   -29.1710    71.5250    24.0350    10.6130     8.6230    13.0570     2.1520 
   81.7500   -29.1160    71.6700    24.0480    10.5240     8.7450    12.7530     2.1560 
   81.8750   -28.9740    70.0670    24.0490    10.3460     8.7330    12.2570     2.1600 
   82.0000   -28.8880    67.8820    24.0490    10.1680     8.5810    11.7160     2.1590 
   82.1250   -28.7270    68.9700    24.0490     9.8490     8.3480    11.0520     2.1570 
   82.2500   -28.6040    72.2760    24.0490     9.4130     8.1000    10.2520     2.1630 
   82.3750   -28.4760    73.9580    24.0490     9.0130     7.8540     9.5390     2.1750 
   82.5000   -28.3390    72.6900    24.0490     8.7510     7.6340     9.2820     2.1810 
   82.6250   -28.2780    71.5120    24.0490     8.5990     7.5130     9.7460     2.1760 
   82.7500   -28.2350    71.8440    24.0490     8.6150     7.5540    10.6120     2.1670 
   82.8750   -28.2930    70.8900    24.0490     8.9030     7.7700    11.6170     2.1580 
   83.0000   -28.3260    68.3070    24.0490     9.2530     8.0910    12.5370     2.1500 
   83.1250   -28.4570    69.2290    24.0490     9.4540     8.3860    13.1820     2.1530 
   83.2500   -28.5430    72.6560    24.0490     9.5700     8.5940    13.4840     2.1720 
   83.3750   -28.6420    73.1980    24.0490     9.6460     8.7330    13.3670     2.1960 
   83.5000   -28.7110    69.2750    24.0490     9.6150     8.8240    12.8640     2.2010 
   83.6250   -28.7610    66.4230    24.0490     9.5300     8.8380    12.1780     2.1750 
   83.7500   -28.7350    66.8500    24.0490     9.4990     8.7560    11.7110     2.1440 
   83.8750   -28.6180    68.8960    24.0490     9.5710     8.5890    11.6260     2.1240 
   84.0000   -28.4970    71.5510    24.0490     9.6640     8.4380    11.8210     2.1150 
   84.1250   -28.2170    72.7830    24.0490     9.6680     8.4340    12.2700     2.1130 
   84.2500   -27.9570    71.2030    24.0490     9.5900     8.5610    12.7820     2.1240 
   84.3750   -27.6610    68.1000    24.0490     9.5610     8.7360    13.1150     2.1550 
   84.5000   -27.3080    66.4860    24.0600     9.6090     8.9100    13.0790     2.1950 
   84.6250   -26.9130    67.5520    24.1320     9.6530     9.2260    12.7740     2.2190 
   84.7500   -26.4570    68.2450    24.2850     9.7840     9.9720    12.8630     2.2170 
   84.8750   -25.9820    68.4950    24.4490    10.5200    11.5070    14.1310     2.2150 
   85.0000   -25.4470    70.3250    24.5580    13.1260    14.1590    17.2860     2.2520 
   85.1250   -24.9070    72.2150    24.6450    24.3030    18.0540    22.6220     2.3660 
   85.2500   -24.3400    71.5710    24.7450    46.8600    21.6520    27.5840     2.5120 
   85.3750   -23.7860    71.9860    24.8370    63.6470    22.4390    28.3830     2.6170 
   85.5000   -23.3730    78.7060    24.8850    55.6170    19.3010    23.6470     2.6280 
   85.6250   -22.9770    90.5410    24.8970    28.1020    14.3190    16.8880     2.5490 
   85.7500   -22.7540   100.5620    24.8940    12.0530    10.1210    11.6740     2.4620 
   85.8750   -22.6230   107.2610    24.8940     6.5790     7.2010     8.3930     2.4050 
   86.0000   -22.6660   111.1240    24.8930     5.5110     5.3940     6.6340     2.3740 
   86.1250   -22.8700   111.1750    24.8750     5.5590     4.5600     6.1160     2.3430 
   86.2500   -23.2080   107.8110    24.8210     5.6100     4.3580     6.3480     2.3040 
   86.3750   -23.6660   100.0860    24.7010     5.8340     4.6270     7.1240     2.2640 
   86.5000   -24.1110    91.0580    24.4360     6.4200     5.1950     8.1950     2.2300 
   86.6250   -24.6510    84.3240    24.1000     7.5180     5.9400     9.3070     2.2000 
   86.7500   -25.1180    79.2580    23.8020     8.8850     6.8110    10.3610     2.1730 
   86.8750   -25.5800    74.4760    23.6630    10.2590     7.8640    11.3900     2.1630 
   87.0000   -25.9170    70.1550    23.6570    11.8040     9.1200    12.4710     2.1960 
   87.1250   -26.2230    67.0730    23.7760    16.0870    10.4310    13.6620     2.2980 
   87.2500   -26.3960    65.5770    23.9470    25.1460    11.4000    14.7290     2.4150 
   87.3750   -26.4630    66.7380    24.0830    30.6460    11.6390    15.1560     2.4730 
   87.5000   -26.5150    70.7580    24.1090    25.1290    11.0590    14.5290     2.4310 
   87.6250   -26.4020    72.9070    24.0530    15.1290     9.9430    13.0300     2.3160 
   87.7500   -26.3260    71.9890    24.0180    10.6080     8.8160    11.4820     2.2170 
   87.8750   -26.1850    70.2550    24.0010     9.5060     7.9310    10.3240     2.1640 
   88.0000   -26.0510    68.7880    23.9910     9.2960     7.4060     9.7610     2.1480 
   88.1250   -25.9140    67.4880    23.9880     9.2980     7.3000     9.7940     2.1470 
   88.2500   -25.7920    67.5130    23.9870     9.3510     7.4400    10.0050     2.1490 
   88.3750   -25.7480    70.6450    23.9860     9.3870     7.6850    10.0940     2.1540 
   88.5000   -25.6670    75.8360    23.9860     9.3050     7.9260    10.0030     2.1700 
   88.6250   -25.7030    80.0790    23.9870     9.1540     8.1020     9.9350     2.2060 
