~V
VERS. 2.00: Ver 2.00
~W
STRT.M 55.0000:
STOP.M 261.0000:
STEP.M 0.1250:
NULL. -999.2500:
UWI. DF5033:
~C
DEPT.M :
SP.MV :
GR.API :
CALI.CM :
RXO.OHMM :
RI. :
RML.OHMM :
DEN.GM/CC :
~A
# ...
   66.2500   -22.2830    70.6430    25.1480     7.9080     7.8400    10.3340     2.1220 
   66.3750   -22.4370    75.4640    25.1220     7.7100     7.7750    10.1670     2.1280 
   66.5000   -22.6050    78.1740    25.0790     7.5840     7.7020    10.0280     2.1470 
   66.6250   -22.7560    75.6090    25.0300     7.7540     7.6580     9.9360     2.1690 
   66.7500   -22.8850    74.5950    24.9840     8.0390     7.6480     9.8630     2.1780 
   66.8750   -22.9980    76.8710    24.9480     8.2280     7.6590     9.7780     2.1710 
   67.0000   -23.1010    78.5880    24.9280     8.2730     7.6670     9.6720     2.1530 
   67.1250   -23.2130    77.0850    24.9380     8.2240     7.6500     9.5650     2.1380 
   67.2500   -23.3180    74.8650    24.9810     8.1470     7.6080     9.4880     2.1380 
   67.3750   -23.3950    73.2810    25.0450     8.1150     7.5510     9.4570     2.1490 
   67.5000   -23.4250    71.7540    25.1130     8.1800     7.4850     9.4500     2.1610 
   67.6250   -23.4150    71.0550    25.1630     8.2700     7.3990     9.3950     2.1610 
   67.7500   -23.3630    73.7170    25.1900     8.2930     7.2730     9.2320     2.1490 
   67.8750   -23.2480    77.1410    25.2010     8.2680     7.0880     8.9250     2.1370 
   68.0000   -23.0580    76.2710    25.2120     8.2400     6.8460     8.4950     2.1360 
   68.1250   -22.7680    70.6250    25.2440     8.1930     6.6230     8.1380     2.1430 
   68.2500   -22.3680    66.4090    25.3120     8.1130     6.5860     8.1900     2.1450 
   68.3750   -21.8790    65.7520    25.4290     8.0150     6.8980     8.9270     2.1470 
   68.5000   -21.3330    67.3720    25.5980     8.1220     7.6500    10.4590     2.1700 
   68.6250   -20.7500    69.2140    25.8130    10.1820     8.7810    12.5490     2.2390 
   68.7500   -20.1760    73.4500    26.0360    16.1330     9.7680    14.0790     2.3300 
   68.8750   -19.6690    81.5260    26.2320    22.0690     9.9800    13.8550     2.4010 
   69.0000   -19.2660    91.6490    26.3690    20.8040     9.1230    11.6960     2.4150 
   69.1250   -18.9870   100.6890    26.4200    12.5350     7.6110     8.8760     2.3710 
   69.2500   -18.8220   105.3630    26.4110     6.9670     6.2530     6.7260     2.3140 
   69.3750   -18.7570   102.2150    26.3690     5.2050     5.3690     5.5610     2.2720 
   69.5000   -18.7500    93.6120    26.3190     4.9810     5.0610     5.3700     2.2470 
   69.6250   -18.7240    89.0250    26.2800     5.0670     5.4240     6.1530     2.2370 
   69.7500   -18.6340    89.1090    26.2530     5.3470     6.2550     7.5110     2.2390 
   69.8750   -18.4550    89.7530    26.2360     6.2110     7.3170     9.0260     2.2630 
   70.0000   -18.1820    92.0960    26.2240     7.8960     8.2220    10.1100     2.3120 
   70.1250   -17.8350    98.9980    26.2180     9.2940     8.4120    10.0440     2.3710 
   70.2500   -17.4620   106.9510    26.2210     8.8530     7.8800     9.0390     2.3970 
   70.3750   -17.0770   113.3920    26.2440     6.9330     6.9340     7.6580     2.3810 
   70.5000   -16.7090   118.4740    26.2960     5.1810     5.9600     6.4400     2.3550 
   70.6250   -16.4480   118.6380    26.3830     4.5400     5.2350     5.6930     2.3590 
   70.7500   -16.3330   115.0360    26.4780     4.3780     4.7690     5.3130     2.3790 
   70.8750   -16.3810   112.5250    26.5460     4.3420     4.5020     5.1510     2.3840 
   71.0000   -16.5930   112.0880    26.5520     4.3780     4.3430     5.0360     2.3690 
   71.1250   -17.0450   110.3470    26.4610     4.4320     4.2570     4.9300     2.3570 
   71.2500   -17.6990   106.0710    26.3040     4.4230     4.2960     5.0020     2.3560 
   71.3750   -18.5360   101.5590    26.1150     4.3590     4.5570     5.4700     2.3540 
   71.5000   -19.5310    97.9220    25.9270     4.5390     5.1210     6.4920     2.3540 
   71.6250   -20.6490    92.2080    25.7640     6.3670     6.0670     8.1870     2.3680 
   71.7500   -21.7860    83.7380    25.6200    10.7770     7.2120    10.1620     2.3770 
   71.8750   -22.8810    75.1740    25.4890    15.4300     8.2430    11.7760     2.3540 
   72.0000   -23.8950    70.3300    25.3740    15.9690     8.7730    12.3270     2.2940 
   72.1250   -24.7070    71.6260    25.2890    11.9790     8.5580    11.5730     2.2190 
   72.2500   -25.3060    74.9260    25.2340     8.8980     7.9770    10.4030     2.1620 
   72.3750   -25.7130    78.1640    25.2030     7.9050     7.3650     9.4250     2.1410 
   72.5000   -25.9400    80.5640    25.1830     7.6880     6.9380     8.9080     2.1500 
   72.6250   -25.9620    81.4530    25.1610     7.4820     6.8060     8.9160     2.1610 
   72.7500   -25.8310    80.1300    25.1400     7.4250     6.8890     9.2390     2.1580 
   72.8750   -25.5860    77.7920    25.1270     7.5590     7.1230     9.7520     2.1460 
   73.0000   -25.2700    76.7820    25.1280     7.7330     7.4330    10.3410     2.1360 
   73.1250   -24.9110    77.2030    25.1440     7.8060     7.7000    10.8160     2.1320 
   73.2500   -24.5590    78.4980    25.1650     7.8020     7.8060    11.0000     2.1270 
   73.3750   -24.2350    79.5900    25.1830     7.7340     7.6980    10.8240     2.1240 
   73.5000   -23.9550    79.7370    25.1950     7.5820     7.4130    10.3740     2.1270 
   73.6250   -23.7910    80.5750    25.2050     7.3720     7.0700     9.8750     2.1340 
   73.7500   -23.7750    82.4920    25.2150     7.2450     6.8160     9.5660     2.1370 
   73.8750   -23.9130    83.9350    25.2270     7.3280     6.7290     9.5700     2.1390 
   74.0000   -24.1980    83.1830    25.2370     7.6340     6.8310     9.9080     2.1500 
   74.1250   -24.6640    80.3500    25.2370     7.9960     7.1020    10.5090     2.1710 
   74.2500   -25.2460    77.0990    25.2240     8.2380     7.4230    11.1380     2.1880 
   74.3750   -25.9060    74.1270    25.2050     8.3820     7.7000    11.6030     2.1930 
   74.5000   -26.6110    72.5510    25.2010     8.4970     7.8670    11.7920     2.1880 
   74.6250   -27.2940    72.1040    25.2570     8.5460     7.8890    11.7010     2.1790 
   74.7500   -27.9000    72.0810    25.3910     8.4850     7.8250    11.5090     2.1700 
   74.8750   -28.4010    70.7520    25.5910     8.3760     7.7250    11.3310     2.1600 
   75.0000   -28.7800    68.9020    25.8160     8.3500     7.6330    11.2230     2.1480 
   75.1250   -28.9770    68.4560    26.0040     8.4980     7.5670    11.1770     2.1410 
   75.2500   -29.0170    71.1110    26.1230     8.6870     7.5000    11.1180     2.1440 
   75.3750   -28.8960    73.9930    26.1720     8.7640     7.4030    10.9950     2.1540 
   75.5000   -28.6260    73.3240    26.1560     8.6180     7.2640    10.7980     2.1670 
   75.6250   -28.1880    71.2440    26.0630     8.1420     7.1080    10.5640     2.1740 
   75.7500   -27.6380    71.4650    25.9000     7.5270     6.9880    10.3710     2.1720 
   75.8750   -27.0030    72.1310    25.6760     7.1160     6.9370    10.2780     2.1660 
   76.0000   -26.2900    69.7260    25.4290     7.1270     6.9540    10.2760     2.1620 
   76.1250   -25.5230    66.3550    25.2160     7.4010     6.9820    10.2410     2.1660 
   76.2500   -24.7430    67.1440    25.0770     7.6180     6.9230    10.0170     2.1800 
   76.3750   -23.9970    73.2710    25.0270     7.6940     6.7200     9.5380     2.2070 
   76.5000   -23.3180    83.0260    25.0630     7.4880     6.3780     8.8750     2.2420 
   76.6250   -22.7560    89.9340    25.1730     6.8150     5.9700     8.2280     2.2720 
   76.7500   -22.3020    90.9800    25.3030     6.0670     5.6120     7.7640     2.2860 
   76.8750   -21.9350    88.2750    25.4170     5.6660     5.3660     7.5270     2.2830 
   77.0000   -21.6490    87.1720    25.4870     5.6480     5.2530     7.4790     2.2650 
   77.1250   -21.4520    88.8560    25.4990     5.6860     5.2710     7.5570     2.2420 
   77.2500   -21.3180    87.3790    25.4770     5.5960     5.3550     7.6800     2.2280 
   77.3750   -21.2150    82.2630    25.4370     5.4930     5.4560     7.8100     2.2300 
