~V
VERS. 2.00: Ver 2.00
~W
STRT.M 55.0000:
STOP.M 271.0000:
STEP.M 0.1250:
NULL. -999.2500:
UWI. DF5016:
~C
DEPT.M :
SP.MV :
GR.API :
CALI.CM :
RXO.OHMM :
RI. :
RML.OHMM :
DEN.GM/CC :
~A
# ...
  167.5000   -43.3050    85.6420    22.5940    47.2140    77.2720    82.4180     2.2580 
  167.6250   -43.2960    84.0170    22.9980    52.7480    77.7340    82.9090     2.2460 
  167.7500   -43.3010    79.9600    23.5510    61.2170    79.3770    84.6570     2.2410 
  167.8750   -43.3110    77.0570    23.8920    69.6950    82.4980    87.9780     2.2320 
  168.0000   -43.3110    76.8780    23.9320    75.1210    87.2960    93.0830     2.2060 
  168.1250   -43.3000    77.3240    23.8400    79.1340    94.2830   100.5170     2.1670 
  168.2500   -43.3100    76.2210    23.7430    89.5200   103.3120   110.1240     2.1370 
  168.3750   -43.3660    73.7360    23.7210   110.0600   114.2490   121.7610     2.1280 
  168.5000   -43.4750    70.6560    23.7440   133.7210   126.4680   134.7620     2.1370 
  168.6250   -43.6230    67.8020    23.7390   144.6810   138.4260   147.4850     2.1580 
  168.7500   -43.7820    66.3680    23.5800   139.4820   148.1720   157.8550     2.1780 
  168.8750   -43.9550    67.7720    23.3000   124.1840   153.9460   163.9980     2.1880 
  169.0000   -44.1500    71.6890    22.9500   105.6080   154.6080   164.7030     2.1860 
  169.1250   -44.3700    75.9230    22.6480    89.6560   149.4430   159.2080     2.1800 
  169.2500   -44.5810    79.1420    22.5780    81.3520   140.8480   150.0620     2.1760 
  169.3750   -44.7500    81.7040    22.6930    78.3110   130.9340   139.5140     2.1750 
  169.5000   -44.8580    83.1620    22.8570    77.4760   121.6550   129.6410     2.1730 
  169.6250   -44.9060    81.4220    22.9030    80.7460   114.8120   122.3600     2.1740 
  169.7500   -44.9180    77.7890    22.9540    87.5340   110.7150   118.0010     2.1770 
  169.8750   -44.8940    75.0220    23.1840    92.3350   109.4480   116.6520     2.1850 
  170.0000   -44.8170    74.1790    23.6290    92.9760   110.7680   118.0570     2.1970 
  170.1250   -44.6710    73.5850    24.0320    95.7680   114.1100   121.6130     2.2040 
  170.2500   -44.4890    72.0140    24.1930   101.7820   117.6040   125.3300     2.1990 
  170.3750   -44.3080    70.2050    24.1820   107.0030   119.8100   127.6780     2.1870 
  170.5000   -44.1490    69.4390    24.0840   108.5280   119.9420   127.8190     2.1790 
  170.6250   -44.0130    70.1310    24.0480   107.7880   117.8110   125.5510     2.1840 
  170.7500   -43.8790    70.9940    24.0830   107.2290   114.7860   122.3320     2.1950 
  170.8750   -43.7520    71.4080    24.1030   102.1600   112.6640   120.0750     2.2060 
  171.0000   -43.6510    71.6420    24.0550    87.4630   113.7630   121.2430     2.2160 
  171.1250   -43.5990    71.9010    23.9730    70.2540   121.1510   129.1040     2.2250 
  171.2500   -43.5760    71.7790    23.9270    66.5160   134.9200   143.7540     2.2270 
  171.3750   -43.5580    70.8760    23.8900    81.2670   154.4430   164.5280     2.2160 
  171.5000   -43.5310    68.7410    23.8660   106.0450   177.2840   188.8300     2.1940 
  171.6250   -43.4950    65.1730    23.8310   124.7480   198.4190   211.3180     2.1750 
  171.7500   -43.4600    61.9430    23.7290   132.9490   212.6870   226.4990     2.1670 
  171.8750   -43.4200    61.1890    23.6290   132.6640   216.6270   230.6910     2.1680 
  172.0000   -43.3630    63.4690    23.6130   128.0270   209.9700   223.6080     2.1680 
  172.1250   -43.2730    67.0490    23.6110   121.1380   196.3350   209.1000     2.1580 
  172.2500   -43.1620    69.4410    23.5650   112.8130   183.2660   195.1950     2.1460 
  172.3750   -43.0390    70.1360    23.4920   105.0640   174.5800   185.9530     2.1460 
  172.5000   -42.9040    70.1620    23.3730   101.4820   171.2150   182.3720     2.1600 
  172.6250   -42.7440    70.6630    23.2360   102.6930   170.8300   181.9640     2.1770 
  172.7500   -42.5590    70.8580    23.1030   105.4140   167.4780   178.3960     2.1890 
  172.8750   -42.3640    69.8650    23.0330   107.3570   157.1450   167.4020     2.1980 
  173.0000   -42.1760    68.5130    23.0010   107.9060   138.5570   147.6240     2.2050 
  173.1250   -41.9970    68.5480    22.9800   106.6410   113.5110   120.9760     2.2000 
  173.2500   -41.8080    70.0910    22.9770   101.0720    87.7830    93.6010     2.1900 
  173.3750   -41.5930    72.9850    22.9820    86.8390    65.1560    69.5260     2.1910 
  173.5000   -41.3570    77.6950    22.9520    63.3900    47.7090    50.9620     2.2170 
  173.6250   -41.1310    83.9510    22.8670    37.8960    36.5650    39.1050     2.2670 
  173.7500   -40.9460    89.4050    22.7790    21.2490    29.6980    31.7980     2.3080 
  173.8750   -40.8110    92.2370    22.7230    14.3530    25.7860    27.6360     2.3250 
  174.0000   -40.7220    92.8510    22.6990    12.8350    23.8630    25.5900     2.3200 
  174.1250   -40.6760    94.2550    22.6840    12.4090    23.7480    25.4680     2.3100 
  174.2500   -40.6720    96.9660    22.6620    11.4550    25.3730    27.1960     2.3070 
  174.3750   -40.7270    97.6350    22.5810    10.8300    29.4680    31.5540     2.3110 
  174.5000   -40.8580    93.3400    22.4420    11.3380    37.1500    39.7280     2.3150 
  174.6250   -41.0780    85.7610    22.3020    14.5940    50.5480    53.9830     2.3020 
  174.7500   -41.3470    79.8000    22.2680    22.7620    69.9800    74.6590     2.2730 
  174.8750   -41.6330    76.7260    22.4290    36.4730    95.9400   102.2800     2.2390 
  175.0000   -41.9170    75.3830    22.7760    51.8360   127.6850   136.0570     2.2110 
  175.1250   -42.2050    73.5290    23.0940    62.3100   162.3190   172.9070     2.1850 
  175.2500   -42.5130    71.2580    23.1890    66.6630   194.6510   207.3090     2.1610 
  175.3750   -42.8420    70.2970    23.1360    66.1840   221.0450   235.3920     2.1450 
  175.5000   -43.1690    70.9630    23.0210    62.7400   239.6150   255.1510     2.1400 
  175.6250   -43.4500    71.4810    22.8380    57.6060   249.7770   265.9630     2.1410 
  175.7500   -43.6750    70.8920    22.6260    53.1260   253.3800   269.7960     2.1430 
  175.8750   -43.8510    70.1990    22.5440    50.1290   248.8390   264.9650     2.1430 
  176.0000   -43.9870    70.6520    22.5860    48.4670   234.1210   249.3040     2.1420 
  176.1250   -44.0630    73.2440    22.5350    46.7410   208.9830   221.9320     2.1370 
  176.2500   -44.0590    77.3320    22.3380    42.8980   179.6550   189.3680     2.1290 
  176.3750   -43.9550    81.3870    22.0870    36.7030   150.8460   157.6090     2.1280 
  176.5000   -43.7480    83.7500    21.8260    29.7480   126.2520   131.3440     2.1450 
  176.6250   -43.4310    83.6410    21.5630    24.2990   109.1470   113.6060     2.1770 
  176.7500   -43.0210    82.5900    21.2770    20.8130    98.5200   102.5850     2.2070 
  176.8750   -42.5090    82.1890    20.9700    18.5410    93.3080    97.1810     2.2190 
  177.0000   -41.8940    82.7570    20.7190    16.9420    92.2330    96.0660     2.2140 
  177.1250   -41.1990    82.1340    20.6670    16.6810    94.2280    98.1340     2.1990 
  177.2500   -40.4950    79.5850    20.7910    18.7450    97.2970   101.3170     2.1810 
  177.3750   -39.8270    76.2560    20.9420    23.5690   100.1380   104.2630     2.1550 
  177.5000   -39.2140    73.1380    20.8950    29.4230   101.5480   105.7250     2.1190 
  177.6250   -38.6650    70.3740    20.4720    32.9720   100.1800   104.3060     2.0840 
  177.7500   -38.1770    68.3110    19.8180    33.3390    96.2310   100.2120     2.0680 
  177.8750   -37.7680    67.3030    19.1510    31.8130    90.2670    94.0270     2.0820 
  178.0000   -37.4510    67.2280    18.6430    30.1230    83.2590    86.7590     2.1180 
  178.1250   -37.2230    68.6450    18.3550    29.5880    76.4630    79.7120     2.1570 
  178.2500   -37.0270    70.9970    18.2250    29.7060    70.9240    73.9680     2.1830 
  178.3750   -36.8300    72.3610    18.3470    30.4620    67.2750    70.1840     2.1980 
  178.5000   -36.6260    71.5690    18.8190    33.3480    65.9190    68.7780     2.2080 
  178.6250   -36.4430    69.7910    19.6630    40.5560    67.5290    70.4480     2.2110 
