~V
VERS. 2.00: Ver 2.00
~W
STRT.M 55.0000:
STOP.M 268.0000:
STEP.M 0.1250:
NULL. -999.2500:
UWI. DF5025:
~C
DEPT.M :
SP.MV :
GR.API :
CALI.CM :
RXO.OHMM :
RI. :
RML.OHMM :
DEN.GM/CC :
~A
# ...
  212.5000   -43.2240    56.9860    26.2210    99.6830    88.2740   101.0510     2.2330 
  212.6250   -43.3640    56.2070    25.7200    95.0420    82.7230    95.1130     2.2770 
  212.7500   -43.5330    55.7790    25.3220    98.7560    80.4820    92.9050     2.3170 
  212.8750   -43.7560    56.0880    25.0800    99.8700    81.2680    94.1600     2.3390 
  213.0000   -43.9920    59.1940    24.8900    97.3180    85.0250    98.7660     2.3410 
  213.1250   -44.2090    64.7510    24.7920   105.0040    92.1650   106.9810     2.3300 
  213.2500   -44.4060    68.3600    24.7770   130.4010   101.5690   117.3740     2.3170 
  213.3750   -44.5810    67.3320    24.8280   164.0480   111.7300   128.1250     2.3020 
  213.5000   -44.7520    62.6870    24.8760   187.4340   120.3600   136.6520     2.2830 
  213.6250   -44.9200    61.5280    24.8670   188.0480   124.3150   139.5770     2.2550 
  213.7500   -45.0920    63.3950    24.8450   176.9520   123.4010   137.0750     2.2240 
  213.8750   -45.2510    64.4110    24.8770   163.1560   118.7010   130.5860     2.1990 
  214.0000   -45.4230    62.8080    25.0040   150.5750   112.1560   122.3310     2.1860 
  214.1250   -45.6450    61.2500    25.2090   142.4180   105.6300   114.3800     2.1850 
  214.2500   -45.9180    63.1590    25.3840   138.7130   100.0700   107.7400     2.1910 
  214.3750   -46.2490    67.0200    25.4110   134.5020    95.8410   102.8350     2.2030 
  214.5000   -46.6310    67.4940    25.2350   123.9780    93.3340   100.0310     2.2180 
  214.6250   -47.0780    62.8820    24.9640   108.9570    93.6220   100.3230     2.2350 
  214.7500   -47.5880    60.1310    24.7830    99.6740    97.1130   103.9970     2.2440 
  214.8750   -48.1860    62.6810    24.7130   100.8650   104.4320   111.7940     2.2370 
  215.0000   -48.8900    67.0090    24.6630   110.6450   115.8500   124.2780     2.2160 
  215.1250   -49.6720    65.8150    24.5460   126.7960   131.3260   141.8360     2.2040 
  215.2500   -50.4700    61.3950    24.4450   149.0490   148.4350   161.7240     2.2100 
  215.3750   -51.2350    57.7820    24.5250   177.4590   164.7800   180.9230     2.2250 
  215.5000   -51.8960    56.0670    24.7740   207.7290   178.1210   196.4950     2.2340 
  215.6250   -52.3820    55.7350    24.9800   231.9530   186.4740   206.0120     2.2330 
  215.7500   -52.6600    57.0120    25.0780   248.6900   190.6510   210.7150     2.2270 
  215.8750   -52.6730    59.8440    25.1650   262.0670   191.0900   211.3270     2.2170 
  216.0000   -52.3780    61.3710    25.2720   276.9550   187.7490   207.7850     2.2030 
  216.1250   -51.7660    59.6930    25.3060   288.3090   179.4370   198.6180     2.1920 
  216.2500   -50.9500    59.5970    25.2970   281.1990   167.0340   184.9380     2.1880 
  216.3750   -49.9970    62.1570    25.2750   247.6620   151.9280   168.6010     2.1920 
  216.5000   -48.9880    63.8000    25.2850   197.4890   136.2800   152.1950     2.1970 
  216.6250   -48.0220    63.1220    25.5020   155.0050   122.6000   138.4150     2.2010 
  216.7500   -47.1560    63.2230    25.8850   131.5500   111.7700   127.8000     2.2090 
  216.8750   -46.3830    63.9950    26.1430   122.7140   103.8650   120.1410     2.2210 
  217.0000   -45.6660    64.0520    25.9460   119.5670    98.4860   114.9060     2.2330 
  217.1250   -44.9880    62.9690    25.3450   116.7720    95.3110   111.9050     2.2420 
  217.2500   -44.3440    62.1220    24.8720   114.8550    93.4180   110.4300     2.2510 
  217.3750   -43.7360    61.3440    24.7030   115.7930    92.3570   110.0130     2.2590 
  217.5000   -43.1510    60.2100    24.7330   118.9140    91.7470   109.9940     2.2650 
  217.6250   -42.5560    59.7860    24.7190   119.3260    91.2310   109.4900     2.2700 
  217.7500   -41.9580    59.6760    24.6620   114.6890    90.4770   107.9150     2.2820 
  217.8750   -41.3910    60.9370    24.5840   108.5510    89.2320   104.9240     2.3000 
  218.0000   -40.9010    62.9290    24.5280   107.3420    87.2250   100.4020     2.3180 
  218.1250   -40.4810    62.6000    24.5370   113.8840    83.9730    94.3610     2.3280 
  218.2500   -40.0980    60.8850    24.5910   120.4000    79.5900    87.7100     2.3430 
  218.3750   -39.7210    60.0500    24.6340   121.1250    74.5100    81.4570     2.3760 
  218.5000   -39.3210    60.7200    24.6420   117.6130    69.6650    76.7600     2.4310 
  218.6250   -38.8470    62.7070    24.6340   117.8870    66.3390    74.7240     2.4980 
  218.7500   -38.3130    66.5490    24.6400   123.8190    64.1990    73.8750     2.5620 
  218.8750   -37.7120    71.5240    24.6460   130.1370    61.4100    71.2120     2.6190 
  219.0000   -37.0490    74.1180    24.6450   129.6530    55.4520    63.5530     2.6720 
  219.1250   -36.3750    72.8910    24.6390   114.8460    44.7340    49.8340     2.7100 
  219.2500   -35.7300    71.3890    24.5620    87.6420    32.2920    34.7550     2.7170 
  219.3750   -35.1550    70.0090    24.8710    54.6910    21.2040    22.2360     2.6780 
  219.5000   -34.6920    67.8640    25.4870    26.2960    13.1830    13.8890     2.6010 
  219.6250   -34.3960    65.7090    25.3510    11.2650     8.5900     9.3670     2.5150 
  219.7500   -34.2100    64.6450    24.3160     5.5400     6.0220     6.6730     2.4480 
  219.8750   -34.1060    63.9140    23.3300     4.0940     4.7600     5.1280     2.4050 
  220.0000   -34.0350    64.0000    23.1280     3.9340     4.2810     4.4700     2.3820 
  220.1250   -33.9100    69.7140    23.2820     4.4440     4.3500     4.5670     2.3800 
  220.2500   -33.7010    80.5280    23.3070     5.5720     4.7430     5.0720     2.3920 
  220.3750   -33.3780    90.2940    23.3180     7.0000     5.3170     5.8100     2.4090 
  220.5000   -32.9120    93.1540    23.3580     8.0190     5.9160     6.5800     2.4200 
  220.6250   -32.3090    89.2980    23.5910     8.0440     6.3500     7.1380     2.4220 
  220.7500   -31.6630    86.7180    24.0140     7.5850     6.5540     7.4010     2.4210 
  220.8750   -31.0190    89.6850    24.4540     7.1910     6.5450     7.3890     2.4210 
  221.0000   -30.4390    98.5920    24.7350     7.0660     6.3990     7.2020     2.4210 
  221.1250   -30.0030   108.4750    24.8340     7.0690     6.2000     6.9450     2.4170 
  221.2500   -29.6980   116.3290    24.8740     7.0220     6.0090     6.7010     2.4150 
  221.3750   -29.5290   120.8260    24.8890     6.9180     5.8510     6.4970     2.4180 
  221.5000   -29.4910   122.2300    24.8810     6.7990     5.7370     6.3510     2.4210 
  221.6250   -29.5560   122.2220    24.8770     6.7160     5.6890     6.2890     2.4130 
  221.7500   -29.6560   123.4850    24.9410     6.7140     5.7010     6.3040     2.3980 
  221.8750   -29.7870   123.9070    25.0700     6.8290     5.7720     6.3960     2.3890 
  222.0000   -29.9480   119.4460    25.1460     7.0490     5.8990     6.5590     2.3920 
  222.1250   -30.0890   113.4830    25.0530     7.2960     6.0730     6.7830     2.4020 
  222.2500   -30.1790   112.3810    24.8900     7.4880     6.2580     7.0200     2.4060 
  222.3750   -30.2200   114.9100    24.7660     7.6090     6.4160     7.2240     2.3980 
  222.5000   -30.2210   116.1750    24.6730     7.6900     6.5160     7.3510     2.3820 
  222.6250   -30.1780   114.8930    24.5440     7.7530     6.5350     7.3770     2.3750 
  222.7500   -30.0910   111.9930    24.4430     7.7850     6.5130     7.3490     2.3860 
  222.8750   -29.9470   107.3410    24.4670     7.7670     6.4930     7.3230     2.4090 
  223.0000   -29.7390   104.4690    24.6010     7.7260     6.5120     7.3470     2.4260 
  223.1250   -29.4740   108.6650    24.7160     7.7610     6.5870     7.4430     2.4280 
  223.2500   -29.1990   113.1490    24.7840     7.8760     6.6730     7.5540     2.4260 
  223.3750   -28.9330   111.9190    24.8750     7.9400     6.7210     7.6160     2.4280 
  223.5000   -28.6800   107.1340    25.0020     7.7800     6.6940     7.5810     2.4320 
  223.6250   -28.4220   105.4390    25.0810     7.3820     6.5890     7.4460     2.4300 
