~V
VERS. 2.00: Ver 2.00
~W
STRT.M 59.0000:
STOP.M 275.0000:
STEP.M 0.1250:
NULL. -999.2500:
UWI. DF5021:
~C
DEPT.M :
SP.MV :
GR.API :
CALI.CM :
RXO.OHMM :
RI. :
RML.OHMM :
DEN.GM/CC :
~A
# ...
  171.5000   -36.2790    73.6610    25.1490   158.4430   152.5660   159.1740     2.2200 
  171.6250   -36.3180    73.4990    25.1340   158.3830   155.8080   162.5520     2.2160 
  171.7500   -36.2970    73.7520    25.1720   160.7640   157.2930   164.1000     2.2050 
  171.8750   -36.2070    73.9140    25.1770   164.1390   157.2970   164.1040     2.1920 
  172.0000   -36.1880    71.9630    25.1360   164.2610   156.1490   162.9070     2.1850 
  172.1250   -36.2210    68.7240    25.0980   161.2190   153.7440   160.4020     2.1890 
  172.2500   -36.1950    67.9400    25.1120   156.4860   149.9960   156.4960     2.2010 
  172.3750   -36.1420    71.8840    25.1700   152.3150   144.8820   151.1680     2.2140 
  172.5000   -36.0690    76.1840    25.1760   148.4720   139.0460   145.0860     2.2240 
  172.6250   -35.9510    78.1210    25.1440   143.1840   133.0200   138.8060     2.2240 
  172.7500   -35.8300    78.3310    25.1430   136.9140   127.4230   132.9750     2.2160 
  172.8750   -35.7200    78.1320    25.1970   130.5510   123.1670   128.5400     2.2060 
  173.0000   -35.5000    77.6310    25.1990   125.8090   120.5680   125.8320     2.2060 
  173.1250   -35.1370    77.2910    25.1390   122.8000   119.7630   124.9930     2.2210 
  173.2500   -34.8480    77.5230    25.1010   119.6380   120.6560   125.9240     2.2420 
  173.3750   -34.6800    76.7370    25.1350   112.9710   122.9430   128.3070     2.2510 
  173.5000   -34.4760    73.7040    25.1930   106.4990   125.4860   130.9560     2.2460 
  173.6250   -34.0920    69.9150    25.1880   107.5570   127.3540   132.9030     2.2360 
  173.7500   -33.6730    67.3580    25.1010   117.3930   127.9120   133.4840     2.2330 
  173.8750   -33.4120    66.2790    24.9920   126.2080   126.8730   132.4020     2.2390 
  174.0000   -33.3050    66.3020    24.8610   123.4870   125.0400   130.4920     2.2490 
  174.1250   -33.1310    68.6870    24.7330   111.5370   123.3180   128.6970     2.2560 
  174.2500   -32.9150    73.5710    24.6510    97.7210   122.6880   128.0410     2.2590 
  174.3750   -32.8000    77.5840    24.6110    88.5800   124.2990   129.7190     2.2600 
  174.5000   -32.7580    78.1690    24.5970    89.7730   128.3040   133.8930     2.2610 
  174.6250   -32.7580    76.5580    24.6060   103.2820   134.7480   140.6070     2.2570 
  174.7500   -32.7960    74.9710    24.6110   123.4500   143.3320   149.5520     2.2410 
  174.8750   -32.8350    74.1040    24.5940   141.1730   153.8170   160.4770     2.2230 
  175.0000   -32.8770    73.3040    24.5800   156.9270   165.4860   172.6360     2.2210 
  175.1250   -32.9240    72.2970    24.6010   174.3610   177.8760   185.5460     2.2320 
  175.2500   -32.9890    71.1680    24.6190   190.5890   190.2870   198.4790     2.2410 
  175.3750   -33.0330    69.9870    24.6070   200.5780   201.3330   209.9890     2.2400 
  175.5000   -33.0520    68.8380    24.6290   209.7280   209.8240   218.8370     2.2360 
  175.6250   -33.0700    68.0340    24.7690   227.2580   214.8830   224.1080     2.2350 
  175.7500   -33.0910    67.6000    25.0260   246.9880   216.3630   225.6500     2.2380 
  175.8750   -33.0700    67.5700    25.1620   247.1460   214.8610   224.0850     2.2470 
  176.0000   -32.9330    68.3420    25.2010   219.9270   212.9130   222.0560     2.2580 
  176.1250   -32.7730    70.1440    25.2030   174.6120   212.8720   222.0130     2.2630 
  176.2500   -32.6280    71.6000    25.2180   129.9480   216.7300   226.0330     2.2570 
  176.3750   -32.3980    69.8150    25.2110   112.2380   226.6220   236.3400     2.2410 
  176.5000   -32.0910    66.1900    25.1760   117.7780   241.6780   252.0290     2.2190 
  176.6250   -31.8720    64.1990    25.1470   132.5580   260.6630   271.8110     2.1960 
  176.7500   -31.7260    64.9370    25.1540   146.5950   281.5490   293.5750     2.1770 
  176.8750   -31.5550    65.4870    25.1930   162.6310   301.4580   314.3190     2.1760 
  177.0000   -31.3830    63.7640    25.1950   183.9120   317.7850   331.3320     2.1870 
  177.1250   -31.3090    61.4760    25.1630   209.2320   328.8420   342.8530     2.2000 
  177.2500   -31.2700    60.7730    25.1440   233.8180   334.3910   348.6360     2.2090 
  177.3750   -31.2740    62.2250    25.1650   254.0440   334.7110   348.9690     2.2090 
  177.5000   -31.2990    64.7100    25.2000   273.0350   331.1350   345.2430     2.2030 
  177.6250   -31.3370    67.4320    25.1970   291.3720   322.7580   336.5140     2.1880 
  177.7500   -31.3860    69.2480    25.1540   306.2280   307.7510   320.8770     2.1670 
  177.8750   -31.4140    68.6230    25.1460   313.2350   283.5360   295.8800     2.1550 
  178.0000   -31.4320    66.5000    25.1780   311.7550   252.5230   265.1550     2.1580 
  178.1250   -31.5180    64.5130    25.2060   295.2260   217.8750   232.4960     2.1720 
  178.2500   -31.5720    64.3650    25.1810   257.4520   183.5650   198.6770     2.1890 
  178.3750   -31.4840    66.6910    25.1060   204.1120   154.0880   167.7390     2.2000 
  178.5000   -31.4320    69.7810    25.0820   150.0590   131.0760   142.7480     2.2110 
  178.6250   -31.4630    72.4570    25.0940   109.0920   115.0460   125.3400     2.2230 
  178.7500   -31.3860    74.7680    25.0640    87.0240   105.0950   114.5340     2.2340 
  178.8750   -31.2040    76.5690    25.0410    85.0260    99.4610   108.4140     2.2360 
  179.0000   -31.1020    76.3440    25.0170    93.1650    95.0430   103.6160     2.2280 
  179.1250   -31.0670    73.4420    24.9760   103.0010    90.3940    98.5680     2.2140 
  179.2500   -30.9300    70.0820    24.9040   107.4220    84.8110    92.5050     2.2060 
  179.3750   -30.7780    70.8210    24.8020   101.8860    78.4810    85.6300     2.2210 
  179.5000   -30.7090    76.0210    24.7570    87.4080    72.8330    79.4970     2.2540 
  179.6250   -30.6440    82.5310    24.7400    69.1500    69.3960    75.7640     2.2910 
  179.7500   -30.5270    86.1790    24.7530    58.1000    69.5340    75.9140     2.3150 
  179.8750   -30.4300    85.3150    24.8310    61.9100    75.3410    82.2200     2.3080 
  180.0000   -30.3730    83.1040    24.9440    71.7340    86.9080    94.7830     2.2780 
  180.1250   -30.3250    80.8290    25.0130    82.8830   104.3040   113.6740     2.2420 
  180.2500   -30.2640    77.4650    25.0340   101.4220   126.6270   137.9170     2.2190 
  180.3750   -30.2230    72.2230    25.0180   128.9250   151.5510   164.9840     2.2220 
  180.5000   -30.2250    67.4110    25.0190   154.7590   174.2860   189.6740     2.2460 
  180.6250   -30.1740    64.7500    25.0370   170.1570   190.5710   207.3600     2.2810 
  180.7500   -30.0600    64.6230    25.0350   174.5370   197.5710   214.9620     2.3170 
  180.8750   -30.0200    66.3580    25.0200   168.1540   192.9100   209.9000     2.3310 
  181.0000   -30.0710    67.7520    25.0050   154.4780   180.0270   195.9090     2.3090 
  181.1250   -29.9940    67.9120    25.0050   139.2950   162.2200   176.5710     2.2590 
  181.2500   -29.8920    67.9430    25.0180   130.8600   143.1950   155.9100     2.2120 
  181.3750   -29.9220    69.2980    25.0310   128.9660   125.9780   137.2120     2.1990 
  181.5000   -29.9660    70.7740    25.0610   121.6230   111.4160   121.3980     2.2090 
  181.6250   -29.8780    71.7110    25.0890   106.8970    99.8470   108.8340     2.2280 
  181.7500   -29.8390    73.0650    25.0420    91.5030    91.4140    99.6760     2.2480 
  181.8750   -29.8960    74.8450    24.9140    82.7140    86.5500    94.3930     2.2680 
  182.0000   -29.8880    74.8390    24.8730    79.5360    84.3600    92.0150     2.2830 
  182.1250   -29.7800    72.9340    24.8840    79.6500    84.3180    91.9690     2.2870 
  182.2500   -29.7270    71.3350    24.9040    81.0500    85.8220    93.6030     2.2780 
  182.3750   -29.7060    72.3920    24.9290    83.1430    88.3070    96.3010     2.2610 
  182.5000   -29.5870    75.0800    25.0260    86.1290    90.9140    99.1320     2.2500 
  182.6250   -29.4360    77.2030    25.1310    89.3880    93.1360   101.5460     2.2490 
