~V
VERS. 2.00: Ver 2.00
~W
STRT.M 67.0000:
STOP.M 277.0000:
STEP.M 0.1250:
NULL. -999.2500:
UWI. DF5013:
~C
DEPT.M :
SP.MV :
GR.API :
RML.OHMM :
RI. :
RXO.OHMM :
CALI.CM :
DEN.GM/CC :
~A
# ...
  224.5000   -17.2710    64.2240   117.6380   111.8210    83.2120    23.3080     2.2340 
  224.6250   -17.1440    65.8630   107.4920   102.6830    76.7610    23.2160     2.2620 
  224.7500   -17.0130    64.2570    98.8890    94.6330    68.3610    23.0750     2.2840 
  224.8750   -16.9030    60.9750    93.1960    89.0260    59.4420    23.0020     2.2850 
  225.0000   -16.8000    60.1470    91.4510    87.0430    59.9140    23.1010     2.2570 
  225.1250   -16.7170    62.2620    92.4440    87.6290    70.4840    23.3780     2.2140 
  225.2500   -16.6670    65.2700    94.7670    89.4500    86.7440    23.7510     2.1700 
  225.3750   -16.6410    65.7120    96.5880    90.8820   104.0770    24.1160     2.1350 
  225.5000   -16.6590    64.9460    95.9550    90.2370   109.9800    24.3600     2.1180 
  225.6250   -16.6930    65.6980    92.5300    87.5260    91.0270    24.5190     2.1180 
  225.7500   -16.7400    66.3610    87.2370    83.5090    70.6580    24.5880     2.1300 
  225.8750   -16.7570    64.7330    81.6610    79.3550    63.6190    24.6040     2.1490 
  226.0000   -16.7630    62.6410    77.3860    76.2250    63.1170    24.6040     2.1690 
  226.1250   -16.7260    63.4680    75.8750    74.2600    63.9330    24.6040     2.1860 
  226.2500   -16.6580    65.3420    75.2720    73.1760    64.1720    24.6040     2.1960 
  226.3750   -16.5680    65.2050    75.0490    72.4990    63.1200    24.6040     2.2010 
  226.5000   -16.4300    63.8500    74.6830    71.7340    61.6400    24.6040     2.2020 
  226.6250   -16.2500    65.0690    73.9740    70.6680    60.4690    24.6040     2.2040 
  226.7500   -16.0430    68.2770    73.0280    69.3800    60.4210    24.6040     2.2080 
  226.8750   -15.8350    68.6270    72.2000    68.1820    60.4480    24.6030     2.2150 
  227.0000   -15.6920    62.5310    72.2270    67.7410    60.1960    24.6000     2.2240 
  227.1250   -15.6460    57.3550    73.6440    68.5360    59.3210    24.5970     2.2320 
  227.2500   -15.6830    59.2300    76.8440    70.8930    59.7710    24.5950     2.2350 
  227.3750   -15.8290    65.1910    81.8250    74.7720    62.0040    24.5950     2.2310 
  227.5000   -16.0660    65.9750    88.0420    79.6460    66.7150    24.5940     2.2250 
  227.6250   -16.3660    62.3640    93.9230    84.1700    71.4110    24.5840     2.2210 
  227.7500   -16.7220    60.1710    98.0510    87.1720    74.6590    24.5620     2.2220 
  227.8750   -17.1170    62.0160    99.4260    87.8460    76.9800    24.5530     2.2280 
  228.0000   -17.4610    65.6060    97.5680    85.7840    75.3190    24.5690     2.2380 
  228.1250   -17.7400    67.5420    94.0040    82.2450    71.5790    24.5870     2.2470 
  228.2500   -17.9500    67.5960    90.1220    78.4040    66.4300    24.5940     2.2560 
  228.3750   -18.0630    66.6300    87.2470    75.4230    62.4420    24.5950     2.2630 
  228.5000   -18.1000    65.9570    86.8200    74.6190    61.9930    24.5950     2.2650 
  228.6250   -18.0970    65.4880    89.0520    76.2190    65.0910    24.5990     2.2600 
  228.7500   -18.0480    65.6390    93.8970    80.2020    70.6640    24.6120     2.2530 
  228.8750   -17.9290    66.2720   100.7020    86.0130    77.9040    24.6420     2.2460 
  229.0000   -17.7600    65.0980   107.8860    92.3770    86.3330    24.6570     2.2440 
  229.1250   -17.5480    62.7620   113.1670    97.4220    92.9450    24.6620     2.2480 
  229.2500   -17.2990    60.4930   114.8210    99.7230    92.9540    24.6530     2.2520 
  229.3750   -16.9950    59.3180   112.1250    98.5270    86.0000    24.6240     2.2510 
  229.5000   -16.6550    60.7050   105.3790    93.6700    75.0720    24.5640     2.2410 
  229.6250   -16.2630    65.1610    97.3340    87.0830    65.6550    24.5210     2.2250 
  229.7500   -15.8480    68.8520    90.1440    80.4060    58.7260    24.4510     2.2110 
  229.8750   -15.4020    66.4950    85.1510    74.9550    53.7180    24.3250     2.2110 
  230.0000   -14.9580    62.2860    82.0800    71.1320    48.8920    24.2580     2.2420 
  230.1250   -14.4840    63.3150    77.9610    67.2130    45.4850    24.2980     2.3060 
  230.2500   -14.0050    67.2320    70.0240    61.1360    50.4340    24.3550     2.3900 
  230.3750   -13.5290    65.9420    56.9110    51.5400    62.9410    24.3560     2.4660 
  230.5000   -13.0630    59.0200    40.8490    38.9670    71.9490    24.3420     2.4930 
  230.6250   -12.6130    55.8310    26.7430    26.9570    64.5500    24.3360     2.4690 
  230.7500   -12.1860    58.6700    16.6730    17.7840    32.5800    24.3130     2.4140 
  230.8750   -11.8320    64.3640    10.9380    11.8980    12.4370    24.2290     2.3580 
  231.0000   -11.5460    65.9520     8.5770     8.8370     7.7370    24.0190     2.3260 
  231.1250   -11.3500    62.9550     7.4330     7.2240     6.5010    23.7720     2.3180 
  231.2500   -11.2210    58.1900     7.0250     6.4950     6.1510    23.4740     2.3260 
  231.3750   -11.1790    54.6290     7.0340     6.3040     5.9510    23.2000     2.3400 
  231.5000   -11.2290    53.7240     7.2670     6.4520     5.8970    23.0120     2.3540 
  231.6250   -11.3710    54.3210     7.5710     6.7330     6.0720    22.9670     2.3680 
  231.7500   -11.5720    55.7290     7.8970     7.0670     6.4540    23.0250     2.3840 
  231.8750   -11.8200    55.4060     8.1950     7.3920     6.8260    23.1410     2.4000 
  232.0000   -12.0810    52.2400     8.3710     7.6100     7.0350    23.1940     2.4140 
  232.1250   -12.3320    51.6000     8.3590     7.6520     7.1510    23.1910     2.4240 
  232.2500   -12.5930    53.2310     8.1180     7.4620     7.1740    23.1800     2.4250 
  232.3750   -12.8570    52.5380     7.6550     7.0370     7.0880    23.1920     2.4190 
  232.5000   -13.1180    47.4130     7.0280     6.4270     6.9500    23.2420     2.4060 
  232.6250   -13.3670    43.9290     6.4060     5.7910     6.6310    23.3140     2.3920 
  232.7500   -13.6200    48.2090     5.9410     5.2580     6.0690    23.3500     2.3790 
  232.8750   -13.8280    60.9230     5.7550     4.9290     5.7290    23.3460     2.3710 
  233.0000   -13.9910    76.5930     5.9580     4.9010     5.8390    23.3290     2.3700 
  233.1250   -14.0960    87.0980     6.4420     5.1150     6.3160    23.3390     2.3740 
  233.2500   -14.1510    91.6670     7.0820     5.5050     7.0160    23.3550     2.3810 
  233.3750   -14.1330    94.6760     7.7110     5.9660     7.6560    23.3610     2.3890 
  233.5000   -14.0220    98.5160     8.1400     6.3650     7.8110    23.3720     2.3940 
  233.6250   -13.8520   102.5590     8.3470     6.6350     7.7870    23.4070     2.3930 
  233.7500   -13.6280   108.2470     8.3890     6.7790     7.8250    23.4570     2.3900 
  233.8750   -13.3880   114.1190     8.3630     6.8420     7.9740    23.4870     2.3880 
  234.0000   -13.1790   115.3870     8.3410     6.8800     8.1140    23.4940     2.3900 
  234.1250   -13.0070   113.4880     8.3430     6.9310     8.1770    23.4940     2.3940 
  234.2500   -12.8440   114.0510     8.3660     7.0000     8.1750    23.4940     2.3990 
  234.3750   -12.7050   118.7830     8.4150     7.0840     8.1090    23.4940     2.4000 
  234.5000   -12.6390   122.8100     8.5160     7.1890     8.0880    23.4930     2.3960 
  234.6250   -12.6010   121.4890     8.6730     7.3160     8.0880    23.4870     2.3910 
  234.7500   -12.5680   117.6750     8.8790     7.4660     8.1440    23.4710     2.3880 
  234.8750   -12.5280   116.2320     9.1120     7.6360     8.2560    23.4480     2.3890 
  235.0000   -12.4650   118.3090     9.3270     7.8030     8.3490    23.4300     2.3940 
  235.1250   -12.3750   118.1910     9.4870     7.9380     8.4160    23.4060     2.4020 
  235.2500   -12.2760   113.3300     9.5570     8.0060     8.5290    23.3840     2.4090 
  235.3750   -12.1500   106.3270     9.5110     7.9770     8.7550    23.4000     2.4120 
  235.5000   -11.9690   102.5430     9.3340     7.8280     8.8840    23.5250     2.4090 
  235.6250   -11.7590   103.8030     9.1060     7.6250     8.7840    23.7810     2.4010 
