~V
VERS. 2.00: Ver 2.00
~W
STRT.M 60.0000:
STOP.M 251.0000:
STEP.M 0.1250:
NULL. -999.2500:
UWI. DF5053:
~C
DEPT.M :
GR.API :
RML.OHMM :
RI. :
RXO.OHMM :
CALI.CM :
DEN.GM/CC :
SP.MV :
~A
# ...
   93.7500    74.3640    13.2980    11.6510    18.8530    23.6840     2.3020   -29.8170 
   93.8750    71.5020    11.6460    10.3630    15.0390    23.7420     2.2540   -30.0770 
   94.0000    65.9670    10.6890     9.4720    14.3780    23.8140     2.2080   -30.4110 
   94.1250    66.0080    10.2760     8.9680    14.3440    23.8560     2.1700   -30.6870 
   94.2500    68.4410    10.1880     8.7510    14.2010    23.8570     2.1440   -30.8310 
   94.3750    67.9300    10.2010     8.6810    13.9270    23.8050     2.1340   -30.8650 
   94.5000    63.4290    10.1490     8.6310    13.5530    23.6420     2.1460   -30.7990 
   94.6250    61.6030    10.0100     8.5420    13.3870    23.4190     2.1730   -30.6450 
   94.7500    65.5720     9.8230     8.4220    13.4550    23.2630     2.2070   -30.3630 
   94.8750    72.9210     9.6290     8.2920    13.4910    23.2100     2.2350   -29.9250 
   95.0000    72.7830     9.4530     8.1720    13.1480    23.2130     2.2420   -29.4580 
   95.1250    66.6970     9.2920     8.0640    12.6130    23.2450     2.2270   -29.0890 
   95.2500    62.9630     9.1410     7.9600    12.0190    23.3660     2.1890   -28.8850 
   95.3750    65.3220     8.9980     7.8560    11.5680    23.6060     2.1380   -28.7900 
   95.5000    70.4200     8.8830     7.7620    11.4050    23.8140     2.0940   -28.7630 
   95.6250    72.2320     8.8210     7.6950    11.5310    23.8930     2.0690   -28.7750 
   95.7500    72.7620     8.8330     7.6750    11.7720    23.8800     2.0700   -28.8290 
   95.8750    74.4490     8.9250     7.7150    12.0730    23.8450     2.0910   -28.9430 
   96.0000    74.1970     9.0910     7.8190    12.4180    23.7940     2.1230   -29.0820 
   96.1250    71.7410     9.2710     7.9480    12.7360    23.6240     2.1510   -29.1970 
   96.2500    69.7230     9.4110     8.0610    12.8670    23.2860     2.1730   -29.2470 
   96.3750    69.1350     9.4660     8.1180    12.7650    22.8850     2.1880   -29.2060 
   96.5000    66.7690     9.4070     8.0860    12.4970    22.6370     2.1990   -29.0460 
   96.6250    63.4870     9.2870     7.9950    12.1510    22.5790     2.2050   -28.8340 
   96.7500    64.8080     9.1600     7.8860    11.7430    22.6360     2.2050   -28.6270 
   96.8750    71.5350     9.0780     7.8030    11.4340    22.7710     2.1960   -28.4620 
   97.0000    78.0340     9.0740     7.7860    11.3710    22.9580     2.1780   -28.3170 
   97.1250    79.5360     9.1150     7.8210    11.4380    23.1510     2.1580   -28.1480 
   97.2500    78.6660     9.1630     7.8860    11.5390    23.2870     2.1450   -27.9560 
   97.3750    79.6140     9.1880     7.9560    11.6630    23.3160     2.1420   -27.7910 
   97.5000    82.4750     9.1850     8.0230    12.1170    23.3300     2.1480   -27.7090 
   97.6250    81.4040     9.1930     8.1020    12.3740    23.3110     2.1540   -27.6540 
   97.7500    78.3300     9.2500     8.2190    12.5730    23.2310     2.1570   -27.5720 
   97.8750    78.3710     9.3710     8.3860    12.8260    23.0450     2.1570   -27.3650 
   98.0000    81.7150     9.5010     8.5710    13.1830    22.8040     2.1610   -26.9620 
   98.1250    81.8370     9.5230     8.6890    13.5730    22.6590     2.1700   -26.4250 
   98.2500    78.8070     9.3240     8.6490    13.7740    22.7800     2.1790   -25.7640 
   98.3750    77.2100     8.8510     8.3900    13.4400    23.1400     2.1860   -24.9480 
   98.5000    80.6520     8.1270     7.8910    12.3810    23.5440     2.1900   -23.9270 
   98.6250    86.4450     7.3500     7.2880    10.6730    23.7350     2.1980   -22.7880 
   98.7500    92.2930     6.6710     6.7000     8.6160    23.7480     2.2130   -21.6160 
   98.8750    96.8330     6.1790     6.2180     6.9880    23.7010     2.2370   -20.4930 
   99.0000   101.3170     5.8970     5.8970     6.5620    23.6800     2.2640   -19.5560 
   99.1250   101.3930     5.7160     5.6790     6.3890    23.6810     2.2870   -18.8390 
   99.2500    97.8920     5.5700     5.5180     6.3580    23.7120     2.2990   -18.3650 
   99.3750    97.2600     5.4350     5.3820     6.2640    23.8230     2.2960   -18.1920 
   99.5000   106.2430     5.3540     5.2850     5.9740    24.0670     2.2750   -18.4550 
   99.6250   112.4060     5.3910     5.2630     5.8890    24.2590     2.2440   -19.1050 
   99.7500   109.6120     5.5930     5.3590     6.3620    24.2260     2.2120   -20.0390 
   99.8750   104.5240     5.9730     5.5950     7.3820    24.0310     2.1920   -21.1470 
  100.0000   101.0380     6.5140     5.9830     8.6910    23.9990     2.1950   -22.3980 
  100.1250    93.5430     7.1160     6.4510     9.8160    24.0000     2.2090   -23.7590 
  100.2500    84.1480     7.6990     6.9340    10.3960    23.9130     2.2180   -25.1800 
  100.3750    78.5120     8.1980     7.3660    11.0200    23.8600     2.2070   -26.5430 
  100.5000    77.3140     8.5540     7.6860    12.1020    23.8750     2.1710   -27.6970 
  100.6250    77.4260     8.8020     7.9050    12.5990    23.8290     2.1310   -28.6730 
  100.7500    77.4600     8.9880     8.0590    12.5990    23.8320     2.1020   -29.5350 
  100.8750    73.0390     9.1700     8.1920    12.6340    23.9790     2.0910   -30.3520 
  101.0000    66.7610     9.4040     8.3540    13.1040    24.0200     2.1010   -31.0770 
  101.1250    66.6220     9.6950     8.5630    13.8140    23.9210     2.1210   -31.6460 
  101.2500    70.4850    10.0170     8.8100    14.4960    23.7790     2.1430   -32.0690 
  101.3750    70.5320    10.3140     9.0600    15.1140    23.7090     2.1620   -32.4210 
  101.5000    65.2060    10.5100     9.2530    15.6180    23.7690     2.1680   -32.7630 
  101.6250    60.9740    10.5850     9.3570    15.9670    23.9610     2.1610   -33.0050 
  101.7500    61.1960    10.5380     9.3580    16.0810    24.1370     2.1470   -33.0860 
  101.8750    65.0730    10.3890     9.2650    15.9290    24.1600     2.1330   -33.0020 
  102.0000    66.3750    10.1730     9.0950    15.5880    23.9250     2.1290   -32.7330 
  102.1250    64.9210     9.9570     8.9010    15.1800    23.6050     2.1370   -32.3490 
  102.2500    63.8950     9.7820     8.7190    14.8560    23.3690     2.1520   -31.8780 
  102.3750    64.2290     9.6630     8.5670    14.5650    23.3030     2.1670   -31.3420 
  102.5000    62.7330     9.5730     8.4340    14.3670    23.3590     2.1770   -30.7470 
  102.6250    63.5240     9.4410     8.2820    14.1990    23.4330     2.1820   -30.1400 
  102.7500    70.7690     9.2250     8.0810    14.1440    23.4640     2.1860   -29.5370 
  102.8750    81.6090     8.9620     7.8460    14.0670    23.4680     2.1930   -28.9190 
  103.0000    87.0430     8.8450     7.6920    13.7420    23.4370     2.2080   -28.2940 
  103.1250    83.3470     9.0920     7.7650    13.5780    23.2920     2.2270   -27.7080 
  103.2500    72.9050     9.8320     8.1730    14.6020    22.9920     2.2450   -27.2180 
  103.3750    63.8070    11.0080     8.9210    18.3940    22.6790     2.2520   -26.8870 
  103.5000    63.4540    12.2990     9.8620    24.9370    22.6700     2.2410   -26.7500 
  103.6250    66.4410    13.1890    10.6530    32.0740    22.8630     2.2150   -26.7660 
  103.7500    66.5860    13.3200    11.0050    35.9590    23.0950     2.1850   -26.8860 
  103.8750    64.1240    12.6170    10.7750    31.2990    23.2130     2.1600   -27.0950 
  104.0000    67.2400    11.3510    10.0280    21.9060    23.2140     2.1490   -27.3920 
  104.1250    70.8500    10.1420     9.1750    15.9000    23.2020     2.1510   -27.7460 
  104.2500    67.4470     9.3260     8.4900    13.8320    23.1850     2.1610   -28.1270 
  104.3750    61.9940     9.0120     8.1150    13.0990    23.1600     2.1750   -28.4880 
  104.5000    61.7460     9.1690     8.1040    12.8850    23.2170     2.1850   -28.7440 
  104.6250    64.2160     9.5250     8.2990    13.0750    23.4100     2.1890   -28.8690 
  104.7500    63.7020     9.8710     8.5550    13.5850    23.7070     2.1880   -28.8660 
  104.8750    61.7100    10.0090     8.7150    14.1340    23.9810     2.1850   -28.7500 
