~V
VERS. 2.00: Ver 2.00
~W
STRT.M 50.0000:
STOP.M 258.0000:
STEP.M 0.1250:
NULL. -999.2500:
UWI. DF5038:
~C
DEPT.M :
GR.API :
CALI.CM :
RXO.OHMM :
RI. :
RML.OHMM :
DEN.GM/CC :
SP.MV :
~A
# ...
  106.2500    65.7570    25.0500     8.9240     6.9520     8.1540     2.1660   -38.7410 
  106.3750    66.6360    25.0540     8.7080     7.1140     8.3200     2.1700   -38.6420 
  106.5000    65.9080    25.0560     8.7260     7.2730     8.4710     2.1650   -38.4480 
  106.6250    62.9270    25.0550     9.8790     7.3930     8.5610     2.1610   -38.4470 
  106.7500    62.0910    25.0540    11.0240     7.4360     8.5500     2.1640   -38.3660 
  106.8750    67.6730    25.0530    11.1540     7.3740     8.4140     2.1700   -38.1710 
  107.0000    75.5540    25.0510    10.2990     7.2020     8.1650     2.1780   -38.1430 
  107.1250    77.5760    25.0490     9.2300     6.9460     7.8570     2.1860   -38.1340 
  107.2500    76.4590    25.0480     8.0690     6.6830     7.5730     2.1970   -38.0300 
  107.3750    76.5440    25.0490     7.7070     6.4560     7.3480     2.2070   -38.0820 
  107.5000    78.6360    25.0500     7.7720     6.2770     7.1800     2.2100   -38.1250 
  107.6250    79.1880    25.0520     7.7350     6.1410     7.0490     2.2050   -38.0820 
  107.7500    77.9400    25.0500     7.5240     6.0360     6.9390     2.1990   -38.1370 
  107.8750    76.1370    25.0690     7.0220     5.9650     6.8600     2.1930   -38.2790 
  108.0000    74.8840    25.1380     6.1370     5.9430     6.8420     2.1810   -38.4060 
  108.1250    74.2250    25.2290     6.1120     6.0010     6.9340     2.1590   -38.6240 
  108.2500    72.6660    25.2880     7.0170     6.1340     7.1240     2.1390   -38.9060 
  108.3750    70.2710    25.3190     7.9920     6.3260     7.3770     2.1330   -39.0740 
  108.5000    68.0260    25.3590     8.6690     6.5460     7.6420     2.1400   -39.2290 
  108.6250    67.4130    25.4040     8.9550     6.7430     7.8450     2.1500   -39.4360 
  108.7500    67.7850    25.4230     9.1250     6.8690     7.9500     2.1540   -39.5890 
  108.8750    67.0770    25.4240     9.3440     6.9030     7.9540     2.1530   -39.7090 
  109.0000    65.5340    25.4230     9.4830     6.8530     7.8820     2.1480   -39.7290 
  109.1250    64.7950    25.4240     9.2520     6.7410     7.7660     2.1470   -39.7290 
  109.2500    65.4260    25.4220     9.0530     6.6070     7.6410     2.1470   -39.6620 
  109.3750    66.1760    25.4220     8.9600     6.4710     7.5200     2.1550   -39.5680 
  109.5000    66.4770    25.4530     8.8060     6.3370     7.3990     2.1730   -39.4970 
  109.6250    67.7550    25.5550     8.3490     6.1940     7.2580     2.1930   -39.3400 
  109.7500    70.1860    25.6790     8.1040     6.0390     7.0890     2.2040   -39.1680 
  109.8750    73.2280    25.7620     7.8180     5.8830     6.9120     2.2040   -39.0140 
  110.0000    76.3240    25.7850     7.5520     5.7580     6.7730     2.2030   -38.9120 
  110.1250    81.1200    25.7810     7.3610     5.7170     6.7460     2.2040   -38.8080 
  110.2500    86.5320    25.7800     7.4490     5.7700     6.8360     2.2030   -38.6860 
  110.3750    87.4140    25.7810     8.1910     5.9080     7.0220     2.1980   -38.6190 
  110.5000    81.6920    25.7800     9.2470     6.1000     7.2500     2.1950   -38.5400 
  110.6250    75.1830    25.7820     9.7230     6.2880     7.4370     2.1970   -38.4850 
  110.7500    71.7700    25.7910     9.3520     6.4220     7.5390     2.1930   -38.4240 
  110.8750    68.7650    25.8040     9.0320     6.4840     7.5570     2.1810   -38.3490 
  111.0000    64.6790    25.8150     8.9360     6.4890     7.5240     2.1650   -38.1980 
  111.1250    62.4300    25.8340     8.8290     6.4690     7.4860     2.1520   -37.9760 
  111.2500    62.1800    25.8670     8.9260     6.4610     7.4740     2.1470   -37.7410 
  111.3750    62.0510    25.9040     9.0700     6.4770     7.4870     2.1500   -37.3870 
  111.5000    62.1490    25.9250     8.9590     6.5050     7.5050     2.1560   -36.9970 
  111.6250    63.4760    25.9280     8.5620     6.5200     7.4920     2.1600   -36.5330 
  111.7500    65.0210    25.9270     8.4800     6.5030     7.4300     2.1600   -36.0720 
  111.8750    65.0760    25.9270     8.4720     6.4440     7.3080     2.1620   -35.5430 
  112.0000    63.3140    25.9270     8.3980     6.3410     7.1270     2.1690   -34.9900 
  112.1250    62.8050    25.9270     8.0630     6.1930     6.8950     2.1770   -34.4480 
  112.2500    65.4100    25.9270     7.6360     6.0240     6.6490     2.1850   -33.8820 
  112.3750    70.7670    25.9210     7.3780     5.8600     6.4270     2.1930   -33.3030 
  112.5000    75.4730    25.9240     7.1760     5.7300     6.2660     2.2050   -32.7390 
  112.6250    77.4660    26.0280     6.8710     5.6610     6.1970     2.2200   -32.2320 
  112.7500    79.3620    26.2250     6.4970     5.6230     6.1780     2.2290   -31.7780 
  112.8750    81.6230    26.3930     6.4920     5.5680     6.1390     2.2260   -31.4060 
  113.0000    82.0690    26.4180     6.6410     5.4310     5.9920     2.2180   -31.1100 
  113.1250    80.4680    26.3320     6.6300     5.1490     5.6550     2.2230   -30.7100 
  113.2500    83.3860    26.2760     5.9710     4.7660     5.1950     2.2470   -30.3750 
  113.3750    91.6530    26.2710     5.0860     4.3720     4.7390     2.2750   -30.1260 
  113.5000    99.5000    26.2540     4.5340     4.0830     4.4430     2.2950   -29.9750 
  113.6250   102.2440    26.1580     4.5920     4.0640     4.5180     2.3120   -29.8210 
  113.7500   102.7550    26.0340     5.0480     4.3680     5.0130     2.3490   -29.6640 
  113.8750   103.5580    25.9510     6.4020     5.0170     5.9270     2.4040   -29.5850 
  114.0000   102.4980    25.9310     9.8150     5.9370     7.1160     2.4510   -29.4810 
  114.1250    97.2010    25.9370    12.0170     6.8650     8.1810     2.4520   -29.6110 
  114.2500    90.2750    25.9380    14.0100     7.4250     8.6870     2.4080   -29.7950 
  114.3750    85.1790    25.9120    13.3200     7.4160     8.4590     2.3420   -30.0670 
  114.5000    83.9030    25.8440     9.5270     6.9210     7.6850     2.2780   -30.2990 
  114.6250    84.8850    25.7600     6.8660     6.2350     6.7930     2.2340   -30.5910 
  114.7500    86.4990    25.7130     6.5220     5.6510     6.1160     2.2120   -30.8750 
  114.8750    89.1900    25.7050     6.6010     5.2610     5.7240     2.2060   -31.1360 
  115.0000    91.1910    25.7090     6.4390     5.0740     5.5870     2.2080   -31.4700 
  115.1250    90.0570    25.7100     6.3270     5.1030     5.6920     2.2120   -31.7090 
  115.2500    87.2940    25.7100     6.4670     5.2930     5.9690     2.2190   -31.9270 
  115.3750    85.5600    25.7100     6.5160     5.6220     6.3980     2.2330   -32.0680 
  115.5000    85.2590    25.7020     6.7920     6.0540     6.9390     2.2490   -32.1840 
  115.6250    83.4980    25.6800     7.5410     6.5060     7.4760     2.2470   -32.2640 
  115.7500    80.3260    25.6570     8.5340     6.8360     7.8230     2.2240   -32.3060 
  115.8750    78.5070    25.6430     8.5030     6.9180     7.8290     2.1940   -32.2190 
  116.0000    78.6840    25.6420     7.5530     6.6990     7.4650     2.1770   -32.1100 
  116.1250    79.7060    25.6430     6.9270     6.2190     6.8330     2.1870   -31.9140 
  116.2500    81.5220    25.6430     6.5810     5.6700     6.1820     2.2080   -31.6500 
  116.3750    84.8060    25.6430     6.0130     5.1760     5.6530     2.2320   -31.3310 
  116.5000    89.0420    25.6430     5.3810     4.8150     5.3150     2.2510   -31.0250 
  116.6250    93.5330    25.6430     5.3250     4.6370     5.1980     2.2610   -30.7610 
  116.7500    97.9220    25.6430     5.4480     4.5940     5.2290     2.2560   -30.5340 
  116.8750   101.0560    25.6430     5.4300     4.6570     5.3630     2.2370   -30.3930 
  117.0000   101.5990    25.6430     5.4930     4.7850     5.5430     2.2180   -30.2860 
  117.1250    99.3670    25.6430     5.6070     4.9250     5.6930     2.2140   -30.2500 
  117.2500    95.7700    25.6430     5.7290     5.0200     5.7640     2.2250   -30.2070 
  117.3750    93.4930    25.6410     5.9130     5.0440     5.7450     2.2370   -30.2060 
