~V
VERS. 2.00: Ver 2.00
~W
STRT.M 60.0000:
STOP.M 248.0000:
STEP.M 0.1250:
NULL. -999.2500:
UWI. DF5054:
~C
DEPT.M :
SP.MV :
GR.API :
CALI.CM :
RXO.OHMM :
RI. :
RML.OHMM :
DEN.GM/CC :
~A
# ...
  161.2500   -34.9120    72.1410    24.3670   163.0900   153.4830   160.3190     2.2260 
  161.3750   -35.2680    68.7660    24.2720   146.9470   153.8270   160.8450     2.2420 
  161.5000   -35.6260    66.6520    24.1260   130.1440   157.7580   165.1060     2.2320 
  161.6250   -35.9720    66.9480    23.9410   134.7800   165.9630   173.7340     2.2120 
  161.7500   -36.3060    68.5740    23.7620   168.7070   176.7800   185.1800     2.2060 
  161.8750   -36.6300    70.1620    23.6660   211.4760   188.7740   197.9860     2.2150 
  162.0000   -36.9380    70.8490    23.6060   230.5980   200.6490   210.7670     2.2250 
  162.1250   -37.2210    70.9000    23.5140   216.4450   211.4720   222.5130     2.2210 
  162.2500   -37.4880    71.0210    23.3910   203.5630   220.9820   232.9390     2.2070 
  162.3750   -37.7380    70.6250    23.3270   213.7240   228.7500   241.6000     2.1930 
  162.5000   -37.9560    68.2500    23.3320   243.1060   234.4560   248.1180     2.1890 
  162.6250   -38.1260    63.2990    23.3970   271.2040   237.5330   251.6870     2.2000 
  162.7500   -38.2570    58.7410    23.4870   290.3870   237.9830   252.0470     2.2150 
  162.8750   -38.3480    57.4200    23.5470   313.1170   235.6270   248.8550     2.2220 
  163.0000   -38.4060    59.9050    23.5670   340.0290   231.0600   242.9020     2.2170 
  163.1250   -38.4410    64.8600    23.5190   328.4270   226.0450   236.3080     2.2020 
  163.2500   -38.4520    70.2750    23.3780   275.3350   223.1200   232.0620     2.1880 
  163.3750   -38.4240    73.8480    23.1800   220.1070   224.0510   232.0400     2.1810 
  163.5000   -38.3610    73.6820    23.0490   200.4890   229.1300   236.5770     2.1820 
  163.6250   -38.2930    70.5270    23.0350   233.5240   237.2560   244.6210     2.1880 
  163.7500   -38.2350    67.7120    23.1580   306.5050   245.4450   253.0270     2.2050 
  163.8750   -38.1850    65.8230    23.4620   383.2570   251.1170   258.9950     2.2280 
  164.0000   -38.1390    64.0000    23.8790   423.8030   252.0730   260.0260     2.2410 
  164.1250   -38.0870    62.8520    24.2020   414.2520   246.5650   254.1590     2.2290 
  164.2500   -38.0200    63.1430    24.3470   388.7860   236.8060   243.8330     2.2070 
  164.3750   -37.9350    64.3400    24.3510   355.9780   225.0600   231.5630     2.1920 
  164.5000   -37.8360    65.6860    24.2890   322.2120   213.7320   219.9140     2.1920 
  164.6250   -37.7020    67.3070    24.2520   291.0730   205.0500   211.2320     2.1970 
  164.7500   -37.5220    69.7230    24.2380   271.7220   199.1710   205.6170     2.1990 
  164.8750   -37.3040    72.7450    24.2450   257.7760   195.9300   202.8590     2.2000 
  165.0000   -37.0580    74.7130    24.2630   244.4010   194.9230   202.5080     2.2010 
  165.1250   -36.7750    73.8610    24.2850   230.6880   195.8730   204.2650     2.2000 
  165.2500   -36.4550    73.3530    24.2720   220.8310   198.1070   207.4280     2.1950 
  165.3750   -36.1160    77.6680    24.2530   216.9220   201.5880   211.9810     2.1930 
  165.5000   -35.7740    85.9720    24.2300   226.2170   206.4760   218.0520     2.1990 
  165.6250   -35.4350    88.3270    24.1850   245.8400   213.2000   226.0220     2.2110 
  165.7500   -35.1250    81.0190    24.1330   258.4360   221.3190   235.4910     2.2170 
  165.8750   -34.8730    70.7370    24.0920   257.0200   230.2240   245.8450     2.2130 
  166.0000   -34.6930    65.6330    24.0750   252.3780   238.7500   255.8100     2.2030 
  166.1250   -34.5960    65.9190    24.0810   263.5910   244.3700   262.4780     2.1920 
  166.2500   -34.5710    65.2920    24.1050   294.1750   245.1340   263.4900     2.1790 
  166.3750   -34.6170    62.7010    24.1460   327.2760   239.7570   257.3000     2.1730 
  166.5000   -34.7210    60.5850    24.1870   336.4450   228.3650   244.1640     2.1790 
  166.6250   -34.8750    60.4960    24.2070   309.6120   212.2210   225.7230     2.1980 
  166.7500   -35.0550    60.7120    24.1650   268.8080   194.9050   206.2290     2.2170 
  166.8750   -35.2400    60.3440    24.0290   226.2580   178.9430   188.5180     2.2280 
  167.0000   -35.4100    60.3230    23.8790   183.9650   166.2350   174.5260     2.2340 
  167.1250   -35.5650    61.6530    23.8520   150.7310   158.5160   165.9180     2.2430 
  167.2500   -35.7280    63.2180    23.9260   132.2460   154.9340   161.6460     2.2530 
  167.3750   -35.9040    64.0970    23.9950   123.5820   154.6740   160.8260     2.2550 
  167.5000   -36.0880    64.6040    24.0100   116.2690   156.6550   162.3810     2.2410 
  167.6250   -36.2800    65.7380    24.0060   112.2740   159.7820   165.3140     2.2160 
  167.7500   -36.4850    67.9510    24.0970   113.3950   162.7450   168.3340     2.1920 
  167.8750   -36.6990    70.4700    24.1770   111.3450   164.8100   170.6030     2.1810 
  168.0000   -36.9180    71.4610    24.2070   101.0010   165.4420   171.5510     2.1870 
  168.1250   -37.1260    69.7300    24.1770    94.2790   164.1180   170.5920     2.2030 
  168.2500   -37.2980    67.2750    24.1320   107.1070   161.2550   168.0210     2.2120 
  168.3750   -37.4130    65.0320    24.0960   131.2120   157.1730   164.1490     2.2050 
  168.5000   -37.4670    62.5270    24.1140   153.3370   152.3230   159.4240     2.1890 
  168.6250   -37.4510    60.3510    24.1900   168.7800   147.3090   154.4070     2.1810 
  168.7500   -37.3720    60.1440    24.2510   183.0830   142.7140   149.7240     2.1830 
  168.8750   -37.2290    62.3140    24.1800   184.9270   138.6300   145.5160     2.1900 
  169.0000   -37.0240    65.4770    23.9590   179.5250   134.7390   141.4420     2.1970 
  169.1250   -36.7470    67.7960    23.7790   186.5510   130.4970   136.7910     2.2080 
  169.2500   -36.4140    69.1220    23.6740   203.3660   125.5470   131.1960     2.2210 
  169.3750   -36.0400    70.0050    23.6090   204.7690   119.7260   124.5660     2.2310 
  169.5000   -35.6400    70.6200    23.5760   180.1930   113.2310   117.2230     2.2290 
  169.6250   -35.2100    70.6950    23.6840   139.4200   106.8200   110.1130     2.2220 
  169.7500   -34.7500    70.5390    23.9440   104.4390   101.4300   104.3030     2.2160 
  169.8750   -34.2680    70.7500    24.2430    84.3110    97.8190   100.6130     2.2120 
  170.0000   -33.7790    71.4120    24.4710    80.3260    96.4950    99.5620     2.2070 
  170.1250   -33.3050    71.5390    24.5320    90.2220    97.9240   101.6660     2.1990 
  170.2500   -32.8670    70.3060    24.5440   102.0650   101.4160   106.1180     2.1950 
  170.3750   -32.4760    68.5680    24.5380   114.6040   106.6220   112.4930     2.1990 
  170.5000   -32.1340    68.9360    24.5090   125.7860   113.1460   120.3690     2.2120 
  170.6250   -31.8510    73.7360    24.4100   133.9350   120.5520   129.4410     2.2280 
  170.7500   -31.6170    79.2090    24.2550   139.5200   128.3670   139.2610     2.2380 
  170.8750   -31.4240    80.3900    24.1240   143.8850   136.5590   149.8540     2.2400 
  171.0000   -31.2480    76.0130    24.0650   149.3540   145.1520   161.3010     2.2360 
  171.1250   -31.0660    71.1210    24.0770   159.5900   154.0090   173.5860     2.2290 
  171.2500   -30.8650    70.7630    24.1560   172.7910   162.6890   186.1490     2.2260 
  171.3750   -30.6270    73.6840    24.3120   183.5650   170.8180   198.4900     2.2300 
  171.5000   -30.3350    76.5610    24.4640   193.8520   178.1840   210.1940     2.2370 
  171.6250   -29.9800    77.5430    24.5440   213.7670   184.6620   220.9070     2.2380 
  171.7500   -29.5820    76.2590    24.5810   242.0580   190.6060   230.9430     2.2270 
  171.8750   -29.1520    72.0660    24.6150   262.4090   196.5550   240.8990     2.2130 
  172.0000   -28.6970    65.8110    24.6520   260.7190   203.3590   251.6980     2.2030 
  172.1250   -28.2270    60.4020    24.6730   244.9150   211.8910   264.2980     2.2020 
  172.2500   -27.7530    57.8540    24.6850   248.5360   221.7340   278.2110     2.2070 
  172.3750   -27.2850    58.1980    24.6890   283.8390   232.1460   292.4330     2.2140 
