~V
VERS. 2.00: Ver 2.00
~W
STRT.M 50.0000:
STOP.M 245.0000:
STEP.M 0.1250:
NULL. -999.2500:
UWI. DF5062:
~C
DEPT.M :
DEN.GM/CC :
GR.API :
RML.OHMM :
RI. :
RXO.OHMM :
CALI.CM :
SP.MV :
~A
# ...
  106.2500     2.2670    72.6110     9.4790     8.0160     7.8230    22.7620   -32.2690 
  106.3750     2.2750    81.8370     8.5660     7.4150     7.6650    23.1730   -31.8140 
  106.5000     2.2760    92.9180     7.5870     6.6670     7.1640    24.0420   -31.3630 
  106.6250     2.2780    99.7860     6.8580     6.0260     6.4120    24.6870   -30.8840 
  106.7500     2.2830   100.6360     6.4680     5.6060     6.0570    24.9610   -30.3770 
  106.8750     2.2870    98.6230     6.4050     5.4230     5.9670    24.9900   -29.9190 
  107.0000     2.2850    97.3520     6.5940     5.4400     5.9520    24.8960   -29.5780 
  107.1250     2.2730    94.1300     6.9280     5.6020     5.9560    24.6460   -29.3270 
  107.2500     2.2550    90.6000     7.2440     5.8020     6.1050    24.3430   -29.2240 
  107.3750     2.2380    92.3760     7.4380     5.9690     6.2750    24.1000   -29.2020 
  107.5000     2.2210    99.1620     7.4520     6.0520     6.3400    23.7380   -29.2360 
  107.6250     2.2060   101.8010     7.2750     6.0160     6.4470    23.4990   -29.2920 
  107.7500     2.1920    97.5610     7.0190     5.9110     6.3120    23.7090   -29.3580 
  107.8750     2.1810    93.5990     6.7840     5.7900     5.9600    24.0670   -29.3910 
  108.0000     2.1800    96.5120     6.6480     5.7120     5.8560    24.1110   -29.4430 
  108.1250     2.1940   103.5660     6.6560     5.7270     5.9530    23.8170   -29.5130 
  108.2500     2.2200   106.9640     6.7540     5.8150     6.1240    23.7500   -29.5040 
  108.3750     2.2470   106.1910     6.8850     5.9420     6.0370    24.0750   -29.6050 
  108.5000     2.2670   103.4240     6.9920     6.0580     6.0150    24.4320   -29.6200 
  108.6250     2.2750    99.5130     7.0260     6.1070     6.1920    24.5460   -29.6900 
  108.7500     2.2760    95.5460     6.9990     6.0870     6.3020    24.5750   -29.7730 
  108.8750     2.2770    92.4520     6.9470     6.0220     6.3320    24.6420   -29.7610 
  109.0000     2.2820    91.8410     6.9230     5.9520     6.2360    24.7180   -29.8280 
  109.1250     2.2910    92.1040     6.9830     5.9180     5.9610    24.6340   -29.8080 
  109.2500     2.3000    90.6080     7.1100     5.9220     5.8700    24.3250   -29.8770 
  109.3750     2.3060    88.2390     7.2390     5.9320     5.9970    23.9350   -29.9910 
  109.5000     2.3070    87.8290     7.2700     5.8910     6.2570    23.6930   -30.0440 
  109.6250     2.3000    89.9330     7.0830     5.7210     6.5570    23.6320   -30.1020 
  109.7500     2.2900    91.1690     6.7260     5.4470     6.6870    23.6660   -30.2000 
  109.8750     2.2800    93.6290     6.3670     5.1660     6.6190    23.8520   -30.2780 
  110.0000     2.2790    98.6130     6.3350     5.0920     6.4880    24.2960   -30.3440 
  110.1250     2.3030   100.1630     7.3520     5.7690     7.1720    24.7070   -30.5280 
  110.2500     2.3550    94.2200     9.8400     7.6220    10.0320    24.9390   -30.6700 
  110.3750     2.4340    83.8700    13.9440    10.9340    15.8310    25.0330   -30.8840 
  110.5000     2.5280    74.7710    19.1570    15.4850    26.1920    25.0450   -31.2830 
  110.6250     2.6120    72.1890    23.8750    20.1280    39.2580    25.0110   -31.7660 
  110.7500     2.6630    73.2990    26.1750    23.0610    44.8910    24.9510   -32.2940 
  110.8750     2.6610    71.5780    24.9570    23.0190    42.1900    24.8460   -32.9760 
  111.0000     2.6010    65.2260    20.8260    20.1010    38.1940    24.5820   -33.7800 
  111.1250     2.4960    62.6300    16.0330    15.9530    29.6240    23.9090   -34.5380 
  111.2500     2.3800    67.4730    12.3960    12.4460    17.7230    23.0730   -35.3640 
  111.3750     2.2810    73.9650    10.1490    10.0240    10.8350    22.4360   -36.0630 
  111.5000     2.2110    74.7540     9.0210     8.5690     8.6030    22.0880   -36.6390 
  111.6250     2.1760    72.9060     8.7400     7.9110     8.3480    22.0020   -37.1470 
  111.7500     2.1630    73.4000     8.8620     7.6950     8.5360    22.0160   -37.5120 
  111.8750     2.1590    73.2660     9.1740     7.7520     8.8170    22.1020   -37.8550 
  112.0000     2.1590    70.2150     9.5300     7.9480     9.0340    22.2350   -37.9850 
  112.1250     2.1600    65.4020     9.8320     8.1760     9.1130    22.3920   -38.0640 
  112.2500     2.1640    64.0680    10.0410     8.3620     9.1590    22.5430   -38.0800 
  112.3750     2.1680    67.4530    10.1310     8.4670     9.2380    22.6760   -37.9940 
  112.5000     2.1710    71.5380    10.0870     8.4750     9.3690    22.7580   -38.0190 
  112.6250     2.1700    70.9480     9.9150     8.3780     9.4400    22.8280   -37.9930 
  112.7500     2.1660    69.0540     9.7120     8.2280     9.2650    22.9400   -38.0000 
  112.8750     2.1590    71.0290     9.5610     8.0740     9.0160    23.0540   -38.0350 
  113.0000     2.1510    76.2080     9.5130     7.9560     8.8890    23.0940   -38.0610 
  113.1250     2.1460    77.1710     9.5860     7.9080     8.9250    22.9690   -38.0920 
  113.2500     2.1440    73.7920     9.7140     7.9120     9.0510    22.7550   -38.1770 
  113.3750     2.1450    70.6350     9.8280     7.9340     9.0910    22.5930   -38.2340 
  113.5000     2.1490    69.8070     9.8620     7.9260     9.1220    22.6220   -38.1410 
  113.6250     2.1570    69.4810     9.7380     7.8220     9.0140    22.6480   -38.0430 
  113.7500     2.1670    68.4950     9.4610     7.6070     8.6620    22.6590   -37.8420 
  113.8750     2.1770    67.5280     9.0670     7.3000     8.3400    22.7210   -37.4970 
  114.0000     2.1860    67.8110     8.6450     6.9660     8.1890    22.8960   -37.0570 
  114.1250     2.1910    70.7980     8.3560     6.7180     8.0150    23.2230   -36.5680 
  114.2500     2.1960    75.9170     8.2970     6.6310     7.7150    23.5270   -36.0110 
  114.3750     2.2080    80.3000     8.4980     6.7360     7.5530    23.6220   -35.5250 
  114.5000     2.2290    81.3710     8.9020     7.0110     7.8920    23.5070   -35.1380 
  114.6250     2.2540    80.4770     9.3700     7.3830     8.5730    23.3350   -34.6860 
  114.7500     2.2730    80.6100     9.7140     7.7160     9.0990    23.2030   -34.3200 
  114.8750     2.2800    82.1830     9.8170     7.8990     9.2380    23.1610   -33.8910 
  115.0000     2.2800    85.5160     9.6390     7.8610     9.0280    23.1880   -33.5690 
  115.1250     2.2840    88.4580     9.2050     7.5680     8.7680    23.3170   -33.2200 
  115.2500     2.2960    89.7270     8.6730     7.1330     8.7060    23.5510   -32.7270 
  115.3750     2.3130    90.4050     8.1550     6.6560     8.2370    23.8590   -32.2250 
  115.5000     2.3230    91.9210     7.7360     6.2330     7.0000    24.1570   -31.5920 
  115.6250     2.3210    95.8050     7.4920     5.9610     6.2480    24.3320   -31.0130 
  115.7500     2.3100   100.4550     7.3990     5.8470     6.1830    24.3840   -30.5050 
  115.8750     2.2980   101.6570     7.4230     5.8740     6.3260    24.3440   -30.0260 
  116.0000     2.2910    96.8000     7.5070     5.9890     6.3730    24.2010   -29.6140 
  116.1250     2.2930    89.6410     7.5700     6.1070     6.5230    23.9460   -29.3070 
  116.2500     2.2990    86.5940     7.5550     6.1440     6.6020    23.8510   -29.0530 
  116.3750     2.3060    87.6910     7.4400     6.0640     6.5000    24.0020   -28.8340 
  116.5000     2.3080    90.9540     7.2320     5.8750     6.3640    24.3690   -28.7290 
  116.6250     2.3020    93.8510     6.9550     5.6180     6.1440    24.7820   -28.5640 
  116.7500     2.2930    97.0350     6.6550     5.3570     5.7720    25.0880   -28.4060 
  116.8750     2.2840   100.5270     6.3570     5.1220     5.4460    25.2610   -28.3660 
  117.0000     2.2850   101.7540     6.0790     4.9170     5.3460    25.2840   -28.3350 
  117.1250     2.2990    98.3990     5.8550     4.7500     5.5010    25.0800   -28.3600 
  117.2500     2.3210    94.9560     5.7140     4.6360     5.5980    24.9770   -28.4850 
  117.3750     2.3420    95.2600     5.7010     4.6130     5.4480    24.9270   -28.7630 
