~V
VERS. 2.00: Ver 2.00
~W
STRT.M 55.0000:
STOP.M 268.0000:
STEP.M 0.1250:
NULL. -999.2500:
UWI. DF5007:
~C
DEPT.M :
SP.MV :
GR.API :
RML.OHMM :
RI. :
RXO.OHMM :
CALI.CM :
DEN.GM/CC :
~A
# ...
  100.0000   -19.1470    86.3060     7.7810     6.4010     6.4580    23.5120     2.2410 
  100.1250   -20.1800    77.8190     8.1110     6.7200     7.2010    23.4930     2.2200 
  100.2500   -21.1800    70.8370     8.3920     7.0010     7.9910    23.3310     2.2070 
  100.3750   -22.1430    67.9910     8.6050     7.2200     8.4640    23.1390     2.2030 
  100.5000   -22.9320    69.8450     8.7500     7.3720     8.4860    23.0530     2.2020 
  100.6250   -23.6810    73.8410     8.8430     7.4650     8.2230    23.0890     2.1950 
  100.7500   -24.2750    73.4450     8.9180     7.5310     8.1900    23.1090     2.1800 
  100.8750   -24.7030    67.8210     8.9910     7.5890     8.5290    23.0180     2.1620 
  101.0000   -24.9830    61.7880     9.0680     7.6510     8.9580    22.8310     2.1480 
  101.1250   -25.2160    60.2560     9.1370     7.7170     9.0820    22.7020     2.1450 
  101.2500   -25.4230    61.5900     9.1910     7.7790     8.9870    22.5910     2.1520 
  101.3750   -25.6100    63.9790     9.2310     7.8320     8.8610    22.5200     2.1650 
  101.5000   -25.7650    66.8680     9.2590     7.8730     9.0290    22.5230     2.1810 
  101.6250   -25.8060    68.1390     9.2850     7.9060     9.2970    22.5820     2.1910 
  101.7500   -25.8720    67.4260     9.3290     7.9460     9.5450    22.6730     2.1920 
  101.8750   -25.9510    64.8390     9.4120     8.0110     9.5980    22.8470     2.1830 
  102.0000   -26.0400    62.3960     9.5460     8.1100     9.6310    23.1430     2.1670 
  102.1250   -26.0420    62.5670     9.7290     8.2450     9.6380    23.3090     2.1570 
  102.2500   -26.0980    64.3700     9.9310     8.4000     9.6190    23.3720     2.1690 
  102.3750   -26.1090    65.6280    10.1140     8.5560     9.6650    23.4130     2.2060 
  102.5000   -26.1020    66.7210    10.2390     8.6840     9.8050    23.3910     2.2570 
  102.6250   -26.2020    69.5310    10.2580     8.7410    10.1740    23.4010     2.2940 
  102.7500   -26.2240    71.6850    10.1800     8.7220    10.4790    23.3810     2.2990 
  102.8750   -26.3320    70.7720    10.0200     8.6330    10.2810    23.3750     2.2760 
  103.0000   -26.4070    66.7140     9.8130     8.4930     9.8930    23.3580     2.2400 
  103.1250   -26.4790    63.7800     9.6170     8.3310     9.6960    23.3380     2.2120 
  103.2500   -26.5970    64.3740     9.4720     8.1820     9.6870    23.3740     2.1950 
  103.3750   -26.6640    65.1630     9.3880     8.0630     9.6640    23.4310     2.1850 
  103.5000   -26.8050    63.9320     9.3620     7.9840     9.5630    23.4370     2.1750 
  103.6250   -26.8670    62.7670     9.3780     7.9470     9.4270    23.3700     2.1660 
  103.7500   -26.8660    63.8530     9.3950     7.9260     9.3330    23.2960     2.1600 
  103.8750   -26.8370    65.9850     9.3920     7.9030     9.3340    23.2330     2.1590 
  104.0000   -26.8300    66.8630     9.3590     7.8680     9.3770    23.1670     2.1620 
  104.1250   -26.7900    66.5500     9.2860     7.8130     9.4540    23.1160     2.1680 
  104.2500   -26.6990    66.8020     9.1900     7.7410     9.4640    23.0960     2.1740 
  104.3750   -26.5710    68.3850     9.0930     7.6620     9.3220    23.0900     2.1770 
  104.5000   -26.4210    69.9780     9.0190     7.5910     8.9880    23.0630     2.1780 
  104.6250   -26.2840    68.3040     8.9850     7.5430     8.7490    23.0370     2.1760 
  104.7500   -26.1560    65.2290     8.9850     7.5190     8.6910    23.0510     2.1750 
  104.8750   -26.0100    63.7660     9.0050     7.5180     8.8620    23.0640     2.1750 
  105.0000   -25.7750    64.3220     9.0300     7.5350     9.0370    23.0410     2.1750 
  105.1250   -25.5840    63.9300     9.0520     7.5660     9.1810    23.0200     2.1760 
  105.2500   -25.2990    60.7920     9.0860     7.6190     9.2360    22.9480     2.1750 
  105.3750   -25.0140    58.1620     9.1470     7.7040     9.0870    22.7500     2.1730 
  105.5000   -24.6890    59.3050     9.2460     7.8280     8.8100    22.4940     2.1710 
  105.6250   -24.1840    63.4980     9.3930     7.9900     8.7130    22.2370     2.1690 
  105.7500   -23.6670    66.1550     9.5500     8.1590     8.6690    21.9380     2.1710 
  105.8750   -22.9800    66.8480     9.6510     8.2860     8.6870    21.5810     2.1760 
  106.0000   -22.2540    66.6660     9.6240     8.3080     8.7700    21.3050     2.1840 
  106.1250   -21.3980    65.6400     9.3840     8.1520     8.7030    21.2380     2.1920 
  106.2500   -20.4330    65.6350     8.9680     7.8330     8.2830    21.2260     2.2030 
  106.3750   -19.4390    68.7430     8.4260     7.3790     7.8540    21.2950     2.2180 
  106.5000   -18.3240    74.0430     7.8350     6.8500     7.5500    21.5660     2.2370 
  106.6250   -17.3190    77.0700     7.2990     6.3290     6.9840    22.0380     2.2600 
  106.7500   -16.3500    77.8730     6.8710     5.8810     6.2080    22.3730     2.2790 
  106.8750   -15.5230    79.4010     6.5750     5.5410     5.6310    22.5590     2.2880 
  107.0000   -14.9250    83.7430     6.4100     5.3240     5.4710    22.6500     2.2880 
  107.1250   -14.4740    87.6770     6.3730     5.2430     5.5200    22.6970     2.2820 
  107.2500   -14.2360    87.8200     6.4280     5.2640     5.6780    22.6860     2.2760 
  107.3750   -14.1950    85.2750     6.5600     5.3700     5.8710    22.6620     2.2740 
  107.5000   -14.3150    82.3810     6.7390     5.5310     6.0790    22.6540     2.2740 
  107.6250   -14.5180    81.2030     6.9100     5.7040     6.1670    22.6040     2.2720 
  107.7500   -14.8160    80.4960     7.0220     5.8430     6.4040    22.5180     2.2680 
  107.8750   -15.0450    79.6050     7.0460     5.9180     6.7280    22.4840     2.2640 
  108.0000   -15.1640    79.5230     6.9720     5.9110     7.0310    22.5480     2.2660 
  108.1250   -15.2820    82.8890     6.8110     5.8150     7.1820    22.7330     2.2760 
  108.2500   -15.4180    87.2110     6.6180     5.6740     7.0670    23.0010     2.2890 
  108.3750   -15.5130    88.0010     6.4440     5.5290     6.7020    23.3120     2.3000 
  108.5000   -15.6040    84.9880     6.3370     5.4250     6.2200    23.5550     2.3020 
  108.6250   -15.7600    81.2000     6.3520     5.4120     6.1360    23.5190     2.2940 
  108.7500   -15.7850    77.8890     6.4770     5.4930     6.4850    23.3430     2.2830 
  108.8750   -15.8500    74.5560     6.6890     5.6590     6.9370    23.1760     2.2710 
  109.0000   -15.9040    74.8380     6.9460     5.8800     7.0260    23.0800     2.2630 
  109.1250   -15.9850    80.0270     7.1800     6.1060     7.0090    22.9210     2.2600 
  109.2500   -16.0870    84.6060     7.3440     6.2850     7.0920    22.7010     2.2590 
  109.3750   -16.1120    85.6440     7.4120     6.3850     7.5530    22.4690     2.2600 
  109.5000   -16.2460    83.4660     7.3880     6.3930     8.2220    22.2390     2.2620 
  109.6250   -16.3500    81.0560     7.2940     6.3150     8.1220    22.0250     2.2640 
  109.7500   -16.5520    80.3660     7.1780     6.1920     7.1720    21.9070     2.2670 
  109.8750   -16.8910    81.8860     7.0670     6.0580     6.5400    21.8730     2.2690 
  110.0000   -17.2600    84.7770     6.9820     5.9410     6.3030    21.8390     2.2700 
  110.1250   -17.7510    87.0010     6.9470     5.8720     6.2990    21.7950     2.2690 
  110.2500   -18.2430    88.8560     6.9570     5.8520     6.3300    21.7760     2.2670 
  110.3750   -18.8670    90.2440     7.0110     5.8840     6.4460    21.7960     2.2640 
  110.5000   -19.5980    91.3080     7.1070     5.9640     6.6230    21.8040     2.2610 
  110.6250   -20.3610    91.7350     7.2460     6.0910     6.7760    21.8230     2.2570 
  110.7500   -21.2130    89.4170     7.4190     6.2550     6.8690    21.8730     2.2500 
  110.8750   -22.1420    84.2170     7.6290     6.4460     6.8200    21.9300     2.2400 
  111.0000   -23.0960    78.4630     7.8620     6.6540     6.7150    21.9250     2.2270 
  111.1250   -24.0270    75.6070     8.0900     6.8580     6.7110    21.8970     2.2150 
