~V
VERS. 2.00: Ver 2.00
~W
STRT.M 55.0000:
STOP.M 277.0000:
STEP.M 0.1250:
NULL. -999.2500:
UWI. DF5040:
~C
DEPT.M :
GR.API :
CALI.CM :
RXO.OHMM :
RI. :
RML.OHMM :
DEN.GM/CC :
SP.MV :
~A
# ...
  100.0000    76.8420    23.9610    24.9140     9.8130    10.4050     2.4560   -17.4840 
  100.1250    73.6710    23.7410    24.6540     9.7950    10.2050     2.3920   -17.9730 
  100.2500    72.0830    23.5340    18.8720     9.4480     9.6690     2.3050   -18.4800 
  100.3750    72.2820    23.3360    12.6470     8.8620     8.9460     2.2350   -18.9930 
  100.5000    74.1200    23.1660     9.2620     8.1910     8.2310     2.2000   -19.4910 
  100.6250    76.8500    23.0100     8.3370     7.6110     7.7220     2.1960   -19.9550 
  100.7500    78.3680    22.8810     8.1060     7.2080     7.4490     2.2010   -20.3810 
  100.8750    77.6990    22.8340     8.0070     6.9870     7.3670     2.2010   -20.7730 
  101.0000    76.0600    22.8580     7.8710     6.9040     7.3930     2.1930   -21.1360 
  101.1250    75.0600    22.9250     7.6630     6.9030     7.4530     2.1800   -21.4650 
  101.2500    74.2700    23.0070     7.5250     6.9290     7.5010     2.1690   -21.7560 
  101.3750    72.7680    23.0660     7.5520     6.9640     7.5360     2.1670   -21.9960 
  101.5000    71.1540    23.1000     7.7010     7.0070     7.5650     2.1750   -22.1780 
  101.6250    70.6300    23.1130     7.7990     7.0500     7.5930     2.1870   -22.2990 
  101.7500    70.8450    23.1170     7.8560     7.0900     7.6190     2.1930   -22.3880 
  101.8750    71.1370    23.1230     7.9850     7.1190     7.6350     2.1870   -22.4670 
  102.0000    71.1510    23.1400     8.2360     7.1310     7.6440     2.1760   -22.5480 
  102.1250    71.0030    23.1700     8.4620     7.1250     7.6330     2.1670   -22.6330 
  102.2500    70.3850    23.1670     8.5080     7.1030     7.6060     2.1670   -22.7040 
  102.3750    68.8730    23.1390     8.3960     7.0650     7.5680     2.1730   -22.7480 
  102.5000    66.3290    23.1210     8.2520     7.0140     7.5200     2.1770   -22.7540 
  102.6250    63.6670    23.1140     8.1880     6.9560     7.4650     2.1730   -22.7190 
  102.7500    62.5560    23.1030     8.1740     6.9060     7.4130     2.1660   -22.6580 
  102.8750    63.5520    23.0810     8.1720     6.8730     7.3700     2.1620   -22.5760 
  103.0000    65.8040    23.0640     8.2060     6.8630     7.3380     2.1610   -22.4700 
  103.1250    67.2660    23.0880     8.3220     6.8740     7.3300     2.1580   -22.3230 
  103.2500    66.8980    23.1210     8.5000     6.8940     7.3420     2.1520   -22.1330 
  103.3750    66.3290    23.1330     8.6880     6.9090     7.3510     2.1470   -21.9050 
  103.5000    68.1260    23.1250     8.8330     6.8960     7.3300     2.1510   -21.6520 
  103.6250    72.4830    23.1220     8.8190     6.8160     7.2400     2.1650   -21.3970 
  103.7500    75.7370    23.1460     8.6120     6.6600     7.0780     2.1790   -21.1620 
  103.8750    76.6250    23.2110     8.3030     6.4310     6.8570     2.1860   -20.9580 
  104.0000    77.6550    23.3120     8.0680     6.1600     6.6150     2.1940   -20.7900 
  104.1250    82.1420    23.4300     7.8360     5.9100     6.4110     2.2140   -20.6700 
  104.2500    88.1830    23.5430     7.3410     5.7400     6.3060     2.2450   -20.5990 
  104.3750    91.8170    23.6400     6.7140     5.6880     6.3430     2.2690   -20.5850 
  104.5000    90.3980    23.6620     6.5220     5.7730     6.5340     2.2740   -20.6350 
  104.6250    84.6980    23.5380     7.3540     6.0070     6.8580     2.2530   -20.7550 
  104.7500    79.3690    23.3050     8.4840     6.3320     7.2330     2.2280   -20.9150 
  104.8750    76.0940    23.0910     9.2630     6.6940     7.5960     2.2130   -21.0870 
  105.0000    73.8370    22.9740     9.5270     7.0320     7.8900     2.2080   -21.2400 
  105.1250    71.4280    22.9380     9.5140     7.2800     8.0650     2.2050   -21.3340 
  105.2500    69.8200    22.9260     9.5420     7.4320     8.1350     2.1980   -21.3610 
  105.3750    69.6340    22.9400     9.6630     7.5000     8.1230     2.1940   -21.3210 
  105.5000    69.9130    22.9910     9.8280     7.5190     8.0700     2.1960   -21.2200 
  105.6250    70.0300    23.0040     9.9250     7.5180     8.0170     2.2040   -21.0520 
  105.7500    70.4550    22.9990     9.9300     7.5190     7.9810     2.2110   -20.8180 
  105.8750    70.9370    23.0030     9.8510     7.5170     7.9570     2.2130   -20.5060 
  106.0000    70.5750    23.0010     9.6820     7.5080     7.9340     2.2080   -20.1040 
  106.1250    69.9170    22.9630     9.4190     7.4840     7.9030     2.2030   -19.6060 
  106.2500    71.4000    22.9200     9.1570     7.4370     7.8560     2.2030   -19.0490 
  106.3750    75.1840    22.9000     8.9360     7.3440     7.7620     2.2040   -18.4580 
  106.5000    78.3010    22.9480     8.7610     7.1710     7.5850     2.1990   -17.8530 
  106.6250    78.1660    22.9810     8.6120     6.8620     7.2670     2.1830   -17.2470 
  106.7500    77.6070    23.0690     8.4360     6.4360     6.8190     2.1700   -16.6490 
  106.8750    79.1750    23.2110     8.1570     5.9160     6.2670     2.1750   -16.0760 
  107.0000    82.6320    23.4540     7.7390     5.3480     5.6690     2.2040   -15.5550 
  107.1250    86.6810    23.7790     7.0000     4.8000     5.1120     2.2460   -15.1440 
  107.2500    91.1750    24.0890     5.8880     4.3400     4.6660     2.2750   -14.8660 
  107.3750    95.8220    24.2810     4.7240     4.0230     4.3870     2.2860   -14.7380 
  107.5000    99.5760    24.3570     3.9920     3.8860     4.2990     2.2890   -14.7580 
  107.6250   100.6680    24.3570     3.9260     3.9640     4.4290     2.2960   -14.9260 
  107.7500    99.0280    24.2870     4.2250     4.2120     4.7230     2.3080   -15.1930 
  107.8750    94.8400    24.1110     4.7440     4.6070     5.1590     2.3200   -15.5340 
  108.0000    88.0590    23.8700     5.6870     5.1150     5.6870     2.3260   -15.9280 
  108.1250    79.8490    23.5800     7.4300     5.6700     6.2360     2.3160   -16.3550 
  108.2500    73.9700    23.2640     9.1830     6.1970     6.7420     2.2920   -16.7820 
  108.3750    72.9120    22.9940     9.5700     6.6500     7.1650     2.2650   -17.1810 
  108.5000    75.7270    22.8470     8.5020     6.9930     7.4750     2.2520   -17.5220 
  108.6250    78.4740    22.8260     7.8090     7.1890     7.6440     2.2640   -17.7720 
  108.7500    78.6690    22.8450     7.7040     7.2730     7.7050     2.2790   -17.9350 
  108.8750    77.0090    22.8590     7.7000     7.2710     7.6850     2.2790   -18.0240 
  109.0000    75.3960    22.8390     7.4550     7.2190     7.6270     2.2570   -18.0570 
  109.1250    75.1990    22.7700     7.1790     7.1560     7.5740     2.2220   -18.0510 
  109.2500    75.7880    22.6590     7.0920     7.0990     7.5370     2.1890   -18.0220 
  109.3750    76.2810    22.5650     7.1600     7.0480     7.5170     2.1680   -17.9690 
  109.5000    76.2540    22.5510     7.2850     7.0070     7.5190     2.1640   -17.8890 
  109.6250    75.4340    22.6130     7.3620     6.9760     7.5390     2.1780   -17.7850 
  109.7500    74.3240    22.6330     7.3130     6.9440     7.5610     2.1990   -17.6790 
  109.8750    73.5810    22.5910     7.1860     6.9070     7.5670     2.2190   -17.5920 
  110.0000    73.8430    22.5310     7.0510     6.8690     7.5510     2.2360   -17.5410 
  110.1250    75.3840    22.4980     6.9040     6.8310     7.5180     2.2430   -17.5370 
  110.2500    76.8200    22.4870     6.7620     6.7890     7.4720     2.2350   -17.5650 
  110.3750    77.1010    22.4820     6.6910     6.7350     7.4090     2.2110   -17.6140 
  110.5000    76.8720    22.4900     6.7320     6.6660     7.3240     2.1830   -17.6730 
  110.6250    77.7050    22.5070     6.7980     6.5810     7.2200     2.1700   -17.7430 
  110.7500    79.1520    22.5260     6.7530     6.4920     7.1130     2.1730   -17.8320 
  110.8750    80.4660    22.5310     6.5990     6.4060     7.0200     2.1820   -17.9470 
  111.0000    82.0720    22.5110     6.4010     6.3420     6.9570     2.1880   -18.0860 
  111.1250    83.9260    22.4950     6.2950     6.3220     6.9400     2.1920   -18.2400 
