~V
VERS. 2.00: Ver 2.00
~W
STRT.M 60.0000:
STOP.M 251.0000:
STEP.M 0.1250:
NULL. -999.2500:
UWI. DF5053:
~C
DEPT.M :
GR.API :
RML.OHMM :
RI. :
RXO.OHMM :
CALI.CM :
DEN.GM/CC :
SP.MV :
~A
# ...
   82.5000    66.8310    10.5920     8.6340    13.9550    24.3870     2.1530   -34.1910 
   82.6250    61.0270    10.5600     8.6090    13.6020    24.2920     2.1280   -33.6250 
   82.7500    54.9370    10.5260     8.5850    13.2830    24.0890     2.1070   -33.1920 
   82.8750    59.2800    10.4600     8.5380    13.2200    23.8930     2.0950   -32.8860 
   83.0000    69.4830    10.3250     8.4440    13.4810    23.7420     2.1010   -32.5840 
   83.1250    76.6330    10.1450     8.3160    13.7030    23.5900     2.1210   -32.1910 
   83.2500    80.5520     9.9690     8.1890    13.6330    23.4480     2.1530   -31.7520 
   83.3750    83.7800     9.8640     8.1060    13.2000    23.3730     2.1900   -31.3730 
   83.5000    84.2940     9.9050     8.1280    13.1170    23.3600     2.2250   -31.1540 
   83.6250    78.7280    10.0710     8.2560    13.6180    23.3810     2.2490   -31.0230 
   83.7500    72.0910    10.3220     8.4730    14.2450    23.4320     2.2590   -30.8690 
   83.8750    69.6410    10.6050     8.7460    14.4580    23.5290     2.2480   -30.6600 
   84.0000    70.1260    10.8640     9.0260    14.2620    23.7670     2.2140   -30.3840 
   84.1250    69.7150    11.0520     9.2580    14.2710    24.1130     2.1710   -30.0310 
   84.2500    69.4510    11.1000     9.3810    14.4670    24.3180     2.1330   -29.5640 
   84.3750    72.3380    10.9060     9.3190    14.4460    24.2240     2.1110   -28.8960 
   84.5000    70.9200    10.3070     8.9490    13.8070    23.9230     2.1160   -27.9140 
   84.6250    69.2570     9.3580     8.2970    12.6840    23.6640     2.1420   -26.6630 
   84.7500    77.9660     8.1900     7.4380    11.0280    23.4990     2.1820   -25.2330 
   84.8750    94.9560     7.0210     6.5170     8.8720    23.3820     2.2250   -23.7760 
   85.0000   105.6920     6.1270     5.7320     6.8240    23.2800     2.2640   -22.4610 
   85.1250   109.2020     5.6110     5.1940     5.6230    23.2380     2.2930   -21.3380 
   85.2500   112.4920     5.5010     4.9590     5.4040    23.2300     2.3080   -20.4160 
   85.3750   116.8800     5.7650     5.0360     5.6280    23.2270     2.3060   -19.7300 
   85.5000   115.1340     6.3580     5.4330     6.2070    23.2260     2.2910   -19.3990 
   85.6250   110.0760     7.0880     6.0120     7.0450    23.2410     2.2720   -19.3880 
   85.7500   105.9550     7.8010     6.6540     8.0820    23.2770     2.2530   -19.6250 
   85.8750   102.9520     8.3520     7.2280     9.1510    23.3210     2.2390   -19.9560 
   86.0000    97.1530     8.6030     7.5880     9.6380    23.3470     2.2320   -20.2140 
   86.1250    92.9070     8.6000     7.7210     9.5460    23.3550     2.2270   -20.3680 
   86.2500    96.2060     8.4020     7.6480     9.1010    23.3570     2.2260   -20.4860 
   86.3750   101.3620     8.0710     7.4170     8.5930    23.3570     2.2260   -20.6030 
   86.5000   100.1670     7.6340     7.0580     8.3570    23.3570     2.2310   -20.6720 
   86.6250   101.7210     7.1450     6.6370     8.2640    23.3610     2.2430   -20.6710 
   86.7500   111.5070     6.6830     6.2200     7.9780    23.3750     2.2600   -20.6240 
   86.8750   120.8010     6.3790     5.9000     7.3410    23.4010     2.2780   -20.6340 
   87.0000   116.8900     6.4430     5.8300     6.8730    23.4130     2.2880   -20.8530 
   87.1250   107.7380     6.8840     6.0390     7.2900    23.4360     2.2820   -21.2850 
   87.2500    98.2350     7.6060     6.4910     8.5330    23.5150     2.2610   -21.8040 
   87.3750    89.0950     8.3690     7.0510    10.1470    23.6830     2.2310   -22.2460 
   87.5000    81.0730     8.7730     7.4590    11.5700    23.8320     2.2020   -22.4160 
   87.6250    78.9710     8.6280     7.5190    11.8910    23.9630     2.1850   -22.3200 
   87.7500    87.3770     7.9740     7.1860    11.2700    24.0490     2.1850   -22.0080 
   87.8750   103.4950     7.0890     6.5950     9.8320    23.9710     2.2010   -21.5330 
   88.0000   117.6170     6.4160     6.0290     7.9220    23.9560     2.2280   -20.9420 
   88.1250   121.3010     6.1860     5.7160     6.5280    24.0930     2.2510   -20.2720 
   88.2500   116.7190     6.4310     5.7470     6.3210    24.1940     2.2620   -19.5890 
   88.3750   111.4500     7.0510     6.1080     7.1410    24.1780     2.2600   -19.0430 
   88.5000   106.3750     7.8610     6.7280     8.3910    24.1070     2.2520   -18.8020 
   88.6250   100.8490     8.5900     7.3950     9.4750    24.1640     2.2430   -18.8020 
   88.7500    94.0500     9.0550     7.9410    10.2080    24.2720     2.2340   -18.9260 
   88.8750    86.4270     9.1550     8.2350    10.5440    24.2960     2.2230   -19.0370 
   89.0000    82.5880     8.8410     8.1740    10.5510    24.2750     2.2110   -18.9700 
   89.1250    85.2730     8.2800     7.8550    10.2300    24.2310     2.2050   -18.7230 
   89.2500    92.3750     7.6060     7.3730     9.6060    24.1430     2.2120   -18.3200 
   89.3750    98.9350     6.9570     6.8440     8.4910    24.0630     2.2330   -17.7740 
   89.5000   103.5880     6.5030     6.4090     7.3360    24.1160     2.2630   -17.1460 
   89.6250   107.6340     6.3090     6.1540     6.6790    24.1890     2.2890   -16.5630 
   89.7500   109.8050     6.3980     6.1230     6.6060    24.1300     2.3060   -16.1220 
   89.8750   109.2960     6.7230     6.3060     6.8650    23.9160     2.3090   -15.8520 
   90.0000   107.9360     7.1770     6.6480     7.2960    23.7240     2.2950   -15.8120 
   90.1250   104.2070     7.5860     7.0000     7.6800    23.5480     2.2690   -15.9560 
   90.2500    97.7310     7.8370     7.2500     7.9220    23.2710     2.2380   -16.2140 
   90.3750    91.7070     7.8700     7.3200     8.0580    22.9040     2.2130   -16.4930 
   90.5000    89.0090     7.6630     7.1590     7.3910    22.6360     2.2050   -16.7410 
   90.6250    89.7250     7.3180     6.8480     6.7420    22.5000     2.2120   -16.9880 
   90.7500    92.2700     6.9110     6.4590     6.4150    22.4110     2.2280   -17.2440 
   90.8750    95.7250     6.5340     6.0680     6.3750    22.3660     2.2430   -17.5190 
   91.0000    94.1150     6.3920     5.8090     6.5360    22.3730     2.2450   -17.7940 
   91.1250    89.5930     6.7500     5.8450     6.7810    22.4260     2.2370   -18.0600 
   91.2500    86.7180     7.9600     6.4100     7.4920    22.5190     2.2330   -18.3620 
   91.3750    86.0820    10.3000     7.7330     9.6830    22.6560     2.2470   -18.7770 
   91.5000    78.2080    13.8380     9.9980    14.5240    22.9220     2.2970   -19.3800 
   91.6250    64.6970    17.6540    12.7130    21.5660    23.3090     2.3690   -20.0930 
   91.7500    56.0540    20.6260    15.1750    29.2340    23.6610     2.4410   -20.8780 
   91.8750    54.8920    21.6460    16.5470    33.8730    23.8160     2.4830   -21.7380 
   92.0000    55.6260    19.9580    16.0280    31.3400    23.8070     2.4670   -22.7280 
   92.1250    56.2220    16.9210    14.2890    23.5090    23.7550     2.4080   -23.8310 
   92.2500    61.9920    13.9080    12.2210    16.3030    23.7080     2.3300   -25.0310 
   92.3750    72.6040    11.7830    10.5160    13.1760    23.7220     2.2570   -26.2420 
   92.5000    77.7900    10.8400     9.5290    13.2870    23.8630     2.2080   -27.3380 
   92.6250    76.3470    10.6720     9.1150    14.0750    24.0000     2.1800   -28.2540 
   92.7500    72.0220    11.1040     9.2040    14.6530    24.0850     2.1680   -28.9860 
   92.8750    67.6310    12.0710     9.7590    15.0600    24.0530     2.1690   -29.5270 
   93.0000    63.4050    13.5710    10.7930    16.1060    23.9870     2.1890   -29.8200 
   93.1250    63.3790    15.2650    12.0660    18.7080    23.9760     2.2290   -29.9360 
   93.2500    66.7200    16.7120    13.2750    22.5510    23.9700     2.2820   -29.9050 
   93.3750    66.7620    17.3960    14.0370    26.7670    23.8740     2.3320   -29.8020 
   93.5000    66.2910    16.7750    13.8890    29.1720    23.7790     2.3530   -29.7180 
   93.6250    70.1920    15.2130    12.9740    26.1380    23.6980     2.3400   -29.7100 
