~V
VERS. 2.00: Ver 2.00
~W
STRT.M 58.0000:
STOP.M 261.0000:
STEP.M 0.1250:
NULL. -999.2500:
UWI. DF5035:
~C
DEPT.M :
DEN.GM/CC :
GR.API :
CALI.CM :
RXO.OHMM :
RI. :
RML.OHMM :
SP.MV :
~A
# ...
  193.0000     2.3600    84.7280    25.3700     6.7210     6.7060     8.9060   -33.3550 
  193.1250     2.3720    80.0210    25.4420     8.2470     7.1520     9.5640   -33.1260 
  193.2500     2.3720    81.0870    25.5110     9.2200     7.5540     9.9500   -32.8790 
  193.3750     2.3590    85.8650    25.5390     8.9900     7.6210     9.7480   -32.6910 
  193.5000     2.3460    85.7790    25.5010     7.8790     7.2360     8.9460   -32.4700 
  193.6250     2.3410    77.1500    25.3690     6.3880     6.5320     7.8630   -32.3700 
  193.7500     2.3430    67.5840    25.1990     5.3000     5.8440     6.9510   -32.3330 
  193.8750     2.3470    61.2930    25.0480     4.8800     5.3390     6.3820   -32.3380 
  194.0000     2.3530    56.6880    24.9340     4.7800     5.0690     6.1470   -32.3480 
  194.1250     2.3600    52.7030    24.8590     4.8280     5.0310     6.1730   -32.4470 
  194.2500     2.3700    50.1260    24.8450     4.8530     5.1180     6.2950   -32.6040 
  194.3750     2.3810    49.1940    24.9100     4.7810     5.2550     6.4210   -32.8210 
  194.5000     2.3930    51.6560    24.9900     4.7930     5.3840     6.5050   -33.1600 
  194.6250     2.4020    59.2350    24.9790     4.9390     5.4740     6.5390   -33.4740 
  194.7500     2.4050    68.7850    24.9030     5.0680     5.5390     6.5640   -33.8030 
  194.8750     2.4050    77.6520    24.8430     5.1100     5.5950     6.6070   -34.2380 
  195.0000     2.4050    84.8230    24.8400     5.1150     5.6600     6.6900   -34.6660 
  195.1250     2.4080    88.6690    24.8100     5.1850     5.7490     6.8250   -35.1420 
  195.2500     2.4120    90.6650    24.6520     5.2720     5.8610     6.9940   -35.7310 
  195.3750     2.4140    92.4240    24.4080     5.3360     5.9800     7.1730   -36.1910 
  195.5000     2.4100    92.7440    24.2090     5.3040     6.0870     7.3400   -36.7340 
  195.6250     2.4010    89.5250    24.1030     5.1300     6.1490     7.4520   -37.4430 
  195.7500     2.3920    86.1710    24.0000     5.0910     6.1420     7.4700   -37.9880 
  195.8750     2.3870    86.4580    23.9210     5.0730     6.0320     7.3530   -38.5550 
  196.0000     2.3850    88.7070    23.9380     5.0440     5.8160     7.1210   -39.1800 
  196.1250     2.3820    89.5370    24.0250     5.2450     5.5810     6.9390   -39.6000 
  196.2500     2.3790    90.0680    24.0790     5.6850     5.4890     7.0330   -40.0400 
  196.3750     2.3780    90.0120    24.1030     6.2870     5.6800     7.5770   -40.4770 
  196.5000     2.3830    89.1100    24.1450     7.5740     6.2590     8.6700   -40.8520 
  196.6250     2.3920    86.8420    24.2460    13.3060     7.3530    10.3440   -41.2590 
  196.7500     2.3970    83.4150    24.4630    19.9090     8.8260    12.2700   -41.6260 
  196.8750     2.3930    79.2420    24.8330    20.5210    10.4960    14.1430   -41.8930 
  197.0000     2.3780    75.6060    25.2620    15.9570    12.1400    15.7740   -42.2240 
  197.1250     2.3580    76.0740    25.5370    16.5890    13.6370    17.2550   -42.5250 
  197.2500     2.3340    78.2600    25.6160    21.0100    15.1520    18.9420   -42.7980 
  197.3750     2.3100    77.4600    25.6110    27.2360    16.9190    21.0700   -43.1850 
  197.5000     2.2860    72.7190    25.6270    31.2180    19.0850    23.6740   -43.4620 
  197.6250     2.2640    69.3520    25.6720    29.3180    21.6500    26.6320   -43.7030 
  197.7500     2.2460    71.0790    25.6930    28.0790    24.3590    29.7360   -43.9930 
  197.8750     2.2330    74.4000    25.6710    26.4490    27.1620    33.1000   -44.2830 
  198.0000     2.2220    74.7980    25.6220    27.6580    30.2890    37.1130   -44.6280 
  198.1250     2.2080    72.1480    25.6150    34.1400    34.3980    42.5460   -45.0240 
  198.2500     2.1890    69.5950    25.6730    44.9850    39.8100    49.5990   -45.4110 
  198.3750     2.1680    68.5640    25.7560    53.5960    46.6740    58.3550   -45.7580 
  198.5000     2.1500    67.5770    25.8100    63.3210    54.9810    68.7570   -46.0980 
  198.6250     2.1440    66.7810    25.8320    83.3890    65.0190    81.0740   -46.4640 
  198.7500     2.1530    65.7000    25.8500   100.8770    76.8570    95.3210   -46.9330 
  198.8750     2.1790    65.1910    25.8650   104.4530    90.9400   111.9890   -47.3160 
  199.0000     2.2220    65.9420    25.9020   109.0630   107.4320   131.3130   -47.6170 
  199.1250     2.2760    64.7400    25.9140   143.0750   125.4970   152.2280   -47.9490 
  199.2500     2.3240    60.4700    25.6770   197.9680   141.8620   170.4080   -48.1720 
  199.3750     2.3400    56.8370    25.0240   183.4020   152.2670   179.9990   -48.4680 
  199.5000     2.3120    57.4410    24.0800    94.0840   153.0720   176.6400   -48.7570 
  199.6250     2.2590    60.0350    23.3620    66.3880   143.0710   161.0440   -48.9200 
  199.7500     2.2080    60.7640    23.1720    72.2940   128.7230   142.7050   -49.0990 
  199.8750     2.1700    60.8100    23.4380    75.7940   114.9510   127.0990   -49.2590 
  200.0000     2.1490    61.5150    23.9580    65.6210   104.8480   116.5830   -49.3980 
  200.1250     2.1460    61.5780    24.5540    70.8740   100.2730   112.1830   -49.5400 
  200.2500     2.1510    62.1690    25.0590    86.9020    99.9180   112.0980   -49.7030 
  200.3750     2.1570    63.0010    25.3470    91.8660   102.9030   115.4030   -49.8340 
  200.5000     2.1600    62.3350    25.4410    85.3850   108.5790   121.4280   -49.9290 
  200.6250     2.1600    61.1160    25.4590   102.8210   116.7210   129.8560   -49.9990 
  200.7500     2.1550    61.3010    25.4770   131.4440   126.0610   139.3200   -50.0930 
  200.8750     2.1450    63.8960    25.5140   149.2860   135.2740   148.4050   -50.2200 
  201.0000     2.1320    67.2020    25.5730   149.8060   142.6560   155.2920   -50.3490 
  201.1250     2.1230    68.1520    25.6270   146.5050   145.8270   157.4730   -50.4670 
  201.2500     2.1260    65.3950    25.6560   139.1400   145.0110   155.5510   -50.5170 
  201.3750     2.1390    61.4360    25.6800   127.6860   141.7180   151.5370   -50.5860 
  201.5000     2.1550    59.0870    25.7230   120.0190   138.2500   148.0420   -50.6850 
  201.6250     2.1660    58.7360    25.7870   119.3280   137.0570   147.5730   -50.6970 
  201.7500     2.1710    60.0180    25.8630   125.5610   138.8490   150.4190   -50.6910 
  201.8750     2.1700    62.3040    25.9250   139.8510   143.4200   155.9800   -50.6990 
  202.0000     2.1670    64.4540    25.9450   156.1680   149.3140   162.3430   -50.5140 
  202.1250     2.1660    64.7600    25.9370   171.5440   153.4840   165.8530   -50.3830 
  202.2500     2.1670    64.6210    25.9260   178.4880   153.8780   164.6170   -50.2400 
  202.3750     2.1720    66.6570    25.8470   170.6470   150.3990   159.1250   -50.0000 
  202.5000     2.1770    69.3880    25.6510   136.0680   144.7530   151.8130   -49.8610 
  202.6250     2.1810    69.3030    25.4860   114.7570   139.8340   145.9720   -49.6310 
  202.7500     2.1830    66.0700    25.5200   113.9020   137.5630   143.1150   -49.2610 
  202.8750     2.1820    63.9690    25.7060   124.0940   138.2950   143.2220   -48.9860 
  203.0000     2.1800    63.8970    25.8690   129.1650   141.2980   145.3270   -48.7390 
  203.1250     2.1750    62.9660    25.9010   126.9200   145.2220   147.9100   -48.4840 
  203.2500     2.1690    60.3100    25.8740   127.4000   148.1560   149.0960   -48.2780 
  203.3750     2.1640    58.0910    25.8330   129.4450   148.2470   147.0620   -47.9030 
  203.5000     2.1600    58.0620    25.8070   128.9550   143.7680   140.2640   -47.5430 
  203.6250     2.1590    61.3040    25.8000   134.9110   133.5210   128.2070   -47.4380 
  203.7500     2.1620    64.4430    25.7650   133.4380   120.4040   114.4770   -47.2080 
  203.8750     2.1700    63.5900    25.6850   107.1240   107.6190   102.4600   -46.8770 
  204.0000     2.1830    60.3580    25.5960    70.7600    98.2520    94.8510   -46.7500 
  204.1250     2.2000    61.0080    25.5870    58.6350    95.6430    94.2980   -46.4320 
