~V
VERS. 2.00: Ver 2.00
~W
STRT.M 50.0000:
STOP.M 277.0000:
STEP.M 0.1250:
NULL. -999.2500:
UWI. DF5031:
~C
DEPT.M :
DEN.GM/CC :
GR.API :
CALI.CM :
RXO.OHMM :
RI. :
RML.OHMM :
SP.MV :
~A
# ...
   83.7500     2.3330    98.6100    24.3660    14.6090     6.6070    10.0200   -16.9370 
   83.8750     2.3510   107.7290    24.4300    13.9680     6.0750     9.1810   -16.5040 
   84.0000     2.3490   114.8330    24.5860     9.7150     5.3080     7.9630   -16.0920 
   84.1250     2.3370   115.5940    24.8090     6.1470     4.5820     6.8850   -15.6980 
   84.2500     2.3230   112.2160    24.9000     5.0180     4.0800     6.2280   -15.3690 
   84.3750     2.3060   109.1740    24.8770     4.8230     3.8640     6.0460   -15.1170 
   84.5000     2.2950   107.7440    24.8300     5.0820     3.9180     6.2770   -15.0300 
   84.6250     2.2940   107.2760    24.8040     5.8410     4.1820     6.7830   -15.1080 
   84.7500     2.2930   106.7880    24.7250     6.8110     4.5000     7.3220   -15.2710 
   84.8750     2.2850   106.1800    24.4940     7.1960     4.7670     7.7590   -15.4250 
   85.0000     2.2730   105.9530    24.2760     6.8910     4.9250     8.0190   -15.5920 
   85.1250     2.2680   105.1900    24.2220     6.5290     4.9600     8.0470   -15.7460 
   85.2500     2.2670   104.2460    24.2610     6.1850     4.9590     7.9540   -15.8300 
   85.3750     2.2640   103.5160    24.2960     5.8770     4.9910     7.8640   -15.9270 
   85.5000     2.2640   102.1670    24.3010     5.7050     5.0910     7.8900   -15.9700 
   85.6250     2.2840   100.1270    24.2800     5.7200     5.2390     8.0890   -15.9900 
   85.7500     2.3150    97.7620    24.2510     5.9140     5.3550     8.3420   -15.9730 
   85.8750     2.3350    96.4060    24.2270     6.2160     5.3620     8.4620   -15.9970 
   86.0000     2.3320    97.5410    24.2020     6.5180     5.2360     8.3220   -16.0310 
   86.1250     2.3080    98.7970    24.2170     6.6720     5.0510     8.0090   -16.1630 
   86.2500     2.2910    96.8240    24.2350     6.8040     4.9650     7.8410   -16.3480 
   86.3750     2.2930    91.8980    24.2430     7.0560     5.0940     8.0480   -16.4820 
   86.5000     2.3090    85.2570    24.2500     7.9810     5.5110     8.7630   -16.6770 
   86.6250     2.3090    78.1910    24.2680    11.7030     6.2510    10.0180   -17.0690 
   86.7500     2.2770    72.3770    24.2970    18.0260     7.1080    11.4220   -17.6140 
   86.8750     2.2270    68.5680    24.3330    21.7890     7.8320    12.5150   -18.2270 
   87.0000     2.1810    66.1250    24.3980    18.8650     8.2090    12.9530   -18.9280 
   87.1250     2.1510    64.2280    24.4920    13.0350     8.1570    12.7090   -19.6010 
   87.2500     2.1320    63.8670    24.6050     9.9630     7.9280    12.2800   -20.2310 
   87.3750     2.1230    65.8250    24.7290     9.1960     7.7210    11.9930   -20.8010 
   87.5000     2.1210    68.9470    24.8100     9.1800     7.6480    11.9720   -21.2710 
   87.6250     2.1200    70.2010    24.8260     9.1730     7.6970    12.1210   -21.5380 
   87.7500     2.1160    70.3580    24.8360     9.0750     7.7320    12.1820   -21.7250 
   87.8750     2.1130    72.3050    24.8360     8.9400     7.6780    12.0440   -21.7940 
   88.0000     2.1110    76.8430    24.7920     8.7750     7.5400    11.7680   -21.7280 
   88.1250     2.1190    78.7440    24.6060     8.6040     7.4100    11.5640   -21.6400 
   88.2500     2.1530    75.7100    24.3780     8.4750     7.3790    11.5920   -21.6250 
   88.3750     2.2230    70.5200    24.2140     8.4940     7.4740    11.8750   -21.6550 
   88.5000     2.3130    68.1120    24.1760     8.6550     7.6590    12.3140   -21.6730 
   88.6250     2.3630    70.2380    24.0650     8.8690     7.8250    12.6720   -21.7420 
   88.7500     2.3430    72.7360    23.7770     9.0730     7.8730    12.7590   -21.8440 
   88.8750     2.2700    73.9770    23.4810     9.2040     7.7780    12.5560   -21.9830 
   89.0000     2.1860    73.4290    23.3750     9.2820     7.5850    12.1920   -22.1490 
   89.1250     2.1340    70.6420    23.4460     9.3860     7.3780    11.8760   -22.2730 
   89.2500     2.1200    67.3540    23.4860     9.5330     7.2210    11.7260   -22.4170 
   89.3750     2.1300    65.9740    23.4970     9.6350     7.1330    11.7390   -22.5720 
   89.5000     2.1450    67.2260    23.5340     9.6480     7.1030    11.8500   -22.6610 
   89.6250     2.1500    67.7180    23.5930     9.5730     7.1150    11.9790   -22.7410 
   89.7500     2.1460    66.3490    23.6480     9.4750     7.1500    12.0930   -22.7990 
   89.8750     2.1410    64.6920    23.6480     9.4630     7.1980    12.1990   -22.8520 
   90.0000     2.1390    64.0880    23.6420     9.5660     7.2410    12.2790   -22.8630 
   90.1250     2.1420    65.7040    23.6530     9.6330     7.2600    12.2830   -22.8320 
   90.2500     2.1450    66.6620    23.6580     9.5130     7.2630    12.2040   -22.7070 
   90.3750     2.1430    64.8790    23.6510     9.3460     7.2780    12.0870   -22.5870 
   90.5000     2.1370    63.9940    23.6360     9.3300     7.3360    12.0210   -22.5940 
   90.6250     2.1420    66.1200    23.6320     9.4920     7.4580    12.1180   -22.4680 
   90.7500     2.1600    67.5940    23.6340     9.7000     7.6030    12.3420   -22.2740 
   90.8750     2.1800    66.2000    23.6360     9.9640     7.7050    12.5580   -22.0990 
   91.0000     2.1910    65.7090    23.6360    10.1660     7.6990    12.6000   -21.9110 
   91.1250     2.1930    70.8050    23.6360     9.9500     7.5390    12.3490   -21.6440 
   91.2500     2.1960    75.7310    23.6360     9.2070     7.2960    11.9440   -21.3680 
   91.3750     2.2010    76.9630    23.6340     8.2420     7.0510    11.5550   -21.0830 
   91.5000     2.2010    76.1460    23.6160     7.6690     6.8790    11.3130   -20.7100 
   91.6250     2.1880    76.0830    23.5600     7.7810     6.8390    11.2800   -20.4120 
   91.7500     2.1640    75.5540    23.4690     8.0470     6.8860    11.3550   -20.1640 
   91.8750     2.1380    73.0390    23.3900     8.1010     6.9580    11.4450   -19.9880 
   92.0000     2.1200    71.5870    23.3460     8.0380     6.9950    11.4730   -19.8860 
   92.1250     2.1200    71.5500    23.3280     8.0140     6.9550    11.3760   -19.8170 
   92.2500     2.1310    70.0420    23.3170     8.0150     6.8670    11.1840   -19.7370 
   92.3750     2.1400    68.5650    23.3120     7.9800     6.7770    10.9580   -19.6790 
   92.5000     2.1430    70.9670    23.3090     7.9450     6.7310    10.7730   -19.6910 
   92.6250     2.1470    76.1920    23.3040     8.0340     6.7710    10.7070   -19.6040 
   92.7500     2.1530    78.1900    23.3330     8.2610     6.8840    10.7380   -19.3920 
   92.8750     2.1540    75.8200    23.4640     8.5700     7.0230    10.7960   -19.0340 
   93.0000     2.1490    73.3470    23.7440     8.7610     7.0990    10.7570   -18.5810 
   93.1250     2.1480    76.3850    23.8310     8.6430     6.9660    10.4370   -18.1190 
   93.2500     2.1640    82.9680    23.7530     8.3620     6.6090     9.8240   -17.5990 
   93.3750     2.2020    90.6650    23.7670     8.0160     6.0840     8.9840   -16.9640 
   93.5000     2.2500    98.1460    23.9730     7.2010     5.4970     8.0650   -16.2930 
   93.6250     2.2810   103.9470    24.3280     6.1540     4.9740     7.2740   -15.7320 
   93.7500     2.2850   105.4800    24.6040     5.4250     4.5670     6.7180   -15.2040 
   93.8750     2.2760   104.8500    24.7350     5.2360     4.2860     6.4150   -14.6580 
   94.0000     2.2790   106.2570    24.7640     5.2130     4.1220     6.3130   -14.1950 
   94.1250     2.3040   107.2160    24.7650     5.0460     4.0750     6.3510   -13.8420 
   94.2500     2.3290   105.4950    24.7720     4.9260     4.1030     6.4470   -13.5940 
   94.3750     2.3380   106.2610    24.7820     4.9650     4.1680     6.5590   -13.4280 
   94.5000     2.3330   111.6440    24.7890     5.1360     4.2270     6.6400   -13.3040 
   94.6250     2.3280   113.5080    24.7890     5.2260     4.2220     6.6040   -13.2720 
   94.7500     2.3350   108.6990    24.7920     5.1520     4.1400     6.4320   -13.3100 
   94.8750     2.3540   103.2460    24.8020     4.9420     3.9980     6.1590   -13.4540 
