~V
VERS. 2.00: Ver 2.00
~W
STRT.M 72.0000:
STOP.M 259.0000:
STEP.M 0.1250:
NULL. -999.2500:
UWI. DF5020:
~C
DEPT.M :
DEN.GM/CC :
GR.API :
RML.OHMM :
RI. :
RXO.OHMM :
CALI.CM :
SP.MV :
~A
# ...
  173.2500     2.2390    74.7410   121.8580   104.4990    96.7070    24.4670   -31.4360 
  173.3750     2.2350    74.0990   126.0150   107.4070    98.4630    24.4670   -31.3450 
  173.5000     2.2300    71.1410   138.4700   117.9170    96.6840    24.4670   -31.2620 
  173.6250     2.2260    66.0220   159.3570   136.0170   110.9240    24.4670   -31.2030 
  173.7500     2.2220    61.6620   184.0590   157.6580   131.2990    24.4700   -31.1190 
  173.8750     2.2180    60.6170   207.2290   178.4130   159.5920    24.4920   -31.0350 
  174.0000     2.2140    62.9960   222.5440   193.1380   191.3270    24.6170   -30.9510 
  174.1250     2.2120    64.1940   222.7160   195.7630   201.3580    24.8260   -30.9370 
  174.2500     2.2120    62.7150   210.0900   187.4960   193.8600    25.0110   -30.8720 
  174.3750     2.2150    61.3060   189.4140   171.4410   173.2440    25.2420   -30.7510 
  174.5000     2.2210    62.5730   166.3190   152.0000   147.3580    25.3760   -30.6330 
  174.6250     2.2300    66.4610   145.1230   133.1360   135.2520    25.3970   -30.5360 
  174.7500     2.2410    69.6280   127.2260   116.7430   120.0070    25.3980   -30.4900 
  174.8750     2.2520    70.4400   113.2280   103.5650   103.8430    25.3890   -30.5170 
  175.0000     2.2610    69.6510   103.6060    94.1200    94.6320    25.3230   -30.5720 
  175.1250     2.2670    68.8590    99.7220    89.7250    87.6460    25.2010   -30.6260 
  175.2500     2.2700    68.5760   101.1040    90.1220    74.6890    25.0170   -30.7130 
  175.3750     2.2690    68.3430   107.4870    95.2180    67.8080    24.9130   -30.8360 
  175.5000     2.2650    67.9780   117.7480   104.1250    72.2950    24.9370   -31.0180 
  175.6250     2.2580    66.1790   129.7350   115.0450    90.3250    24.9900   -31.2090 
  175.7500     2.2520    63.2220   140.3830   125.1010   109.3980    25.0070   -31.3660 
  175.8750     2.2470    62.2340   148.0410   132.5760   130.8280    25.0560   -31.4640 
  176.0000     2.2430    65.1950   152.8710   137.1930   140.2150    25.1300   -31.5250 
  176.1250     2.2410    69.4980   157.1510   140.4260   131.5570    25.1880   -31.6500 
  176.2500     2.2390    69.8030   163.4470   144.6890   122.5110    25.1900   -31.6770 
  176.3750     2.2360    66.7650   172.1330   150.7190   121.6240    25.1420   -31.7500 
  176.5000     2.2310    64.0970   181.5540   157.5350   134.1600    25.0560   -31.6830 
  176.6250     2.2280    62.6650   188.0500   162.3670   155.5600    24.9160   -31.6180 
  176.7500     2.2290    60.3760   189.5760   163.3840   182.6520    24.7770   -31.5310 
  176.8750     2.2320    58.8960   186.3710   160.5230   184.2070    24.6830   -31.4990 
  177.0000     2.2370    60.6220   181.0610   155.6680   174.7760    24.6670   -31.4030 
  177.1250     2.2420    64.5520   178.1330   152.4120   118.4120    24.6670   -31.2970 
  177.2500     2.2460    66.2810   180.1790   153.2180   105.1800    24.6700   -31.2800 
  177.3750     2.2480    65.1530   187.6330   158.7490   106.1080    24.6890   -31.3550 
  177.5000     2.2500    64.3200   199.0200   167.9850   131.7100    24.8030   -31.5250 
  177.6250     2.2510    64.2420   210.9570   178.3250   152.6380    24.9440   -31.7090 
  177.7500     2.2510    64.2680   219.3180   186.2540   170.3200    25.0670   -31.9060 
  177.8750     2.2480    64.8860   221.5440   189.5000   174.5680    25.1700   -32.0890 
  178.0000     2.2430    65.3930   217.2720   187.4180   162.1450    25.1700   -32.2510 
  178.1250     2.2380    63.8690   208.6020   181.1750   161.9040    25.1910   -32.4540 
  178.2500     2.2360    61.0890   200.5770   174.7320   162.4830    25.2000   -32.6080 
  178.3750     2.2370    60.2520   196.4890   170.9620   147.7060    25.2000   -32.6840 
  178.5000     2.2390    60.3790   197.7410   171.3740   130.4730    25.2000   -32.7210 
  178.6250     2.2410    59.3560   203.6430   175.5130   125.9130    25.2000   -32.7960 
  178.7500     2.2410    58.4910   208.5250   179.3510   131.9280    25.2000   -32.8980 
  178.8750     2.2410    57.8200   207.6610   178.9640   145.7730    25.2000   -32.9820 
  179.0000     2.2430    56.9230   196.3140   171.5160   168.1380    25.2000   -33.0440 
  179.1250     2.2520    57.5620   175.2330   156.1290   174.2300    25.2000   -32.9890 
  179.2500     2.2630    59.8420   149.7730   137.9110   158.5470    25.1980   -32.9560 
  179.3750     2.2730    62.0860   127.3710   121.7450   124.6230    25.1910   -32.8540 
  179.5000     2.2750    62.5670   117.7730   111.7040   100.3170    25.1440   -32.8190 
  179.6250     2.2660    61.8860   120.7320   111.9560    91.4630    25.1360   -32.6540 
  179.7500     2.2490    61.4840   134.2050   122.0540   101.2630    25.1330   -32.5160 
  179.8750     2.2300    61.0790   157.9370   141.4720   124.7750    25.1330   -32.3790 
  180.0000     2.2160    60.2280   189.9620   168.0550   157.7640    25.1330   -32.3730 
  180.1250     2.2100    60.1020   225.9850   197.6670   226.1070    25.1330   -32.3530 
  180.2500     2.2100    59.9500   259.0980   224.4950   267.5790    25.1280   -32.3450 
  180.3750     2.2130    58.3090   284.9150   245.1610   269.7280    25.1070   -32.3560 
  180.5000     2.2150    56.7590   302.2370   258.9040   275.8760    24.9650   -32.3670 
  180.6250     2.2130    57.2720   312.0860   266.5470   282.0330    24.9410   -32.4840 
  180.7500     2.2090    56.6640   317.4980   270.5690   290.3110    24.9330   -32.5960 
  180.8750     2.2040    54.2670   318.0130   270.7530   284.0670    24.9330   -32.6980 
  181.0000     2.2030    53.2720   311.9420   265.8850   287.2320    24.9330   -32.7880 
  181.1250     2.2080    56.7990   296.6410   253.8880   309.2100    24.9330   -32.8950 
  181.2500     2.2160    61.0140   273.6790   235.8510   299.9730    24.9330   -33.0170 
  181.3750     2.2250    63.4720   244.6290   212.7840   258.9710    24.9330   -33.1210 
  181.5000     2.2300    64.1630   212.1580   186.4860   232.6910    24.9330   -33.1790 
  181.6250     2.2320    64.6580   180.1490   159.6800   217.4330    24.9330   -33.1010 
  181.7500     2.2340    66.1900   152.0420   135.3190   221.7060    24.9330   -32.9680 
  181.8750     2.2380    67.7560   129.9090   115.3920   170.2610    24.9330   -32.7530 
  182.0000     2.2480    68.2650   114.8120   101.1260   111.3460    24.9330   -32.4710 
  182.1250     2.2600    68.0630   108.2610    94.0730    88.5630    24.9330   -32.0720 
  182.2500     2.2700    69.6520   108.7000    93.0530    78.1300    24.9330   -31.6340 
  182.3750     2.2730    71.4930   115.2080    97.3110    74.7940    24.9330   -31.1640 
  182.5000     2.2670    70.4780   126.0670   105.3680    80.7930    24.9330   -30.6330 
  182.6250     2.2540    67.5200   138.5080   114.9020    95.8290    24.9390   -30.1270 
  182.7500     2.2410    68.1540   148.9330   122.9650   119.1070    24.9740   -29.5680 
  182.8750     2.2340    72.1500   155.1780   127.8940   144.4770    25.0420   -29.0740 
  183.0000     2.2350    74.5680   156.7420   129.3710   151.1150    25.0770   -28.5220 
  183.1250     2.2420    73.5020   154.7140   128.3640   135.5070    25.1470   -28.0750 
  183.2500     2.2500    71.3170   152.0740   127.2420   124.3700    25.1980   -27.6000 
  183.3750     2.2560    68.5920   150.3920   127.3300   124.4830    25.2440   -27.2170 
  183.5000     2.2570    64.7240   150.3090   129.1430   127.8500    25.2630   -26.8490 
  183.6250     2.2530    63.3660   151.9860   132.6960   134.1780    25.2670   -26.5520 
  183.7500     2.2480    64.2850   154.5600   137.0220   137.5060    25.2670   -26.2760 
  183.8750     2.2460    63.7950   156.9000   141.0740   141.5050    25.2670   -26.0090 
  184.0000     2.2470    61.5770   157.0780   143.2430   143.9020    25.2630   -25.7810 
  184.1250     2.2540    61.1290   151.1790   140.2110   148.8120    25.2440   -25.6010 
  184.2500     2.2630    64.1980   137.4050   130.2190   151.3250    25.2000   -25.4330 
  184.3750     2.2730    67.4500   115.6210   112.6140   143.3850    25.1540   -25.2840 
