~V
VERS. 2.00: Ver 2.00
~W
STRT.M 58.0000:
STOP.M 256.0000:
STEP.M 0.1250:
NULL. -999.2500:
UWI. DF5024:
~C
DEPT.M :
SP.MV :
GR.API :
CALI.CM :
RXO.OHMM :
RI. :
RML.OHMM :
DEN.GM/CC :
~A
# ...
  159.2500   -25.2450    83.0830    24.5350    57.5830    37.4020    39.5990     2.2280 
  159.3750   -25.4550    83.1600    24.5300    54.1120    36.6240    38.4180     2.2310 
  159.5000   -25.6710    81.4350    24.4620    49.4030    34.4860    35.9860     2.2330 
  159.6250   -25.8920    80.9470    24.3380    45.1650    31.5580    32.9350     2.2350 
  159.7500   -26.0990    83.4560    24.2060    41.6000    28.6190    30.0090     2.2440 
  159.8750   -26.2830    87.4210    24.0670    36.8970    26.1560    27.7100     2.2620 
  160.0000   -26.4460    89.8200    23.8100    30.4660    24.6010    26.5040     2.2820 
  160.1250   -26.6060    89.5710    23.4410    25.0940    24.5990    27.1130     2.3000 
  160.2500   -26.7690    88.9190    23.1840    23.8230    26.3460    29.6820     2.3150 
  160.3750   -26.9260    88.2760    23.1430    26.4360    30.2560    34.2530     2.3190 
  160.5000   -27.0590    86.4510    23.1990    32.2660    36.7840    40.8390     2.3060 
  160.6250   -27.1570    83.3300    23.2440    44.6120    46.6440    49.7340     2.2790 
  160.7500   -27.2400    81.0880    23.2430    67.0740    58.9070    61.8660     2.2500 
  160.8750   -27.3220    80.4170    23.2280    93.7260    72.2250    75.5870     2.2270 
  161.0000   -27.4070    80.1640    23.2130   112.0400    84.5420    88.4400     2.2120 
  161.1250   -27.4790    78.7390    23.2180   115.9640    93.1630    97.4360     2.2120 
  161.2500   -27.5250    76.8030    23.2450   118.1630    97.7390   102.2110     2.2190 
  161.3750   -27.5510    75.5730    23.3130   126.2680    98.8670   103.3880     2.2230 
  161.5000   -27.5730    75.3050    23.4490   133.3410    98.1620   102.6520     2.2150 
  161.6250   -27.6090    74.5120    23.6690   125.3400    98.0030   102.4860     2.1990 
  161.7500   -27.6510    72.2910    23.8380   110.0700   100.0040   104.5740     2.1900 
  161.8750   -27.6810    69.7770    23.9260   101.9070   104.3180   109.0760     2.1960 
  162.0000   -27.6910    68.9230    23.8970   108.8210   109.9250   114.9270     2.2100 
  162.1250   -27.6890    70.6750    23.7170   125.5770   114.5830   119.7880     2.2150 
  162.2500   -27.6960    73.0870    23.4510   139.5240   116.3570   121.6380     2.2060 
  162.3750   -27.7190    74.3700    23.2660   143.4200   114.2850   119.4760     2.1940 
  162.5000   -27.7470    74.0280    23.2970   136.7360   108.5820   113.5260     2.1890 
  162.6250   -27.7590    73.5320    23.6260   120.3310   100.6140   105.2110     2.1950 
  162.7500   -27.7530    74.0260    23.9680    98.0630    93.0710    97.3400     2.2090 
  162.8750   -27.7460    74.8450    24.1350    77.0410    87.6800    91.7140     2.2210 
  163.0000   -27.7540    75.3110    24.1350    66.5100    85.2870    89.2170     2.2250 
  163.1250   -27.7820    76.0250    24.0390    71.6420    86.2220    90.1920     2.2190 
  163.2500   -27.8070    76.8950    23.8910    84.1700    89.2000    93.3010     2.2100 
  163.3750   -27.8140    76.6440    23.7470    97.8310    93.2850    97.5630     2.2060 
  163.5000   -27.8070    75.1390    23.6520   109.6730    97.5370   102.0000     2.2040 
  163.6250   -27.8050    74.7700    23.6570   114.4600   100.6340   105.2320     2.2010 
  163.7500   -27.8240    76.3210    23.7600   110.4990   101.7130   106.3580     2.1990 
  163.8750   -27.8590    78.0600    23.8720   103.9820   100.4060   104.9940     2.2030 
  164.0000   -27.8940    78.6230    23.9270   104.0630    97.0480   101.4890     2.2140 
  164.1250   -27.9210    78.8700    23.9660   109.6190    92.4020    96.6420     2.2260 
  164.2500   -27.9550    79.1060    24.0220   107.4240    87.8370    91.8780     2.2310 
  164.3750   -28.0120    77.6830    24.0850    92.0680    84.6250    88.5260     2.2300 
  164.5000   -28.0970    74.5320    24.1090    68.7580    84.0960    87.9750     2.2310 
  164.6250   -28.1920    72.0990    24.0640    53.5450    88.1770    92.2330     2.2360 
  164.7500   -28.2740    71.6090    24.0080    57.1040    97.1430   101.5880     2.2370 
  164.8750   -28.3430    72.4950    23.9850    78.6980   111.5800   116.6540     2.2240 
  165.0000   -28.4140    73.7450    23.9690   108.4200   131.9180   137.8760     2.2020 
  165.1250   -28.4990    74.5130    23.9310   132.9270   159.5340   166.6940     2.1820 
  165.2500   -28.5890    74.6330    23.9080   148.4840   192.9630   201.5770     2.1690 
  165.3750   -28.6660    74.5810    23.9050   160.2150   230.2740   240.5110     2.1630 
  165.5000   -28.7240    74.1320    23.9150   175.1430   267.8740   279.7470     2.1580 
  165.6250   -28.7790    71.7840    23.9190   191.1610   300.0250   313.2960     2.1500 
  165.7500   -28.8550    68.1420    23.9170   201.1650   322.4790   336.7270     2.1400 
  165.8750   -28.9540    65.4910    23.9040   206.1150   331.3890   346.0250     2.1350 
  166.0000   -29.0590    65.4290    23.8800   208.9810   325.0250   339.3840     2.1360 
  166.1250   -29.1490    67.1970    23.8200   206.5900   303.9410   317.3820     2.1420 
  166.2500   -29.2300    68.7530    23.7200   199.2540   276.5490   288.7990     2.1480 
  166.3750   -29.3210    70.1950    23.6390   192.4770   248.7010   259.7390     2.1590 
  166.5000   -29.4360    71.8960    23.6110   185.9370   224.4340   234.4160     2.1840 
  166.6250   -29.5700    72.4020    23.6000   176.0970   206.2580   215.4500     2.2270 
  166.7500   -29.6970    71.0950    23.6430   164.5170   193.2070   201.8310     2.2810 
  166.8750   -29.8060    69.2360    23.7490   161.3900   184.8640   193.1250     2.3360 
  167.0000   -29.9070    67.9610    23.8520   168.3260   180.8450   188.9310     2.3810 
  167.1250   -30.0260    66.9090    23.9120   175.2060   181.4220   189.5340     2.3920 
  167.2500   -30.1630    65.6710    23.9110   170.0680   185.9920   194.3020     2.3620 
  167.3750   -30.2990    64.9190    23.8360   156.1860   195.0010   203.7030     2.3050 
  167.5000   -30.4090    65.3500    23.7130   139.9490   208.7380   218.0380     2.2470 
  167.6250   -30.4810    66.4740    23.6580   127.5410   227.5410   237.6590     2.2140 
  167.7500   -30.5390    66.7170    23.6240   126.2040   249.5260   260.6000     2.2010 
  167.8750   -30.5990    65.8750    23.6560   137.0280   272.9890   285.0840     2.1930 
  168.0000   -30.6560    65.0310    23.8070   155.6740   295.5770   308.6550     2.1800 
  168.1250   -30.6800    64.8710    23.9870   173.0160   313.2700   327.1180     2.1640 
  168.2500   -30.6630    64.5760    24.1720   187.3820   324.0890   338.4070     2.1550 
  168.3750   -30.6180    64.1140    24.3020   197.1330   327.3090   341.7670     2.1500 
  168.5000   -30.5710    63.9140    24.4160   200.3810   323.7530   338.0560     2.1430 
  168.6250   -30.5460    63.2000    24.4840   197.1410   314.3700   328.2650     2.1330 
  168.7500   -30.5360    61.6800    24.4660   192.0490   301.9310   315.2850     2.1340 
  168.8750   -30.5260    60.8650    24.3600   187.8340   288.4070   301.1730     2.1500 
  169.0000   -30.5190    61.9480    24.3040   184.8690   275.7650   287.9810     2.1680 
  169.1250   -30.5480    63.7220    24.4090   184.7080   266.2390   278.0400     2.1690 
  169.2500   -30.6310    64.6030    24.5870   181.9090   260.6730   272.2320     2.1580 
  169.3750   -30.7650    65.1500    24.7100   170.6350   259.8120   271.3330     2.1500 
  169.5000   -30.9230    66.2850    24.7300   155.8020   263.7650   275.4580     2.1520 
  169.6250   -31.0680    66.7690    24.6580   152.8500   271.7160   283.7550     2.1530 
  169.7500   -31.1970    64.9100    24.5770   168.1250   280.1430   292.5490     2.1430 
  169.8750   -31.3200    61.5420    24.5430   193.7080   285.9010   298.5580     2.1290 
  170.0000   -31.4410    59.5510    24.5040   217.0550   286.3850   299.0620     2.1240 
  170.1250   -31.5390    61.0330    24.5030   225.6750   279.2220   291.5880     2.1330 
  170.2500   -31.5880    63.1380    24.5380   218.4660   266.2430   278.0450     2.1470 
  170.3750   -31.5810    63.7770    24.5720   198.3180   249.6700   260.7510     2.1550 
