~V
VERS. 2.00: Ver 2.00
~W
STRT.M 58.0000:
STOP.M 240.0000:
STEP.M 0.1250:
NULL. -999.2500:
UWI. DF5049:
~C
DEPT.M :
GR.API :
RML.OHMM :
RI. :
RXO.OHMM :
CALI.CM :
DEN.GM/CC :
SP.MV :
~A
# ...
  148.0000    52.2750    12.8770    12.4590    11.5770    25.8610     2.5240   -15.0910 
  148.1250    53.0440    13.1350    12.7680    12.3760    25.8750     2.5260   -14.8880 
  148.2500    54.2780    13.3910    13.0890    12.8600    25.8930     2.5250   -14.7640 
  148.3750    56.9000    13.6230    13.4030    12.7590    25.8990     2.5250   -14.6990 
  148.5000    59.6460    13.8390    13.7210    11.9920    25.8940     2.5260   -14.6550 
  148.6250    60.4240    14.0650    14.0730    11.2710    25.8860     2.5250   -14.7290 
  148.7500    58.3090    14.2790    14.4370    11.7260    25.8880     2.5220   -14.9050 
  148.8750    54.2660    14.4060    14.7320    12.8340    25.8940     2.5210   -15.0620 
  149.0000    50.4600    14.3430    14.8460    13.2950    25.9020     2.5250   -15.2640 
  149.1250    48.4630    13.9860    14.6450    12.6260    25.9070     2.5300   -15.5210 
  149.2500    48.8540    13.4360    14.2040    11.4520    25.9110     2.5260   -15.6940 
  149.3750    50.8560    12.8330    13.6410    10.4930    25.9090     2.5040   -15.8380 
  149.5000    53.1620    12.3250    13.0880     9.7540    25.9030     2.4660   -16.0080 
  149.6250    53.9610    12.0260    12.6360     9.4050    25.8940     2.4250   -16.1630 
  149.7500    54.4120    11.8310    12.2270     9.0770    25.8790     2.4000   -16.2860 
  149.8750    56.0500    11.5520    11.7350     9.1480    25.8050     2.3960   -16.4820 
  150.0000    57.6660    11.0340    11.0710     9.8970    25.6390     2.4090   -16.7250 
  150.1250    57.3660    10.3770    10.3610     9.8380    25.3550     2.4210   -17.0310 
  150.2500    57.8380    10.0810     9.9650     9.1550    25.2620     2.4140   -17.4050 
  150.3750    61.4350    10.8000    10.2850     8.3030    25.3100     2.3870   -17.8690 
  150.5000    65.6720    13.3870    11.8940     9.1910    25.4090     2.3440   -18.3790 
  150.6250    68.0050    19.6050    16.4080    15.9390    25.5250     2.3000   -18.9910 
  150.7500    70.3260    31.4950    25.3520    35.8130    25.6450     2.2660   -19.6960 
  150.8750    71.5670    49.7090    40.7290    69.3600    25.7620     2.2430   -20.4340 
  151.0000    70.9970    73.2440    63.2400    98.1850    25.8390     2.2300   -21.1540 
  151.1250    70.1390    99.1750    89.2930   110.4420    25.8700     2.2250   -21.8520 
  151.2500    68.7710   119.7130   110.6740   119.2740    25.8700     2.2260   -22.5480 
  151.3750    65.8600   131.6880   123.9670   125.7900    25.8610     2.2290   -23.2140 
  151.5000    63.9110   137.6200   130.9190   128.7580    25.8580     2.2340   -23.8330 
  151.6250    66.9690   141.3430   134.5330   128.4200    25.8620     2.2350   -24.3040 
  151.7500    71.0500   144.8230   137.1170   120.9120    25.8640     2.2320   -24.6690 
  151.8750    72.5300   148.4340   139.3760   116.2360    25.8680     2.2270   -24.9290 
  152.0000    72.6300   152.7280   142.0130   115.6600    25.9140     2.2200   -25.1270 
  152.1250    72.5380   159.2960   146.6330   118.2920    26.0470     2.2150   -25.2790 
  152.2500    72.0840   169.7780   154.9410   120.1320    26.2040     2.2090   -25.4090 
  152.3750    72.3270   186.3160   169.1280   121.8710    26.3070     2.2020   -25.4430 
  152.5000    72.3120   211.2730   191.5740   131.0680    26.3430     2.1950   -25.4350 
  152.6250    69.8090   249.0600   226.4510   164.2280    26.3500     2.1870   -25.4520 
  152.7500    65.3930   298.3590   272.2580   228.8300    26.3490     2.1820   -25.4510 
  152.8750    61.8870   353.8400   324.3020   312.6960    26.3490     2.1780   -25.4780 
  153.0000    60.2090   401.0220   370.8430   365.2910    26.3490     2.1760   -25.5250 
  153.1250    58.9570   411.7110   388.8450   344.3490    26.3510     2.1740   -25.5650 
  153.2500    58.6030   381.2780   371.2260   307.5930    26.3530     2.1750   -25.5470 
  153.3750    60.0630   323.1590   324.9730   267.7310    26.3510     2.1790   -25.5440 
  153.5000    62.0600   258.7600   266.9930   219.2560    26.3350     2.1890   -25.4920 
  153.6250    61.7580   205.6320   214.5670   177.3110    26.3050     2.2050   -25.4140 
  153.7500    59.3260   166.9320   174.3270   133.2870    26.2850     2.2210   -25.3030 
  153.8750    57.0210   141.4430   146.7870   100.6280    26.2630     2.2310   -25.2070 
  154.0000    56.5180   126.0730   129.7760    82.6980    26.2400     2.2350   -25.0820 
  154.1250    58.7800   117.2530   120.2180    81.2980    26.2290     2.2360   -24.9110 
  154.2500    62.6040   109.8270   112.7750    82.8030    26.2300     2.2430   -24.7750 
  154.3750    64.9550   101.8160   105.1160    84.0480    26.2350     2.2540   -24.6340 
  154.5000    65.0530    93.4700    96.9720    75.4230    26.2350     2.2610   -24.5630 
  154.6250    64.9370    87.2020    90.2280    59.5050    26.2240     2.2500   -24.4650 
  154.7500    66.7010    84.9220    86.8560    49.6200    26.2000     2.2250   -24.4380 
  154.8750    70.2380    87.7560    88.1890    52.9370    26.1760     2.1970   -24.3820 
  155.0000    71.9290    95.9260    94.6170    76.4870    26.1490     2.1780   -24.3770 
  155.1250    69.5290   109.0410   105.7330   103.3380    26.0000     2.1790   -24.4450 
  155.2500    67.4050   123.5640   118.1090   113.1640    25.6750     2.1950   -24.4700 
  155.3750    66.6090   135.8260   128.4710   106.6430    25.3410     2.2180   -24.5150 
  155.5000    66.6530   143.0140   134.4440   104.3680    25.1760     2.2420   -24.5760 
  155.6250    65.7320   144.8030   135.5920   112.0830    25.1540     2.2620   -24.6640 
  155.7500    65.8760   144.9360   134.9640   124.0610    25.1570     2.2760   -24.6720 
  155.8750    66.9560   145.4800   134.3970   130.5430    25.1720     2.2820   -24.6470 
  156.0000    66.1930   147.0510   134.6160   136.9500    25.2350     2.2850   -24.5570 
  156.1250    63.8800   149.5420   135.8190   140.2240    25.3760     2.2870   -24.4540 
  156.2500    63.0460   152.7060   137.9750   138.7250    25.6240     2.2900   -24.3680 
  156.3750    66.0060   156.6650   141.2900   131.4300    25.8830     2.2920   -24.3050 
  156.5000    72.5720   160.8570   145.3570   122.6540    26.0930     2.2890   -24.1920 
  156.6250    75.5870   161.7510   147.4270   122.4180    26.2040     2.2760   -24.0490 
  156.7500    72.1140   155.1490   143.8610   125.9320    26.3240     2.2600   -23.9130 
  156.8750    67.3890   139.2080   132.5040   132.6980    26.4710     2.2470   -23.7910 
  157.0000    66.9000   116.7570   114.6410   134.2630    26.5360     2.2440   -23.6720 
  157.1250    68.4930    94.1960    94.9170    96.5370    26.4820     2.2540   -23.5280 
  157.2500    67.4820    76.0340    78.1050    61.3890    26.2700     2.2690   -23.3810 
  157.3750    66.7250    62.7530    65.4110    46.1810    25.9000     2.2840   -23.2430 
  157.5000    69.2020    52.9590    55.9470    41.9710    25.5340     2.2980   -23.1280 
  157.6250    72.5580    45.2840    48.5070    41.0790    25.4150     2.3110   -23.0220 
  157.7500    74.0360    38.7550    42.1610    40.9080    25.4640     2.3200   -22.9450 
  157.8750    74.9190    33.5330    37.0330    37.9150    25.5370     2.3240   -22.7720 
  158.0000    77.1200    29.9600    33.4000    28.7290    25.5380     2.3170   -22.5960 
  158.1250    79.9030    28.3930    31.6230    20.7010    25.4500     2.3040   -22.4100 
  158.2500    80.3280    28.0010    31.0260    24.0220    25.3990     2.2930   -22.2240 
  158.3750    77.8160    27.9370    30.8580    31.9550    25.4090     2.2910   -22.0430 
  158.5000    75.4680    27.4790    30.3670    32.2350    25.4460     2.2990   -21.8650 
  158.6250    78.7020    26.1890    28.9930    27.6190    25.4670     2.3160   -21.7070 
  158.7500    83.7730    24.4500    27.0550    22.1820    25.4270     2.3340   -21.5480 
  158.8750    84.6070    22.9100    25.2000    18.5780    25.3500     2.3460   -21.4850 
  159.0000    80.7140    22.2950    24.1620    19.2390    25.3020     2.3460   -21.4740 
  159.1250    78.4800    23.4070    24.7360    23.5160    25.2940     2.3300   -21.4850 
