~V
VERS. 2.00: Ver 2.00
~W
STRT.M 50.0000:
STOP.M 276.0000:
STEP.M 0.1250:
NULL. -999.2500:
UWI. DF5011:
~C
DEPT.M :
DEN.GM/CC :
GR.API :
CALI.CM :
RXO.OHMM :
RI. :
RML.OHMM :
SP.MV :
~A
# ...
  252.5000     2.3190    52.4250    23.1020     5.4640     4.9840     5.6070   -14.4270 
  252.6250     2.3260    51.8580    23.0980     5.1500     4.9090     5.5480   -14.4940 
  252.7500     2.3310    50.8190    23.0940     4.8620     4.8460     5.5130   -14.5200 
  252.8750     2.3370    50.6710    23.0760     4.8980     4.7990     5.5020   -14.5210 
  253.0000     2.3490    52.5780    23.0480     5.1900     4.7670     5.5060   -14.5820 
  253.1250     2.3620    55.4950    23.0250     5.3340     4.7450     5.5140   -14.6400 
  253.2500     2.3720    58.2170    23.0180     5.2360     4.7300     5.5130   -14.5770 
  253.3750     2.3730    59.9010    23.0220     5.1530     4.7190     5.5080   -14.5490 
  253.5000     2.3660    59.1450    23.0400     5.1090     4.7170     5.5090   -14.5790 
  253.6250     2.3540    56.3860    23.0690     4.9910     4.7270     5.5270   -14.5360 
  253.7500     2.3490    55.3820    23.0910     4.9490     4.7510     5.5640   -14.5060 
  253.8750     2.3500    56.6030    23.0980     5.2210     4.7730     5.5970   -14.4840 
  254.0000     2.3500    56.9060    23.0970     5.6650     4.7810     5.6030   -14.3760 
  254.1250     2.3470    55.1640    23.0940     5.8140     4.7620     5.5700   -14.2440 
  254.2500     2.3390    54.0340    23.0890     5.5320     4.7120     5.5070   -14.2510 
  254.3750     2.3320    54.8290    23.0850     5.1670     4.6520     5.4480   -14.2130 
  254.5000     2.3250    55.4470    23.0830     4.8930     4.5980     5.4140   -14.1020 
  254.6250     2.3180    54.3920    23.0820     4.7350     4.5620     5.4130   -14.0910 
  254.7500     2.3120    53.5120    23.0710     4.7090     4.5530     5.4370   -14.0450 
  254.8750     2.3090    54.4250    23.0500     4.7360     4.5610     5.4630   -14.0030 
  255.0000     2.3110    57.0920    23.0290     4.7390     4.5730     5.4760   -14.0880 
  255.1250     2.3190    59.1310    23.0190     4.7460     4.5800     5.4710   -14.0730 
  255.2500     2.3330    59.3150    23.0130     4.8060     4.5760     5.4520   -14.0730 
  255.3750     2.3460    59.2160    23.0010     4.8280     4.5690     5.4320   -14.2280 
  255.5000     2.3510    59.3880    22.9900     4.8320     4.5660     5.4230   -14.2880 
  255.6250     2.3470    58.4830    22.9860     4.8090     4.5780     5.4380   -14.2980 
  255.7500     2.3420    55.7900    22.9860     4.8950     4.6130     5.4870   -14.4070 
  255.8750     2.3400    54.7070    22.9860     4.9240     4.6630     5.5570   -14.4360 
  256.0000     2.3390    55.2930    22.9860     4.9300     4.7130     5.6300   -14.5970 
  256.1250     2.3400    56.5380    22.9860     5.0380     4.7490     5.6830   -14.7990 
  256.2500     2.3440    57.8660    22.9860     5.3330     4.7540     5.6930   -14.8170 
  256.3750     2.3460    58.0910    22.9860     5.3590     4.7360     5.6710   -14.9540 
  256.5000     2.3380    56.9660    22.9870     5.1800     4.7060     5.6360   -15.1870 
  256.6250     2.3230    55.4670    22.9890     5.0150     4.6810     5.6120   -15.3170 
  256.7500     2.3110    54.4820    22.9910     4.8910     4.6760     5.6180   -15.5240 
  256.8750     2.3080    53.5060    22.9900     4.7670     4.6950     5.6510   -15.6650 
  257.0000     2.3110    54.5450    22.9880     4.7300     4.7350     5.6990   -15.6720 
  257.1250     2.3140    57.9340    22.9860     4.7220     4.7890     5.7490   -15.7750 
  257.2500     2.3190    59.3100    22.9860     4.6880     4.8470     5.7900   -15.8750 
  257.3750     2.3260    57.7600    22.9860     4.7070     4.8990     5.8170   -15.7960 
  257.5000     2.3310    57.0180    22.9860     4.7720     4.9390     5.8310   -15.7670 
  257.6250     2.3250    58.9530    22.9860     4.8910     4.9620     5.8330   -15.7810 
  257.7500     2.3110    60.5540    22.9860     4.9530     4.9640     5.8220   -15.6740 
  257.8750     2.3030    61.2550    22.9860     4.9340     4.9490     5.8020   -15.6500 
  258.0000     2.3070    61.6470    22.9860     4.8970     4.9220     5.7760   -15.6110 
  258.1250     2.3210    61.0070    22.9860     4.9280     4.8920     5.7490   -15.4880 
  258.2500     2.3340    57.8810    22.9830     5.0060     4.8700     5.7350   -15.4360 
  258.3750     2.3410    55.1590    22.9790     5.0620     4.8670     5.7440   -15.4210 
  258.5000     2.3390    55.2010    22.9780     5.0640     4.8900     5.7800   -15.3690 
  258.6250     2.3320    56.0100    22.9770     5.1200     4.9360     5.8420   -15.3290 
  258.7500     2.3280    53.8200    22.9790     5.2850     5.0010     5.9190   -15.3290 
  258.8750     2.3330    51.8640    22.9820     5.5760     5.0700     5.9940   -15.3410 
  259.0000     2.3450    53.4740    22.9850     5.8920     5.1350     6.0570   -15.3720 
  259.1250     2.3570    56.4440    22.9860     6.1740     5.1930     6.1050   -15.4760 
  259.2500     2.3610    56.5450    22.9860     6.2600     5.2360     6.1350   -15.6330 
  259.3750     2.3610    55.1130    22.9860     6.2950     5.2620     6.1530   -15.8600 
  259.5000     2.3620    54.3290    22.9860     6.5580     5.2700     6.1610   -16.1100 
  259.6250     2.3710    55.1420    22.9860     6.9230     5.2640     6.1620   -16.3360 
  259.7500     2.3820    58.1460    22.9860     7.1670     5.2490     6.1560   -16.5140 
  259.8750     2.3840    60.8870    22.9860     7.4720     5.2300     6.1450   -16.6960 
  260.0000     2.3750    60.4580    22.9860     7.6110     5.2120     6.1330   -16.8500 
  260.1250     2.3570    57.8240    22.9860     7.3720     5.2020     6.1270   -16.9150 
  260.2500     2.3390    57.2600    22.9860     6.6420     5.2080     6.1340   -16.8830 
  260.3750     2.3320    59.2390    22.9860     5.9300     5.2300     6.1500   -16.7480 
  260.5000     2.3370    60.4840    22.9840     5.4790     5.2580     6.1620   -16.5480 
  260.6250     2.3490    58.6590    22.9800     5.3810     5.2820     6.1540   -16.3110 
  260.7500     2.3560    54.3000    22.9750     5.4750     5.2880     6.1140   -16.0960 
  260.8750     2.3550    51.8990    22.9710     5.4860     5.2800     6.0590   -15.9000 
  261.0000     2.3490    52.8140    22.9690     5.5160     5.2720     6.0130   -15.7720 
  261.1250     2.3440    55.0360    22.9690     5.8510     5.2750     5.9960   -15.7080 
  261.2500     2.3430    55.5400    22.9690     6.2890     5.2990     6.0180   -15.6850 
  261.3750     2.3450    55.4370    22.9690     6.4600     5.3430     6.0690   -15.6220 
  261.5000     2.3460    56.7590    22.9690     6.3110     5.4070     6.1440   -15.5410 
  261.6250     2.3440    59.0770    22.9690     5.9090     5.4930     6.2430   -15.4820 
  261.7500     2.3390    62.0000    22.9690     5.4640     5.6000     6.3640   -15.4330 
  261.8750     2.3350    63.6370    22.9700     5.2610     5.7160     6.4920   -15.3480 
  262.0000     2.3360    61.8010    22.9750     5.2950     5.8290     6.6050   -15.1840 
  262.1250     2.3480    57.5190    22.9760     5.4610     5.9260     6.6880   -14.9880 
  262.2500     2.3670    55.1800    22.9630     5.9360     5.9980     6.7370   -14.8380 
  262.3750     2.3790    56.6260    22.9470     6.7430     6.0580     6.7820   -14.8080 
  262.5000     2.3800    57.8900    22.9300     7.2130     6.1190     6.8410   -14.8780 
  262.6250     2.3730    56.8140    22.8980     7.1410     6.1820     6.9130   -14.9880 
  262.7500     2.3740    55.3640    22.8490     7.2650     6.2250     6.9700   -15.1110 
  262.8750     2.3840    54.9900    22.8120     7.6380     6.2270     6.9800   -15.2530 
  263.0000     2.3940    55.6720    22.7980     8.2870     6.1800     6.9330   -15.4450 
  263.1250     2.3980    56.5440    22.7980     8.8420     6.0960     6.8490   -15.6830 
  263.2500     2.3960    59.4180    22.7980     8.7810     6.0130     6.7760   -15.8860 
  263.3750     2.3950    62.5660    22.7980     8.2390     5.9640     6.7510   -16.0520 
  263.5000     2.3970    61.8520    22.7980     8.0260     5.9560     6.7740   -16.1730 
  263.6250     2.4010    58.0610    22.7980     8.2860     5.9740     6.8190   -16.2380 
