~V
VERS. 2.00: Ver 2.00
~W
STRT.M 55.0000:
STOP.M 271.0000:
STEP.M 0.1250:
NULL. -999.2500:
UWI. DF5009:
~C
DEPT.M :
GR.API :
CALI.CM :
RXO.OHMM :
RI. :
RML.OHMM :
DEN.GM/CC :
SP.MV :
~A
# ...
  235.0000    72.4400    25.4220    71.0290    64.2360    67.4220     2.2230    -4.6180 
  235.1250    74.3410    24.6370    56.3320    65.6700    69.9820     2.2110    -4.7340 
  235.2500    75.3640    23.9060    72.8750    70.7300    76.2860     2.2020    -4.8040 
  235.3750    73.8470    23.5410   107.3770    79.2410    85.9670     2.2000    -4.9750 
  235.5000    71.6330    23.5040   135.4970    90.2640    97.9030     2.2030    -5.1120 
  235.6250    69.5810    23.5970   141.0770   101.6960   109.6970     2.2070    -5.1640 
  235.7500    67.6600    23.8030   137.0070   110.9670   118.7650     2.2080    -5.2760 
  235.8750    67.1720    24.1160   128.0290   117.0120   124.2240     2.2070    -5.3160 
  236.0000    68.7550    24.3470   125.7900   120.2050   126.6560     2.2040    -5.5080 
  236.1250    69.7820    24.3980   144.6810   120.4230   125.7300     2.2000    -5.5050 
  236.2500    68.3530    24.5970   160.4460   117.1020   120.6050     2.1970    -5.5080 
  236.3750    65.6510    25.1110   159.2540   109.5070   110.7430     2.1950    -5.6120 
  236.5000    64.4060    25.7020   144.7110    98.6250    97.8690     2.1930    -5.5880 
  236.6250    65.8910    25.9750   112.1480    87.1090    85.3690     2.1920    -5.6010 
  236.7500    67.3420    26.0100    78.5400    77.3930    75.3650     2.1930    -5.5050 
  236.8750    68.8380    26.0030    64.7080    70.2220    68.1420     2.1950    -5.4640 
  237.0000    72.2970    26.0080    72.9000    65.2800    63.0520     2.2000    -5.3190 
  237.1250    76.7180    25.9920    74.8910    61.8260    59.2190     2.2070    -5.2260 
  237.2500    78.2150    25.9610    66.3600    58.8170    55.6940     2.2160    -5.2550 
  237.3750    78.3930    25.9390    54.6330    55.8700    52.2310     2.2240    -5.0970 
  237.5000    79.7130    25.9350    49.6660    52.9210    48.9120     2.2260    -5.0260 
  237.6250    80.4540    25.9300    48.9310    50.2330    46.0980     2.2230    -4.9810 
  237.7500    79.4700    25.9200    44.6940    48.0660    43.9450     2.2210    -4.9320 
  237.8750    79.6080    25.9160    41.5460    46.5130    42.4460     2.2220    -4.9240 
  238.0000    81.9680    25.9290    41.1530    45.4720    41.4530     2.2240    -4.8740 
  238.1250    84.4740    25.9540    40.0240    44.8720    40.9310     2.2230    -4.9460 
  238.2500    85.3640    25.9780    40.6370    44.7030    40.9080     2.2170    -4.9380 
  238.3750    83.9960    25.9930    42.0550    45.1570    41.5870     2.2070    -4.9490 
  238.5000    81.3130    25.9960    42.1970    46.4480    43.1660     2.1960    -4.9900 
  238.6250    77.9020    25.9910    42.1260    48.9090    45.8930     2.1840    -4.9850 
  238.7500    75.1820    25.9870    47.9820    52.2710    49.3710     2.1740    -5.1090 
  238.8750    73.3420    25.9830    60.2790    56.0640    53.0420     2.1680    -5.1680 
  239.0000    72.0410    25.9750    72.1330    59.5570    56.1730     2.1700    -5.3130 
  239.1250    71.6970    25.9580    74.7260    61.8340    57.9810     2.1850    -5.3440 
  239.2500    70.9960    25.9420    71.0510    62.8790    58.6790     2.2070    -5.3740 
  239.3750    70.8020    25.9370    66.7180    63.0550    58.7330     2.2330    -5.5240 
  239.5000    72.9350    25.9340    66.7040    62.8120    58.5670     2.2540    -5.5140 
  239.6250    76.5480    25.9120    68.6490    62.2900    58.2300     2.2630    -5.6420 
  239.7500    78.1970    25.8820    70.8960    61.4520    57.6090     2.2600    -5.7250 
  239.8750    80.3640    25.8590    75.7660    60.3490    56.7680     2.2490    -5.7750 
  240.0000    85.8640    25.8270    77.1520    59.2990    56.0980     2.2340    -5.8930 
  240.1250    89.4460    25.7980    66.8810    59.1050    56.5110     2.2220    -5.9290 
  240.2500    86.8670    25.8180    65.5130    60.4340    58.5880     2.2130    -6.0270 
  240.3750    80.9490    25.8810    75.1570    63.7140    62.6180     2.2090    -6.1290 
  240.5000    75.3910    25.8990    82.9990    68.9350    68.4280     2.2110    -6.2280 
  240.6250    72.1360    25.8450    86.8600    75.6350    75.3570     2.2210    -6.2460 
  240.7500    71.6420    25.8320    94.4130    82.2640    81.8670     2.2380    -6.2650 
  240.8750    72.5320    25.8760   101.1500    87.3810    86.5810     2.2650    -6.2920 
  241.0000    73.1710    25.9130   108.3730    89.8910    88.5030     2.3000    -6.3260 
  241.1250    73.7660    25.8950   104.8180    88.8920    86.8020     2.3400    -6.3960 
  241.2500    73.8480    25.8070    92.7050    85.1200    82.3460     2.3780    -6.3560 
  241.3750    73.8450    25.6840    82.1160    79.2740    75.9780     2.4100    -6.3300 
  241.5000    76.4300    25.6570    82.1240    72.5120    68.9650     2.4360    -6.3440 
  241.6250    81.1040    25.8000    86.2100    66.2500    62.7350     2.4510    -6.3300 
  241.7500    84.1080    25.8950    78.8640    61.1660    57.7960     2.4590    -6.3070 
  241.8750    85.9590    25.8270    66.8970    57.3320    54.1190     2.4590    -6.2570 
  242.0000    88.8220    25.6970    57.9130    54.5340    51.4450     2.4510    -6.1850 
  242.1250    90.3940    25.6250    56.2750    52.6220    49.6350     2.4390    -6.0770 
  242.2500    90.7400    25.6030    48.8630    51.3800    48.5270     2.4210    -6.0420 
  242.3750    92.5900    25.6290    45.2600    50.9350    48.2670     2.3960    -5.9750 
  242.5000    94.5390    25.6430    47.6270    51.4590    49.0030     2.3680    -5.8930 
  242.6250    92.5500    25.5300    52.8120    53.1640    50.8720     2.3530    -5.8960 
  242.7500    89.0310    25.3710    58.2080    55.6600    53.4090     2.3540    -5.8100 
  242.8750    88.9580    25.3260    59.4070    58.4620    56.0740     2.3720    -5.7610 
  243.0000    92.1320    25.4390    61.3830    60.8380    58.1500     2.4010    -5.6910 
  243.1250    93.8520    25.6220    63.1940    61.8190    58.7990     2.4280    -5.6230 
  243.2500    93.3720    25.7610    65.0420    61.4290    58.2120     2.4460    -5.6610 
  243.3750    91.3880    25.8300    67.9790    60.0870    56.8860     2.4550    -5.6170 
  243.5000    88.3220    25.8540    66.2620    58.3630    55.3940     2.4610    -5.6120 
  243.6250    86.8750    25.8550    61.4370    56.7750    54.2260     2.4660    -5.5590 
  243.7500    88.3860    25.8100    53.2400    55.5960    53.5510     2.4720    -5.5240 
  243.8750    89.5400    25.7340    55.3390    54.9780    53.4440     2.4830    -5.5890 
  244.0000    86.0460    25.6970    55.1960    54.9880    53.8780     2.5040    -5.5390 
  244.1250    83.1930    25.6830    50.5320    55.5230    54.6390     2.5330    -5.6390 
  244.2500    85.4790    25.6100    48.6270    56.2140    55.3880     2.5570    -5.6880 
  244.3750    88.1290    25.5430    51.8610    57.0730    56.2350     2.5670    -5.6780 
  244.5000    86.6200    25.5340    60.6320    58.5790    57.8060     2.5590    -5.7640 
  244.6250    82.1650    25.4830    67.8320    62.0560    61.5940     2.5320    -5.9020 
  244.7500    80.0590    25.4060    65.0310    68.4980    68.4290     2.5020    -6.0790 
  244.8750    81.3560    25.4770    82.5900    78.3460    78.3400     2.4800    -6.2370 
  245.0000    83.8040    25.7370   160.1750    89.3740    88.5920     2.4700    -6.4050 
  245.1250    82.9840    25.9550   224.3650    92.1920    89.2270     2.4640    -6.6400 
  245.2500    78.2100    26.0030   219.6120    80.0160    74.7080     2.4510    -6.7980 
  245.3750    72.3010    25.9170   153.8540    57.2890    51.2480     2.4320    -7.0670 
  245.5000    67.0580    25.7360    85.1670    35.2920    30.1750     2.4110    -7.4110 
  245.6250    63.1760    25.5640    44.6620    21.4960    17.7100     2.3950    -7.6400 
  245.7500    61.6470    25.5060    21.9820    13.8710    11.1000     2.3810    -7.9390 
  245.8750    63.9040    25.5420     8.7050    10.0750     8.0060     2.3660    -8.1510 
  246.0000    69.3280    25.5760     6.4080     8.3520     6.7900     2.3500    -8.4420 
  246.1250    76.1090    25.5560     7.8790     7.8550     6.6120     2.3370    -8.6920 
