~V
VERS. 2.00: Ver 2.00
~W
STRT.M 55.0000:
STOP.M 270.0000:
STEP.M 0.1250:
NULL. -999.2500:
UWI. DF5017:
~C
DEPT.M :
SP.MV :
GR.API :
CALI.CM :
RXO.OHMM :
RI. :
RML.OHMM :
DEN.GM/CC :
~A
# ...
   77.5000   -45.4150    69.3470    23.7440    10.7430     7.3060    11.6000     2.1130 
   77.6250   -45.1280    75.2820    23.7080    10.7160     7.3000    11.5880     2.1200 
   77.7500   -44.7500    78.4360    23.6920    10.6530     7.2370    11.4430     2.1340 
   77.8750   -44.3580    77.7860    23.6900    10.5790     7.1110    11.1710     2.1500 
   78.0000   -44.0050    75.7810    23.6890    10.4530     6.9500    10.8360     2.1610 
   78.1250   -43.7080    75.1260    23.6890    10.1580     6.8160    10.5730     2.1660 
   78.2500   -43.4590    75.2770    23.6790     9.7880     6.7680    10.4880     2.1660 
   78.3750   -43.2110    76.4570    23.6470     9.7590     6.8350    10.6320     2.1630 
   78.5000   -42.9810    77.6730    23.6100    10.2720     7.0120    10.9870     2.1560 
   78.6250   -42.7290    76.7960    23.5700    10.9390     7.2560    11.4590     2.1490 
   78.7500   -42.5410    75.9660    23.5550    11.1840     7.4800    11.8550     2.1450 
   78.8750   -42.4000    78.4540    23.5520    11.0870     7.6110    12.0270     2.1470 
   79.0000   -42.2490    83.6690    23.5520    10.9130     7.6080    11.9130     2.1510 
   79.1250   -42.0880    86.2400    23.5520    10.7360     7.4660    11.5590     2.1510 
   79.2500   -41.9250    85.0930    23.5520    10.4500     7.2700    11.1610     2.1470 
   79.3750   -41.7710    84.0620    23.5520    10.1220     7.0890    10.8340     2.1410 
   79.5000   -41.6020    85.6160    23.5520    10.0640     6.9680    10.6340     2.1310 
   79.6250   -41.4750    85.4890    23.5520    10.2570     6.9340    10.5810     2.1130 
   79.7500   -41.2970    83.5930    23.5520    10.3560     6.9510    10.6080     2.0960 
   79.8750   -41.0820    83.7820    23.5520    10.2310     6.9890    10.6640     2.0920 
   80.0000   -40.8400    85.1800    23.5520    10.1280     7.0260    10.7020     2.1060 
   80.1250   -40.5480    83.3460    23.5520    10.1430     7.0580    10.6890     2.1310 
   80.2500   -40.2230    80.0790    23.5520    10.1340     7.0890    10.6380     2.1500 
   80.3750   -39.8530    78.9530    23.5520    10.0170     7.1210    10.5720     2.1550 
   80.5000   -39.4610    79.3500    23.5520     9.7760     7.1460    10.5180     2.1520 
   80.6250   -38.9820    78.7230    23.5500     9.2420     7.1670    10.5130     2.1550 
   80.7500   -38.4910    77.7570    23.5390     8.4830     7.2170    10.6010     2.1610 
   80.8750   -37.9400    77.6520    23.5130     8.0840     7.3390    10.8330     2.1630 
   81.0000   -37.3750    78.9230    23.4930     8.4010     7.5630    11.2470     2.1690 
   81.1250   -36.7270    82.2610    23.4860     9.1230     7.8700    11.8070     2.2020 
   81.2500   -35.9930    84.6440    23.4880     9.5290     8.1250    12.2850     2.2660 
   81.3750   -35.1450    86.7880    23.5030     9.4910     8.1650    12.3860     2.3450 
   81.5000   -34.2450    92.4840    23.5820     9.1980     7.8610    11.8770     2.4110 
   81.6250   -33.3700   100.8790    23.7450     9.0310     7.1830    10.7280     2.4300 
   81.7500   -32.5590   106.6510    24.0280     9.4080     6.3710     9.3990     2.4040 
   81.8750   -31.8440   109.4450    24.2720     9.8280     5.6170     8.2260     2.3520 
   82.0000   -31.1710   111.5720    24.3850     9.3820     5.0440     7.3870     2.3010 
   82.1250   -30.7090   112.7220    24.4010     8.2700     4.7350     6.9580     2.2780 
   82.2500   -30.4270   113.1150    24.3950     7.2910     4.6330     6.8090     2.2780 
   82.3750   -30.3550   115.5860    24.3620     6.5680     4.7040     6.8750     2.2940 
   82.5000   -30.4330   120.3320    24.2850     5.9670     4.9070     7.1090     2.3180 
   82.6250   -30.6860   122.4410    24.2150     5.7800     5.1860     7.4740     2.3450 
   82.7500   -31.0400   119.1240    24.1790     5.7970     5.4470     7.8610     2.3650 
   82.8750   -31.4620   112.1420    24.1550     5.9270     5.6130     8.1530     2.3690 
   83.0000   -32.0070   105.8350    24.1180     6.1830     5.6370     8.2510     2.3550 
   83.1250   -32.6370   104.3780    24.0370     6.2800     5.5140     8.1120     2.3300 
   83.2500   -33.3760   104.3250    23.9710     6.1870     5.3470     7.8830     2.3090 
   83.3750   -34.2030   101.1510    23.9000     6.0640     5.2220     7.6990     2.2920 
   83.5000   -35.0990    95.4950    23.8650     6.0840     5.2030     7.6440     2.2720 
   83.6250   -36.0890    91.5490    23.8790     6.2400     5.3540     7.7360     2.2420 
   83.7500   -37.1370    87.7610    23.9130     6.4830     5.6500     7.8950     2.2060 
   83.8750   -38.2490    81.3530    23.9160     6.9350     6.0510     8.0740     2.1670 
   84.0000   -39.3450    75.4720    23.8900     7.8280     6.4850     8.2560     2.1320 
   84.1250   -40.3700    74.9920    23.8460     8.9400     6.8390     8.4460     2.1140 
   84.2500   -41.2730    74.7550    23.7850     9.6060     7.0390     8.6480     2.1120 
   84.3750   -42.0750    70.9060    23.6960     9.6550     7.0650     8.8600     2.1160 
   84.5000   -42.7550    67.6910    23.6380     9.4780     6.9580     9.0830     2.1170 
   84.6250   -43.2510    67.4930    23.6320     9.4330     6.7960     9.3360     2.1190 
   84.7500   -43.5910    66.6900    23.6500     9.4860     6.6630     9.6270     2.1280 
   84.8750   -43.7800    64.2800    23.6710     9.5660     6.6010     9.9510     2.1410 
   85.0000   -43.8350    63.2710    23.7000     9.6890     6.6170    10.2880     2.1470 
   85.1250   -43.7920    65.0180    23.7620     9.9100     6.7040    10.6240     2.1410 
   85.2500   -43.7030    66.1060    23.7940    10.1650     6.8230    10.9470     2.1350 
   85.3750   -43.5600    66.9650    23.7770    10.3950     6.9530    11.2330     2.1360 
   85.5000   -43.3830    68.4750    23.7530    10.5310     7.0670    11.4300     2.1380 
   85.6250   -43.1640    69.6870    23.7400    10.4470     7.1170    11.4560     2.1360 
   85.7500   -42.9410    69.4040    23.7280    10.2700     7.0900    11.3310     2.1310 
   85.8750   -42.7050    69.8220    23.7170    10.1370     6.9990    11.1210     2.1300 
   86.0000   -42.4990    73.3720    23.7130    10.0410     6.8820    10.9230     2.1380 
   86.1250   -42.2970    77.4630    23.7000     9.9140     6.8020    10.8630     2.1550 
   86.2500   -42.1270    77.7510    23.6690     9.8930     6.8030    10.9850     2.1720 
   86.3750   -41.9600    74.9960    23.6380    10.1450     6.8930    11.2750     2.1790 
   86.5000   -41.8340    72.4890    23.6250    10.5480     7.0470    11.6550     2.1730 
   86.6250   -41.7730    70.4550    23.6250    10.6840     7.2150    11.9960     2.1520 
   86.7500   -41.7150    68.1870    23.6250    10.6260     7.3400    12.2040     2.1290 
   86.8750   -41.6660    66.7840    23.6250    10.4860     7.3910    12.2420     2.1130 
   87.0000   -41.6080    68.3750    23.6250    10.3850     7.3600    12.1260     2.1090 
   87.1250   -41.5620    73.3850    23.6240    10.3240     7.2400    11.8780     2.1150 
   87.2500   -41.4190    77.5830    23.6160    10.2700     7.0640    11.5470     2.1270 
   87.3750   -41.2120    79.3620    23.5790    10.2080     6.8850    11.2120     2.1390 
   87.5000   -40.9190    79.1860    23.4940    10.1660     6.8150    11.0580     2.1500 
   87.6250   -40.5380    75.7080    23.4110    10.2840     7.0270    11.4140     2.1750 
   87.7500   -40.1350    70.3800    23.3730    11.1760     7.5530    12.3680     2.2300 
   87.8750   -39.7230    67.5970    23.4420    14.4340     8.3460    13.8660     2.3080 
   88.0000   -39.2960    70.2250    23.6970    22.8530     9.2320    15.5650     2.3760 
   88.1250   -38.8300    75.1990    24.0100    29.9300     9.8150    16.5720     2.3820 
   88.2500   -38.4360    77.7040    24.1260    27.4910     9.8370    16.3290     2.3310 
   88.3750   -38.1160    77.3730    24.0860    18.4780     9.3260    15.0460     2.2580 
   88.5000   -37.8380    75.2710    24.0200    11.9780     8.5600    13.4670     2.1950 
   88.6250   -37.5760    73.8740    24.0030    10.5930     7.8960    12.3420     2.1650 
