~V
VERS. 2.00: Ver 2.00
~W
STRT.M 55.0000:
STOP.M 270.0000:
STEP.M 0.1250:
NULL. -999.2500:
UWI. DF5017:
~C
DEPT.M :
SP.MV :
GR.API :
CALI.CM :
RXO.OHMM :
RI. :
RML.OHMM :
DEN.GM/CC :
~A
# ...
  201.2500   -20.4620    95.1510    24.0470    15.4390    10.9890    12.3160     2.4520 
  201.3750   -20.2580   100.7460    24.0310    15.4850    10.9430    12.2320     2.4390 
  201.5000   -19.9290   105.3860    24.0960    16.0030    10.7800    12.1200     2.4190 
  201.6250   -19.4830   109.0060    24.1400    16.7820    10.4500    12.0130     2.4040 
  201.7500   -18.9650   111.6080    24.1450    16.6140     9.9220    11.8360     2.4040 
  201.8750   -18.3500   109.3770    24.1470    14.8440     9.1780    11.4660     2.4190 
  202.0000   -17.6170   101.8900    24.2180    12.2010     8.2900    10.8490     2.4350 
  202.1250   -16.7830    94.2550    24.2610     9.9180     7.4360    10.0820     2.4400 
  202.2500   -15.8970    90.1020    24.2290     8.3400     6.7860     9.4370     2.4480 
  202.3750   -14.9920    88.4740    24.1730     7.5890     6.4340     9.1220     2.4740 
  202.5000   -14.1520    89.1270    24.1500     7.9720     6.4030     9.2260     2.5050 
  202.6250   -13.3880    93.1400    24.1240     8.8820     6.6520     9.6760     2.5150 
  202.7500   -12.6640    95.3020    24.0170     9.3250     6.9620    10.1210     2.5050 
  202.8750   -12.0260    90.7840    23.9540     9.1750     7.1390    10.2660     2.4930 
  203.0000   -11.4310    79.9540    24.0130     8.5590     7.0520     9.9510     2.4820 
  203.1250   -10.8950    68.8970    24.1880     7.5510     6.6870     9.2580     2.4640 
  203.2500   -10.4190    61.6250    24.2510     6.5880     6.2440     8.5550     2.4410 
  203.3750    -9.9890    58.0430    24.1690     6.0230     5.8520     8.0360     2.4280 
  203.5000    -9.6260    56.5320    24.0140     5.8020     5.5720     7.7440     2.4250 
  203.6250    -9.2570    55.9210    23.9430     5.7440     5.4200     7.6480     2.4300 
  203.7500    -8.9330    55.5570    23.9560     5.7170     5.3530     7.6370     2.4430 
  203.8750    -8.6190    55.3560    24.0150     5.7220     5.3500     7.6620     2.4710 
  204.0000    -8.4000    55.8320    24.1030     5.7800     5.3960     7.7120     2.4980 
  204.1250    -8.3100    58.9020    24.1750     5.9360     5.4870     7.8070     2.5020 
  204.2500    -8.3600    68.0800    24.2390     6.2220     5.6040     7.9290     2.4880 
  204.3750    -8.5160    80.6180    24.2710     6.5780     5.7300     8.0480     2.4710 
  204.5000    -8.7600    87.9890    24.3070     6.8340     5.8570     8.1500     2.4580 
  204.6250    -9.1270    87.8900    24.3210     6.9470     5.9770     8.2450     2.4490 
  204.7500    -9.5980    88.4570    24.2820     7.0930     6.0790     8.3500     2.4490 
  204.8750   -10.1980    92.9960    24.1830     7.4000     6.1540     8.4690     2.4620 
  205.0000   -10.8700    96.6590    24.1030     7.7560     6.1960     8.5870     2.4780 
  205.1250   -11.5930    94.4360    24.1090     7.7080     6.1880     8.6510     2.4840 
  205.2500   -12.2880    92.7040    24.0200     7.2440     6.1190     8.6220     2.4780 
  205.3750   -12.9470    95.0820    23.9220     6.8320     5.9840     8.4930     2.4590 
  205.5000   -13.5240    98.7690    23.8680     6.7840     5.8070     8.3080     2.4240 
  205.6250   -14.0570    97.8800    23.8400     6.8610     5.6550     8.1660     2.3870 
  205.7500   -14.5450    95.5010    23.8460     6.8950     5.5930     8.1490     2.3650 
  205.8750   -14.9880    94.9820    23.9220     7.1660     5.6630     8.2950     2.3560 
  206.0000   -15.3720    94.1890    24.0350     7.9350     5.8840     8.6060     2.3480 
  206.1250   -15.6950    90.5370    24.0820     9.0080     6.2800     9.1050     2.3320 
  206.2500   -15.9730    86.6210    24.1480     9.9310     6.8370     9.7910     2.3230 
  206.3750   -16.2090    83.9850    24.1930    10.7340     7.6040    10.7520     2.3330 
  206.5000   -16.4270    80.9240    24.1690    11.9520     8.6890    12.1510     2.3740 
  206.6250   -16.6210    76.1370    24.1020    14.9490    10.3680    14.3570     2.4440 
  206.7500   -16.7690    71.7270    24.1560    19.4700    12.7590    17.5040     2.5070 
  206.8750   -16.8940    68.5730    24.2300    25.5310    15.9610    21.6820     2.5340 
  207.0000   -17.0130    66.7680    24.1960    33.7860    19.8670    26.6980     2.5230 
  207.1250   -17.0770    65.9080    24.0320    41.0650    23.8940    31.6430     2.4980 
  207.2500   -17.1290    65.0110    23.9640    43.2610    26.9710    35.0470     2.4670 
  207.3750   -17.1760    65.2410    23.8820    41.0050    28.3100    35.9760     2.4210 
  207.5000   -17.1840    67.0980    23.8300    38.5670    27.8930    34.6550     2.3600 
  207.6250   -17.1700    69.9710    23.8050    37.3250    26.4230    32.2870     2.3130 
  207.7500   -17.1620    71.2870    23.8050    34.3830    25.0560    30.3600     2.2930 
  207.8750   -17.1730    71.7950    23.8050    31.9710    24.4040    29.5710     2.2860 
  208.0000   -17.2080    73.5720    23.8090    32.6710    24.8050    30.2290     2.2790 
  208.1250   -17.2830    75.0850    23.8100    37.1660    26.5500    32.5770     2.2680 
  208.2500   -17.3730    76.3360    23.8110    40.3330    29.2320    35.9850     2.2600 
  208.3750   -17.4630    78.7030    23.8130    41.1570    32.2990    39.6390     2.2570 
  208.5000   -17.6170    80.9270    23.8170    41.1930    34.9770    42.4640     2.2550 
  208.6250   -17.8330    79.4090    23.8200    42.2930    36.5360    43.5660     2.2540 
  208.7500   -18.0800    75.7780    23.8270    42.7310    37.3760    43.7600     2.2500 
  208.8750   -18.3090    73.2720    23.8390    41.9180    38.2420    44.1760     2.2450 
  209.0000   -18.5200    72.7540    23.8530    43.1800    39.8260    45.6860     2.2410 
  209.1250   -18.7390    73.0690    23.8590    49.9520    42.3730    48.3870     2.2440 
  209.2500   -18.9740    72.4000    23.8530    59.1640    44.9020    50.7680     2.2530 
  209.3750   -19.2410    72.2400    23.8460    67.2920    46.2370    51.3010     2.2660 
  209.5000   -19.5200    75.1590    23.8430    69.6630    45.7060    49.4620     2.2780 
  209.6250   -19.7840    79.4550    23.8220    61.4810    43.7870    46.3630     2.2800 
  209.7500   -20.0570    79.2890    23.8040    53.9370    42.4030    44.2630     2.2650 
  209.8750   -20.3710    74.3970    23.7930    58.3420    43.1090    44.5970     2.2370 
  210.0000   -20.6970    70.0720    23.7930    73.9350    46.9720    48.2110     2.2060 
  210.1250   -21.0340    69.0390    23.8140    89.1950    54.9990    56.1140     2.1860 
  210.2500   -21.3500    69.4310    23.8300   100.8680    65.8160    67.2200     2.1770 
  210.3750   -21.7160    69.9420    23.8160   108.5090    77.2170    79.3870     2.1790 
  210.5000   -22.1060    70.9600    23.8170   110.5740    86.1370    88.8170     2.1850 
  210.6250   -22.5330    71.3060    23.8600   106.5760    90.0540    91.9960     2.1840 
  210.7500   -22.9300    70.5480    23.9050   101.2760    90.8510    91.4390     2.1740 
  210.8750   -23.3220    70.2020    23.8620    98.4050    89.5870    90.4280     2.1600 
  211.0000   -23.7350    71.0320    23.8000    99.2330    87.5740    89.6810     2.1530 
  211.1250   -24.2120    73.1160    23.7700   101.6500    85.4590    88.7140     2.1580 
  211.2500   -24.7480    75.4170    23.7490   100.9820    83.2350    87.4790     2.1700 
  211.3750   -25.2920    75.9550    23.7390    95.9480    81.1800    86.1130     2.1830 
  211.5000   -25.8460    74.7010    23.7380    89.1390    79.8740    85.0220     2.1930 
  211.6250   -26.3860    73.1920    23.7400    85.7640    80.0740    84.7250     2.1940 
  211.7500   -26.9620    72.6380    23.7510    89.4620    81.3710    84.9660     2.1940 
  211.8750   -27.5480    73.6780    23.7810    97.7830    82.8600    85.1270     2.1960 
  212.0000   -28.1150    76.9350    23.8210   103.9620    83.5370    84.7010     2.2030 
  212.1250   -28.6240    82.7450    23.8100    99.5590    83.1800    83.9610     2.2070 
  212.2500   -29.1060    84.1050    23.8200    87.4780    83.3270    84.2990     2.1950 
  212.3750   -29.5610    78.0340    23.8910    79.1960    85.9170    87.5390     2.1670 
