~V
VERS. 2.00: Ver 2.00
~W
STRT.M 55.0000:
STOP.M 262.0000:
STEP.M 0.1250:
NULL. -999.2500:
UWI. DF5047:
~C
DEPT.M :
GR.API :
CALI.CM :
RXO.OHMM :
RI. :
RML.OHMM :
DEN.GM/CC :
SP.MV :
~A
# ...
  145.0000    55.9020    24.9170    16.8410    17.2090    19.2480     2.5510   -26.0960 
  145.1250    55.1900    24.9130    17.9810    17.4630    19.2000     2.5510   -26.0070 
  145.2500    57.1530    24.9480    16.6910    17.1880    18.6380     2.5450   -25.9560 
  145.3750    59.5660    24.9980    14.1870    16.6410    17.9540     2.5390   -25.9130 
  145.5000    58.3310    25.0330    12.8700    16.1980    17.5930     2.5330   -25.9130 
  145.6250    56.0220    25.0470    13.4650    16.2510    17.9560     2.5320   -25.8880 
  145.7500    57.0780    25.0510    14.8360    16.8310    18.9120     2.5360   -25.8370 
  145.8750    58.3950    25.0420    16.5960    17.7950    20.1570     2.5440   -25.8400 
  146.0000    57.1470    25.0320    19.9840    18.8110    21.2440     2.5550   -25.9550 
  146.1250    54.6710    25.0390    22.0480    19.3900    21.6520     2.5590   -26.0320 
  146.2500    53.9250    25.0470    20.8050    19.4090    21.4180     2.5540   -26.1230 
  146.3750    55.4830    25.0410    18.1720    19.0280    20.8240     2.5390   -26.2330 
  146.5000    57.4880    25.0320    16.7280    18.5470    20.2500     2.5220   -26.3760 
  146.6250    56.3000    25.0260    16.0610    18.2720    20.0310     2.5100   -26.5140 
  146.7500    52.3900    25.0070    16.8550    18.2720    20.1560     2.5050   -26.5780 
  146.8750    50.8890    24.9740    17.7470    18.4960    20.5030     2.5060   -26.7010 
  147.0000    54.1750    24.9470    18.1720    18.8200    20.8900     2.5090   -26.6810 
  147.1250    56.9340    24.9620    19.1270    19.0680    21.1030     2.5130   -26.7680 
  147.2500    56.0540    25.0160    18.7000    19.1170    21.0420     2.5170   -26.7820 
  147.3750    54.0330    25.0810    18.1050    18.9030    20.6670     2.5200   -26.8280 
  147.5000    52.2820    25.1240    18.3490    18.4230    20.0070     2.5210   -26.8220 
  147.6250    51.6830    25.1400    17.7960    17.7310    19.1610     2.5200   -26.8720 
  147.7500    52.1230    25.1350    16.0840    17.0200    18.3580     2.5190   -26.8950 
  147.8750    54.8120    25.0880    14.2630    16.4480    17.7810     2.5190   -26.8400 
  148.0000    59.9310    25.0180    13.5490    16.1270    17.5390     2.5180   -26.8520 
  148.1250    65.4300    24.9780    14.0790    16.1190    17.6550     2.5130   -26.7900 
  148.2500    67.5050    24.9640    15.0010    16.2790    17.9070     2.5060   -26.7850 
  148.3750    66.5890    24.9570    15.8510    16.4530    18.0890     2.4950   -26.7160 
  148.5000    66.1350    24.9670    16.4670    16.4910    18.0520     2.4840   -26.7730 
  148.6250    66.7240    25.0170    15.7730    16.2990    17.7540     2.4750   -26.7210 
  148.7500    64.6840    25.0790    14.3870    15.9960    17.3880     2.4730   -26.6970 
  148.8750    62.3250    25.1350    13.5210    15.7190    17.1240     2.4750   -26.7640 
  149.0000    63.3400    25.1720    13.4050    15.5720    17.0530     2.4800   -26.7300 
  149.1250    65.0490    25.1220    13.5130    15.5770    17.1390     2.4860   -26.7790 
  149.2500    63.0100    24.9780    13.6460    15.6080    17.2060     2.4890   -26.8610 
  149.3750    59.8750    24.8020    13.7510    15.5470    17.1230     2.4890   -26.8520 
  149.5000    61.8580    24.6620    13.7620    15.3160    16.8420     2.4910   -26.7670 
  149.6250    66.4960    24.5990    12.9450    14.9250    16.4340     2.4940   -26.8350 
  149.7500    66.6870    24.6110    11.9190    14.5380    16.0990     2.4960   -26.9830 
  149.8750    63.3400    24.6930    11.5670    14.2830    15.9730     2.4970   -27.0490 
  150.0000    61.5490    24.7950    11.8450    14.2300    16.1050     2.4970   -27.1020 
  150.1250    63.3980    24.8280    12.1670    14.4130    16.4850     2.4970   -27.1760 
  150.2500    64.1530    24.7990    12.5200    14.7340    16.9590     2.4980   -27.1110 
  150.3750    63.0190    24.7500    12.7730    15.0930    17.4030     2.4970   -27.1570 
  150.5000    62.0190    24.6920    12.9310    15.3950    17.7260     2.4950   -27.2550 
  150.6250    61.9980    24.6230    12.9680    15.5660    17.8740     2.4880   -27.2200 
  150.7500    63.3100    24.5720    13.2250    15.6210    17.8930     2.4820   -27.1600 
  150.8750    64.6850    24.5660    13.4080    15.5820    17.8260     2.4780   -27.0780 
  151.0000    66.1470    24.6020    13.3410    15.4990    17.7350     2.4760   -27.0470 
  151.1250    66.7570    24.6570    13.3260    15.4430    17.7160     2.4740   -27.0050 
  151.2500    66.5420    24.7050    13.1970    15.4630    17.8160     2.4720   -26.9470 
  151.3750    64.9820    24.7230    12.8770    15.5770    18.0440     2.4720   -26.9390 
  151.5000    61.6730    24.6850    13.0450    15.7750    18.3670     2.4750   -26.8280 
  151.6250    59.4870    24.5680    13.7190    16.0140    18.6990     2.4810   -26.7440 
  151.7500    60.8830    24.4410    14.3550    16.2130    18.9460     2.4900   -26.6360 
  151.8750    63.7900    24.4100    14.7520    16.3340    19.0690     2.5000   -26.5180 
  152.0000    66.4330    24.5290    14.7260    16.3700    19.0750     2.5070   -26.5290 
  152.1250    68.8800    24.7190    14.6270    16.3470    19.0150     2.5100   -26.4150 
  152.2500    70.1430    24.8330    14.7810    16.3420    18.9940     2.5090   -26.4100 
  152.3750    68.5840    24.8520    15.0320    16.4220    19.0930     2.5060   -26.3780 
  152.5000    66.8660    24.8300    14.9360    16.6340    19.3520     2.5030   -26.2730 
  152.6250    69.2780    24.8130    14.8590    16.9810    19.7320     2.5040   -26.3550 
  152.7500    71.6750    24.8160    15.2630    17.3540    20.0700     2.5050   -26.4770 
  152.8750    70.6790    24.8400    16.6630    17.6260    20.2030     2.5070   -26.5350 
  153.0000    69.8380    24.8780    17.6170    17.6790    20.0190     2.5080   -26.5780 
  153.1250    71.5530    24.8950    17.9690    17.4280    19.4690     2.5120   -26.6720 
  153.2500    70.2990    24.8790    16.2530    16.9830    18.7270     2.5180   -26.7730 
  153.3750    64.6050    24.8430    13.9500    16.4640    17.9390     2.5260   -26.8690 
  153.5000    59.4560    24.7960    12.8230    15.9800    17.2120     2.5350   -27.0470 
  153.6250    58.4880    24.7460    13.0750    15.6120    16.5940     2.5460   -27.2010 
  153.7500    58.1600    24.7080    12.6050    15.3310    16.0260     2.5580   -27.2120 
  153.8750    57.3840    24.6980    11.5250    15.0760    15.4400     2.5700   -27.3280 
  154.0000    58.8050    24.7230    10.7110    14.7690    14.7820     2.5760   -27.5110 
  154.1250    62.1020    24.7690    10.7670    14.3190    14.0250     2.5730   -27.6310 
  154.2500    63.3620    24.8080    10.6760    13.7290    13.2180     2.5620   -27.7890 
  154.3750    61.3980    24.8110    10.0040    13.0290    12.4110     2.5480   -27.9550 
  154.5000    57.1340    24.7660     9.2650    12.2810    11.6600     2.5360   -28.0720 
  154.6250    52.9520    24.7160     8.5050    11.5710    11.0340     2.5280   -28.2860 
  154.7500    50.5470    24.7130     7.8030    10.9450    10.5330     2.5220   -28.6970 
  154.8750    49.5920    24.7550     7.2090    10.4090    10.1370     2.5170   -29.0590 
  155.0000    49.2680    24.8180     6.9950     9.9360     9.8030     2.5090   -29.4020 
  155.1250    49.5270    24.8840     6.8490     9.5030     9.5150     2.4990   -29.8950 
  155.2500    51.6250    24.9470     6.4790     9.1530     9.3540     2.4900   -30.3840 
  155.3750    55.1810    24.9980     6.1830     9.0280     9.5340     2.4820   -30.9790 
  155.5000    57.5150    25.0410     6.1810     9.3520    10.4090     2.4730   -31.6830 
  155.6250    59.2870    25.1000     6.6740    10.6450    12.8000     2.4530   -32.3150 
  155.7500    61.7850    25.1860     9.1900    13.3920    17.2900     2.4200   -32.8700 
  155.8750    63.4490    25.2980    14.7720    18.4300    24.6390     2.3750   -33.5530 
  156.0000    62.2130    25.4270    25.7710    26.7360    35.4290     2.3280   -34.3310 
  156.1250    59.5930    25.5490    36.8940    39.5150    50.1700     2.2850   -35.0380 
