~V
VERS. 2.00: Ver 2.00
~W
STRT.M 53.0000:
STOP.M 257.0000:
STEP.M 0.1250:
NULL. -999.2500:
UWI. DF5014:
~C
DEPT.M :
GR.API :
RML.OHMM :
RI. :
RXO.OHMM :
CALI.CM :
DEN.GM/CC :
SP.MV :
~A
   53.0000  -999.2500  -999.2500  -999.2500  -999.2500  -999.2500     2.1490  -999.2500 
   53.1250  -999.2500  -999.2500  -999.2500  -999.2500  -999.2500     2.1320  -999.2500 
   53.2500  -999.2500  -999.2500  -999.2500  -999.2500  -999.2500     2.1250  -999.2500 
   53.3750  -999.2500  -999.2500  -999.2500  -999.2500  -999.2500     2.1300  -999.2500 
   53.5000  -999.2500  -999.2500  -999.2500  -999.2500  -999.2500     2.1410  -999.2500 
   53.6250  -999.2500  -999.2500  -999.2500  -999.2500  -999.2500     2.1520  -999.2500 
   53.7500  -999.2500  -999.2500  -999.2500  -999.2500  -999.2500     2.1620  -999.2500 
   53.8750  -999.2500  -999.2500  -999.2500  -999.2500  -999.2500     2.1690  -999.2500 
   54.0000  -999.2500  -999.2500  -999.2500  -999.2500  -999.2500     2.1760  -999.2500 
   54.1250  -999.2500  -999.2500  -999.2500  -999.2500  -999.2500     2.1840  -999.2500 
   54.2500  -999.2500  -999.2500  -999.2500  -999.2500  -999.2500     2.1920  -999.2500 
   54.3750  -999.2500  -999.2500  -999.2500  -999.2500  -999.2500     2.1940  -999.2500 
   54.5000  -999.2500  -999.2500  -999.2500  -999.2500  -999.2500     2.1890  -999.2500 
   54.6250  -999.2500  -999.2500  -999.2500  -999.2500  -999.2500     2.1790  -999.2500 
   54.7500  -999.2500  -999.2500  -999.2500  -999.2500  -999.2500     2.1680  -999.2500 
   54.8750  -999.2500  -999.2500  -999.2500  -999.2500  -999.2500     2.1560  -999.2500 
   55.0000  -999.2500  -999.2500  -999.2500  -999.2500  -999.2500     2.1420  -999.2500 
   55.1250  -999.2500  -999.2500  -999.2500  -999.2500  -999.2500     2.1240  -999.2500 
   55.2500  -999.2500  -999.2500  -999.2500  -999.2500  -999.2500     2.1050  -999.2500 
   55.3750  -999.2500  -999.2500  -999.2500  -999.2500  -999.2500     2.0990  -999.2500 
   55.5000  -999.2500  -999.2500  -999.2500  -999.2500  -999.2500     2.1170    68.8520 
   55.6250  -999.2500  -999.2500  -999.2500  -999.2500  -999.2500     2.1620    68.8520 
   55.7500  -999.2500  -999.2500  -999.2500  -999.2500  -999.2500     2.2250    68.1030 
   55.8750  -999.2500  -999.2500  -999.2500  -999.2500  -999.2500     2.2920    67.3720 
   56.0000  -999.2500  -999.2500  -999.2500  -999.2500  -999.2500     2.3490    66.7960 
   56.1250  -999.2500  -999.2500  -999.2500  -999.2500  -999.2500     2.3910    66.2900 
   56.2500  -999.2500  -999.2500  -999.2500  -999.2500  -999.2500     2.4200    65.8260 
   56.3750  -999.2500  -999.2500  -999.2500  -999.2500  -999.2500     2.4360    65.5110 
   56.5000  -999.2500  -999.2500  -999.2500  -999.2500  -999.2500     2.4420    65.3580 
   56.6250  -999.2500  -999.2500  -999.2500  -999.2500  -999.2500     2.4390    65.3340 
   56.7500  -999.2500  -999.2500  -999.2500  -999.2500  -999.2500     2.4310    65.3550 
   56.8750  -999.2500  -999.2500  -999.2500  -999.2500  -999.2500     2.4270    65.4940 
   57.0000  -999.2500  -999.2500  -999.2500  -999.2500  -999.2500     2.4400    65.8890 
   57.1250  -999.2500  -999.2500  -999.2500  -999.2500  -999.2500     2.4830    66.6270 
   57.2500  -999.2500  -999.2500  -999.2500  -999.2500  -999.2500     2.5590    67.7350 
   57.3750  -999.2500  -999.2500  -999.2500  -999.2500  -999.2500     2.6530    69.1080 
   57.5000  -999.2500  -999.2500  -999.2500  -999.2500  -999.2500     2.7190    70.4170 
   57.6250  -999.2500  -999.2500  -999.2500  -999.2500  -999.2500     2.7250    71.2450 
   57.7500  -999.2500  -999.2500  -999.2500  -999.2500  -999.2500     2.6690    71.2740 
   57.8750  -999.2500  -999.2500  -999.2500  -999.2500  -999.2500     2.5820    70.5070 
   58.0000  -999.2500  -999.2500  -999.2500  -999.2500  -999.2500     2.5080    69.2230 
   58.1250  -999.2500  -999.2500  -999.2500  -999.2500  -999.2500     2.4640    67.4910 
   58.2500  -999.2500  -999.2500  -999.2500  -999.2500  -999.2500     2.4470    65.3530 
   58.3750  -999.2500  -999.2500  -999.2500  -999.2500  -999.2500     2.4440    62.8930 
   58.5000  -999.2500  -999.2500  -999.2500  -999.2500  -999.2500     2.4390    60.4790 
   58.6250  -999.2500  -999.2500  -999.2500  -999.2500  -999.2500     2.4300    58.5870 
   58.7500  -999.2500  -999.2500  -999.2500  -999.2500  -999.2500     2.4180    57.5520 
   58.8750  -999.2500  -999.2500  -999.2500  -999.2500  -999.2500     2.4100    57.1860 
   59.0000  -999.2500  -999.2500  -999.2500  -999.2500  -999.2500     2.4070    57.0390 
   59.1250  -999.2500  -999.2500  -999.2500  -999.2500  -999.2500     2.4070    56.9980 
   59.2500  -999.2500  -999.2500  -999.2500  -999.2500  -999.2500     2.4060    57.0450 
   59.3750  -999.2500  -999.2500  -999.2500  -999.2500  -999.2500     2.3960    57.1340 
   59.5000  -999.2500  -999.2500  -999.2500  -999.2500  -999.2500     2.3780    57.1920 
   59.6250  -999.2500  -999.2500  -999.2500  -999.2500  -999.2500     2.3520    57.1850 
   59.7500  -999.2500  -999.2500  -999.2500  -999.2500  -999.2500     2.3260    57.0450 
   59.8750  -999.2500  -999.2500  -999.2500  -999.2500  -999.2500     2.3050    56.8160 
   60.0000  -999.2500  -999.2500  -999.2500  -999.2500  -999.2500     2.2930    56.6360 
   60.1250     0.0000     0.0000     0.0000     0.0000     0.0000     2.2870    56.5330 
   60.2500     0.0000     0.0000     0.0000     0.0000     0.0000     2.2880    56.4770 
   60.3750     0.0000     0.0000     0.0000     0.0000     0.0000     2.2930    56.4610 
   60.5000     0.0000     0.0000     0.0000     0.0000     0.0000     2.2930    56.4580 
   60.6250    31.6450     5.7470     0.7410     3.9240    18.9460     2.2830    56.4180 
   60.7500    41.8530     7.7320     0.9860     7.0460    25.2750     2.2580    56.3600 
   60.8750    41.2530     7.7660     0.9840     9.9110    25.2820     2.2200    56.3310 
   61.0000    41.1930     7.7290     0.9830    12.3350    25.2820     2.1810    56.3510 
   61.1250    42.2090     7.6300     0.9820    13.3460    25.2820     2.1490    56.4160 
   61.2500    43.6440     7.5080     0.9810    13.5630    25.2820     2.1250    56.5180 
   61.3750    44.1030     7.4290     0.9800    13.3750    25.2820     2.1110    56.6520 
   61.5000    43.1830     7.4160     0.9790    12.8110    25.2820     2.1030    56.8020 
   61.6250    41.0060     7.4580     0.9790    12.0520    25.2820     2.0990    56.9790 
   61.7500    39.1210     7.5150     0.9790    11.3030    25.2820     2.1020    57.2680 
   61.8750    37.6980     7.5210     0.9810    10.5930    25.2820     2.1090    57.7110 
   62.0000    35.9910     7.4440     0.9830    10.0110    25.2820     2.1130    58.1530 
   62.1250    36.0990     7.2790     0.9870     9.5860    25.2820     2.1100    58.4950 
   62.2500    39.2100     7.0390     0.9910     9.3700    25.2820     2.1030    58.7140 
   62.3750    42.0000     6.7350     0.9950     9.1450    25.2820     2.1050    58.8480 
   62.5000    41.4930     6.4060     0.9980     8.4340    25.2820     2.1230    58.9760 
   62.6250    40.0000     6.0800     0.9980     7.1030    25.2770     2.1560    59.1270 
   62.7500    40.8930     5.7910     0.9950     5.1650    25.2550     2.1920    59.2260 
   62.8750    43.6540     5.5940     0.9910     3.0660    25.1950     2.2150    59.1650 
   63.0000    44.7720     5.4970     0.9890     2.3490    25.1490     2.2210    59.0430 
   63.1250    43.8250     5.4850     0.9940     2.6530    25.1680     2.2110    58.9710 
   63.2500    43.8110     5.5140     1.0080     3.3620    25.2370     2.1940    58.9820 
   63.3750    45.3560     5.5390     1.0280     3.9670    25.2380     2.1810    59.0290 
   63.5000    45.0310     5.5430     1.0460     3.5710    25.0620     2.1800    59.1220 
   63.6250    42.1430     5.5300     1.0580     2.0350    24.6030     2.1930    59.2470 
   63.7500    40.7900     5.5020     1.0610     1.2560    24.0210     2.2180    59.4020 
   63.8750    42.3040     5.4480     1.0520     1.1370    23.9080     2.2470    59.5230 
   64.0000    43.0700     5.3610     1.0360     1.1790    24.2150     2.2730    59.5610 
   64.1250    42.3130     5.2500     1.0170     1.2300    24.4740     2.2960    59.4480 
