~V
VERS. 2.00: Ver 2.00
~W
STRT.M 62.0000:
STOP.M 250.0000:
STEP.M 0.1250:
NULL. -999.2500:
UWI. DF5059:
~C
DEPT.M :
SP.MV :
GR.API :
RML.OHMM :
RI. :
RXO.OHMM :
CALI.CM :
DEN.GM/CC :
~A
# ...
  208.2500   -13.8740    78.1520    84.0320    72.8040    65.3560    23.5660     2.1690 
  208.3750   -14.0290    71.2030    92.5550    79.0420    70.8150    23.5040     2.1730 
  208.5000   -14.1720    62.3470   103.6660    87.7660    79.7210    23.5600     2.1890 
  208.6250   -14.2910    60.1220   115.8050    98.5850    95.2830    23.6130     2.2120 
  208.7500   -14.4120    61.8180   127.8800   109.7650   113.3630    23.5750     2.2290 
  208.8750   -14.5160    64.7950   139.6300   119.7120   128.1540    23.4220     2.2300 
  209.0000   -14.5490    66.2650   149.4170   127.0550   135.2150    23.3780     2.2170 
  209.1250   -14.4980    62.9680   154.7520   130.6150   134.7660    23.4950     2.1980 
  209.2500   -14.4100    57.3220   156.8900   131.4200   134.7320    23.5600     2.1850 
  209.3750   -14.3320    55.3690   157.1900   130.5980   136.9940    23.5750     2.1820 
  209.5000   -14.2360    59.4270   157.1910   129.4640   141.7260    23.6060     2.1860 
  209.6250   -14.0950    67.1910   158.5800   129.5250   144.9040    23.7170     2.1930 
  209.7500   -13.9690    72.4210   162.0270   131.4700   147.7050    23.8790     2.1970 
  209.8750   -13.8890    71.8890   167.4150   135.3660   151.4420    24.0150     2.1960 
  210.0000   -13.8430    68.0750   173.6340   140.4790   157.2330    24.0880     2.1940 
  210.1250   -13.7800    68.0590   178.1390   144.9650   168.6080    24.1040     2.1930 
  210.2500   -13.6920    70.0170   178.7980   146.9100   167.6250    24.1110     2.1940 
  210.3750   -13.6140    66.1290   174.5820   145.2100   151.9980    24.1510     2.1950 
  210.5000   -13.5660    57.8710   165.9330   139.8340   138.8930    24.2190     2.1960 
  210.6250   -13.5170    54.4420   154.0270   131.3180   131.7650    24.1820     2.1960 
  210.7500   -13.3730    58.6710   140.6010   121.0880   122.6350    24.0430     2.1990 
  210.8750   -13.2020    66.7500   125.7650   109.3760   114.8830    23.9330     2.2050 
  211.0000   -13.1070    71.3420   109.2680    96.0710   107.6840    23.9030     2.2140 
  211.1250   -13.0110    72.9020    91.6360    81.5000    98.6070    23.9410     2.2210 
  211.2500   -12.8680    74.9070    75.1520    67.5230    86.7460    24.0150     2.2240 
  211.3750   -12.6780    75.0790    61.9030    55.9540    71.5750    24.0580     2.2240 
  211.5000   -12.5000    70.0810    53.0370    47.9470    56.7180    24.0300     2.2250 
  211.6250   -12.3720    63.0530    49.1440    44.2500    49.3050    23.9470     2.2330 
  211.7500   -12.2740    60.9310    48.6020    43.6520    48.2040    23.9500     2.2510 
  211.8750   -12.1660    64.0240    50.5070    45.4790    52.9160    23.9960     2.2780 
  212.0000   -11.9860    69.2180    54.1060    49.1160    57.4270    24.0200     2.3080 
  212.1250   -11.8330    73.5440    58.6110    53.9450    58.5440    24.0340     2.3270 
  212.2500   -11.7280    74.8440    62.5160    58.5720    60.7550    24.1100     2.3280 
  212.3750   -11.6290    71.9490    64.2420    61.3540    66.9840    24.1660     2.3230 
  212.5000   -11.4650    66.1090    61.8710    60.4000    74.3980    24.0840     2.3330 
  212.6250   -11.2080    64.0500    54.1070    53.5920    72.5520    23.8080     2.3830 
  212.7500   -10.9940    68.5630    42.8660    42.7720    62.8960    23.6750     2.4620 
  212.8750   -10.8120    75.5250    31.4580    30.8680    49.7080    23.6500     2.5400 
  213.0000   -10.6630    78.8830    22.6400    20.8320    32.1170    23.6530     2.5810 
  213.1250   -10.5480    79.3130    15.8100    14.4480    16.8990    23.6650     2.5620 
  213.2500   -10.4850    77.1240    11.7690    10.6720     9.1410    23.7090     2.5110 
  213.3750   -10.5510    69.9410     9.5780     8.6240     7.1740    23.7300     2.4550 
  213.5000   -10.7410    64.5360     8.4980     7.6150     6.9230    23.6540     2.4090 
  213.6250   -11.0870    70.3300     8.1300     7.2710     6.7120    23.4550     2.3790 
  213.7500   -11.5180    80.1740     8.1100     7.2530     6.2760    23.1440     2.3590 
  213.8750   -12.0960    81.6350     8.3400     7.4680     5.9470    22.8810     2.3440 
  214.0000   -12.8380    74.7520     8.7840     7.8830     6.2150    22.8590     2.3360 
  214.1250   -13.6440    76.4860     9.4290     8.4850     7.1320    23.1460     2.3360 
  214.2500   -14.4360    86.8030    10.1410     9.1500     8.1770    23.4510     2.3420 
  214.3750   -15.2070    96.8040    10.7730     9.7410     8.7920    23.6810     2.3520 
  214.5000   -15.9670   102.4730    11.1820    10.1230     8.9470    23.7760     2.3610 
  214.6250   -16.6580   108.4890    11.2370    10.1740     8.9270    23.7850     2.3660 
  214.7500   -17.2510   116.2420    11.0240     9.9760     8.9180    23.7690     2.3680 
  214.8750   -17.7440   122.9810    10.6490     9.6250     8.9350    23.7330     2.3690 
  215.0000   -18.1630   127.1210    10.2230     9.2270     8.9480    23.7030     2.3710 
  215.1250   -18.5160   125.5060     9.8600     8.8860     9.0560    23.6840     2.3730 
  215.2500   -18.8550   122.0540     9.6460     8.6760     9.2710    23.6590     2.3760 
  215.3750   -19.1560   122.3420     9.6460     8.6980     9.5860    23.6120     2.3770 
  215.5000   -19.4730   125.3370    10.0150     9.0920    10.1680    23.5960     2.3770 
  215.6250   -19.8660   121.8590    11.1240    10.1530    11.5130    23.6290     2.3750 
  215.7500   -20.2930   114.0700    13.1650    11.9650    14.1350    23.6570     2.3720 
  215.8750   -20.6880   108.7210    16.2650    14.5700    18.3720    23.6100     2.3680 
  216.0000   -21.0210   107.9290    20.4320    17.8330    23.9140    23.4320     2.3620 
  216.1250   -21.3810   107.3230    25.0830    21.3890    29.4170    23.1970     2.3510 
  216.2500   -21.7620   103.7390    29.2510    24.6720    32.9990    23.1330     2.3380 
  216.3750   -22.1150    99.7020    32.1630    27.3350    34.4360    23.1990     2.3250 
  216.5000   -22.3560    98.4870    34.3280    29.3070    35.2770    23.2470     2.3140 
  216.6250   -22.5220   101.6910    36.0130    30.7380    36.2920    23.2240     2.3070 
  216.7500   -22.6970   102.9470    37.5930    31.9920    37.4050    23.1930     2.3010 
  216.8750   -22.8580    97.0010    39.1290    33.1910    38.3000    23.1960     2.2950 
  217.0000   -22.9520    87.3160    40.5060    34.3040    39.2400    23.2770     2.2880 
  217.1250   -22.9730    84.1730    41.4250    35.1430    40.3540    23.4120     2.2800 
  217.2500   -22.9660    88.8130    41.7600    35.5830    40.8940    23.5210     2.2760 
  217.3750   -22.9600    92.0850    41.4780    35.5640    40.5900    23.5470     2.2750 
  217.5000   -22.9560    89.2830    40.6880    35.1340    39.1480    23.5230     2.2780 
  217.6250   -22.8930    83.0580    39.6010    34.4210    36.8600    23.5390     2.2840 
  217.7500   -22.7750    76.6730    38.5250    33.6620    34.9490    23.6870     2.2890 
  217.8750   -22.6890    71.9680    37.6200    32.9880    34.6700    23.8240     2.2910 
  218.0000   -22.6550    72.9520    36.9720    32.4790    35.6300    23.8770     2.2910 
  218.1250   -22.6030    82.9380    36.7200    32.2460    36.4870    23.8780     2.2890 
  218.2500   -22.4900    92.8380    36.9450    32.3620    36.5690    23.8780     2.2880 
  218.3750   -22.3670    95.7700    37.8250    32.9700    36.0780    23.8790     2.2890 
  218.5000   -22.2990    90.5170    39.5020    34.2000    35.9780    23.8720     2.2900 
  218.6250   -22.2620    82.4600    42.0380    36.1670    37.2260    23.8460     2.2900 
  218.7500   -22.1850    78.6540    44.9080    38.5120    39.6980    23.7910     2.2910 
  218.8750   -22.0450    78.8680    47.5560    40.8110    42.4630    23.6870     2.2930 
  219.0000   -21.9070    80.1510    49.5350    42.6530    43.3730    23.4500     2.2960 
  219.1250   -21.8250    82.7830    50.7490    43.8370    42.7880    22.8930     2.3000 
  219.2500   -21.7620    86.6570    51.9180    44.8460    42.0650    22.3120     2.3030 
  219.3750   -21.6530    88.9370    53.7820    46.2670    41.9430    22.1380     2.3060 
