~V
VERS. 2.00: Ver 2.00
~W
STRT.M 59.0000:
STOP.M 253.0000:
STEP.M 0.1250:
NULL. -999.2500:
UWI. DF5043:
~C
DEPT.M :
SP.MV :
GR.API :
CALI.CM :
RXO.OHMM :
RI. :
RML.OHMM :
DEN.GM/CC :
~A
# ...
   70.2500   -28.0710    73.9800    23.2260     6.6000     5.9660     6.6440     2.1560 
   70.3750   -27.9640    74.4160    23.1140     6.1940     5.7790     6.4520     2.1470 
   70.5000   -27.8480    76.0530    23.0370     5.9150     5.6290     6.2980     2.1420 
   70.6250   -27.7190    77.9800    23.0690     5.7490     5.5280     6.1940     2.1410 
   70.7500   -27.5820    80.4190    23.1440     5.7050     5.4750     6.1390     2.1460 
   70.8750   -27.4560    85.1590    23.1970     5.8610     5.4690     6.1330     2.1540 
   71.0000   -27.3420    91.4590    23.2280     6.3000     5.4850     6.1500     2.1650 
   71.1250   -27.2250    96.4940    23.3090     6.9940     5.5080     6.1730     2.1830 
   71.2500   -27.0910    97.6630    23.4590     7.5500     5.5240     6.1900     2.2050 
   71.3750   -26.9380    94.2050    23.5540     7.4320     5.5270     6.1930     2.2160 
   71.5000   -26.7800    89.1480    23.5280     6.9490     5.5170     6.1830     2.2060 
   71.6250   -26.6230    85.0030    23.4410     6.5430     5.5000     6.1650     2.1850 
   71.7500   -26.4570    82.7890    23.3260     6.3000     5.4830     6.1480     2.1680 
   71.8750   -26.2640    82.4330    23.2620     6.1270     5.4680     6.1320     2.1600 
   72.0000   -26.0550    82.9950    23.2170     5.9880     5.4480     6.1120     2.1580 
   72.1250   -25.8480    84.2930    23.1580     5.9450     5.4150     6.0770     2.1600 
   72.2500   -25.6540    85.7170    23.0690     5.9900     5.3640     6.0250     2.1680 
   72.3750   -25.4710    86.5420    23.0770     6.0450     5.2930     5.9520     2.1750 
   72.5000   -25.2880    88.9820    23.1430     6.0460     5.2090     5.8650     2.1780 
   72.6250   -25.1110    96.8440    23.3070     5.9660     5.1170     5.7700     2.1840 
   72.7500   -24.9610   108.9400    23.5470     5.8160     5.0270     5.6780     2.2050 
   72.8750   -24.8590   115.9870    23.7750     5.7610     4.9510     5.5990     2.2490 
   73.0000   -24.7880   114.9840    23.9730     5.9340     4.8960     5.5430     2.2960 
   73.1250   -24.7260   111.2940    24.1150     6.1470     4.8610     5.5070     2.3260 
   73.2500   -24.6630   108.8890    24.1740     6.1230     4.8460     5.4910     2.3260 
   73.3750   -24.6070   105.2210    24.1840     5.8360     4.8550     5.5000     2.3000 
   73.5000   -24.5670    99.9840    24.1420     5.6350     4.8920     5.5390     2.2690 
   73.6250   -24.5370    95.9500    23.9860     5.5520     4.9590     5.6080     2.2430 
   73.7500   -24.4890    92.9770    23.7180     5.5240     5.0570     5.7090     2.2200 
   73.8750   -24.3920    88.9460    23.3950     5.5520     5.1980     5.8530     2.1970 
   74.0000   -24.2530    85.0730    23.0640     5.7380     5.3750     6.0370     2.1790 
   74.1250   -24.0920    83.1140    22.8120     6.1020     5.5750     6.2430     2.1730 
   74.2500   -23.9280    83.5140    22.7540     6.4430     5.7670     6.4400     2.1740 
   74.3750   -23.7560    86.1240    22.8720     6.6360     5.8990     6.5760     2.1690 
   74.5000   -23.5570    88.9730    23.1370     6.9710     5.9410     6.6190     2.1690 
   74.6250   -23.3240    90.8330    23.4270     7.9760     5.8670     6.5430     2.1980 
   74.7500   -23.0680    93.5890    23.6780     9.6560     5.6740     6.3440     2.2610 
   74.8750   -22.8210   101.0720    23.9430    10.5810     5.3720     6.0330     2.3310 
   75.0000   -22.5980   111.1680    24.1900     9.4860     5.0280     5.6790     2.3720 
   75.1250   -22.3890   119.1240    24.3630     7.1730     4.6950     5.3350     2.3780 
   75.2500   -22.1680   121.6030    24.4720     5.3560     4.4130     5.0450     2.3640 
   75.3750   -21.9180   118.3300    24.5080     4.7140     4.2210     4.8470     2.3520 
   75.5000   -21.6560   114.2120    24.5060     4.6540     4.1090     4.7320     2.3530 
   75.6250   -21.4080   113.3830    24.4940     4.7610     4.0670     4.6900     2.3640 
   75.7500   -21.1870   117.2940    24.4680     4.8910     4.0830     4.7060     2.3740 
   75.8750   -20.9810   123.0590    24.4600     4.9830     4.1630     4.7880     2.3720 
   76.0000   -20.7620   125.4950    24.4680     5.0510     4.3080     4.9380     2.3570 
   76.1250   -20.5200   122.9950    24.4830     5.1440     4.5350     5.1710     2.3340 
   76.2500   -20.2660   117.3790    24.5030     5.3220     4.8500     5.4950     2.3020 
   76.3750   -20.0290   111.4330    24.5470     5.5120     5.2610     5.9190     2.2720 
   76.5000   -19.8190   105.8470    24.6310     5.6990     5.7290     6.4000     2.2580 
   76.6250   -19.6230    99.6050    24.7060     6.1530     6.2050     6.8920     2.2590 
   76.7500   -19.4220    92.0580    24.6710     7.1870     6.6310     7.3300     2.2590 
   76.8750   -19.2110    84.8280    24.4460     8.4160     6.9230     7.6310     2.2350 
   77.0000   -19.0130    80.2540    24.0810     8.7140     7.0690     7.7810     2.1950 
   77.1250   -18.8500    78.7650    23.6270     7.9890     7.0840     7.7960     2.1610 
   77.2500   -18.7250    78.7940    23.3010     7.0530     7.0070     7.7180     2.1470 
   77.3750   -18.6150    78.2110    23.1420     6.5490     6.8930     7.5990     2.1540 
   77.5000   -18.4870    76.4860    23.1030     6.4010     6.7980     7.5020     2.1670 
   77.6250   -18.3370    73.8320    23.1530     6.3600     6.7490     7.4520     2.1750 
   77.7500   -18.1820    71.0430    23.2160     6.3470     6.7540     7.4560     2.1760 
   77.8750   -18.0390    70.0110    23.2510     6.4140     6.8010     7.5050     2.1650 
   78.0000   -17.9010    71.1850    23.2660     6.5670     6.8600     7.5660     2.1530 
   78.1250   -17.7480    73.2540    23.2510     6.7360     6.9140     7.6220     2.1480 
   78.2500   -17.5730    74.2250    23.2110     6.7850     6.9560     7.6650     2.1540 
   78.3750   -17.3900    73.9050    23.1090     6.6750     6.9790     7.6880     2.1660 
   78.5000   -17.2270    73.8240    23.0190     6.5560     6.9840     7.6930     2.1720 
   78.6250   -17.0870    74.0930    23.0080     6.5220     6.9750     7.6840     2.1680 
   78.7500   -16.9520    73.9130    23.0450     6.5280     6.9530     7.6620     2.1570 
   78.8750   -16.7960    73.0410    23.1030     6.4800     6.9180     7.6260     2.1490 
   79.0000   -16.6200    72.0430    23.1980     6.3680     6.8760     7.5830     2.1450 
   79.1250   -16.4460    71.1880    23.2500     6.2440     6.8340     7.5390     2.1440 
   79.2500   -16.2870    71.0630    23.2730     6.1710     6.7950     7.4990     2.1460 
   79.3750   -16.1400    73.0070    23.2920     6.1890     6.7630     7.4660     2.1560 
   79.5000   -15.9770    76.7500    23.2890     6.2600     6.7460     7.4480     2.1680 
   79.6250   -15.7870    81.0740    23.3020     6.3530     6.7480     7.4500     2.1750 
   79.7500   -15.5830    83.8320    23.3570     6.4340     6.7690     7.4720     2.1730 
   79.8750   -15.3980    82.6080    23.3590     6.4620     6.8090     7.5130     2.1690 
   80.0000   -15.2430    78.4370    23.3490     6.4420     6.8620     7.5680     2.1680 
   80.1250   -15.1070    73.5150    23.3860     6.4060     6.9250     7.6330     2.1630 
   80.2500   -14.9730    69.8090    23.3840     6.4060     6.9950     7.7040     2.1480 
   80.3750   -14.8440    68.2550    23.3240     6.4280     7.0690     7.7810     2.1340 
   80.5000   -14.7420    68.5190    23.3130     6.4290     7.1400     7.8540     2.1380 
   80.6250   -14.6920    70.9620    23.3380     6.4000     7.2080     7.9240     2.1580 
   80.7500   -14.6980    75.0370    23.3840     6.4190     7.2690     7.9870     2.1750 
   80.8750   -14.7470    77.9970    23.3840     6.5330     7.3210     8.0400     2.1740 
   81.0000   -14.8100    77.7410    23.3980     6.6260     7.3700     8.0910     2.1640 
   81.1250   -14.8840    74.9740    23.4540     6.6360     7.4240     8.1460     2.1560 
   81.2500   -14.9850    72.3110    23.4990     6.5960     7.4870     8.2120     2.1530 
   81.3750   -15.1380    72.4560    23.4450     6.5120     7.5570     8.2830     2.1540 
