~V
VERS. 2.00: Ver 2.00
~W
STRT.M 61.0000:
STOP.M 253.0000:
STEP.M 0.1250:
NULL. -999.2500:
UWI. DF5045:
~C
DEPT.M :
GR.API :
CALI.CM :
RXO.OHMM :
RI. :
RML.OHMM :
DEN.GM/CC :
SP.MV :
~A
# ...
  229.7500    80.1880    24.1650    74.5560    65.1130    70.5390     2.2900   -19.0880 
  229.8750    79.4510    24.1790    74.1100    65.9590    72.0900     2.2920   -18.8430 
  230.0000    79.5170    24.1160    78.3210    68.2890    75.2130     2.2840   -18.5680 
  230.1250    80.6680    24.0840    82.2580    71.8510    79.5800     2.2700   -18.1880 
  230.2500    81.3660    24.1150    85.2320    76.4850    84.9320     2.2590   -17.7630 
  230.3750    80.4240    24.2010    90.2500    81.7860    90.7740     2.2640   -17.4080 
  230.5000    78.2260    24.2160   101.4880    86.9920    96.3330     2.2800   -17.0770 
  230.6250    76.7980    24.1610   115.1910    91.4770   101.0250     2.2910   -16.6760 
  230.7500    76.6250    24.1090   127.4750    94.9430   104.5470     2.2880   -16.2420 
  230.8750    76.4910    24.1230   136.7400    97.3110   106.8790     2.2750   -15.8780 
  231.0000    75.7710    24.1750   139.9640    98.7380   108.2650     2.2620   -15.5850 
  231.1250    75.3220    24.1540   134.5900   100.0370   109.5560     2.2550   -15.2780 
  231.2500    75.0580    24.1200   124.4540   101.7570   111.2350     2.2500   -14.9540 
  231.3750    73.7890    24.1330   120.8190   103.9930   113.2890     2.2410   -14.6630 
  231.5000    71.1720    24.1910   134.6670   106.1690   114.8810     2.2260   -14.4380 
  231.6250    68.9990    24.1880   156.0440   107.1690   114.7250     2.2170   -14.2200 
  231.7500    68.5370    24.1510   168.4660   106.0010   111.7890     2.2230   -13.9810 
  231.8750    69.7470    24.1340   161.6560   102.1060   105.6800     2.2440   -13.7410 
  232.0000    71.3280    24.1470   137.8410    95.0800    96.8530     2.2760   -13.5910 
  232.1250    71.9260    24.1320   111.6350    86.0940    87.0630     2.3180   -13.4480 
  232.2500    71.6650    24.0940    92.0150    76.2010    76.9450     2.3660   -13.2560 
  232.3750    71.4270    24.0740    80.6560    66.4600    66.9280     2.4030   -13.0450 
  232.5000    72.0420    24.0910    74.0520    57.7780    57.9560     2.4100   -12.9580 
  232.6250    73.4810    24.1200    67.9070    50.3220    50.4140     2.3990   -12.9580 
  232.7500    75.8900    24.1190    59.7380    44.1550    44.2850     2.3790   -12.8860 
  232.8750    78.6820    24.0970    50.4090    39.2280    39.4710     2.3540   -12.6790 
  233.0000    80.3850    24.1020    42.8290    35.6290    36.0270     2.3320   -12.5290 
  233.1250    80.7330    24.1200    37.6630    33.0410    33.6060     2.3250   -12.5480 
  233.2500    80.1480    24.1160    34.4430    31.3240    32.0540     2.3340   -12.5880 
  233.3750    78.6140    24.0840    33.6150    30.3300    31.2080     2.3410   -12.5040 
  233.5000    76.0000    24.0760    35.3720    29.9740    30.9590     2.3290   -12.2970 
  233.6250    74.3740    24.0980    36.6500    29.9650    31.0100     2.3070   -12.2040 
  233.7500    75.6740    24.1160    35.6940    30.1070    31.1630     2.2910   -12.2370 
  233.8750    80.2820    24.0750    33.8710    30.2070    31.2210     2.2990   -12.2400 
  234.0000    86.0500    23.9950    33.8580    30.0320    30.9490     2.3400   -12.0760 
  234.1250    88.8380    23.9730    35.2040    29.4740    30.2720     2.3960   -11.9110 
  234.2500    86.9350    24.0220    35.8370    28.4940    29.1910     2.4380   -11.8450 
  234.3750    81.9360    24.0640    34.7490    27.1680    27.8120     2.4390   -11.8160 
  234.5000    77.2660    24.0650    31.4100    25.6590    26.3260     2.3880   -11.7170 
  234.6250    74.2210    24.0580    27.8070    24.2320    24.9950     2.3250   -11.5410 
  234.7500    72.9540    24.0580    25.5290    23.0940    24.0330     2.2840   -11.3930 
  234.8750    74.8660    24.0620    25.4300    22.4080    23.5930     2.2740   -11.3330 
  235.0000    80.6760    24.0560    26.3350    22.3190    23.7710     2.2820   -11.2540 
  235.1250    85.8340    24.0480    26.8940    22.6500    24.3030     2.2890   -11.1020 
  235.2500    86.1670    24.0510    27.2360    23.1880    24.9140     2.2950   -10.9670 
  235.3750    81.6480    24.0650    28.2060    23.6590    25.2940     2.2990   -10.9010 
  235.5000    76.4990    24.0620    30.4130    23.6770    25.0720     2.2940   -10.8310 
  235.6250    74.2760    24.0300    32.5760    23.1170    24.2160     2.2810   -10.6920 
  235.7500    75.0060    23.9760    33.1120    21.9980    22.8070     2.2680   -10.5580 
  235.8750    76.7410    23.9120    30.9920    20.4850    21.0530     2.2630   -10.4540 
  236.0000    77.4530    23.9020    26.0260    18.8340    19.2510     2.2700   -10.3640 
  236.1250    77.7050    23.8470    20.6010    17.3090    17.6610     2.2820   -10.2420 
  236.2500    78.9970    23.8020    16.5090    16.0480    16.4100     2.2950   -10.1190 
  236.3750    81.4600    23.8210    14.3530    15.1080    15.5240     2.3080   -10.0080 
  236.5000    83.4410    23.9070    13.7080    14.5170    15.0020     2.3260    -9.9200 
  236.6250    84.1910    23.9120    13.6050    14.1620    14.6860     2.3420    -9.9050 
  236.7500    83.8600    23.8370    13.6290    13.9540    14.4700     2.3440    -9.8850 
  236.8750    82.3460    23.7920    13.5990    13.7940    14.2550     2.3250    -9.7810 
  237.0000    78.9180    23.8380    13.9450    13.5750    13.9490     2.2970    -9.7950 
  237.1250    74.7570    23.9140    14.7630    13.2420    13.5380     2.2770    -9.8430 
  237.2500    72.6130    23.9130    15.5600    12.7930    13.0440     2.2720    -9.8300 
  237.3750    74.7230    23.8310    15.3470    12.2770    12.5280     2.2810    -9.7950 
  237.5000    80.8930    23.7910    13.8540    11.7900    12.1040     2.2970    -9.8080 
  237.6250    87.2620    23.7990    12.2990    11.4280    11.8640     2.3060    -9.8390 
  237.7500    91.5750    23.8370    11.6250    11.2600    11.8640     2.3010    -9.8150 
  237.8750    93.3510    23.8840    11.9050    11.3100    12.0940     2.2900    -9.8910 
  238.0000    92.7050    23.9940    12.9140    11.5670    12.5040     2.2790    -9.8890 
  238.1250    90.6640    24.0730    13.9730    11.9200    12.9700     2.2710    -9.9270 
  238.2500    87.9080    24.1100    14.8800    12.2960    13.4270     2.2670    -9.9770 
  238.3750    85.0590    24.1040    15.5500    12.6400    13.8430     2.2680   -10.0220 
  238.5000    83.0280    24.0730    15.9140    12.9340    14.2430     2.2740   -10.1060 
  238.6250    82.0250    24.0660    15.9220    13.2410    14.7120     2.2790   -10.1540 
  238.7500    81.8660    24.0770    15.7580    13.6270    15.3100     2.2780   -10.2180 
  238.8750    81.9810    24.0720    16.2640    14.1270    16.0440     2.2750   -10.2350 
  239.0000    81.4100    24.0590    18.5380    14.7540    16.8730     2.2690   -10.3350 
  239.1250    79.5840    24.0520    21.0140    15.4290    17.6830     2.2640   -10.3960 
  239.2500    76.9130    24.0550    22.1510    16.0700    18.3870     2.2590   -10.4290 
  239.3750    74.8750    24.0570    21.8360    16.6170    18.9410     2.2530   -10.4540 
  239.5000    75.4250    24.0510    21.0470    17.0450    19.3360     2.2440   -10.4940 
  239.6250    78.0090    24.0430    20.6830    17.4000    19.6440     2.2380   -10.4980 
  239.7500    81.1360    24.0430    21.0320    17.7250    19.9150     2.2420   -10.4960 
  239.8750    83.5200    24.0440    21.7060    18.0550    20.1730     2.2580   -10.4760 
  240.0000    84.5130    24.0430    22.1390    18.3340    20.3330     2.2810   -10.5070 
  240.1250    84.7880    24.0430    22.5890    18.4620    20.2990     2.2960   -10.4830 
  240.2500    84.8210    24.0440    23.4640    18.3690    20.0070     2.2890   -10.4270 
  240.3750    84.8210    24.0490    24.2290    18.0160    19.4430     2.2580   -10.4540 
  240.5000    84.8210    24.0510    23.4680    17.3480    18.5810     2.2430   -10.5400 
  240.6250    84.8210    24.0600    21.6870    16.4470    17.4940     2.2850   -10.6410 
  240.7500    84.8210    24.0780    23.4220    15.3870    16.1940     2.3880   -10.7030 
  240.8750    84.8210    24.1290    34.5890    14.2560    14.7010     2.5160   -10.8200 
