~V
VERS. 2.00: Ver 2.00
~W
STRT.M 58.0000:
STOP.M 256.0000:
STEP.M 0.1250:
NULL. -999.2500:
UWI. DF5024:
~C
DEPT.M :
SP.MV :
GR.API :
CALI.CM :
RXO.OHMM :
RI. :
RML.OHMM :
DEN.GM/CC :
~A
# ...
  181.7500   -24.2290    73.7690    23.5840   103.7030    91.7210    95.9310     2.2460 
  181.8750   -24.0460    73.8690    23.5570   102.8630    87.1480    91.1590     2.2450 
  182.0000   -23.8520    73.8440    23.5710   105.1390    78.5160    82.1510     2.2370 
  182.1250   -23.6760    74.6190    23.7250   106.6480    66.4960    69.6090     2.2340 
  182.2500   -23.5360    76.9080    24.0220   102.4770    53.9570    56.5240     2.2380 
  182.3750   -23.4350    80.2560    24.3240    90.3030    42.8550    44.9390     2.2540 
  182.5000   -23.3610    83.3410    24.4820    70.6940    34.4660    36.1850     2.2840 
  182.6250   -23.3150    85.3080    24.4970    47.1750    29.9690    31.4930     2.3220 
  182.7500   -23.3050    86.0190    24.4930    30.7440    28.8680    30.3430     2.3480 
  182.8750   -23.3430    85.0160    24.4890    29.0290    31.0140    32.5830     2.3460 
  183.0000   -23.4280    82.2900    24.4880    42.3730    36.1620    37.9550     2.3170 
  183.1250   -23.5360    79.1830    24.4950    61.4820    44.2590    46.4040     2.2760 
  183.2500   -23.6380    76.4540    24.4990    75.0720    54.0370    56.6080     2.2460 
  183.3750   -23.7250    73.8660    24.5020    81.2500    64.3250    67.3430     2.2330 
  183.5000   -23.8020    71.9200    24.5050    82.8530    73.7880    77.2180     2.2330 
  183.6250   -23.8710    71.9630    24.4410    84.1550    81.2160    84.9690     2.2430 
  183.7500   -23.9240    73.2790    24.3130    87.9030    87.1880    91.2010     2.2510 
  183.8750   -23.9480    74.5510    24.1550    95.0890    92.2540    96.4870     2.2480 
  184.0000   -23.9440    75.0150    24.0110   104.0600    95.9230   100.3160     2.2300 
  184.1250   -23.9270    74.2460    24.0470   112.3100    95.6230   100.0020     2.2070 
  184.2500   -23.9210    72.5150    24.1470   116.9800    90.1340    94.2750     2.1930 
  184.3750   -23.9270    71.0880    24.1770   116.0440    79.8220    83.5140     2.1890 
  184.5000   -23.9360    71.7270    24.0670   108.5690    66.7140    69.8360     2.1950 
  184.6250   -23.9440    75.1570    23.8340    92.6780    53.7800    56.3390     2.2150 
  184.7500   -23.9610    80.0750    23.5930    70.7560    43.2510    45.3520     2.2480 
  184.8750   -23.9980    85.3300    23.4020    46.7180    36.0880    37.8770     2.2830 
  185.0000   -24.0570    88.6910    23.3050    28.4750    32.5210    34.1560     2.3080 
  185.1250   -24.1200    87.2920    23.2830    24.8650    32.9060    34.5570     2.3210 
  185.2500   -24.1680    83.2590    23.2960    33.4550    36.2060    38.0010     2.3270 
  185.3750   -24.2010    80.1960    23.3610    47.7090    41.8730    43.9140     2.3190 
  185.5000   -24.2310    79.2200    23.4850    60.2530    49.2890    51.6530     2.2960 
  185.6250   -24.2640    78.3370    23.5550    66.7360    57.7150    60.4450     2.2710 
  185.7500   -24.2880    76.9050    23.5910    69.7100    66.0410    69.1330     2.2540 
  185.8750   -24.2900    75.9140    23.6190    72.4090    73.7020    77.1280     2.2420 
  186.0000   -24.2700    75.7500    23.6160    76.6600    80.6940    84.4240     2.2360 
  186.1250   -24.2460    75.3420    23.6270    87.0090    87.1150    91.1250     2.2340 
  186.2500   -24.2420    73.8380    23.6820   104.5410    92.3990    96.6380     2.2300 
  186.3750   -24.2600    71.6260    23.7760   123.5250    94.9410    99.2910     2.2170 
  186.5000   -24.2900    70.1290    23.8860   132.1470    93.1950    97.4690     2.1980 
  186.6250   -24.3280    70.3420    24.0140   121.7360    86.4230    90.4030     2.1910 
  186.7500   -24.3830    71.1620    24.1800   102.8590    77.1830    80.7610     2.2000 
  186.8750   -24.4720    71.8470    24.3360    87.4960    67.7730    70.9410     2.2150 
  187.0000   -24.5990    72.8760    24.4120    79.6670    60.4960    63.3480     2.2250 
  187.1250   -24.7490    74.2060    24.4170    70.4280    58.2740    61.0290     2.2330 
  187.2500   -24.8930    73.7850    24.4030    61.3680    61.6590    64.5610     2.2440 
  187.3750   -25.0220    70.5600    24.3640    71.5030    71.0820    74.3940     2.2500 
  187.5000   -25.1440    65.9660    24.2860   109.3340    86.3420    90.3170     2.2400 
  187.6250   -25.2630    63.0730    24.2470   156.9700   106.7380   111.6010     2.2200 
  187.7500   -25.3690    62.7230    24.2300   184.1620   128.7010   134.5190     2.2080 
  187.8750   -25.4420    64.0430    24.2640   186.6670   148.8160   155.5090     2.2080 
  188.0000   -25.4760    65.9000    24.3530   180.0060   163.6500   170.9890     2.2140 
  188.1250   -25.4820    67.5740    24.4280   176.5490   170.5100   178.1470     2.2220 
  188.2500   -25.4860    69.6200    24.4250   172.8650   172.7630   180.4990     2.2250 
  188.3750   -25.4930    72.2790    24.3510   165.9960   174.0170   181.8070     2.2250 
  188.5000   -25.4920    74.0790    24.2680   164.4930   176.4910   184.3880     2.2230 
  188.6250   -25.4670    72.4780    24.2380   173.8870   180.7350   188.8170     2.2180 
  188.7500   -25.4270    68.3130    24.2110   185.6590   185.4760   193.7640     2.2050 
  188.8750   -25.3900    63.9910    24.2210   195.8910   189.4260   197.8860     2.1860 
  189.0000   -25.3630    61.8430    24.2480   206.5000   191.3810   199.9260     2.1660 
  189.1250   -25.3330    63.0360    24.2800   212.4360   189.8930   198.3730     2.1530 
  189.2500   -25.2800    65.1410    24.2390   201.6800   185.2180   193.4950     2.1540 
  189.3750   -25.2030    65.7140    24.1270   170.6100   177.9290   185.8890     2.1660 
  189.5000   -25.1170    64.4230    23.9510   128.5850   168.8850   176.4520     2.1810 
  189.6250   -25.0450    62.8920    23.7550    93.9180   158.7980   165.9250     2.1900 
  189.7500   -24.9850    62.4020    23.5920    74.7460   148.4670   155.1450     2.1960 
  189.8750   -24.9240    63.2730    23.4760    69.4770   138.3980   144.6380     2.2000 
  190.0000   -24.8560    65.4170    23.4010    71.9780   129.0820   134.9170     2.2030 
  190.1250   -24.7950    68.0980    23.3420    73.6390   121.2790   126.7750     2.2020 
  190.2500   -24.7620    70.3360    23.2610    71.3270   115.2590   120.4930     2.1980 
  190.3750   -24.7620    72.4180    23.1490    67.3980   111.2840   116.3450     2.1920 
  190.5000   -24.7780    74.4850    23.0350    65.5390   109.3890   114.3680     2.1880 
  190.6250   -24.7890    74.8400    23.0440    68.0020   109.5000   114.4830     2.1950 
  190.7500   -24.7930    72.6170    23.1550    74.4890   110.5070   115.5340     2.2080 
  190.8750   -24.8010    68.9880    23.3240    85.3360   111.4280   116.4950     2.2170 
  191.0000   -24.8170    66.3340    23.5990    99.4880   111.2170   116.2750     2.2100 
  191.1250   -24.8270    66.0890    23.9480   110.0860   108.7570   113.7080     2.1940 
  191.2500   -24.8140    66.3390    24.2440   111.1850   104.2930   109.0490     2.1880 
  191.3750   -24.7790    65.8050    24.3850   104.0270    98.3410   102.8390     2.1960 
  191.5000   -24.7420    65.4570    24.3640    94.4030    91.7330    95.9440     2.2110 
  191.6250   -24.7250    67.4870    24.1620    84.0740    85.5790    89.5220     2.2200 
  191.7500   -24.7260    71.1130    23.8610    72.1780    80.7630    84.4960     2.2210 
  191.8750   -24.7320    74.7180    23.5880    62.0560    77.9420    81.5520     2.2250 
  192.0000   -24.7380    77.3580    23.3700    56.8190    77.7260    81.3280     2.2400 
  192.1250   -24.7540    78.2970    23.1940    55.2530    81.4580    85.2220     2.2550 
  192.2500   -24.7910    76.7350    23.0580    54.8350    89.4200    93.5290     2.2560 
  192.3750   -24.8370    72.6900    23.0440    59.0240   102.3520   107.0240     2.2470 
  192.5000   -24.8690    67.6120    23.1470    72.9020   120.8990   126.3780     2.2400 
  192.6250   -24.8580    63.5620    23.4310   101.1350   146.4490   153.0400     2.2410 
  192.7500   -24.8140    60.9780    23.8450   139.3690   177.5240   185.4670     2.2350 
  192.8750   -24.7480    59.5650    24.2310   186.5770   212.5490   222.0150     2.2120 
