~V
VERS. 2.00: Ver 2.00
~W
STRT.M 60.0000:
STOP.M 249.0000:
STEP.M 0.1250:
NULL. -999.2500:
UWI. DF5060:
~C
DEPT.M :
GR.API :
CALI.CM :
RXO.OHMM :
RI. :
RML.OHMM :
DEN.GM/CC :
SP.MV :
~A
# ...
  240.0000    60.6090    24.1790    12.1910    11.1760    14.4450     2.4960    -9.3330 
  240.1250    60.6090    24.1820    12.9210    11.4750    14.7110     2.4860    -9.2250 
  240.2500    60.6090    24.1790    12.8740    11.6450    14.7950     2.4750    -9.2260 
  240.3750    60.6090    24.1680    12.6960    11.7240    14.7780     2.4650    -9.2640 
  240.5000    60.6090    24.1630    12.8050    11.7550    14.7270     2.4570    -9.4060 
  240.6250    60.6090    24.1760    12.8850    11.7610    14.6620     2.4540    -9.5890 
  240.7500    60.6090    24.1930    11.8290    11.7430    14.5720     2.4560    -9.7510 
  240.8750    60.6090    24.1560     9.9420    11.6920    14.4370     2.4620    -9.8800 
  241.0000    60.6090    23.9980     8.3430    11.6000    14.2500     2.4710    -9.9490 
  241.1250    60.6090    23.7380     7.8790    11.4550    14.0000     2.4780   -10.0820 
  241.2500    60.6090    23.5320     7.6280    11.2610    13.6850     2.4780   -10.1810 
  241.3750    60.6090    23.4500     7.2390    11.0220    13.3050     2.4700   -10.3170 
  241.5000    60.6090    23.4400     6.3400    10.7610    12.8870     2.4580   -10.3520 
  241.6250    60.6090    23.4260     5.0710    10.5170    12.4890     2.4480   -10.4140 
  241.7500    60.6090    23.4070     4.2260    10.3170    12.1610     2.4410   -10.5130 
  241.8750    60.6090    23.3930     3.9690    10.1700    11.9260     2.4360   -10.6080 
  242.0000    60.6090    23.3900     3.9800    10.0750    11.7770     2.4300   -10.7790 
  242.1250    60.6090    23.4130     4.0450    10.0290    11.6970     2.4210   -10.9590 
  242.2500    60.6090    23.4620     4.1800    10.0110    11.6510     2.4100   -11.0650 
  242.3750    60.6090    23.5260     4.4450    10.0100    11.6260     2.3990   -11.0710 
  242.5000    60.6090    23.5910     4.9060    10.0170    11.6140     2.3860   -11.2060 
  242.6250    60.6090    23.6510     5.4900    10.0220    11.6080     2.3750   -11.3860 
  242.7500    60.6090    23.7000     6.1520    10.0210    11.6040     2.3660   -11.4190 
  242.8750    60.6090    23.7320     6.9690    10.0170    11.6010     2.3620   -11.4800 
  243.0000    60.6090    23.7500     7.8900    10.0130    11.5960     2.3620   -11.4250 
  243.1250    60.6090    23.7550     8.9730    10.0130    11.5910     2.3650   -11.3280 
  243.2500    60.6090    23.7540     9.8620    10.0160    11.5860     2.3700   -11.2880 
  243.3750    60.6090    23.7540    10.5320    10.0230    11.5780     2.3790   -11.2620 
  243.5000    60.6090    23.7530    10.9600    10.0300    11.5660     2.3940   -11.2480 
  243.6250    60.6090    23.7540    11.2680    10.0330    11.5490     2.4130   -11.2060 
  243.7500    60.6090    23.7670    11.2410    10.0300    11.5330     2.4330   -11.2210 
  243.8750    60.6090    23.7900    11.5560    10.0260    11.5250     2.4520   -11.2130 
  244.0000    60.6090    23.8100    11.9500    10.0260    11.5240     2.4660   -11.2420 
  244.1250    60.6090    23.8180    11.4740    10.0260    11.5240     2.4750   -11.3050 
  244.2500    60.6090    23.8280    11.2550    10.0260    11.5240     2.4790   -11.3830 
  244.3750    60.6090    23.8370    11.3410    10.0260    11.5240     2.4800   -11.4240 
  244.5000    60.6090    23.8010    11.1910    10.0260    11.5240     2.4790   -11.3520 
  244.6250    60.6090    23.6800    10.5470    10.0260    11.5240     2.4790   -11.2470 
  244.7500    60.6090    23.5430    10.2080    10.0260    11.5240     2.4790   -11.1970 
  244.8750    60.6090    23.4490     9.7710    10.0260    11.5240     2.4780   -11.1650 
  245.0000    60.6090    23.3770     9.1010    10.0260    11.5240     2.4760   -11.2360 
  245.1250    60.6090    23.2830     8.5700    10.0260    11.5240     2.4750   -11.4070 
  245.2500    60.6090    23.2090     8.5790    10.0260    11.5240     2.4730   -11.5870 
  245.3750    60.6090    23.1860     8.7910    10.0260    11.5240     2.4690   -11.8220 
  245.5000    60.6090    23.1860     8.6830    10.0260    11.5240     2.4650   -12.1020 
  245.6250    60.6090    23.1700     8.0050    10.0260    11.5240     2.4620   -12.3690 
  245.7500    60.6090    23.1510     7.2850    10.0260    11.5240     2.4610   -12.6000 
  245.8750    60.6090    23.1310     6.7240    10.0260    11.5240     2.4650   -12.8160 
  246.0000    60.6090    23.0850     6.2300    10.0260    11.5240     2.4730   -12.8590 
  246.1250    60.6090    23.0010     5.7810    10.0260    11.5240     2.4810  -999.2500 
  246.2500    60.6090    22.8820     5.5120    10.0260    11.5240     2.4820  -999.2500 
  246.3750    60.6090    22.7380     5.4120    10.0260    11.5240     2.4400  -999.2500 
  246.5000    60.6090    22.5590     5.2630    10.0260    11.5240     2.3110  -999.2500 
  246.6250    60.6090    22.3170     5.0750    10.0260    11.5240     2.1160  -999.2500 
  246.7500    60.6090    22.0080     5.1020    10.0260    11.5240     1.9550  -999.2500 
  246.8750    60.6090    21.4840     5.2870    10.0260    11.5240     1.8660  -999.2500 
  247.0000    60.6090    20.6670     5.4160    10.0260    11.5240     1.8400  -999.2500 
  247.1250    60.6090    19.8440     5.4190    10.0260    11.5240     1.8510  -999.2500 
  247.2500    60.6090    19.4000     5.4160    10.0260    11.5240     1.8670  -999.2500 
  247.3750    60.6090    19.3230     5.4130    10.0260    11.5240     1.8790  -999.2500 
  247.5000    60.6090    19.3490     5.4130    10.0260    11.5240     1.8840  -999.2500 
  247.6250    60.6090    19.3440     5.4140    10.0260    11.5240     1.8860  -999.2500 
  247.7500    60.6090    19.3420     5.4180    10.0260    11.5240     1.8880  -999.2500 
  247.8750    60.6090    19.3400     5.4200    10.0260    11.5240     1.8870  -999.2500 
  248.0000    60.6090    19.3390     5.4180    10.0260    11.5240     1.8840  -999.2500 
  248.1250    60.6090    19.3380     5.4170    10.0260    11.5240     1.8810  -999.2500 
  248.2500    60.6090    19.3380     5.4130    10.0260    11.5240     1.8790  -999.2500 
  248.3750    60.6090    19.3380     5.4120    10.0260    11.5240     1.8790  -999.2500 
  248.5000    60.6090    19.3380     5.4160    10.0260    11.5240     1.8800  -999.2500 
  248.6250    60.6090    19.3380     5.4180    10.0260    11.5240     1.8810  -999.2500 
  248.7500    60.6090    19.3380     5.4170    10.0260    11.5240     1.8810  -999.2500 
  248.8750    60.6090    19.3380     5.4160    10.0260    11.5240     1.8810  -999.2500 
  249.0000  -999.2500  -999.2500  -999.2500  -999.2500  -999.2500     1.8810  -999.2500 
