~V
VERS. 2.00: Ver 2.00
~W
STRT.M 59.0000:
STOP.M 243.0000:
STEP.M 0.1250:
NULL. -999.2500:
UWI. DF5058:
~C
DEPT.M :
GR.API :
CALI.CM :
RXO.OHMM :
RI. :
RML.OHMM :
DEN.GM/CC :
SP.MV :
~A
# ...
   81.5000    82.7280    24.5970     7.4200     6.4850     7.0340     2.2500   -33.6930 
   81.6250    79.6010    24.5870     7.1490     6.8300     7.2080     2.2310   -33.6870 
   81.7500    78.4910    24.5880     7.3940     6.9720     7.1570     2.2220   -33.6900 
   81.8750    76.6740    24.5790     7.9610     6.8810     6.8910     2.2200   -33.5070 
   82.0000    73.9740    24.5810     8.1410     6.5780     6.4610     2.2260   -33.4720 
   82.1250    75.3150    24.6290     6.2350     6.1310     5.9620     2.2400   -33.4130 
   82.2500    81.3140    24.7120     4.6450     5.6870     5.5310     2.2600   -33.2660 
   82.3750    86.4350    24.7860     4.2690     5.3330     5.2410     2.2800   -33.2020 
   82.5000    86.4260    24.8240     4.4420     5.1070     5.1080     2.2950   -33.0770 
   82.6250    82.7630    24.8300     4.8670     5.0190     5.1140     2.2990   -32.9520 
   82.7500    80.8990    24.8400     5.2630     5.0090     5.1730     2.2980   -32.9740 
   82.8750    83.1900    24.8760     4.9400     5.0250     5.2240     2.2970   -33.0620 
   83.0000    88.4660    24.9180     4.3020     5.0150     5.2320     2.2950   -33.2110 
   83.1250    89.5740    24.9170     4.6000     4.9800     5.2510     2.2900   -33.5130 
   83.2500    84.8690    24.8850     4.9160     5.0260     5.4440     2.2820   -33.7600 
   83.3750    78.8800    24.8730     4.9250     5.2990     5.9960     2.2760   -34.0500 
   83.5000    76.1230    24.9020     5.0070     5.9340     7.0420     2.2830   -34.6110 
   83.6250    75.4170    24.9060     7.3680     7.0940     8.6590     2.3100   -35.0750 
   83.7500    72.6570    24.8340    17.1270     8.6160    10.4840     2.3500   -35.4700 
   83.8750    68.3940    24.7060    29.0890    10.1240    11.9810     2.3940   -36.1000 
   84.0000    65.5160    24.5560    28.1880    11.0340    12.5810     2.4160   -36.6500 
   84.1250    68.0030    24.3960    16.2690    10.9130    12.0540     2.3910   -37.2190 
   84.2500    73.1520    24.2490    10.8260    10.2950    11.1500     2.3460   -37.9110 
   84.3750    76.5200    24.1560    10.8400     9.6670    10.4410     2.3090   -38.5520 
   84.5000    76.5090    24.1390    11.1700     9.3220    10.1980     2.2970   -39.1540 
   84.6250    73.9120    24.1740    11.4900     9.3650    10.4190     2.3130   -39.7350 
   84.7500    69.9940    24.2120    11.7140     9.6000    10.7810     2.3390   -40.3390 
   84.8750    64.8620    24.2300    11.6980     9.8620    11.0960     2.3500   -40.8150 
   85.0000    61.6680    24.2320    11.7480    10.0550    11.3020     2.3360   -41.2570 
   85.1250    63.7290    24.2350    12.2960    10.1480    11.3900     2.3100   -41.6540 
   85.2500    67.3340    24.2410    14.1040    10.1410    11.3560     2.2930   -41.9220 
   85.3750    70.3100    24.2460    18.3370    10.0050    11.1500     2.2880   -42.2360 
   85.5000    74.1940    24.2270    19.1930     9.7270    10.7620     2.2860   -42.4070 
   85.6250    77.7990    24.1550    16.0110     9.3660    10.2920     2.2750   -42.5260 
   85.7500    78.4670    24.0640    12.0950     9.0530     9.9290     2.2520   -42.6860 
   85.8750    74.4420    24.0070    11.3860     8.8730     9.7710     2.2280   -42.8040 
   86.0000    66.4460    24.0350    11.4350     8.8560     9.8150     2.2110   -42.9470 
   86.1250    59.7330    24.1690    12.2980     8.9700     9.9480     2.2010   -43.0660 
   86.2500    57.4680    24.3290    13.2940     9.0940    10.0160     2.1910   -43.1670 
   86.3750    57.7880    24.4400    13.2810     9.1570     9.9820     2.1770   -43.2490 
   86.5000    57.0010    24.4740    12.6170     9.1640     9.9120     2.1600   -43.2080 
   86.6250    55.8650    24.4630    12.2940     9.1460     9.8730     2.1430   -43.1700 
   86.7500    56.7420    24.4550    12.2110     9.0650     9.7790     2.1330   -43.0580 
   86.8750    58.0760    24.4550    12.1550     8.7920     9.4520     2.1290   -42.8040 
   87.0000    58.4380    24.4740    12.2370     8.2040     8.7470     2.1320   -42.5020 
   87.1250    60.5010    24.5100    11.8650     7.2930     7.6820     2.1450   -42.0350 
   87.2500    65.5170    24.5340    10.1120     6.3440     6.6280     2.1680   -41.5680 
   87.3750    71.0000    24.5090     7.0940     5.5870     5.8910     2.1990   -41.0290 
   87.5000    74.2490    24.4020     4.7150     5.1650     5.6470     2.2290   -40.4600 
   87.6250    74.6680    24.2390     5.7610     5.1920     6.0020     2.2450   -40.0650 
   87.7500    74.8960    24.1100     7.8090     5.5910     6.7590     2.2410   -39.7570 
   87.8750    75.7410    24.0530     9.6230     6.2860     7.7300     2.2240   -39.5950 
   88.0000    76.0150    24.0520    10.6120     7.1240     8.6640     2.2040   -39.5720 
   88.1250    73.7850    24.0980    11.2650     7.8370     9.2620     2.1910   -39.6560 
   88.2500    70.7660    24.2040    12.1050     8.2590     9.4830     2.1830   -39.8680 
   88.3750    68.5340    24.3510    13.9870     8.3790     9.4120     2.1750   -40.0470 
   88.5000    68.0360    24.4750    14.9020     8.2860     9.1860     2.1650   -40.4160 
   88.6250    69.3100    24.5250    14.1370     8.0820     8.9260     2.1490   -40.6500 
   88.7500    69.9730    24.5310    12.3980     7.8710     8.7100     2.1350   -40.7300 
   88.8750    67.2200    24.5310    11.8480     7.6970     8.5660     2.1270   -40.8210 
   89.0000    62.2180    24.5360    11.6880     7.5810     8.5060     2.1260   -40.6840 
   89.1250    61.1820    24.5380    11.5110     7.5390     8.5350     2.1310   -40.5860 
   89.2500    62.8430    24.5480    11.3640     7.5530     8.6150     2.1370   -40.3420 
   89.3750    63.0990    24.5640    11.2360     7.6000     8.7090     2.1400   -40.1260 
   89.5000    61.4900    24.5570    11.2210     7.6500     8.7740     2.1390   -39.8220 
   89.6250    61.3870    24.4910    11.0250     7.6540     8.7580     2.1380   -39.4150 
   89.7500    63.9880    24.4020    10.6850     7.5870     8.6440     2.1400   -39.0490 
   89.8750    65.4860    24.3300    10.3610     7.4420     8.4340     2.1440   -38.5340 
   90.0000    64.4980    24.2820     9.9330     7.2350     8.1550     2.1490   -38.0850 
   90.1250    65.2640    24.2320     9.5010     7.0040     7.8540     2.1510   -37.5580 
   90.2500    68.1680    24.1480     9.0280     6.8010     7.5880     2.1490   -37.0250 
   90.3750    69.0240    24.0160     8.5500     6.6560     7.3960     2.1400   -36.4960 
   90.5000    66.9420    23.8600     8.1770     6.5900     7.3040     2.1260   -35.9000 
   90.6250    65.3080    23.7520     8.2290     6.6260     7.3270     2.1140   -35.4780 
   90.7500    65.4320    23.7410     8.1560     6.7330     7.4060     2.1060   -34.9730 
   90.8750    65.2130    23.8460     7.8140     6.8590     7.4580     2.1050   -34.5630 
   91.0000    66.2220    24.0170     7.5460     6.9350     7.4050     2.1090   -34.2300 
   91.1250    68.3510    24.1300     7.7440     6.8960     7.2030     2.1210   -33.8120 
   91.2500    69.6250    24.1400     7.6810     6.7660     6.9220     2.1400   -33.4580 
   91.3750    71.2810    24.1150     6.8690     6.5810     6.6260     2.1650   -33.0560 
   91.5000    73.5190    24.1280     5.7400     6.3740     6.3490     2.1910   -32.7020 
   91.6250    75.0710    24.1640     5.4810     6.1520     6.0860     2.2080   -32.3000 
   91.7500    75.0730    24.1860     5.9570     5.9000     5.8020     2.2160   -31.9430 
   91.8750    74.2880    24.1770     5.9090     5.6060     5.4870     2.2230   -31.7260 
   92.0000    74.3790    24.1360     4.9210     5.2810     5.1600     2.2360   -31.3970 
   92.1250    76.2360    24.2040     3.8690     4.9580     4.8590     2.2580   -31.2010 
   92.2500    79.5940    24.4990     3.4870     4.6630     4.6000     2.2850   -31.0980 
   92.3750    82.0460    24.9150     3.5740     4.4030     4.3810     2.3100   -31.1040 
   92.5000    83.3330    25.2130     3.7260     4.1810     4.2030     2.3280   -31.3190 
   92.6250    86.0630    25.2680     3.6070     4.0390     4.1320     2.3360   -31.5490 
