~V
VERS. 2.00: Ver 2.00
~W
STRT.M 61.0000:
STOP.M 236.0000:
STEP.M 0.1250:
NULL. -999.2500:
UWI. DF5057:
~C
DEPT.M :
GR.API :
RML.OHMM :
RI. :
RXO.OHMM :
CALI.CM :
DEN.GM/CC :
SP.MV :
~A
# ...
  229.7500    69.0730    10.5740     9.6730    10.8530    25.1660     2.3130    -0.9810 
  229.8750    69.0730    10.5680     9.6300    11.2120    25.1700     2.3260    -1.0530 
  230.0000    69.0730    10.5440     9.6090    12.7710    25.2230     2.3510    -1.0930 
  230.1250    69.0730    10.5130     9.5890    15.6040    25.1550     2.3860    -1.0610 
  230.2500    69.0730    10.4850     9.5560    16.7070    25.0010     2.4210    -0.9810 
  230.3750    69.0730    10.4450     9.5010    16.1990    24.8420     2.4460    -0.8920 
  230.5000    69.0730    10.3700     9.4220    14.8500    24.7570     2.4560    -0.8120 
  230.6250    69.0730    10.2230     9.3290    14.7010    24.7940     2.4560    -0.7030 
  230.7500    69.0730    10.0190     9.2450    14.3220    24.7830     2.4580    -0.6030 
  230.8750    69.0730     9.8000     9.1810    14.0040    24.6940     2.4640    -0.5590 
  231.0000    69.0730     9.6270     9.1440    15.2320    24.6720     2.4730    -0.5660 
  231.1250    69.0730     9.5460     9.1290    17.2470    24.7710     2.4730    -0.6250 
  231.2500    69.0730     9.5250     9.1250    19.4070    24.8820     2.4640    -0.6860 
  231.3750    69.0730     9.5250     9.1250    19.1930    24.8730     2.4510    -0.7350 
  231.5000    69.0730     9.5250     9.1250    17.9360    24.8220     2.4430    -0.7780 
  231.6250    69.0730     9.5250     9.1250    20.8080    24.7720     2.4480    -0.8210 
  231.7500    69.0730     9.5250     9.1250    20.8690    24.6890     2.4650    -0.8290 
  231.8750    69.0730     9.5250     9.1250    19.5920    24.6140     2.4880    -0.8120 
  232.0000    69.0730     9.5250     9.1250    19.1910    24.5560     2.5080    -0.7430 
  232.1250    69.0730     9.5250     9.1250    20.8410    24.5120     2.5190    -0.6750 
  232.2500    69.0730     9.5250     9.1250    23.2210    24.5070     2.5210    -0.6750 
  232.3750    69.0730     9.5250     9.1250    27.5570    24.6100     2.5180    -0.6750 
  232.5000    69.0730     9.5250     9.1250    23.6730    24.7440     2.5150  -999.2500 
  232.6250    69.0730     9.5250     9.1250    22.2460    24.8280     2.5130  -999.2500 
  232.7500    69.0730     9.5250     9.1250    21.3910    24.8200     2.5110  -999.2500 
  232.8750    69.0730     9.5250     9.1250    20.5150    24.7990     2.5100  -999.2500 
  233.0000    69.0730     9.5250     9.1250    20.0840    24.8110     2.5090  -999.2500 
  233.1250    69.0730     9.5250     9.1250    18.6080    24.8760     2.5070  -999.2500 
  233.2500    69.0730     9.5250     9.1250    16.9950    24.9730     2.5010  -999.2500 
  233.3750    69.0730     9.5250     9.1250    16.3800    25.0500     2.4920  -999.2500 
  233.5000    69.0730     9.5250     9.1250    18.4160    25.0580     2.4830  -999.2500 
  233.6250    69.0730     9.5250     9.1250    21.0060    25.0000     2.4750  -999.2500 
  233.7500    69.0730     9.5250     9.1250    20.7020    24.9220     2.4630  -999.2500 
  233.8750    69.0730     9.5250     9.1250    21.4360    24.9080     2.4440  -999.2500 
  234.0000    69.0730     9.5250     9.1250    21.7150    24.9540     2.4130  -999.2500 
  234.1250    69.0730     9.5250     9.1250    16.3580    24.9120     2.3610  -999.2500 
  234.2500    69.0730     9.5250     9.1250    12.0800    24.7560     2.2780  -999.2500 
  234.3750    69.0730     9.5250     9.1250    10.4400    24.4180     2.1570  -999.2500 
  234.5000    69.0730     9.5250     9.1250     9.9010    23.8870     2.0060  -999.2500 
  234.6250    69.0730     9.5250     9.1250     9.0040    23.2360     1.8510  -999.2500 
  234.7500    69.0730     9.5250     9.1250     8.5830    22.9170     1.7280  -999.2500 
  234.8750    69.0730     9.5250     9.1250     8.4710    22.8220     1.6510  -999.2500 
  235.0000    69.0730     9.5250     9.1250     8.4700    22.7970     1.6180  -999.2500 
  235.1250    69.0730     9.5250     9.1250     8.4700    22.7840     1.6120  -999.2500 
  235.2500    69.0730     9.5250     9.1250     8.4700    22.7750     1.6150  -999.2500 
  235.3750    69.0730     9.5250     9.1250     8.4700    22.7690     1.6180  -999.2500 
  235.5000    69.0730     9.5250     9.1250     8.4700    22.7680     1.6210  -999.2500 
  235.6250    69.0730     9.5250     9.1250     8.4680    22.7560     1.6230  -999.2500 
  235.7500    69.0730     9.5250     9.1250     8.4680    22.7500     1.6230  -999.2500 
  235.8750    69.0730     9.5250     9.1250     8.4680    22.7470     1.6220  -999.2500 
  236.0000    69.0730     9.5250     9.1250     8.4690    22.7460     1.6200  -999.2500 
