~V
VERS. 2.00: Ver 2.00
~W
STRT.M 58.0000:
STOP.M 276.0000:
STEP.M 0.1250:
NULL. -999.2500:
UWI. DF5012:
~C
DEPT.M :
SP.MV :
GR.API :
CALI.CM :
RXO.OHMM :
RI. :
RML.OHMM :
DEN.GM/CC :
~A
# ...
   80.5000   -48.8850    66.9860    24.6230    11.7820     8.0110    11.0390     2.1190 
   80.6250   -48.6570    67.3030    24.6210    12.3990     8.1850    11.2690     2.1280 
   80.7500   -48.3790    68.2220    24.6210    16.3450     8.3900    11.5090     2.1370 
   80.8750   -47.9960    68.8360    24.6540    20.3030     8.5750    11.6810     2.1440 
   81.0000   -47.6230    69.7160    24.7520    19.5260     8.7000    11.7540     2.1480 
   81.1250   -47.1880    69.5690    24.9110    13.9380     8.7590    11.7610     2.1500 
   81.2500   -46.6830    66.9140    25.0530    12.1280     8.7850    11.7460     2.1510 
   81.3750   -46.1330    64.7730    25.1330    11.6990     8.7540    11.6450     2.1530 
   81.5000   -45.4880    65.6510    25.1560    11.6350     8.5840    11.3160     2.1590 
   81.6250   -44.7760    68.1250    25.1460    11.5150     8.1410    10.5540     2.1710 
   81.7500   -44.0970    72.2550    25.1690    10.5880     7.4590     9.4430     2.1930 
   81.8750   -43.5190    79.9610    25.2970     8.3470     6.6520     8.1920     2.2280 
   82.0000   -42.9620    90.4240    25.5210     5.8040     5.8910     7.1000     2.2720 
   82.1250   -42.5200    98.8350    25.7060     5.0090     5.3630     6.4710     2.3130 
   82.2500   -42.1780   103.8150    25.7780     4.8930     5.1060     6.3000     2.3400 
   82.3750   -41.9420   106.5400    25.7490     5.1030     5.1160     6.5130     2.3490 
   82.5000   -41.8030   106.4480    25.6170     5.8330     5.3440     6.9600     2.3450 
   82.6250   -41.7420   104.3590    25.3820     6.9090     5.6790     7.4040     2.3320 
   82.7500   -41.6660   102.6660    25.1780     7.5880     5.9440     7.6240     2.3170 
   82.8750   -41.6450   101.8670    25.1390     7.3560     6.0340     7.5440     2.3060 
   83.0000   -41.5650   103.6900    25.3210     6.5040     5.9440     7.2330     2.3000 
   83.1250   -41.5640   108.4810    25.6330     5.6370     5.7410     6.8520     2.3000 
   83.2500   -41.5440   113.1910    25.8690     5.4170     5.5420     6.5570     2.3030 
   83.3750   -41.5840   113.3010    25.9540     5.3620     5.4070     6.4080     2.3060 
   83.5000   -41.6140   109.9010    25.9510     5.3610     5.3610     6.4030     2.3080 
   83.6250   -41.7160   109.5700    25.9470     5.5020     5.3950     6.5050     2.3120 
   83.7500   -41.8000   110.4700    25.9480     5.5230     5.4540     6.6280     2.3210 
   83.8750   -41.9250   108.7090    25.9480     5.9550     5.4950     6.7210     2.3350 
   84.0000   -42.1270   106.3030    25.9480     6.1990     5.4850     6.7450     2.3510 
   84.1250   -42.2810   110.5650    25.9480     5.9520     5.3980     6.6730     2.3650 
   84.2500   -42.4800   116.2630    25.9480     5.3680     5.2620     6.5410     2.3700 
   84.3750   -42.6660   115.1830    25.9480     5.1710     5.1060     6.3770     2.3670 
   84.5000   -42.8890   108.3040    25.9480     5.0590     4.9500     6.2110     2.3580 
   84.6250   -43.1680   104.4260    25.9480     5.0120     4.8300     6.0960     2.3480 
   84.7500   -43.5360   106.6890    25.9480     4.9790     4.7740     6.0860     2.3430 
   84.8750   -43.8990   109.4020    25.9480     5.0740     4.8190     6.2530     2.3390 
   85.0000   -44.3230   108.9040    25.9520     5.2890     5.0050     6.6690     2.3330 
   85.1250   -44.7830   108.8040    25.9400     5.9190     5.4030     7.4430     2.3250 
   85.2500   -45.2220   107.2670    25.8200     7.1860     6.0080     8.5210     2.3210 
   85.3750   -45.6390   100.3440    25.5380     8.5410     6.8010     9.8100     2.3230 
   85.5000   -46.0610    90.1020    25.1940    10.8750     7.6970    11.1100     2.3300 
   85.6250   -46.3750    82.6540    24.9980    12.4370     8.4890    12.0510     2.3310 
   85.7500   -46.6590    76.9860    24.9580    13.5900     8.9660    12.4160     2.3210 
   85.8750   -46.8330    71.5690    24.9690    13.6030     9.0190    12.1560     2.2960 
   86.0000   -46.9210    69.2440    24.9690    12.3380     8.6820    11.4340     2.2640 
   86.1250   -46.8980    71.8340    24.9680     9.7610     8.1170    10.5750     2.2340 
   86.2500   -46.8570    75.1930    24.9680     8.8550     7.5640     9.8850     2.2080 
   86.3750   -46.7610    78.6730    24.9740     8.4720     7.1130     9.4300     2.1900 
   86.5000   -46.6410    80.8720    24.9840     7.6260     6.7640     9.1250     2.1780 
   86.6250   -46.5160    78.6530    24.9900     7.6880     6.4570     8.7960     2.1750 
   86.7500   -46.3870    76.5300    24.9900     8.3200     6.1260     8.3510     2.1780 
   86.8750   -46.2640    78.1020    25.0320     8.6130     5.7820     7.8550     2.1830 
   87.0000   -46.2320    83.0910    25.1730     7.7250     5.4940     7.4830     2.1910 
   87.1250   -46.2350    89.0900    25.3320     6.3750     5.3920     7.4850     2.2000 
   87.2500   -46.2810    92.5200    25.3230     6.3010     5.5090     7.8960     2.2070 
   87.3750   -46.3220    90.5760    25.1360     7.7010     5.8500     8.6610     2.2070 
   87.5000   -46.3230    82.6740    24.9380     9.2570     6.3620     9.6110     2.1960 
   87.6250   -46.2820    73.6320    24.8750     9.6340     6.9160    10.4160     2.1790 
   87.7500   -46.2080    68.5190    24.8770     9.8160     7.3160    10.7820     2.1610 
   87.8750   -46.0600    67.4710    24.8800     9.8580     7.4350    10.6030     2.1450 
   88.0000   -45.7870    69.0240    24.8790     9.8020     7.2690    10.0250     2.1310 
   88.1250   -45.4530    71.0100    24.8790     9.5890     6.9740     9.4520     2.1210 
   88.2500   -45.0420    72.9460    24.8780     9.0600     6.7910     9.2650     2.1180 
   88.3750   -44.6280    74.9060    24.8800     8.2740     6.8460     9.5990     2.1280 
   88.5000   -44.1640    75.5640    24.8810     7.7890     7.1710    10.3830     2.1520 
   88.6250   -43.6970    72.8840    24.8830    10.5920     7.6880    11.2960     2.1870 
   88.7500   -43.2400    69.3250    24.8830    16.5780     8.0960    11.7920     2.2190 
   88.8750   -42.7870    67.8380    24.8830    17.6470     8.1110    11.5080     2.2410 
   89.0000   -42.4070    70.1350    24.9010    11.7620     7.6420    10.4700     2.2480 
   89.1250   -42.0110    76.5820    24.9790     8.1060     6.8830     9.1430     2.2480 
   89.2500   -41.6630    84.1980    25.0930     6.5900     6.1940     8.1030     2.2500 
   89.3750   -41.3150    90.7920    25.1850     5.9200     5.7410     7.5630     2.2560 
   89.5000   -41.0590    94.3670    25.2210     5.9150     5.5590     7.4800     2.2610 
   89.6250   -40.8000    92.8950    25.2160     6.2400     5.5960     7.6510     2.2600 
   89.7500   -40.5410    89.7490    25.2130     6.7030     5.6810     7.7720     2.2550 
   89.8750   -40.3640    88.1100    25.2380     6.7660     5.7140     7.7170     2.2510 
   90.0000   -40.1080    88.6660    25.3150     6.1130     5.6620     7.4950     2.2520 
   90.1250   -39.9810    88.1210    25.4500     5.5780     5.5480     7.2190     2.2610 
   90.2500   -39.8180    87.0370    25.5950     5.2820     5.4470     7.0300     2.2720 
   90.3750   -39.7140    88.2350    25.7050     5.2590     5.4070     6.9800     2.2850 
   90.5000   -39.5950    92.6170    25.7470     5.3060     5.4380     7.0480     2.2970 
   90.6250   -39.5800    97.1750    25.7150     5.3830     5.5110     7.1390     2.3030 
   90.7500   -39.5590    98.7990    25.6690     5.5980     5.5530     7.1450     2.3020 
   90.8750   -39.5550    97.8160    25.6470     5.8970     5.5170     7.0170     2.2920 
   91.0000   -39.6260    97.2190    25.6680     5.7330     5.3920     6.7700     2.2810 
   91.1250   -39.7050    99.1890    25.7310     5.1510     5.2030     6.4780     2.2830 
   91.2500   -39.8420   103.6170    25.7930     4.7480     5.0100     6.2280     2.2990 
   91.3750   -39.9930   108.8190    25.8250     4.6830     4.8470     6.0620     2.3210 
   91.5000   -40.1680   112.4150    25.8270     4.6600     4.7260     5.9830     2.3390 
   91.6250   -40.3800   110.9680    25.8240     4.5820     4.6490     5.9690     2.3430 
