~V
VERS. 2.00: Ver 2.00
~W
STRT.M 50.0000:
STOP.M 276.0000:
STEP.M 0.1250:
NULL. -999.2500:
UWI. DF5011:
~C
DEPT.M :
DEN.GM/CC :
GR.API :
CALI.CM :
RXO.OHMM :
RI. :
RML.OHMM :
SP.MV :
~A
# ...
  263.7500     2.3970    56.0970    22.7980     8.5300     5.9870     6.8380   -16.2700 
  263.8750     2.3810    56.6280    22.7980     8.5260     5.9700     6.8090   -16.3020 
  264.0000     2.3560    55.8030    22.7980     8.2240     5.9200     6.7390   -16.3430 
  264.1250     2.3370    52.6800    22.7980     7.6400     5.8540     6.6590   -16.3240 
  264.2500     2.3400    51.2800    22.7980     6.6450     5.7940     6.5960   -16.1820 
  264.3750     2.3620    51.7260    22.7980     5.9480     5.7600     6.5620   -15.9940 
  264.5000     2.3910    52.5970    22.7960     5.7930     5.7650     6.5660   -15.8250 
  264.6250     2.4120    53.8950    22.7930     5.8740     5.8220     6.6240   -15.7440 
  264.7500     2.4170    57.0670    22.7900     5.8440     5.9550     6.7700   -15.7590 
  264.8750     2.4160    60.6000    22.7890     6.1070     6.1540     6.9970   -15.8140 
  265.0000     2.4180    61.3040    22.7900     6.9940     6.3960     7.2770   -15.8420 
  265.1250     2.4240    59.3950    22.7900     8.5440     6.6400     7.5530   -15.8780 
  265.2500     2.4310    57.8550    22.7930     9.8100     6.8210     7.7350   -15.9350 
  265.3750     2.4360    57.8550    22.7960    10.0080     6.9020     7.7820   -15.9910 
  265.5000     2.4360    57.8550    22.7980     9.8840     6.8630     7.6840   -16.0800 
  265.6250     2.4280    57.8550    22.7980    10.0560     6.7130     7.4670   -16.1710 
  265.7500     2.4130    57.8550    22.7980     9.9140     6.4660     7.1640   -16.2520 
  265.8750     2.3950    57.8550    22.7980     9.4030     6.1790     6.8400   -16.2320 
  266.0000     2.3810    57.8550    22.7980     8.4970     5.8920     6.5390   -16.1570 
  266.1250     2.3690    57.8550    22.7980     7.1740     5.6370     6.2930   -16.0370 
  266.2500     2.3620    57.8550    22.7960     6.4020     5.4470     6.1290   -15.9450 
  266.3750     2.3600    57.8550    22.7940     6.3410     5.3210     6.0320   -15.8600 
  266.5000     2.3610    57.8550    22.7940     6.1480     5.2570     5.9880   -15.7290 
  266.6250     2.3620    57.8550    22.7930     5.4600     5.2480     5.9800   -15.5430 
  266.7500     2.3580    57.8550    22.7910     5.0420     5.2940     6.0070   -15.3090 
  266.8750     2.3530    57.8550    22.7900     5.0210     5.3830     6.0660   -15.1340 
  267.0000     2.3480    57.8550    22.7900     5.0880     5.5080     6.1600   -15.0230 
  267.1250     2.3410    57.8550    22.7900     5.1430     5.6550     6.2800   -15.0060 
  267.2500     2.3380    57.8550    22.7900     5.1400     5.7960     6.4030   -15.0700 
  267.3750     2.3420    57.8550    22.7900     5.1690     5.9040     6.4940   -15.0490 
  267.5000     2.3530    57.8550    22.7900     5.2460     5.9550     6.5260   -14.9680 
  267.6250     2.3580    57.8550    22.7900     5.2560     5.9420     6.4930   -14.9570 
  267.7500     2.3510    57.8550    22.7900     5.1920     5.8640     6.3970   -14.9860 
  267.8750     2.3420    57.8550    22.7910     5.0780     5.7530     6.2780   -15.0030 
  268.0000     2.3410    57.8550    22.7880     4.9750     5.6360     6.1630   -14.9420 
  268.1250     2.3480    57.8550    22.7790     4.9060     5.5350     6.0730   -14.7440 
  268.2500     2.3520    57.8550    22.7720     4.9980     5.4690     6.0240   -14.5290 
  268.3750     2.3470    57.8550    22.7690     5.1350     5.4390     6.0110   -14.4940 
  268.5000     2.3380    57.8550    22.7650     5.1660     5.4390     6.0270   -14.5730 
  268.6250     2.3360    57.8550    22.7580     5.1030     5.4550     6.0560   -14.5360 
  268.7500     2.3460    57.8550    22.7470     5.1140     5.4640     6.0760   -14.3580 
  268.8750     2.3530    57.8550    22.7330     5.2100     5.4510     6.0690   -14.1550 
  269.0000     2.3500    57.8550    22.7180     5.2940     5.4090     6.0300   -13.9800 
  269.1250     2.3380    57.8550    22.7070     5.3210     5.3450     5.9630   -13.9020 
  269.2500     2.3290    57.8550    22.7050     5.3270     5.2740     5.8870   -13.8320 
  269.3750     2.3300    57.8550    22.7080     5.3460     5.2130     5.8220   -13.7070 
  269.5000     2.3400    57.8550    22.7120     5.3430     5.1700     5.7780   -13.5500 
  269.6250     2.3510    57.8550    22.7060     5.2950     5.1450     5.7530   -13.4260 
  269.7500     2.3510    57.8550    22.6900     5.1600     5.1350     5.7430   -13.3650 
  269.8750     2.3400    57.8550    22.6780     5.0010     5.1300     5.7380   -13.4500 
  270.0000     2.3280    57.8550    22.6750     4.8740     5.1210     5.7320   -13.6050 
  270.1250     2.3230    57.8550    22.6750     4.7880     5.1050     5.7240   -13.6640 
  270.2500     2.3280    57.8550    22.6730     4.7600     5.0750     5.6910   -13.6620 
  270.3750     2.3340    57.8550    22.6690     4.8300     5.0350     5.6050   -13.6910 
  270.5000     2.3340    57.8550    22.6650     4.8910     4.9880     5.4510   -13.7390 
  270.6250     2.3270    57.8550    22.6630     4.9010     4.9380     5.2340   -13.8290 
  270.7500     2.3180    57.8550    22.6650     4.9510     4.8940     5.0050   -13.9780 
  270.8750     2.3160    57.8550    22.6630     5.0310     4.8610     4.8360   -14.0090 
  271.0000     2.3220    57.8550    22.6550     5.0460     4.8410     4.7530   -13.9160 
  271.1250     2.3320    57.8550    22.6470     5.0080     4.8380     4.7420   -13.9260 
  271.2500     2.3430    57.8550    22.6380     5.1650     4.8380     4.7420   -13.9400 
  271.3750     2.3510    57.8550    22.6040     5.8080     4.8380     4.7420   -13.9020 
  271.5000     2.3470    57.8550    22.5210     6.6510     4.8380     4.7420   -13.8040 
  271.6250     2.3300    57.8550    22.4010     6.4630     4.8380     4.7420   -13.6950 
  271.7500     2.3070    57.8550    22.2970     5.4390     4.8380     4.7420   -13.6270 
  271.8750     2.2950    57.8550    22.2260     4.7030     4.8380     4.7420   -13.6400 
  272.0000     2.2930    57.8550    22.1480     4.5800     4.8380     4.7420   -13.7200 
  272.1250     2.2930    57.8550    22.0390     4.5490     4.8380     4.7420   -13.7920 
  272.2500     2.2910    57.8550    21.9420     4.5630     4.8380     4.7420   -13.9280 
  272.3750     2.2890    57.8550    21.8940     4.5920     4.8380     4.7420   -14.0790 
  272.5000     2.2880    57.8550    21.8750     4.6270     4.8380     4.7420   -14.1700 
  272.6250     2.2890    57.8550    21.8340     4.6820     4.8380     4.7420   -14.2070 
  272.7500     2.2980    57.8550    21.7380     4.6980     4.8380     4.7420   -14.1500 
  272.8750     2.3210    57.8550    21.6290     4.7810     4.8380     4.7420   -14.0210 
  273.0000     2.3550    57.8550    21.5500     4.9140     4.8380     4.7420   -14.0060 
  273.1250     2.3870    57.8550    21.5130     5.1340     4.8380     4.7420   -14.0360 
  273.2500     2.3970    57.8550    21.4960     5.4590     4.8380     4.7420   -14.0970 
  273.3750     2.3870    57.8550    21.4700     5.7600     4.8380     4.7420   -14.1640 
  273.5000     2.3690    57.8550    21.4190     5.8760     4.8380     4.7420   -14.2400 
  273.6250     2.3520    57.8550    21.3070     5.7730     4.8380     4.7420   -14.3110 
  273.7500     2.3400    57.8550    21.0680     5.4720     4.8380     4.7420   -14.4220 
  273.8750     2.3330    57.8550    20.7020     5.1020     4.8380     4.7420   -14.4200 
  274.0000     2.3040    57.8550    20.0650     4.8090     4.8380     4.7420   -14.2680 
  274.1250     2.2000    57.8550    18.8500     4.6180     4.8380     4.7420   -14.0790 
  274.2500     1.9850    57.8550    17.0690     4.5040     4.8380     4.7420   -13.8470 
  274.3750     1.7610    57.8550    15.5450     4.4610     4.8380     4.7420   -13.7010 
  274.5000     1.6250    57.8550    14.7970     4.4560     4.8380     4.7420   -13.3890 
  274.6250     1.5940    57.8550    14.6780     4.4590     4.8380     4.7420   -13.2490 
  274.7500     1.6120    57.8550    14.7140     4.4580     4.8380     4.7420   -13.1390 
  274.8750     1.6220    57.8550    14.7140     4.4580     4.8380     4.7420   -13.1390 
