~V
VERS. 2.00: Ver 2.00
~W
STRT.M 59.0000:
STOP.M 260.0000:
STEP.M 0.1250:
NULL. -999.2500:
UWI. DF5044:
~C
DEPT.M :
GR.API :
CALI.CM :
RXO.OHMM :
RI. :
RML.OHMM :
DEN.GM/CC :
SP.MV :
~A
# ...
  137.7500    97.7680    23.8110     5.9140     5.4410     5.9620     2.2570   -14.4040 
  137.8750   102.1810    24.0200     5.4970     5.2190     5.7670     2.2920   -14.1680 
  138.0000   100.6930    24.1170     5.3760     5.1070     5.6870     2.3070   -14.0040 
  138.1250    98.0490    24.1380     5.3970     5.1340     5.7580     2.3050   -13.8710 
  138.2500    98.0850    24.1300     5.4650     5.2850     5.9700     2.2960   -13.8330 
  138.3750    99.0690    24.1140     5.5760     5.5530     6.3070     2.2810   -13.9090 
  138.5000    98.3610    24.1010     5.8270     5.9210     6.7520     2.2620   -14.0160 
  138.6250    95.4340    24.0740     6.3360     6.3660     7.2820     2.2460   -14.2010 
  138.7500    92.8320    24.0020     6.9870     6.8330     7.8400     2.2360   -14.4240 
  138.8750    91.9400    23.8940     7.6440     7.2770     8.3700     2.2310   -14.6430 
  139.0000    92.1370    23.7730     8.2040     7.6470     8.8100     2.2260   -14.8970 
  139.1250    90.2370    23.6500     8.5890     7.8880     9.0800     2.2100   -15.1240 
  139.2500    85.5440    23.5710     8.8930     8.0160     9.2000     2.1830   -15.3370 
  139.3750    80.5420    23.5360     9.1070     8.0590     9.2110     2.1580   -15.5460 
  139.5000    78.1760    23.5170     9.2470     8.0560     9.1660     2.1500   -15.7140 
  139.6250    78.2530    23.4840     9.3500     8.0530     9.1160     2.1610   -15.8440 
  139.7500    77.8120    23.4580     9.4230     8.0740     9.0990     2.1730   -15.9570 
  139.8750    77.0220    23.4870     9.4420     8.1040     9.1010     2.1760   -16.0140 
  140.0000    78.3530    23.5950     9.4390     8.0980     9.0650     2.1640   -16.0560 
  140.1250    81.4410    23.8910     9.4880     7.9780     8.8940     2.1430   -16.0510 
  140.2500    82.2110    24.2520     9.6490     7.7170     8.5520     2.1260   -15.9980 
  140.3750    80.5680    24.4130     9.8120     7.3140     8.0380     2.1240   -15.9440 
  140.5000    81.0100    24.2990     9.6720     6.8010     7.4000     2.1370   -15.8650 
  140.6250    87.4000    24.1760     8.8190     6.2420     6.7280     2.1650   -15.7440 
  140.7500    94.3720    24.1200     7.4370     5.7180     6.1250     2.2030   -15.6700 
  140.8750    97.6140    24.1170     6.0830     5.2860     5.6440     2.2460   -15.5880 
  141.0000    98.5080    24.1100     5.2220     4.9780     5.3120     2.2780   -15.5570 
  141.1250   101.4960    24.1160     4.9680     4.8070     5.1350     2.2900   -15.6040 
  141.2500   105.5010    24.1250     4.9470     4.7180     5.0400     2.2910   -15.6500 
  141.3750   106.8770    24.1260     4.9250     4.6720     4.9750     2.2880   -15.7920 
  141.5000   104.9840    24.1360     4.8270     4.6290     4.8960     2.2870   -16.0150 
  141.6250   102.9840    24.1210     4.7070     4.5470     4.7590     2.2880   -16.1990 
  141.7500   103.2830    24.0860     4.6660     4.4190     4.5650     2.2960   -16.4120 
  141.8750   105.6960    24.0210     4.5970     4.2460     4.3340     2.3050   -16.6120 
  142.0000   109.5070    23.9050     4.4110     4.0530     4.1030     2.3060   -16.7630 
  142.1250   112.5900    23.8610     4.1410     3.8790     3.9260     2.3050   -16.9400 
  142.2500   111.9030    23.9380     3.8830     3.7580     3.8330     2.3090   -17.0790 
  142.3750   106.6860    24.0350     3.7000     3.7160     3.8470     2.3230   -17.1920 
  142.5000   101.0240    24.0940     3.6600     3.7760     3.9790     2.3420   -17.3650 
  142.6250   101.6290    24.1160     3.9330     3.9820     4.2580     2.3620   -17.5540 
  142.7500   106.0760    24.1190     4.5360     4.3260     4.6740     2.3720   -17.7420 
  142.8750   107.8570    24.1330     5.3600     4.8080     5.2280     2.3610   -18.0000 
  143.0000   104.0520    24.1670     6.0940     5.4160     5.9040     2.3320   -18.2290 
  143.1250    97.2070    24.2150     6.8160     6.1350     6.6810     2.2950   -18.4720 
  143.2500    90.6870    24.2520     8.0280     6.9060     7.4990     2.2720   -18.6900 
  143.3750    85.1760    24.2480    10.0700     7.6930     8.3240     2.2810   -18.7850 
  143.5000    81.4620    24.1530    12.3780     8.4640     9.1350     2.3290   -18.8430 
  143.6250    80.1680    24.0020    13.7450     9.2060     9.9310     2.4050   -18.8690 
  143.7500    79.0520    23.8740    14.0930     9.9410    10.7420     2.4730   -18.8140 
  143.8750    76.6130    23.7610    14.2760    10.7030    11.6050     2.5130   -18.7500 
  144.0000    73.5220    23.7080    14.9630    11.5110    12.5470     2.5280   -18.6400 
  144.1250    71.4990    23.7140    15.6970    12.3710    13.5640     2.5420   -18.5140 
  144.2500    70.1340    23.7060    16.8150    13.2380    14.5880     2.5700   -18.4350 
  144.3750    68.0170    23.7050    18.0490    14.0550    15.5310     2.6030   -18.3330 
  144.5000    64.7550    23.7400    18.9020    14.7640    16.3050     2.6160   -18.2290 
  144.6250    61.6050    23.7430    19.0550    15.3060    16.8400     2.5980   -18.1900 
  144.7500    59.0720    23.7250    18.5230    15.7220    17.2060     2.5780   -18.1220 
  144.8750    56.4380    23.6550    17.9210    16.0600    17.4790     2.5770   -18.0540 
  145.0000    53.1540    23.5100    18.0730    16.3780    17.7360     2.5930   -18.0030 
  145.1250    50.0400    23.4710    19.1940    16.7280    18.0490     2.6100   -17.8910 
  145.2500    48.5120    23.5340    20.1630    17.1170    18.4140     2.6190   -17.8230 
  145.3750    48.8920    23.6140    20.5500    17.5280    18.8150     2.6190   -17.7770 
  145.5000    50.2510    23.6960    20.4790    17.9390    19.2170     2.6160   -17.6730 
  145.6250    51.3470    23.7780    20.0320    18.3170    19.5670     2.6150   -17.6120 
  145.7500    52.4430    23.8830    19.7700    18.6470    19.8550     2.6170   -17.5830 
  145.8750    54.5740    23.9310    20.2640    18.9170    20.0890     2.6220   -17.5360 
  146.0000    57.4170    23.9410    21.5140    19.1090    20.2610     2.6270   -17.5330 
  146.1250    59.1890    23.9500    22.8390    19.2070    20.3350     2.6210   -17.5070 
  146.2500    58.8750    23.9700    23.0010    19.2250    20.3220     2.5940   -17.4810 
  146.3750    57.2120    24.0060    22.1730    19.1630    20.2270     2.5560   -17.4940 
  146.5000    56.0530    24.0450    21.1740    19.0250    20.0630     2.5310   -17.4810 
  146.6250    57.2120    24.0540    20.7060    18.8180    19.8400     2.5380   -17.4540 
  146.7500    60.0750    24.0920    20.5450    18.5760    19.5850     2.5570   -17.4520 
  146.8750    63.3540    24.1320    20.5050    18.3140    19.3020     2.5730   -17.4200 
  147.0000    65.8700    24.2230    20.5170    18.0460    18.9990     2.5860   -17.4060 
  147.1250    66.5070    24.2140    20.3880    17.7810    18.6970     2.5960   -17.4120 
  147.2500    65.4840    24.1850    19.9500    17.5270    18.4080     2.6000   -17.4150 
  147.3750    64.3110    24.1370    19.5530    17.2890    18.1450     2.5980   -17.4260 
  147.5000    65.4670    24.0730    19.5530    17.0720    17.9170     2.5960   -17.4410 
  147.6250    69.5040    24.0120    19.5820    16.8950    17.7540     2.5900   -17.4640 
  147.7500    72.3400    24.0470    19.3740    16.7840    17.6650     2.5750   -17.4930 
  147.8750    72.0960    24.1110    19.0730    16.7810    17.6770     2.5560   -17.5260 
  148.0000    70.1380    24.1480    18.8220    16.9100    17.8060     2.5400   -17.5800 
  148.1250    68.1490    24.1450    18.6100    17.1690    18.0540     2.5250   -17.6410 
  148.2500    66.4110    24.1610    18.5900    17.4710    18.3410     2.5070   -17.6960 
  148.3750    66.3400    24.2050    18.9320    17.7040    18.5660     2.4940   -17.7990 
  148.5000    69.3160    24.2270    19.5250    17.7330    18.5910     2.4980   -17.9040 
  148.6250    72.4610    24.1370    20.0530    17.4180    18.2600     2.5220   -17.9750 
  148.7500    71.6980    24.0910    20.3050    16.8170    17.6340     2.5450   -18.0700 
  148.8750    68.4120    24.1070    19.9900    16.0160    16.8160     2.5590   -18.1460 
