~V
VERS. 2.00: Ver 2.00
~W
STRT.M 65.0000:
STOP.M 272.0000:
STEP.M 0.1250:
NULL. -999.2500:
UWI. DF5002:
~C
DEPT.M :
DEN.GM/CC :
GR.API :
CALI.CM :
RXO.OHMM :
RI. :
RML.OHMM :
SP.MV :
~A
# ...
  132.5000     2.3120    91.6430    24.5270     6.5150     4.7980     5.9080   -14.2500 
  132.6250     2.3140    93.5350    24.5930     6.0190     4.5860     5.6710   -14.3460 
  132.7500     2.3130    96.6700    24.6840     5.6040     4.3920     5.4730   -14.4940 
  132.8750     2.3140    98.4770    24.8170     5.3130     4.3120     5.4380   -14.6870 
  133.0000     2.3200    93.9270    24.8920     5.4670     4.4120     5.6370   -14.9690 
  133.1250     2.3190    85.7570    24.7040     6.3070     4.7200     6.0880   -15.4210 
  133.2500     2.2990    83.3240    24.2930     7.3410     5.1480     6.6630   -16.0400 
  133.3750     2.2640    85.9850    24.0010     8.1380     5.6480     7.2760   -16.7600 
  133.5000     2.2340    86.5580    23.9030     8.6300     6.2180     7.9070   -17.5250 
  133.6250     2.2200    82.6980    23.9000     9.1270     6.9300     8.6570   -18.2710 
  133.7500     2.2250    79.6750    23.9060    10.3100     7.8330     9.6390   -19.0560 
  133.8750     2.2600    78.7470    23.9080    13.1840     8.9440    10.9150   -19.8550 
  134.0000     2.3320    78.7600    23.8970    18.0550    10.1770    12.3980   -20.6060 
  134.1250     2.4170    76.1610    23.8690    21.5430    11.2410    13.7020   -21.2480 
  134.2500     2.4540    71.6600    23.8460    20.6690    11.8450    14.4010   -21.7770 
  134.3750     2.4140    68.3330    23.8290    17.4240    11.8910    14.3630   -22.2560 
  134.5000     2.3130    66.6480    23.8170    15.1190    11.5190    13.8100   -22.7710 
  134.6250     2.2120    66.5840    23.8180    13.9000    10.9800    13.1160   -23.3170 
  134.7500     2.1550    68.5690    23.8380    13.2440    10.4940    12.5460   -23.7870 
  134.8750     2.1420    73.1060    23.8830    13.4850    10.1150    12.1390   -24.1420 
  135.0000     2.1540    77.1880    23.8860    14.3390     9.8300    11.8360   -24.3940 
  135.1250     2.1590    77.1930    23.8970    14.2560     9.6340    11.5930   -24.5860 
  135.2500     2.1520    75.6190    23.8970    13.3610     9.5510    11.4490   -24.7870 
  135.3750     2.1480    74.8790    23.8940    12.6390     9.6280    11.4890   -24.9430 
  135.5000     2.1640    75.1290    23.9010    12.4610     9.8810    11.7620   -24.9730 
  135.6250     2.2030    73.7680    23.9200    13.1570    10.2580    12.2140   -24.8670 
  135.7500     2.2420    71.5260    23.9430    14.8300    10.5740    12.5940   -24.7020 
  135.8750     2.2630    71.7510    23.9650    16.8070    10.6550    12.6610   -24.5690 
  136.0000     2.2580    74.2870    23.9740    16.8840    10.4190    12.2970   -24.5220 
  136.1250     2.2290    76.3280    23.9840    14.4900     9.9460    11.6230   -24.4960 
  136.2500     2.1950    76.0430    23.9850    12.2140     9.5050    11.0160   -24.4180 
  136.3750     2.1730    74.6970    23.9870    11.3890     9.2580    10.6940   -24.3220 
  136.5000     2.1660    74.1010    23.9870    11.5730     9.2680    10.7250   -24.2660 
  136.6250     2.1710    75.9380    23.9820    12.1540     9.5010    11.0420   -24.2810 
  136.7500     2.1800    77.3170    23.9760    12.7080     9.7720    11.3820   -24.3270 
  136.8750     2.1900    75.3510    23.9770    12.9320     9.9450    11.5630   -24.3180 
  137.0000     2.1910    72.3470    23.9800    12.7320     9.9690    11.5340   -24.1870 
  137.1250     2.1750    72.2350    23.9820    12.3250     9.8770    11.3840   -23.9590 
  137.2500     2.1470    72.4260    24.0070    11.9500     9.7360    11.2060   -23.6590 
  137.3750     2.1220    71.5990    24.0730    11.7260     9.5190    10.9570   -23.3080 
  137.5000     2.1130    72.2780    24.1420    11.7370     9.1650    10.5540   -22.8510 
  137.6250     2.1240    78.0850    24.2510    11.5440     8.6290     9.9520   -22.2590 
  137.7500     2.1450    85.5320    24.3240    10.6400     8.0140     9.2770   -21.6210 
  137.8750     2.1730    89.7400    24.3220     9.3120     7.4390     8.6710   -21.0620 
  138.0000     2.2030    88.2440    24.3070     8.5980     7.0090     8.2600   -20.6970 
  138.1250     2.2180    84.3550    24.2010     9.0660     6.8230     8.1420   -20.5280 
  138.2500     2.2110    81.2480    24.0760     9.5180     6.8490     8.2470   -20.5080 
  138.3750     2.1920    78.6970    23.9910     9.6770     7.0690     8.5220   -20.5980 
  138.5000     2.1800    76.6380    23.9640    10.0430     7.4610     8.9370   -20.8680 
  138.6250     2.1760    76.6520    23.9210    11.2140     8.0510     9.5350   -21.3800 
  138.7500     2.1700    76.1110    23.8610    12.5680     8.8220    10.3460   -22.0450 
  138.8750     2.1660    72.9470    23.8120    13.6690     9.7710    11.3840   -22.7420 
  139.0000     2.1690    68.9490    23.7740    15.0190    10.8290    12.5610   -23.3570 
  139.1250     2.1730    66.0240    23.6980    16.7020    11.7740    13.5710   -23.8400 
  139.2500     2.1700    64.4470    23.6150    17.4050    12.3490    14.0940   -24.2690 
  139.3750     2.1650    64.1910    23.5790    16.7930    12.4180    14.0040   -24.6740 
  139.5000     2.1620    65.5580    23.5860    15.5420    12.0240    13.4160   -25.0100 
  139.6250     2.1580    70.6530    23.5900    14.1760    11.3380    12.5880   -25.1270 
  139.7500     2.1500    75.5960    23.5850    12.9120    10.6370    11.8400   -25.0530 
  139.8750     2.1420    76.9220    23.5710    11.8520    10.0610    11.3110   -24.8540 
  140.0000     2.1400    74.6830    23.5600    11.1200     9.6540    11.0050   -24.6200 
  140.1250     2.1460    75.8140    23.5720    10.9700     9.3990    10.8210   -24.3660 
  140.2500     2.1530    81.4700    23.6670    11.2510     9.2190    10.6240   -23.9820 
  140.3750     2.1590    85.0720    23.8240    11.6960     9.1270    10.4330   -23.4290 
  140.5000     2.1630    83.3150    23.8190    11.9980     9.2320    10.4340   -22.7840 
  140.6250     2.1670    80.2990    23.9300    12.3750     9.8520    11.0800   -22.1090 
  140.7500     2.1770    81.6010    24.2270    13.9330    11.1870    12.6420   -21.4080 
  140.8750     2.2070    83.5280    24.4230    17.5880    13.3570    15.2640   -20.6060 
  141.0000     2.2680    81.4860    24.4660    24.5590    16.0790    18.5730   -19.6420 
  141.1250     2.3680    78.3940    24.4800    35.4390    17.8850    20.5900   -18.5530 
  141.2500     2.4770    78.8900    24.5230    40.8830    17.2700    19.3670   -17.4830 
  141.3750     2.5530    83.0770    24.4910    34.2400    14.4280    15.4800   -16.5490 
  141.5000     2.5600    89.4150    24.4550    20.5800    10.9590    11.2630   -15.6890 
  141.6250     2.4910    96.0590    24.5060    11.0270     8.2760     8.4110   -14.8660 
  141.7500     2.3980   101.0480    24.5660     7.4830     6.5250     6.7810   -14.0970 
  141.8750     2.3230   103.1450    24.5570     6.5310     5.5450     6.0500   -13.4610 
  142.0000     2.2850   103.4770    24.5670     6.3020     5.1390     5.9090   -13.0170 
  142.1250     2.2770    99.5770    24.6070     6.1940     5.1510     6.1050   -12.7440 
  142.2500     2.2730    95.4590    24.6060     6.2190     5.3120     6.3190   -12.5780 
  142.3750     2.2600    96.5780    24.5550     6.4180     5.4730     6.4110   -12.4030 
  142.5000     2.2460   101.1810    24.4710     6.5500     5.5590     6.3620   -12.2000 
  142.6250     2.2470   103.2760    24.4360     6.3150     5.5470     6.2220   -12.0490 
  142.7500     2.2620   101.4920    24.4220     6.0400     5.4780     6.0640   -11.9770 
  142.8750     2.2800    98.1750    24.4170     6.0170     5.3880     5.9320   -11.9190 
  143.0000     2.2930    94.1330    24.4160     6.1300     5.3160     5.8630   -11.8040 
  143.1250     2.3020    92.6290    24.4220     6.0850     5.3050     5.8980   -11.6160 
  143.2500     2.3170    95.7170    24.4450     5.9970     5.3650     6.0360   -11.3980 
  143.3750     2.3450    97.9870    24.4940     6.2680     5.4840     6.2600   -11.2070 
  143.5000     2.3800    96.8580    24.5690     7.1220     5.6140     6.5060   -11.1260 
  143.6250     2.4040    97.5170    24.5980     7.7980     5.6410     6.6220   -11.0430 
