~V
VERS. 2.00: Ver 2.00
~W
STRT.M 58.0000:
STOP.M 240.0000:
STEP.M 0.1250:
NULL. -999.2500:
UWI. DF5049:
~C
DEPT.M :
GR.API :
RML.OHMM :
RI. :
RXO.OHMM :
CALI.CM :
DEN.GM/CC :
SP.MV :
~A
# ...
  226.7500    76.6030    12.8980    10.9660     9.4980    25.0350     2.4160    -2.8030 
  226.8750    73.3480    11.9360    10.1960    10.5250    24.9790     2.3960    -2.4980 
  227.0000    68.2600    11.2010     9.5380    14.8360    25.0440     2.3760    -2.1520 
  227.1250    62.9680    10.8790     9.1410    12.1300    25.1080     2.3630    -1.7790 
  227.2500    60.9210    10.8720     8.9870     8.7530    25.1270     2.3620    -1.4210 
  227.3750    62.0660    11.0370     9.0190     7.8990    25.1220     2.3740    -1.0880 
  227.5000    64.0970    11.2230     9.1470     8.2620    25.1120     2.3960    -0.7810 
  227.6250    66.6730    11.3670     9.3050     8.6510    25.1230     2.4140    -0.5240 
  227.7500    68.8510    11.5080     9.4680     8.4720    25.1200     2.4190    -0.3860 
  227.8750    69.5290    11.6630     9.6260     8.4770    25.0990     2.4090    -0.3160 
  228.0000    68.5590    11.8310     9.7690     8.6300    25.0750     2.3930    -0.3380 
  228.1250    67.9470    12.0420     9.9160     9.0030    25.0700     2.3820    -0.4170 
  228.2500    68.5450    12.3510    10.1120     9.1550    25.1010     2.3800    -0.5310 
  228.3750    69.9950    12.8020    10.3940     9.2900    25.1590     2.3850    -0.6680 
  228.5000    70.7740    13.3990    10.7780    10.0250    25.1890     2.3910    -0.8320 
  228.6250    71.5700    14.0850    11.2400    11.8940    25.1740     2.3950    -1.0080 
  228.7500    73.2800    14.7160    11.6830    12.9330    25.1450     2.3980    -1.1650 
  228.8750    75.3140    15.1810    12.0220    12.8710    25.1270     2.4010    -1.3370 
  229.0000    76.2750    15.4340    12.1950    12.4550    25.1140     2.4050    -1.5050 
  229.1250    75.0160    15.4830    12.1780    12.1480    25.1190     2.4090    -1.6840 
  229.2500    72.9490    15.4520    12.0680    12.1580    25.1100     2.4070    -1.8350 
  229.3750    71.3850    15.4190    11.9490    11.9290    25.0940     2.3990    -1.9330 
  229.5000    71.1610    15.4260    11.8840    11.6580    25.0820     2.3870    -2.0240 
  229.6250    71.1610    15.4890    11.9060    11.7580    25.0750     2.3790    -2.0960 
  229.7500    71.1610    15.5850    11.9870    12.2300    25.0730     2.3750    -2.1420 
  229.8750    71.1610    15.6960    12.0930    12.3370    25.0820     2.3700    -2.1940 
  230.0000    71.1610    15.7810    12.1840    12.2410    25.1110     2.3590    -2.2100 
  230.1250    71.1610    15.7790    12.2180    12.2050    25.1640     2.3440    -2.2050 
  230.2500    71.1610    15.6990    12.2030    12.5820    25.1790     2.3450    -2.1810 
  230.3750    71.1610    15.6010    12.1780    13.2580    25.1780     2.3750    -2.1810 
  230.5000    71.1610    15.5680    12.2000    12.3750    25.1720     2.4310    -2.1970 
  230.6250    71.1610    15.6880    12.3320    11.6710    25.1590     2.4900    -2.1970 
  230.7500    71.1610    15.9500    12.5680    11.1610    25.1330     2.5240    -2.2190 
  230.8750    71.1610    16.3020    12.8750    11.0730    25.0680     2.5190    -2.2180 
  231.0000    71.1610    16.6460    13.1830    12.8030    24.9560     2.4850    -2.2230 
  231.1250    71.1610    16.8540    13.3880    15.2490    24.9400     2.4460    -2.2110 
  231.2500    71.1610    16.8990    13.4560    16.9580    24.9840     2.4240    -2.2030 
  231.3750    71.1610    16.8070    13.4020    16.8800    25.0200     2.4240    -2.1760 
  231.5000    71.1610    16.6410    13.2810    17.7120    25.1340     2.4320    -2.1260 
  231.6250    71.1610    16.4900    13.1750    14.6170    25.2190     2.4280    -2.0580 
  231.7500    71.1610    16.4100    13.1310    13.9300    25.2200     2.4020    -1.9690 
  231.8750    71.1610    16.3990    13.1480    14.0330    25.1560     2.3630    -1.8960 
  232.0000    71.1610    16.4110    13.1890    14.7190    25.0970     2.3310    -1.7930 
  232.1250    71.1610    16.3950    13.2120    16.0060    25.1590     2.3320    -1.6790 
  232.2500    71.1610    16.3540    13.2160    16.9980    25.3660     2.3640    -1.5690 
  232.3750    71.1610    16.3510    13.2430    17.1230    25.5980     2.4140    -1.4680 
  232.5000    71.1610    16.4690    13.3570    18.7180    25.7210     2.4640    -1.4020 
  232.6250    71.1610    16.8070    13.6370    21.9840    25.5960     2.4970    -1.3670 
  232.7500    71.1610    17.3290    14.0760    25.7920    25.3430     2.5140    -1.2550 
  232.8750    71.1610    17.9680    14.6340    28.4670    25.0960     2.5190    -1.0710 
  233.0000    71.1610    18.6310    15.2440    29.9740    25.0740     2.5180    -0.9020 
  233.1250    71.1610    19.2140    15.8100    18.9490    25.1420     2.5160    -0.7170 
  233.2500    71.1610    19.6680    16.2760    16.6560    25.1720     2.5140    -0.4760 
  233.3750    71.1610    19.9920    16.6260    16.9450    25.1820     2.5110    -0.2070 
  233.5000    71.1610    20.2320    16.8910    17.9970    25.2000     2.5040     0.0910 
  233.6250    71.1610    20.4330    17.1060    18.1510    25.2300     2.4920     0.4160 
  233.7500    71.1610    20.5990    17.2860    18.5850    25.2690     2.4800     0.6650 
  233.8750    71.1610    20.6900    17.4020    18.8650    25.2990     2.4760     0.8550 
  234.0000    71.1610    20.6770    17.4280    18.7350    25.3010     2.4810     1.0330 
  234.1250    71.1610    20.5550    17.3570    17.6240    25.2510     2.4920     1.2080 
  234.2500    71.1610    20.3850    17.2380    16.9240    25.1610     2.5010     1.3410 
  234.3750    71.1610    20.1890    17.0950    17.2270    24.9750     2.5050     1.4160 
  234.5000    71.1610    19.9560    16.9420    18.3100    24.8760     2.5020     1.4820 
  234.6250    71.1610    19.6880    16.8040    19.2020    24.8540     2.4970     1.4880 
  234.7500    71.1610    19.4800    16.7130    20.1730    24.8710     2.4950     1.5070 
  234.8750    71.1610    19.4300    16.6880    20.7690    24.8850     2.4990     1.5550 
  235.0000    71.1610    19.5510    16.7210    20.7800    24.8960     2.5060     1.6030 
  235.1250    71.1610    19.7480    16.7770    19.9690    24.8670     2.5130     1.6160 
  235.2500    71.1610    19.8980    16.8190    19.4330    24.8300     2.5140     1.6030 
  235.3750    71.1610    19.9710    16.8350    18.5920    24.7890     2.5100     1.5950 
  235.5000    71.1610    19.9810    16.8370    18.3720    24.7400     2.5040     1.5460 
  235.6250    71.1610    19.9810    16.8370    18.5490    24.7080     2.5030     1.5090 
  235.7500    71.1610    19.9810    16.8370    18.4430    24.6960     2.5050     1.4340 
  235.8750    71.1610    19.9810    16.8370    18.1820    24.6870     2.5070     1.3290 
  236.0000    71.1610    19.9810    16.8370    18.3550    24.6530     2.5050     1.2570 
  236.1250    71.1610    19.9810    16.8370    18.7680    24.6670     2.5030     1.2350 
  236.2500    71.1610    19.9810    16.8370    18.4140    24.7070     2.5070     1.2090 
  236.3750    71.1610    19.9810    16.8370    17.8700    24.7700     2.5160     1.2220 
  236.5000    71.1610    19.9810    16.8370    17.5750    24.8270     2.5270     1.3090 
  236.6250    71.1610    19.9810    16.8370    17.4190    24.8110     2.5260     1.3950 
  236.7500    71.1610    19.9810    16.8370    17.2720    24.7320     2.5120     1.5070 
  236.8750    71.1610    19.9810    16.8370    16.9280    24.6660     2.4930     1.5860 
  237.0000    71.1610    19.9810    16.8370    16.5510    24.6180     2.4770     1.6350 
  237.1250    71.1610    19.9810    16.8370    16.2020    24.5680     2.4700     1.6750 
  237.2500    71.1610    19.9810    16.8370    16.0790    24.5730     2.4700     1.6930 
  237.3750    71.1610    19.9810    16.8370    16.5930    24.6170     2.4730     1.7250 
  237.5000    71.1610    19.9810    16.8370    17.6030    24.6190     2.4790     1.7320 
  237.6250    71.1610    19.9810    16.8370    17.8850    24.5250     2.4890     1.7320 
  237.7500    71.1610    19.9810    16.8370    17.2660    24.4010     2.5020  -999.2500 
  237.8750    71.1610    19.9810    16.8370    16.5820    24.2830     2.5150  -999.2500 
