~V
VERS. 2.00: Ver 2.00
~W
STRT.M 55.0000:
STOP.M 271.0000:
STEP.M 0.1250:
NULL. -999.2500:
UWI. DF5016:
~C
DEPT.M :
SP.MV :
GR.API :
CALI.CM :
RXO.OHMM :
RI. :
RML.OHMM :
DEN.GM/CC :
~A
   55.0000    74.1450    52.5530    25.6000    -0.1550     0.2480     0.8960  -999.2500 
   55.1250    69.7250    51.7680    25.6000    -0.1550     0.2540     0.9010  -999.2500 
   55.2500    64.8660    50.1560    25.6000    -0.1550     0.2550     0.9030  -999.2500 
   55.3750    59.7810    48.0720    25.6000    -0.1550     0.2630     0.9100  -999.2500 
   55.5000    54.7370    46.0800    25.6000    -0.1550     0.2830     0.9300  -999.2500 
   55.6250    50.1020    44.5420    25.6000    -0.1550     0.3040     0.9510  -999.2500 
   55.7500    46.0670    43.7550    25.6000    -0.1550     0.3250     0.9710  -999.2500 
   55.8750    42.7610    43.9060    25.6000    -0.1550     0.3450     0.9910  -999.2500 
   56.0000    40.2320    44.3400    25.6000    -0.1550     0.3650     1.0110  -999.2500 
   56.1250    38.5640    44.0440    25.6000    -0.1550     0.3820     1.0280  -999.2500 
   56.2500    37.5100    43.9990    25.6000    -0.1550     0.3810     1.0270  -999.2500 
   56.3750    36.8980    45.6290    25.6000    -0.1550     0.3590     1.0060  -999.2500 
   56.5000    36.5110    48.3020    25.6000    -0.1550     0.3320     0.9790     1.9520 
   56.6250    36.0960    49.7860    25.6000    -0.1550     0.3050     0.9520     1.9520 
   56.7500    35.4580    50.1680    25.6000    -0.1550     0.2790     0.9270     1.9650 
   56.8750    34.5020    50.8970    25.6000    -0.1550     0.2500     0.8980     1.9600 
   57.0000    33.1980    52.2960    25.6000    -0.1550     0.2280     0.8760     1.9400 
   57.1250    31.5030    52.8640    25.6000    -0.1550     0.2270     0.8750     1.9220 
   57.2500    29.4920    52.0620    25.6000    -0.1550     0.2450     0.8920     1.9250 
   57.3750    27.1680    50.7030    25.6030    -0.1550     0.2670     0.9150     1.9480 
   57.5000    24.5190    49.7160    25.6130    -0.1550     0.2840     0.9310     1.9670 
   57.6250    21.4650    49.4380    25.6340    -0.1550     0.2930     0.9400     1.9560 
   57.7500    18.0390    49.9630    25.6310    -0.1550     0.3000     0.9470     1.9380 
   57.8750    14.2280    51.5410    25.5810    -0.1550     0.3150     0.9620     1.9440 
   58.0000    10.0340    53.8360    25.5080    -0.1550     0.3570     1.0030     1.9540 
   58.1250     5.4490    55.9860    25.3720     0.3580     0.4750     1.1200     1.8980 
   58.2500     0.6270    58.5370    25.1150     1.9200     0.7260     1.3690     1.8180 
   58.3750    -4.2980    62.9350    24.6200     4.4360     1.1660     1.8050     1.8180 
   58.5000    -9.1720    69.3110    23.9070     7.1370     1.8200     2.4520     1.9350 
   58.6250   -13.7770    74.8080    23.2060     8.8380     2.6740     3.2970     2.0760 
   58.7500   -17.9920    76.5690    22.8220     9.6450     3.5800     4.1950     2.1430 
   58.8750   -21.7070    75.0470    22.6740     9.8100     4.4130     5.0190     2.1450 
   59.0000   -24.8480    73.1420    22.6370     9.7720     5.0790     5.6780     2.1220 
   59.1250   -27.2840    73.5510    22.6150     9.7680     5.5200     6.1150     2.1110 
   59.2500   -29.1490    75.2000    22.5800     9.7710     5.8160     6.4080     2.1120 
   59.3750   -30.5160    76.6340    22.5250     9.7760     6.0150     6.6050     2.1140 
   59.5000   -31.4770    77.4330    22.4570     9.7140     6.1700     6.7580     2.1140 
   59.6250   -32.0890    77.4280    22.3980     9.5070     6.3280     6.9150     2.1190 
   59.7500   -32.4890    76.4060    22.3880     9.3200     6.4980     7.0830     2.1320 
   59.8750   -32.7360    74.7220    22.4160     9.2990     6.6740     7.2570     2.1410 
   60.0000   -32.8740    73.0780    22.4210     9.4550     6.8550     7.4360     2.1350 
   60.1250   -32.9230    71.3010    22.3850     9.6170     7.0410     7.6210     2.1230 
   60.2500   -32.9170    68.7870    22.3280     9.6900     7.2190     7.7970     2.1180 
   60.3750   -32.8640    66.1740    22.2880     9.6470     7.3570     7.9340     2.1190 
   60.5000   -32.7690    64.7160    22.2730     9.5450     7.4190     7.9940     2.1180 
   60.6250   -32.6190    65.2670    22.2630     9.5310     7.3750     7.9510     2.1210 
   60.7500   -32.4090    67.0870    22.2700     9.5430     7.2850     7.8620     2.1290 
   60.8750   -32.1210    68.9280    22.2860     9.5710     7.1900     7.7680     2.1310 
   61.0000   -31.7300    69.0960    22.3020     9.5940     7.1180     7.6970     2.1220 
   61.1250   -31.1890    67.2800    22.3300     9.4760     7.1000     7.6790     2.1150 
   61.2500   -30.5010    66.5850    22.3240     9.3400     7.1440     7.7230     2.1200 
   61.3750   -29.6530    68.7260    22.3100     9.2590     7.2240     7.8020     2.1290 
   61.5000   -28.6470    72.5960    22.3270     9.3550     7.2900     7.8670     2.1350 
   61.6250   -27.4750    76.2580    22.3610    10.0980     7.2390     7.8170     2.1560 
   61.7500   -26.2020    79.7070    22.4700    11.3660     7.0700     7.6490     2.2090 
   61.8750   -24.8800    83.5730    22.7490    12.1010     6.8360     7.4170     2.2790 
   62.0000   -23.5730    88.7620    23.2170    10.9320     6.6300     7.2140     2.3210 
   62.1250   -22.3630    95.9140    23.6580     8.3370     6.5430     7.1270     2.2980 
   62.2500   -21.2910   102.2340    23.8590     6.5250     6.5650     7.1490     2.2450 
   62.3750   -20.3830   104.3850    23.7250     6.0620     6.6950     7.2780     2.2030 
   62.5000   -19.6460   102.2280    23.4700     6.4060     6.9100     7.4910     2.1940 
   62.6250   -19.0910   100.1630    23.3410     7.0470     7.0950     7.6740     2.2190 
   62.7500   -18.6600   101.3140    23.3810     7.6110     7.1480     7.7260     2.2520 
   62.8750   -18.3210   104.6420    23.5550     7.5600     7.0250     7.6050     2.2770 
   63.0000   -18.0430   107.7350    23.8900     6.7050     6.7650     7.3480     2.2810 
   63.1250   -17.8030   108.9740    24.1730     5.7500     6.4700     7.0550     2.2620 
   63.2500   -17.5890   109.0820    24.2610     5.3650     6.2080     6.7960     2.2360 
   63.3750   -17.4050   108.9660    24.1180     5.4790     6.0020     6.5920     2.2170 
   63.5000   -17.2620   109.3000    23.8360     5.8000     5.8560     6.4470     2.2110 
   63.6250   -17.1840   110.6570    23.6840     5.9780     5.7790     6.3710     2.2160 
   63.7500   -17.1710   112.8530    23.7130     5.9530     5.7320     6.3240     2.2210 
   63.8750   -17.2210   115.4670    23.9040     5.7610     5.6610     6.2540     2.2220 
   64.0000   -17.3280   117.6280    24.1820     5.5180     5.5270     6.1210     2.2200 
   64.1250   -17.5010   118.3450    24.3960     5.3950     5.3240     5.9210     2.2240 
   64.2500   -17.7380   118.7140    24.4970     5.2910     5.0990     5.6980     2.2370 
   64.3750   -18.0520   120.1020    24.5190     5.1810     4.8900     5.4910     2.2580 
   64.5000   -18.4530   122.4370    24.5200     5.0590     4.7470     5.3500     2.2810 
   64.6250   -18.9620   123.8020    24.5280     4.8640     4.7510     5.3530     2.2960 
   64.7500   -19.5660   122.2230    24.5250     4.7340     4.9360     5.5360     2.3050 
   64.8750   -20.2630   116.8990    24.5080     4.7900     5.3280     5.9240     2.3200 
   65.0000   -21.0480   107.9710    24.4780     5.4490     5.9160     6.5070     2.3440 
   65.1250   -21.9100    96.8270    24.3290     7.4400     6.6590     7.2420     2.3660 
   65.2500   -22.8020    86.4010    23.9950    10.1040     7.4210     7.9960     2.3680 
   65.3750   -23.6850    79.1210    23.5070    11.9150     8.0760     8.6450     2.3450 
   65.5000   -24.5220    76.3360    23.0520    11.8920     8.5190     9.0840     2.2990 
   65.6250   -25.2670    76.3850    22.8170    10.8200     8.7000     9.2630     2.2330 
   65.7500   -25.9070    75.0780    22.7540     9.9950     8.7080     9.2710     2.1690 
   65.8750   -26.4300    72.1900    22.7830    10.5900     8.5970     9.1610     2.1380 
   66.0000   -26.8280    70.7020    22.7940    13.0550     8.4040     8.9700     2.1610 
   66.1250   -27.0870    72.7720    22.6030    16.4940     8.1790     8.7470     2.2160 
