~V
VERS. 2.00: Ver 2.00
~W
STRT.M 50.0000:
STOP.M 245.0000:
STEP.M 0.1250:
NULL. -999.2500:
UWI. DF5062:
~C
DEPT.M :
DEN.GM/CC :
GR.API :
RML.OHMM :
RI. :
RXO.OHMM :
CALI.CM :
SP.MV :
~A
   50.0000     2.0190  -999.2500  -999.2500  -999.2500  -999.2500  -999.2500  -999.2500 
   50.1250     2.0040  -999.2500  -999.2500  -999.2500  -999.2500  -999.2500    13.2690 
   50.2500     1.9900  -999.2500  -999.2500  -999.2500  -999.2500  -999.2500    13.2690 
   50.3750     1.9810  -999.2500  -999.2500  -999.2500  -999.2500  -999.2500    13.6200 
   50.5000     1.9760     0.0000     0.0000     0.0000     0.0000     0.0000    13.0250 
   50.6250     1.9750     0.0000     0.0000     0.0000     0.0000     0.0000    11.7750 
   50.7500     1.9730    21.6250     7.0310     0.4720    35.6020    12.6670    10.0220 
   50.8750     1.9770    43.0750    13.9530     0.9580    67.7890    25.3330     7.6830 
   51.0000     1.9950    42.1100    13.8280     0.9770    56.3070    25.3330     5.2520 
   51.1250     2.0410    39.2230    13.7560     0.9930    44.5450    25.3330     2.9720 
   51.2500     2.1050    37.4400    13.6850     1.0060    38.1210    25.3330     0.8970 
   51.3750     2.1700    38.7910    13.5990     1.0170    35.2440    25.3330    -0.5910 
   51.5000     2.2100    42.1540    13.5140     1.0260    33.0560    25.3330    -1.5010 
   51.6250     2.1980    45.2040    13.4800     1.0310    27.2170    25.3330    -2.0320 
   51.7500     2.1480    46.4780    13.4870     1.0310    21.2540    25.3330    -2.1120 
   51.8750     2.0850    46.7530    13.4460     1.0240    17.2900    25.3330    -1.4280 
   52.0000     2.0330    46.6970    13.2090     1.0070    14.7970    25.3330    -0.2620 
   52.1250     2.0070    45.7350    12.5980     0.9780    12.7660    25.3270     1.3930 
   52.2500     1.9970    43.8760    11.7190     0.9470    11.4270    25.3140     3.6930 
   52.3750     1.9960    40.5130    10.7800     0.9240    10.8250    25.2960     6.4180 
   52.5000     1.9960    36.6650    10.0080     0.9170    10.5070    25.2710     9.3840 
   52.6250     1.9950    34.7090     9.5360     0.9230     9.7010    25.2360    12.6570 
   52.7500     1.9960    36.1320     9.2250     0.9330     8.5310    25.1890    16.0340 
   52.8750     2.0010    39.6520     8.9620     0.9380     7.1560    25.1290    19.2870 
   53.0000     2.0140    41.6770     8.7280     0.9430     5.8100    25.0530    22.3970 
   53.1250     2.0400    40.9810     8.6640     0.9580     5.0820    24.9640    25.2410 
   53.2500     2.0770    40.3170     8.8300     0.9840     4.7670    24.8690    27.7160 
   53.3750     2.1200    41.5190     9.1360     1.0140     4.6290    24.7710    29.7160 
   53.5000     2.1630    44.1010     9.3840     1.0360     4.3600    24.6750    31.3290 
   53.6250     2.1950    45.2490     9.3980     1.0360     3.9250    24.6100    32.6450 
   53.7500     2.2100    44.0620     9.2740     1.0140     3.5170    24.5690    33.6670 
   53.8750     2.2090    42.1030     9.1620     0.9710     3.2090    24.5380    34.0530 
   54.0000     2.1950    41.1100     9.0940     0.9080     2.9770    24.7410    33.7370 
   54.1250     2.1770    41.8360     8.7450     0.8180     2.7280    24.7450    32.5420 
   54.2500     2.1710    43.0020     7.7390     0.7010     2.4480    24.5980    30.4200 
   54.3750     2.1970    42.8350     5.9530     0.5600     2.1070    24.5940    27.5630 
   54.5000     2.2710    41.0350     3.7800     0.4080     1.7150    24.3740    24.0510 
   54.6250     2.3970    40.5380     2.0930     0.2730     1.3630    24.1550    19.7230 
   54.7500     2.5350    42.8990     1.1420     0.1710     1.0630    23.9900    14.7770 
   54.8750     2.6310    45.3080     0.7270     0.1040     0.8530    23.9550     9.1690 
   55.0000     2.6440    46.8350     0.6630     0.0820     0.9410    23.8570     2.9240 
   55.1250     2.5590    51.9830     0.9610     0.1660     1.4470    23.4820    -3.5740 
   55.2500     2.4350    60.5080     1.6050     0.4170     2.4620    22.8800   -10.1620 
   55.3750     2.3070    67.8350     2.5780     0.9010     5.0430    22.3150   -16.9140 
   55.5000     2.2020    69.4700     3.7490     1.6320     7.2350    21.9730   -23.3950 
   55.6250     2.1420    66.2130     4.8010     2.5510     8.0340    21.8460   -29.3490 
   55.7500     2.1170    64.3040     5.4340     3.4440     7.9000    21.7580   -34.8140 
   55.8750     2.1140    64.9980     5.6060     4.1570     7.7680    21.6180   -39.4180 
   56.0000     2.1170    65.6490     5.5650     4.6390     7.7580    21.4450   -43.0080 
   56.1250     2.1150    64.7320     5.5670     4.9270     7.7750    21.3980   -45.6970 
   56.2500     2.1090    65.8340     5.6410     5.1240     7.7430    21.4520   -47.5100 
   56.3750     2.1040    69.6310     5.7490     5.2680     7.6790    21.5500   -48.4970 
   56.5000     2.1040    72.8710     5.8780     5.3770     7.5990    21.6180   -49.1510 
   56.6250     2.1110    72.5320     6.0560     5.4710     7.5320    21.6210   -49.6690 
   56.7500     2.1190    71.4630     6.2930     5.5750     7.5250    21.5270   -50.1890 
   56.8750     2.1250    71.6800     6.5670     5.7040     7.6420    21.3670   -50.7340 
   57.0000     2.1260    73.6910     6.8230     5.8570     7.8000    21.2570   -51.3000 
   57.1250     2.1220    75.1990     6.9890     6.0160     7.8020    21.3060   -51.9440 
   57.2500     2.1150    73.2190     7.0650     6.1450     7.7510    21.4410   -52.7220 
   57.3750     2.1070    69.8370     7.0860     6.2150     7.6670    21.5970   -53.4500 
   57.5000     2.1000    68.7040     7.1060     6.2100     7.5660    21.7370   -54.1620 
   57.6250     2.0950    69.5020     7.1640     6.1320     7.4860    21.8530   -54.8610 
   57.7500     2.0920    68.8690     7.2430     6.0280     7.5250    21.9520   -55.3100 
   57.8750     2.0900    67.2130     7.3150     5.9390     7.6090    21.9930   -55.6330 
   58.0000     2.0880    67.1580     7.3690     5.9030     7.7260    21.9590   -55.9050 
   58.1250     2.0830    68.6220     7.4290     5.9590     7.8310    21.9070   -55.8930 
   58.2500     2.0760    72.0170     7.5230     6.0860     7.9030    21.9570   -55.5480 
   58.3750     2.0740    77.8260     7.6320     6.2410     8.0380    22.1220   -54.9770 
   58.5000     2.0860    81.9180     7.6950     6.3570     8.3500    22.3720   -54.1230 
   58.6250     2.1230    81.0960     7.6040     6.3370     8.7870    22.6420   -52.9570 
   58.7500     2.1770    80.9060     7.3460     6.1720     8.9860    22.8410   -51.7030 
   58.8750     2.2300    84.2600     6.9850     5.9140     8.4730    22.9170   -50.2130 
   59.0000     2.2670    89.6360     6.6750     5.6710     7.5030    22.8330   -48.5900 
   59.1250     2.2820    93.6490     6.6610     5.6220     7.1880    22.6320   -47.0950 
   59.2500     2.2950    93.7180     7.0210     5.8360     7.4180    22.4350   -45.7340 
   59.3750     2.3230    90.8810     7.7120     6.2910     7.6230    22.4230   -44.5460 
   59.5000     2.3700    90.6730     8.5500     6.8670     7.7800    22.5990   -43.6060 
   59.6250     2.4170    97.0400     9.1730     7.3380     8.2600    22.8140   -42.8680 
   59.7500     2.4370   102.8670     9.3330     7.5250     8.9490    22.9380   -42.3520 
   59.8750     2.4160   103.4540     8.9940     7.3660     8.9340    22.9060   -42.1840 
   60.0000     2.3630   102.1100     8.3320     6.9330     7.7070    22.7130   -42.1020 
   60.1250     2.3060   103.1340     7.6350     6.3930     6.9680    22.5390   -42.0610 
   60.2500     2.2700   105.9930     7.1020     5.9360     6.7460    22.5370   -42.1080 
   60.3750     2.2590   108.4130     6.7950     5.6490     6.4350    22.7740   -42.0740 
   60.5000     2.2650   108.4760     6.7210     5.5570     5.7910    23.1130   -42.0870 
   60.6250     2.2720   107.1460     6.8770     5.6590     5.5240    23.2190   -42.1860 
   60.7500     2.2700   105.4540     7.1470     5.8630     5.7320    22.8520   -42.1630 
   60.8750     2.2580   102.8350     7.4220     6.0930     6.2280    22.3990   -42.1370 
   61.0000     2.2460   100.2920     7.5930     6.2710     6.6160    22.2030   -42.1540 
   61.1250     2.2410   101.3310     7.5580     6.3020     6.5140    22.2450   -42.0010 
