~V
VERS. 2.00: Ver 2.00
~W
STRT.M 60.0000:
STOP.M 248.0000:
STEP.M 0.1250:
NULL. -999.2500:
UWI. DF5054:
~C
DEPT.M :
SP.MV :
GR.API :
CALI.CM :
RXO.OHMM :
RI. :
RML.OHMM :
DEN.GM/CC :
~A
# ...
  127.5000   -19.4500    67.2790    23.5680     9.4290     7.2720     7.8650     2.1620 
  127.6250   -19.4420    66.9360    23.5990     9.4610     7.3150     7.8910     2.1490 
  127.7500   -19.4070    67.1350    23.6130     9.3820     7.3630     7.9330     2.1460 
  127.8750   -19.3480    68.0310    23.6270     9.2300     7.4230     7.9980     2.1540 
  128.0000   -19.2730    69.5300    23.6360     9.1800     7.4920     8.0830     2.1720 
  128.1250   -19.1780    70.7930    23.6310     9.3130     7.5640     8.1710     2.1860 
  128.2500   -19.0700    71.2700    23.5740     9.3370     7.6210     8.2340     2.1870 
  128.3750   -18.9530    71.1620    23.4430     9.0790     7.6450     8.2460     2.1790 
  128.5000   -18.8290    70.9570    23.2870     8.7270     7.6360     8.2050     2.1770 
  128.6250   -18.6940    71.3800    23.1530     8.6190     7.6030     8.1320     2.1880 
  128.7500   -18.5510    72.5320    23.1010     8.7280     7.5740     8.0640     2.2030 
  128.8750   -18.4040    73.6740    23.1380     8.8850     7.5620     8.0260     2.2100 
  129.0000   -18.2470    73.4850    23.2520     8.9690     7.5660     8.0180     2.2080 
  129.1250   -18.0820    71.2020    23.3490     8.9780     7.5670     8.0220     2.2130 
  129.2500   -17.9100    68.5890    23.4460     9.2020     7.5390     8.0040     2.2460 
  129.3750   -17.7290    67.5210    23.5270     9.9670     7.4660     7.9410     2.2980 
  129.5000   -17.5370    68.5960    23.5860    11.0550     7.3500     7.8260     2.3370 
  129.6250   -17.3310    70.8730    23.5740    10.8910     7.2130     7.6860     2.3280 
  129.7500   -17.1090    72.8650    23.5150     9.6310     7.1190     7.6050     2.2980 
  129.8750   -16.8600    74.3690    23.4710     8.2800     7.1540     7.6920     2.2770 
  130.0000   -16.5710    75.2090    23.5070     7.7230     7.3860     8.0390     2.2700 
  130.1250   -16.2250    74.6180    23.5720     8.0820     7.8500     8.6680     2.2550 
  130.2500   -15.8310    73.2190    23.6120     8.7210     8.4170     9.3800     2.2320 
  130.3750   -15.4110    72.4160    23.6350     9.3220     8.9250     9.9650     2.2210 
  130.5000   -14.9890    72.9590    23.6500    10.0530     9.1750    10.1940     2.2440 
  130.6250   -14.5940    74.4810    23.6570    11.6510     8.9190     9.7850     2.3080 
  130.7500   -14.2610    77.9450    23.6710    14.3090     8.2390     8.8670     2.3870 
  130.8750   -14.0270    84.4400    23.7340    16.2420     7.3050     7.6770     2.4420 
  131.0000   -13.9170    91.5770    23.9080    14.4120     6.3480     6.5130     2.4380 
  131.1250   -13.9250    93.9040    24.0540     9.5450     5.6270     5.6900     2.3770 
  131.2500   -13.9720    91.0060    24.0560     5.6960     5.2320     5.2880     2.3060 
  131.3750   -14.1240    86.0400    23.8650     4.7310     5.1820     5.2910     2.2500 
  131.5000   -14.3440    82.1850    23.6380     5.4760     5.4440     5.6170     2.2130 
  131.6250   -14.5920    81.2320    23.4560     6.4490     5.9570     6.1720     2.1930 
  131.7500   -14.8130    81.5230    23.3830     7.0800     6.5240     6.7510     2.1820 
  131.8750   -14.9610    81.0420    23.3690     7.4480     6.9800     7.1840     2.1730 
  132.0000   -14.9900    80.0220    23.4020     7.7480     7.1980     7.3450     2.1630 
  132.1250   -14.8670    81.5250    23.5060     8.0650     7.0790     7.1580     2.1600 
  132.2500   -14.6360    85.6290    23.6620     8.3390     6.7140     6.7410     2.1720 
  132.3750   -14.3380    89.9480    23.8450     8.3650     6.2130     6.2260     2.1950 
  132.5000   -14.0190    92.7130    23.9570     7.7910     5.7170     5.7620     2.2270 
  132.6250   -13.7390    94.1810    23.9910     6.6350     5.3900     5.5190     2.2590 
  132.7500   -13.5360    95.4020    23.9580     5.5680     5.2930     5.5430     2.2830 
  132.8750   -13.4320    96.4900    23.8900     5.0240     5.4390     5.8370     2.3010 
  133.0000   -13.4440    97.3120    23.7900     5.0510     5.7830     6.3330     2.3210 
  133.1250   -13.5970    95.2930    23.7590     5.9960     6.2220     6.8910     2.3380 
  133.2500   -13.8510    88.8880    23.7320     7.8140     6.5930     7.3290     2.3390 
  133.3750   -14.1650    80.5360    23.6240     9.5300     6.7740     7.5150     2.3180 
  133.5000   -14.4970    75.9770    23.5040     9.8810     6.7030     7.3950     2.2860 
  133.6250   -14.8090    79.6410    23.5340     8.5830     6.3960     7.0080     2.2560 
  133.7500   -15.0930    86.6310    23.6120     7.0370     6.0260     6.5670     2.2390 
  133.8750   -15.3560    92.0400    23.6550     5.8360     5.7140     6.2230     2.2410 
  134.0000   -15.5950    94.1620    23.6610     5.3040     5.5490     6.0780     2.2550 
  134.1250   -15.7860    93.7490    23.6620     5.5550     5.6120     6.2120     2.2570 
  134.2500   -15.9290    91.1760    23.6610     6.0890     5.8640     6.5530     2.2420 
  134.3750   -16.0250    86.0400    23.6250     6.6340     6.2520     7.0220     2.2160 
  134.5000   -16.0650    80.3910    23.5430     7.0840     6.6910     7.5100     2.1830 
  134.6250   -16.0070    78.7340    23.5150     7.4760     7.0640     7.8830     2.1540 
  134.7500   -15.8440    81.1240    23.5910     7.9880     7.2840     8.0660     2.1520 
  134.8750   -15.5690    84.6810    23.6930     8.8940     7.2990     8.0150     2.1900 
  135.0000   -15.1930    87.1680    23.7850    10.1000     7.1030     7.7410     2.2570 
  135.1250   -14.7420    88.9360    23.8560    10.5920     6.7200     7.2950     2.3170 
  135.2500   -14.2680    91.7230    23.9480     9.2820     6.2710     6.8070     2.3440 
  135.3750   -13.8020    95.9870    24.0660     7.0590     5.8420     6.3690     2.3350 
  135.5000   -13.3720   100.4290    24.1520     5.5650     5.5010     6.0450     2.3060 
  135.6250   -13.0060   102.6530    24.0720     5.2260     5.3010     5.8730     2.2860 
  135.7500   -12.6960   102.8010    23.8800     5.2250     5.2090     5.8090     2.2860 
  135.8750   -12.4390   102.5520    23.6970     5.1740     5.1950     5.8230     2.2970 
  136.0000   -12.2290   103.0460    23.5520     5.0840     5.2190     5.8710     2.3040 
  136.1250   -12.0540   103.5200    23.4160     4.9870     5.2320     5.8970     2.3060 
  136.2500   -11.8950   103.2760    23.3740     4.9070     5.2170     5.8870     2.3170 
  136.3750   -11.7480   103.1930    23.4420     4.8720     5.1850     5.8630     2.3340 
  136.5000   -11.6090   104.0430    23.5800     4.8890     5.1670     5.8620     2.3460 
  136.6250   -11.4780   105.4670    23.7480     4.9440     5.2010     5.9270     2.3400 
  136.7500   -11.3630   107.2300    23.8840     5.0240     5.2970     6.0530     2.3180 
  136.8750   -11.2650   110.1920    23.9430     5.1610     5.4460     6.2230     2.2850 
  137.0000   -11.1730   113.2410    23.9300     5.3310     5.6240     6.4060     2.2500 
  137.1250   -11.0630   112.3800    23.8270     5.4720     5.7790     6.5610     2.2270 
  137.2500   -10.9250   107.8420    23.6060     5.6570     5.8640     6.6410     2.2230 
  137.3750   -10.7510   104.0060    23.3110     5.8790     5.8500     6.6130     2.2330 
  137.5000   -10.5410   104.4030    23.0590     5.8710     5.7380     6.4770     2.2540 
  137.6250   -10.3030   107.5070    23.0400     5.4250     5.5480     6.2630     2.2780 
  137.7500   -10.0520   109.3090    23.1630     4.8200     5.3380     6.0450     2.2960 
  137.8750    -9.8000   109.6820    23.2670     4.4070     5.1500     5.8690     2.3020 
  138.0000    -9.5640   109.7040    23.3110     4.2600     5.0110     5.7560     2.2950 
  138.1250    -9.3680   108.7290    23.3650     4.3030     4.9370     5.7150     2.2830 
  138.2500    -9.2160   106.5570    23.4670     4.4210     4.9060     5.7210     2.2810 
  138.3750    -9.1050   105.2550    23.5790     4.6110     4.9200     5.7810     2.2900 
  138.5000    -9.0250   106.7470    23.6490     4.9110     4.9960     5.9140     2.3050 
  138.6250    -8.9640   108.2720    23.6740     5.3640     5.1910     6.1820     2.3170 
