~V
VERS. 2.00: Ver 2.00
~W
STRT.M 55.0000:
STOP.M 247.0000:
STEP.M 0.1250:
NULL. -999.2500:
UWI. DF5063:
~C
DEPT.M :
SP.MV :
GR.API :
RML.OHMM :
RI. :
RXO.OHMM :
CALI.CM :
DEN.GM/CC :
~A
# ...
  167.5000   -15.5960    76.9250    32.6380    30.3370    33.6050    24.3040     2.2680 
  167.6250   -15.8060    70.7920    43.1720    39.5690    49.1280    24.5150     2.2610 
  167.7500   -15.9990    69.1410    55.9240    51.3730    60.0920    24.6170     2.2560 
  167.8750   -16.1920    71.1770    69.1000    64.0190    73.7560    24.6410     2.2510 
  168.0000   -16.4230    73.3900    80.5370    75.1460    79.3180    24.6420     2.2470 
  168.1250   -16.6550    74.3350    87.8380    82.0270    76.4140    24.6300     2.2460 
  168.2500   -16.8430    74.2920    91.3570    84.8960    75.7680    24.6170     2.2450 
  168.3750   -16.9900    72.7470    92.1250    84.7990    78.1790    24.6090     2.2430 
  168.5000   -17.1270    71.1900    91.5020    83.1050    78.1880    24.6240     2.2410 
  168.6250   -17.2530    71.2750    90.6760    81.0120    76.1900    24.6120     2.2420 
  168.7500   -17.3180    72.3450    90.3160    79.3480    69.9640    24.6030     2.2480 
  168.8750   -17.3370    73.7530    90.3980    78.2770    65.0840    24.5910     2.2550 
  169.0000   -17.3110    74.8470    90.3820    77.4940    71.4630    24.5900     2.2550 
  169.1250   -17.2770    76.1310    89.2300    76.2620    78.7720    24.5550     2.2470 
  169.2500   -17.2470    76.5980    86.6550    74.1850    76.8930    24.4630     2.2360 
  169.3750   -17.2360    76.5610    83.1280    71.4730    65.8600    24.3250     2.2310 
  169.5000   -17.2570    77.0680    79.8580    68.9450    56.2960    24.2010     2.2330 
  169.6250   -17.2940    76.5790    78.7950    68.0990    51.9320    24.1900     2.2360 
  169.7500   -17.3730    74.1820    80.7110    69.6600    60.7640    24.3150     2.2340 
  169.8750   -17.5130    71.8340    85.5600    73.7540    73.5910    24.4740     2.2320 
  170.0000   -17.6600    71.1080    92.2240    79.6240    84.2420    24.5890     2.2330 
  170.1250   -17.7990    71.1570    98.3090    85.4000    86.5970    24.6020     2.2320 
  170.2500   -17.9470    69.1060   101.4920    88.9420    88.2540    24.5980     2.2310 
  170.3750   -18.1060    67.1540   100.7150    89.0790    92.4630    24.6060     2.2320 
  170.5000   -18.2550    68.1660    96.6080    86.0460    90.6940    24.6240     2.2380 
  170.6250   -18.3880    71.7820    91.5160    81.5930    77.3520    24.6240     2.2470 
  170.7500   -18.4940    74.7870    88.3860    78.4020    61.1710    24.5870     2.2510 
  170.8750   -18.6100    75.6950    88.8960    78.0840    56.9260    24.5590     2.2490 
  171.0000   -18.8090    75.1560    93.7040    81.3730    60.1850    24.5500     2.2410 
  171.1250   -19.0360    72.3970   102.7930    88.4370    87.1320    24.5610     2.2310 
  171.2500   -19.2360    68.7820   113.6670    97.2580   106.8380    24.5640     2.2240 
  171.3750   -19.4250    66.8890   124.1130   106.0130   113.5150    24.5600     2.2220 
  171.5000   -19.6430    66.7100   132.2870   113.1210   116.0000    24.5460     2.2210 
  171.6250   -19.8680    66.9500   137.1710   117.5990   115.3800    24.5500     2.2220 
  171.7500   -20.0940    68.5310   140.4030   120.5890   106.7980    24.5630     2.2230 
  171.8750   -20.2530    70.7590   143.5300   123.2860   100.9510    24.5820     2.2230 
  172.0000   -20.3810    71.7130   147.4420   126.4960   114.6790    24.5770     2.2190 
  172.1250   -20.5480    71.6830   152.0060   130.2920   125.4450    24.5630     2.2130 
  172.2500   -20.6710    71.5440   156.2560   134.0010   132.0760    24.5660     2.2120 
  172.3750   -20.6760    71.0850   159.5230   137.0990   132.0800    24.5790     2.2150 
  172.5000   -20.6130    71.1330   161.4970   139.3060   129.1460    24.5770     2.2190 
  172.6250   -20.5840    72.5420   162.0890   140.5130   125.2100    24.5570     2.2250 
  172.7500   -20.6000    72.8430   161.8990   141.1480   125.9260    24.5550     2.2320 
  172.8750   -20.6660    72.0400   161.2990   141.4890   127.1980    24.5720     2.2350 
  173.0000   -20.6880    71.2870   160.5230   141.6900   128.1580    24.5740     2.2310 
  173.1250   -20.6370    72.9230   159.6480   141.7380   123.5810    24.5840     2.2210 
  173.2500   -20.6270    75.9510   158.6760   141.6000   121.7630    24.6100     2.2120 
  173.3750   -20.7240    78.2810   157.5760   141.2600   123.1360    24.6300     2.2040 
  173.5000   -20.7840    78.5850   156.4930   140.8640   125.7860    24.6080     2.1980 
  173.6250   -20.7430    76.0180   156.3240   141.1550   125.3480    24.5140     2.1990 
  173.7500   -20.6540    74.3570   158.3590   143.2270   121.3610    24.3330     2.2060 
  173.8750   -20.5040    74.3450   163.9220   148.2310   117.2510    24.1130     2.2150 
  174.0000   -20.3190    75.7520   173.7110   156.8360   124.5070    23.9270     2.2220 
  174.1250   -20.0870    73.8590   187.5510   169.0510   152.4650    23.8620     2.2220 
  174.2500   -19.8440    67.9220   202.3340   182.3410   190.9190    23.9360     2.2160 
  174.3750   -19.5860    62.2070   214.8840   194.0390   201.4110    24.1430     2.2060 
  174.5000   -19.3550    61.1280   222.4320   201.6940   180.9420    24.3740     2.1950 
  174.6250   -19.1440    64.5350   223.0630   203.3550   163.1200    24.4900     2.1850 
  174.7500   -18.9380    67.1410   219.5290   200.9870   160.7700    24.5200     2.1810 
  174.8750   -18.7380    68.4480   214.6230   196.8090   164.1080    24.5280     2.1830 
  175.0000   -18.5490    70.2250   210.7430   193.0320   167.4140    24.5180     2.1870 
  175.1250   -18.4290    70.8220   209.5130   191.4640   163.8780    24.5170     2.1870 
  175.2500   -18.3200    68.3550   210.5910   192.1580   161.5630    24.5080     2.1850 
  175.3750   -18.2000    65.5440   213.6140   194.8880   159.6160    24.4510     2.1850 
  175.5000   -18.1930    65.7540   218.1700   199.2530   161.8770    24.3500     2.1860 
  175.6250   -18.2510    68.4270   223.7270   204.7280   169.2460    24.2390     2.1880 
  175.7500   -18.2550    69.9730   229.0740   210.1850   175.7180    24.1750     2.1890 
  175.8750   -18.2480    69.6400   232.9540   214.5660   177.9710    24.1270     2.1900 
  176.0000   -18.2820    67.1630   234.0220   216.7360   174.2310    24.1390     2.1940 
  176.1250   -18.3810    64.6850   230.4310   215.0380   173.4170    24.2420     2.1980 
  176.2500   -18.5830    65.1740   222.4830   209.4900   175.4150    24.4160     2.2000 
  176.3750   -18.8460    65.9550   210.7740   200.3800   177.8730    24.5580     2.2020 
  176.5000   -19.0140    65.6080   196.6310   188.6750   168.8930    24.6180     2.2060 
  176.6250   -19.1020    66.1800   182.0700   175.9560   150.0420    24.6400     2.2090 
  176.7500   -19.2150    67.6480   169.2660   164.2950   141.7100    24.6840     2.2070 
  176.8750   -19.3430    68.3920   159.5990   155.1080   133.5200    24.7180     2.2020 
  177.0000   -19.4440    68.4350   153.6670   149.1930   121.0320    24.7180     2.1970 
  177.1250   -19.4200    68.9610   151.5860   146.9540   120.1720    24.7350     2.1900 
  177.2500   -19.2700    69.0300   151.5550   146.8730   128.6640    24.7580     2.1810 
  177.3750   -19.0940    67.6110   152.3050   147.7640   147.6840    24.7660     2.1700 
  177.5000   -18.9930    67.2000   152.9110   148.6760   151.4210    24.7530     2.1610 
  177.6250   -19.0030    68.8930   153.0360   149.1720   130.4310    24.7460     2.1610 
  177.7500   -19.0550    70.7110   153.1260   149.5830   115.8530    24.7300     2.1660 
  177.8750   -19.0960    71.1270   153.6040   150.3060   122.7800    24.7140     2.1720 
  178.0000   -19.1300    68.2930   154.4980   151.4330   143.6800    24.7010     2.1810 
  178.1250   -19.2080    63.1940   155.0330   152.3340   148.4770    24.7250     2.1940 
  178.2500   -19.2730    60.3010   154.1180   151.9530   141.3570    24.7240     2.2080 
  178.3750   -19.2560    61.7550   151.0820   149.5260   138.5460    24.7010     2.2170 
  178.5000   -19.1640    66.4700   146.0690   145.0240   138.9090    24.6860     2.2230 
  178.6250   -19.0380    68.9870   140.0540   139.2270   127.0070    24.6790     2.2270 
