~V
VERS. 2.00: Ver 2.00
~W
STRT.M 50.0000:
STOP.M 276.0000:
STEP.M 0.1250:
NULL. -999.2500:
UWI. DF5011:
~C
DEPT.M :
DEN.GM/CC :
GR.API :
CALI.CM :
RXO.OHMM :
RI. :
RML.OHMM :
SP.MV :
~A
# ...
  196.2500     2.2480    67.9190    23.4650    37.9940    78.9910    82.2100   -38.2680 
  196.3750     2.2440    67.0150    23.4650    38.9310    88.5700    93.7740   -38.2200 
  196.5000     2.2470    64.4620    23.4590    38.2740   103.2530   110.9250   -38.0790 
  196.6250     2.2480    62.4200    23.4650    41.3610   124.6480   135.5630   -37.8570 
  196.7500     2.2360    61.3500    23.5820    54.2890   155.9320   171.8640   -37.7030 
  196.8750     2.2180    59.4730    23.8510    69.0020   196.4860   220.3960   -37.4360 
  197.0000     2.2040    55.7330    24.1840    81.6740   245.6060   282.0710   -37.1370 
  197.1250     2.1980    52.1600    24.4320    91.1370   301.5000   356.2190   -36.8260 
  197.2500     2.1970    50.1520    24.5230    98.5850   362.4550   441.7480   -36.2290 
  197.3750     2.1930    48.4790    24.5480   106.6030   425.5690   533.2940   -35.7580 
  197.5000     2.1880    46.6500    24.5580   110.5580   488.6340   626.9390   -35.2230 
  197.6250     2.1880    44.1770    24.5590   113.2320   547.6360   715.8850   -34.5870 
  197.7500     2.1970    42.4510    24.5580   119.9770   593.0770   782.5930   -33.9800 
  197.8750     2.2060    42.9810    24.5580   129.9650   617.7240   812.1550   -33.2820 
  198.0000     2.2050    45.2050    24.5580   135.3190   611.7050   787.2290   -32.6840 
  198.1250     2.1950    46.8440    24.5580   134.6770   565.8690   697.0350   -31.9400 
  198.2500     2.1830    46.9230    24.5580   140.2170   477.7210   554.8300   -31.3040 
  198.3750     2.1800    46.9320    24.5590   152.1690   375.6540   413.3440   -30.7320 
  198.5000     2.1890    47.3800    24.5590   142.6180   281.6500   298.8930   -30.0590 
  198.6250     2.2060    47.8550    24.5570   110.0110   207.1650   216.2100   -29.5180 
  198.7500     2.2260    49.4940    24.5360    81.2100   156.0150   162.2990   -29.0100 
  198.8750     2.2420    51.6330    24.4810    70.4880   120.0580   124.8630   -28.5360 
  199.0000     2.2520    51.7930    24.3840    60.9590    95.0040    98.8590   -27.9790 
  199.1250     2.2600    50.8180    24.2680    51.6330    77.7910    80.9600   -27.3650 
  199.2500     2.2750    52.7000    24.1860    40.0710    66.8960    69.4940   -26.9420 
  199.3750     2.3000    56.4860    24.1490    34.9870    59.6170    61.6770   -26.3860 
  199.5000     2.3230    57.8910    24.1300    34.7630    54.8680    56.4500   -25.8240 
  199.6250     2.3370    56.9330    24.1060    37.5450    52.0200    53.2870   -25.3210 
  199.7500     2.3550    56.7890    24.0810    37.1720    51.2470    52.5730   -24.6520 
  199.8750     2.3960    58.1460    24.0650    34.4120    52.4390    54.1660   -24.0280 
  200.0000     2.4640    59.5480    24.0570    33.9500    55.0340    57.2710   -23.4180 
  200.1250     2.5400    59.8360    24.0550    36.8340    56.5850    59.1420   -22.9300 
  200.2500     2.5930    58.5530    24.0480    38.3710    51.6210    54.1720   -22.4180 
  200.3750     2.6180    55.7520    24.0340    43.6550    40.1440    42.2350   -21.8380 
  200.5000     2.6220    52.6930    24.0120    43.6130    26.8550    27.9050   -21.3870 
  200.6250     2.6110    49.7070    23.9450    28.7000    16.3090    16.2930   -20.9410 
  200.7500     2.5780    46.8320    23.8050    12.5080    10.2490     9.8080   -20.5310 
  200.8750     2.5330    45.8190    23.6690     5.4690     6.9460     6.5390   -20.2550 
  201.0000     2.4890    47.2380    23.6040     4.4340     5.3260     5.1420   -20.0520 
  201.1250     2.4620    48.6960    23.6030     4.2960     4.7050     4.7490   -19.9780 
  201.2500     2.4520    47.0560    23.6060     4.3220     4.7630     4.9320   -19.8460 
  201.3750     2.4470    44.2370    23.6010     4.4120     5.1160     5.3020   -19.8220 
  201.5000     2.4370    42.4620    23.5990     4.5750     5.5670     5.6800   -19.9530 
  201.6250     2.4180    42.1500    23.6000     4.7950     5.9880     5.9790   -20.0690 
  201.7500     2.4020    43.6500    23.6020     4.9590     6.3010     6.1800   -20.2700 
  201.8750     2.3980    45.4540    23.6020     5.1150     6.5000     6.3090   -20.5050 
  202.0000     2.4040    46.2240    23.6010     5.3210     6.5810     6.3730   -20.7130 
  202.1250     2.4100    47.1980    23.6010     5.5400     6.5620     6.3950   -20.9470 
  202.2500     2.4120    50.2950    23.6010     5.6280     6.4770     6.4360   -21.3120 
  202.3750     2.4180    52.5180    23.6010     5.6290     6.3910     6.5630   -21.6890 
  202.5000     2.4300    51.9870    23.6010     5.8310     6.3490     6.8170   -22.0560 
  202.6250     2.4420    51.7160    23.6010     6.3410     6.3790     7.2070   -22.4660 
  202.7500     2.4400    56.1380    23.6010     6.8770     6.5060     7.7210   -22.9420 
  202.8750     2.4300    62.1460    23.6010     7.2580     6.7140     8.3040   -23.3840 
  203.0000     2.4200    67.5070    23.6010     7.5740     7.0120     8.9620   -23.8860 
  203.1250     2.4170    74.0880    23.6010     7.8870     7.4190     9.7500   -24.4670 
  203.2500     2.4170    81.1390    23.6010     8.2220     8.0000    10.7860   -24.8940 
  203.3750     2.4130    83.8910    23.6010     8.9580     8.7490    12.0620   -25.4100 
  203.5000     2.4040    81.7940    23.6010    10.9290     9.6330    13.5050   -25.9520 
  203.6250     2.3860    79.1930    23.6000    13.8350    10.5630    14.9440   -26.4070 
  203.7500     2.3560    77.7710    23.6040    16.3480    11.3810    16.1180   -26.8960 
  203.8750     2.3240    74.1210    23.6330    16.8000    11.9920    16.9310   -27.2520 
  204.0000     2.3070    69.2510    23.6890    16.5300    12.3800    17.4210   -27.5660 
  204.1250     2.3150    66.8950    23.7490    16.3350    12.6270    17.7570   -27.6330 
  204.2500     2.3380    67.0840    23.7780    17.0810    12.8900    18.2180   -27.5950 
  204.3750     2.3580    66.7290    23.7830    18.2610    13.2910    18.9640   -27.5200 
  204.5000     2.3740    64.9760    23.7800    19.5610    13.8500    19.9820   -27.2170 
  204.6250     2.3880    63.1860    23.7780    20.0340    14.4700    21.0570   -26.8950 
  204.7500     2.4000    63.6490    23.7990    20.4460    14.8330    21.6130   -26.3280 
  204.8750     2.4070    64.9170    23.8540    20.4170    14.6180    21.1670   -25.7760 
  205.0000     2.4140    67.4600    23.9250    18.8970    13.6730    19.5460   -25.1270 
  205.1250     2.4230    72.6090    23.9780    15.8520    12.1690    17.0770   -24.4240 
  205.2500     2.4330    79.9960    23.9960    12.4930    10.5450    14.5270   -23.8430 
  205.3750     2.4420    85.1790    24.0010     9.6760     9.2300    12.5980   -23.1500 
  205.5000     2.4480    86.5820    24.0030     8.1650     8.4120    11.5710   -22.4970 
  205.6250     2.4500    87.4340    24.0030     8.0280     8.1410    11.4600   -21.8810 
  205.7500     2.4420    89.3820    24.0030     8.8710     8.4450    12.1710   -21.3450 
  205.8750     2.4280    89.5210    24.0030    10.0460     9.0890    13.2140   -20.8830 
  206.0000     2.4130    88.0270    24.0020    10.9340     9.8290    14.1510   -20.4440 
  206.1250     2.4020    87.2150    24.0010    11.1600    10.3400    14.5300   -20.1670 
  206.2500     2.3980    88.1620    24.0000    10.9480    10.2440    13.9470   -19.9260 
  206.3750     2.3970    88.1040    24.0010    10.4250     9.6130    12.6810   -19.6630 
  206.5000     2.3960    85.0810    23.9940     9.4340     8.6580    11.1060   -19.4560 
  206.6250     2.3950    79.7890    23.9700     8.0930     7.6320     9.5910   -19.2150 
  206.7500     2.3950    71.5960    23.9380     6.5720     6.7680     8.4510   -19.0460 
  206.8750     2.3930    61.7950    23.9200     5.6100     6.1380     7.7080   -18.8610 
  207.0000     2.3890    51.9650    23.9170     5.2770     5.7450     7.3130   -18.7590 
  207.1250     2.3890    44.8200    23.9190     5.1710     5.5570     7.1700   -18.7450 
  207.2500     2.3960    43.0920    23.9280     5.0680     5.5360     7.1890   -18.6170 
  207.3750     2.4060    45.3800    23.9560     4.9850     5.5880     7.2500   -18.5960 
