~V
VERS. 2.00: Ver 2.00
~W
STRT.M 55.0000:
STOP.M 274.0000:
STEP.M 0.1250:
NULL. -999.2500:
UWI. DF5015:
~C
DEPT.M :
DEN.GM/CC :
GR.API :
CALI.CM :
RXO.OHMM :
RI. :
RML.OHMM :
SP.MV :
~A
# ...
  201.2500     2.3720    54.1970    23.3550     6.2590     7.2630     8.0400   -10.5070 
  201.3750     2.3830    52.9240    23.3680     6.4630     7.4920     8.2890   -10.6590 
  201.5000     2.3940    52.4630    23.3310     6.5560     7.5770     8.3810   -10.8020 
  201.6250     2.4020    52.7810    23.2940     6.4160     7.5180     8.3170   -10.9310 
  201.7500     2.4080    53.8500    23.3010     6.2410     7.3750     8.1620   -11.0550 
  201.8750     2.4170    55.7510    23.3180     6.1730     7.1880     7.9590   -11.1850 
  202.0000     2.4290    58.3720    23.2830     6.1380     6.9890     7.7430   -11.3280 
  202.1250     2.4360    61.7030    23.1800     6.0590     6.8090     7.5480   -11.4900 
  202.2500     2.4350    65.6580    23.0380     5.9480     6.6700     7.3970   -11.6730 
  202.3750     2.4350    70.0640    22.9410     5.9400     6.5830     7.3030   -11.8860 
  202.5000     2.4470    74.8210    23.0090     6.1300     6.5460     7.2630   -12.1350 
  202.6250     2.4660    80.4370    23.2270     6.4760     6.5630     7.2810   -12.4290 
  202.7500     2.4750    86.8540    23.4970     6.7540     6.6170     7.3390   -12.7610 
  202.8750     2.4660    92.8320    23.7690     6.9260     6.6930     7.4220   -13.1310 
  203.0000     2.4440    96.7780    24.0150     7.1170     6.7810     7.5170   -13.5400 
  203.1250     2.4250    96.7830    24.2350     7.3720     6.8760     7.6210   -13.9900 
  203.2500     2.4200    94.2900    24.2960     7.6190     6.9750     7.7280   -14.4650 
  203.3750     2.4230    92.7850    24.1700     7.8980     7.0710     7.8320   -14.9530 
  203.5000     2.4250    95.3860    24.0350     8.1770     7.1530     7.9210   -15.4470 
  203.6250     2.4250   101.2940    23.9540     8.3350     7.2080     7.9800   -15.9320 
  203.7500     2.4250   105.4800    23.8640     8.3740     7.2500     8.0260   -16.3920 
  203.8750     2.4200   105.9520    23.7080     8.4390     7.3100     8.0920   -16.8100 
  204.0000     2.4010   104.0740    23.5540     8.5800     7.4150     8.2050   -17.1720 
  204.1250     2.3720   102.7280    23.4450     8.6070     7.6020     8.4080   -17.4620 
  204.2500     2.3530   102.1740    23.3810     8.5100     7.8750     8.7040   -17.6860 
  204.3750     2.3570   100.5830    23.3590     8.6360     8.2240     9.0830   -17.8400 
  204.5000     2.3800    97.3520    23.3850     9.4240     8.6120     9.5040   -17.9250 
  204.6250     2.4080    94.3490    23.4110    10.7780     8.9760     9.8990   -17.9360 
  204.7500     2.4300    92.6090    23.4590    11.7570     9.2550    10.2020   -17.8950 
  204.8750     2.4490    91.9110    23.6070    11.9870     9.4090    10.3680   -17.8120 
  205.0000     2.4630    92.4290    23.8690    11.7930     9.4250    10.3860   -17.6940 
  205.1250     2.4500    95.1080    24.1680    11.7190     9.2970    10.2470   -17.5440 
  205.2500     2.4110    99.1040    24.4040    11.8330     9.0710    10.0020   -17.3730 
  205.3750     2.3630   103.0430    24.5450    11.8230     8.7850     9.6910   -17.1890 
  205.5000     2.3310   106.0470    24.6450    11.4670     8.4790     9.3600   -17.0000 
  205.6250     2.3250   107.4530    24.6960    10.9310     8.1960     9.0530   -16.8140 
  205.7500     2.3350   107.3420    24.6940    10.4400     7.9740     8.8120   -16.6340 
  205.8750     2.3520   105.0980    24.6550     9.8860     7.8620     8.6910   -16.4580 
  206.0000     2.3700   100.6470    24.7370     9.2920     7.9180     8.7510   -16.2800 
  206.1250     2.3770    95.1860    25.1370     9.2710     8.2410     9.1010   -16.0840 
  206.2500     2.3730    90.7110    25.6560    10.0500     8.8440     9.7550   -15.8580 
  206.3750     2.3610    88.3720    25.8820    11.6450     9.7420    10.7300   -15.5850 
  206.5000     2.3520    87.8920    25.6150    13.8590    10.8870    11.9730   -15.2460 
  206.6250     2.3540    88.2780    25.0730    16.2100    12.1110    13.3000   -14.8040 
  206.7500     2.3640    88.4320    24.6200    18.0350    13.0950    14.3680   -14.2600 
  206.8750     2.3770    88.1480    24.2970    19.3290    13.5360    14.8460   -13.6120 
  207.0000     2.3850    87.3930    24.1710    20.1470    13.2370    14.5220   -12.8670 
  207.1250     2.3840    86.1390    24.1060    19.5890    12.1240    13.3140   -12.0330 
  207.2500     2.3770    83.6520    24.0340    17.3620    10.6060    11.6680   -11.1600 
  207.3750     2.3680    78.2990    23.9250    13.5890     9.0170     9.9440   -10.2880 
  207.5000     2.3510    70.0000    23.7860     9.3320     7.6240     8.4320    -9.4590 
  207.6250     2.3190    62.6030    23.4940     6.4910     6.6390     7.3630    -8.7200 
  207.7500     2.2870    59.6890    23.0460     5.0200     6.0260     6.6980    -8.0710 
  207.8750     2.2750    61.0900    22.7090     4.5400     5.7360     6.3840    -7.5140 
  208.0000     2.2900    64.8470    22.8880     4.5290     5.6930     6.3370    -7.0520 
  208.1250     2.3230    70.2110    23.3340     4.7280     5.8200     6.4750    -6.6970 
  208.2500     2.3540    76.4890    23.6320     4.9670     5.9980     6.6670    -6.4190 
  208.3750     2.3780    81.8760    23.7520     5.1630     6.1630     6.8470    -6.1940 
  208.5000     2.3940    84.7970    23.8430     5.2710     6.2790     6.9720    -6.0070 
  208.6250     2.3950    85.8840    23.8910     5.2620     6.3310     7.0290    -5.8620 
  208.7500     2.3870    87.9480    23.9240     5.1930     6.3390     7.0380    -5.7610 
  208.8750     2.3790    91.0620    23.9470     5.1340     6.3120     7.0090    -5.7130 
  209.0000     2.3750    93.0870    23.9740     5.1510     6.2550     6.9460    -5.7210 
  209.1250     2.3710    92.4460    23.9930     5.2210     6.1850     6.8700    -5.7970 
  209.2500     2.3700    91.2680    23.9780     5.2110     6.1380     6.8200    -5.9330 
  209.3750     2.3790    90.8820    24.0060     5.1940     6.1410     6.8230    -6.1270 
  209.5000     2.3960    90.7740    24.1020     5.2940     6.2040     6.8910    -6.3690 
  209.6250     2.4070    90.5210    24.1770     5.5080     6.3410     7.0400    -6.6550 
  209.7500     2.4080    90.5760    24.2420     5.9690     6.5360     7.2510    -6.9670 
  209.8750     2.4000    90.3780    24.2990     7.0980     6.7800     7.5170    -7.2960 
  210.0000     2.3830    89.4110    24.3080     9.0170     7.0650     7.8260    -7.6380 
  210.1250     2.3630    88.9390    24.3510    10.3660     7.3760     8.1630    -7.9790 
  210.2500     2.3480    88.8430    24.4120    10.3560     7.6950     8.5090    -8.3160 
  210.3750     2.3400    87.1500    24.4150     9.6460     8.0400     8.8830    -8.6480 
  210.5000     2.3350    83.6810    24.3340     9.6180     8.4660     9.3450    -8.9810 
  210.6250     2.3340    81.3680    24.2690    11.1760     9.0920    10.0250    -9.3180 
  210.7500     2.3390    80.8230    24.2340    13.6520    10.0450    11.0580    -9.6610 
  210.8750     2.3420    80.0980    24.2340    16.0780    11.5580    12.7000   -10.0140 
  211.0000     2.3370    78.0800    24.2690    17.5310    13.9400    15.2850   -10.3780 
  211.1250     2.3250    75.4400    24.2830    20.0200    17.7720    19.3480   -10.7560 
  211.2500     2.3200    73.0930    24.2550    27.4830    23.1620    24.9430   -11.1450 
  211.3750     2.3330    70.7440    24.1990    41.7690    30.2000    32.2380   -11.5420 
  211.5000     2.3700    67.8410    24.1430    61.1370    38.5420    40.9810   -11.9410 
  211.6250     2.4240    64.5540    24.0990    81.3060    47.0840    50.0010   -12.3320 
  211.7500     2.4650    62.4360    24.0640    97.6190    54.2100    57.5260   -12.7040 
  211.8750     2.4620    62.7150    24.0670   104.9280    58.8230    62.3970   -13.0540 
  212.0000     2.4100    64.9610    24.1490   101.4350    60.7720    64.4550   -13.3750 
  212.1250     2.3380    66.6870    24.2550    90.1100    60.9480    64.6420   -13.6550 
  212.2500     2.2850    66.8520    24.3230    79.0420    61.1470    64.8510   -13.8890 
  212.3750     2.2560    67.4120    24.3040    71.4630    62.3440    66.1150   -14.0720 
