~V
VERS. 2.00: Ver 2.00
~W
STRT.M 50.0000:
STOP.M 245.0000:
STEP.M 0.1250:
NULL. -999.2500:
UWI. DF5062:
~C
DEPT.M :
DEN.GM/CC :
GR.API :
RML.OHMM :
RI. :
RXO.OHMM :
CALI.CM :
SP.MV :
~A
# ...
   72.5000     2.2550    93.7630     7.6930     5.6370     6.2130    22.7010   -41.9370 
   72.6250     2.2420    95.6240     7.9100     5.7170     6.3520    22.7180   -41.9770 
   72.7500     2.2200    92.0000     8.0790     5.8410     6.6800    22.5620   -42.0900 
   72.8750     2.1940    83.3700     8.1300     5.9780     7.1240    22.4760   -42.3930 
   73.0000     2.1710    76.5180     8.0830     6.1140     7.2940    22.4940   -42.7210 
   73.1250     2.1610    77.5400     8.0500     6.2680     7.2100    22.4760   -42.9720 
   73.2500     2.1630    81.2650     8.1430     6.4730     7.2720    22.3020   -43.1820 
   73.3750     2.1730    83.3530     8.3820     6.7400     7.4850    22.1160   -43.1980 
   73.5000     2.1880    83.0880     8.6930     7.0400     7.6090    22.0110   -43.1030 
   73.6250     2.2010    80.9190     8.8910     7.2640     7.7160    22.0440   -42.9630 
   73.7500     2.2090    79.4170     8.8290     7.3070     7.8790    22.1980   -42.5780 
   73.8750     2.2060    81.3770     8.4530     7.1100     7.9440    22.5050   -42.1340 
   74.0000     2.1920    88.0570     7.8360     6.6930     7.5800    23.0220   -41.6470 
   74.1250     2.1740    96.4350     7.1590     6.1570     6.8350    23.7770   -40.9500 
   74.2500     2.1620   104.0670     6.6180     5.6560     5.9990    24.4290   -40.2040 
   74.3750     2.1660   109.5560     6.2920     5.2720     5.5810    24.7700   -39.6410 
   74.5000     2.1880   111.9960     6.1770     5.0300     5.4200    24.8640   -39.0650 
   74.6250     2.2210   113.2540     6.2110     4.9140     5.4500    24.8660   -38.4580 
   74.7500     2.2520   114.2470     6.2480     4.8360     5.4690    24.8650   -38.0680 
   74.8750     2.2730   114.9540     6.1870     4.7350     5.4880    24.8630   -37.7360 
   75.0000     2.2850   115.7930     5.9910     4.5820     5.5500    24.8640   -37.4750 
   75.1250     2.2900   115.7230     5.7470     4.4150     5.5820    24.8620   -37.4660 
   75.2500     2.2950   113.4280     5.6940     4.3700     5.5620    24.8600   -37.5730 
   75.3750     2.3040   111.9750     6.0880     4.6230     5.6270    24.8600   -37.6570 
   75.5000     2.3230   111.9410     7.1170     5.3410     6.1150    24.8590   -37.8810 
   75.6250     2.3610   106.0000     8.8730     6.6710     7.5930    24.8560   -38.2700 
   75.7500     2.4100    93.3070    10.9270     8.3570    10.5040    24.8420   -38.7150 
   75.8750     2.4490    81.1100    12.7590    10.0300    15.2930    24.8120   -39.3160 
   76.0000     2.4470    73.4440    13.8190    11.2240    19.6330    24.8150   -39.9660 
   76.1250     2.3810    67.8930    13.6360    11.4450    19.5310    24.8500   -40.6340 
   76.2500     2.2850    62.6580    12.6790    10.9280    15.7440    24.5460   -41.3760 
   76.3750     2.1960    61.3220    11.5340    10.0890    11.6780    23.6830   -42.0930 
   76.5000     2.1360    65.0220    10.6780     9.3260     9.5220    22.8610   -42.7370 
   76.6250     2.1030    67.8670    10.3230     8.8770     8.8570    22.6690   -43.3260 
   76.7500     2.0780    65.6930    10.2710     8.6740     8.8510    23.2000   -43.7620 
   76.8750     2.0530    61.1300    10.3560     8.6230     9.0020    24.2630   -44.0340 
   77.0000     2.0350    59.7040    10.4680     8.6410     9.1940    25.2760   -44.2290 
   77.1250     2.0430    62.3990    10.5690     8.6800     9.2790    25.3340   -44.2820 
   77.2500     2.0770    63.3500    10.6790     8.7310     9.2430    25.0190   -44.2080 
   77.3750     2.1220    61.3360    10.8160     8.8030     9.1680    24.8170   -44.2180 
   77.5000     2.1570    60.5320    10.9730     8.8980     9.0670    24.7160   -44.1860 
   77.6250     2.1660    63.5630    11.1060     8.9940     8.9570    24.3510   -44.0630 
   77.7500     2.1630    65.8400    11.1590     9.0490     8.7380    23.5730   -43.9880 
   77.8750     2.1650    65.5120    11.1000     9.0280     8.3510    22.6030   -43.9310 
   78.0000     2.1800    66.4940    10.9330     8.9190     8.1630    21.8540   -43.8930 
   78.1250     2.2060    67.9870    10.7090     8.7350     8.1120    21.5840   -43.8830 
   78.2500     2.2280    65.6780    10.5110     8.5440     8.0070    21.5210   -43.9700 
   78.3750     2.2360    61.1600    10.3800     8.3920     7.8650    21.4960   -43.9930 
   78.5000     2.2300    60.0320    10.3130     8.3000     7.7600    21.3940   -44.0490 
   78.6250     2.2130    64.1220    10.2730     8.2560     7.7130    21.1290   -44.2200 
   78.7500     2.1940    66.2650    10.2070     8.2070     7.7350    20.8650   -44.3300 
   78.8750     2.1750    64.4160    10.0920     8.1120     7.8250    20.7300   -44.4550 
   79.0000     2.1590    61.7620     9.9330     7.9570     7.9750    20.7070   -44.5710 
   79.1250     2.1490    63.5490     9.7790     7.7710     8.1230    20.7760   -44.6320 
   79.2500     2.1440    67.9880     9.7300     7.6420     8.2500    20.9370   -44.6590 
   79.3750     2.1460    72.4450     9.9020     7.6750     8.3720    21.1790   -44.6030 
   79.5000     2.1580    75.0000    10.3970     7.9600     8.5220    21.4910   -44.4820 
   79.6250     2.1810    71.3360    11.2540     8.5540     8.7240    21.7750   -44.4620 
   79.7500     2.2180    66.3720    12.2280     9.2950     9.1190    22.0110   -44.5070 
   79.8750     2.2620    64.6940    13.0230     9.9810     9.8460    22.1860   -44.5010 
   80.0000     2.3020    66.9730    13.3380    10.3800    10.6460    22.1440   -44.6010 
   80.1250     2.3180    69.3460    12.9230    10.2670    10.5060    21.8130   -44.7340 
   80.2500     2.3040    70.3090    12.0550     9.7790     9.3170    21.6830   -44.8060 
   80.3750     2.2660    71.0200    11.0780     9.1320     8.7300    21.7310   -44.9510 
   80.5000     2.2200    70.9120    10.3110     8.5550     8.5450    21.7780   -44.9710 
   80.6250     2.1810    69.6400     9.9690     8.2350     8.4710    21.7560   -44.8070 
   80.7500     2.1520    68.4450     9.9470     8.1480     8.6160    21.7590   -44.6780 
   80.8750     2.1350    68.0470    10.1050     8.2210     8.7430    21.9170   -44.4150 
   81.0000     2.1280    66.6780    10.2980     8.3530     8.7290    22.1160   -43.9150 
   81.1250     2.1310    62.5950    10.4010     8.4330     8.5570    22.1720   -43.4000 
   81.2500     2.1410    59.9480    10.3750     8.4030     8.3260    22.1680   -42.8830 
   81.3750     2.1540    62.4160    10.2020     8.2380     8.1230    22.2680   -42.1600 
   81.5000     2.1680    68.6260     9.8880     7.9400     7.9260    22.4830   -41.4730 
   81.6250     2.1870    75.2610     9.4390     7.5220     7.8300    22.7090   -40.7500 
   81.7500     2.2140    82.1790     8.9270     7.0530     7.6710    22.8950   -39.9110 
   81.8750     2.2480    88.1680     8.4160     6.5880     7.3160    23.2320   -39.2100 
   82.0000     2.2820    89.5500     7.9700     6.1800     7.0040    23.7720   -38.6290 
   82.1250     2.3030    86.4160     7.6860     5.9060     6.6570    24.2880   -38.1300 
   82.2500     2.3080    85.4300     7.5950     5.7900     6.4190    24.5320   -37.7990 
   82.3750     2.2980    88.0900     7.7260     5.8570     6.2740    24.4520   -37.7300 
   82.5000     2.2750    89.8550     8.0790     6.1110     6.3960    24.1170   -37.9330 
   82.6250     2.2430    86.5100     8.6590     6.5640     7.0230    23.6240   -38.3380 
   82.7500     2.2070    84.0390     9.3780     7.1500     7.9760    23.2110   -38.8610 
   82.8750     2.1760    82.6880    10.1560     7.8150     8.9260    23.0290   -39.5310 
   83.0000     2.1650    77.6620    10.8870     8.4860     9.4400    22.9920   -40.2530 
   83.1250     2.1960    69.0670    11.4030     9.0390     9.3910    22.9360   -40.9380 
   83.2500     2.2620    64.5810    11.6260     9.3820     9.1030    22.7410   -41.5400 
   83.3750     2.3410    65.8650    11.5240     9.4500     8.7710    22.4020   -41.9830 
   83.5000     2.3980    67.8640    11.1420     9.2370     8.5500    22.0530   -42.2360 
   83.6250     2.3940    68.9990    10.5940     8.7900     8.4260    21.9060   -42.4670 
