~V
VERS. 2.00: Ver 2.00
~W
STRT.M 55.0000:
STOP.M 274.0000:
STEP.M 0.1250:
NULL. -999.2500:
UWI. DF5015:
~C
DEPT.M :
DEN.GM/CC :
GR.API :
CALI.CM :
RXO.OHMM :
RI. :
RML.OHMM :
SP.MV :
~A
# ...
  133.7500     2.2530    88.4230    23.7910     7.1960     5.5410     5.7900   -21.1240 
  133.8750     2.2490    88.6490    23.8660     7.0520     5.4970     5.7350   -21.2120 
  134.0000     2.2520    90.5940    23.9570     6.5310     5.3460     5.5500   -21.3410 
  134.1250     2.2650    94.1160    24.0240     6.1070     5.0780     5.2500   -21.5220 
  134.2500     2.2810    98.3090    24.0590     5.9010     4.7790     4.9480   -21.7550 
  134.3750     2.2930   102.7210    24.0830     5.6490     4.5300     4.7400   -22.0530 
  134.5000     2.2950   106.2720    24.0950     5.2910     4.4170     4.7140   -22.4280 
  134.6250     2.2940   106.8380    24.0920     4.9960     4.5480     4.9870   -22.8970 
  134.7500     2.3050   104.5810    24.1020     5.0350     4.9320     5.5470   -23.4310 
  134.8750     2.3300   100.0620    24.1070     5.7940     5.5830     6.3820   -24.0080 
  135.0000     2.3620    93.8290    24.0890     7.8710     6.4790     7.4310   -24.6090 
  135.1250     2.3790    86.7100    24.0370    11.5390     7.5420     8.5770   -25.2090 
  135.2500     2.3670    80.9660    23.9660    14.7890     8.5750     9.6200   -25.7820 
  135.3750     2.3250    78.2640    23.9000    15.6730     9.4010    10.3970   -26.3100 
  135.5000     2.2690    78.4030    23.8480    14.2380     9.8980    10.8030   -26.7860 
  135.6250     2.2230    78.9660    23.7970    12.6510    10.0000    10.8140   -27.1970 
  135.7500     2.1970    77.9920    23.7570    11.7970     9.8600    10.6150   -27.5500 
  135.8750     2.1890    76.6850    23.7340    11.3730     9.5970    10.3410   -27.8440 
  136.0000     2.1920    76.9840    23.7270    11.0880     9.3130    10.0950   -28.0850 
  136.1250     2.2020    78.3160    23.7190    10.9930     9.0920     9.9390   -28.2790 
  136.2500     2.2070    78.6680    23.7410    11.0290     8.9420     9.8560   -28.4400 
  136.3750     2.1970    77.8790    23.8180    11.1290     8.8560     9.8290   -28.5720 
  136.5000     2.1740    75.7080    23.8790    11.2430     8.8240     9.8500   -28.6680 
  136.6250     2.1570    70.9590    23.8500    11.2900     8.8480     9.9080   -28.7140 
  136.7500     2.1530    66.3630    23.8850    11.3600     8.9110     9.9780   -28.7160 
  136.8750     2.1530    65.4640    24.0050    11.5280     8.9970    10.0430   -28.6770 
  137.0000     2.1540    68.4260    24.1330    11.7380     9.0920    10.0930   -28.5930 
  137.1250     2.1580    71.8040    24.2230    11.8760     9.1860    10.1240   -28.4560 
  137.2500     2.1660    73.4360    24.2070    11.9260     9.2740    10.1540   -28.2730 
  137.3750     2.1720    72.8880    24.1410    11.9160     9.3670    10.2120   -28.0460 
  137.5000     2.1720    70.1670    24.0830    11.8690     9.4770    10.3220   -27.7740 
  137.6250     2.1640    66.9270    24.0150    11.7410     9.5960    10.4610   -27.4560 
  137.7500     2.1570    65.6400    23.8420    11.5660     9.6580    10.5270   -27.1090 
  137.8750     2.1550    66.6930    23.5070    11.4460     9.5740    10.4080   -26.7450 
  138.0000     2.1600    68.8950    23.1180    11.4280     9.2760    10.0290   -26.3780 
  138.1250     2.1780    70.7400    22.9710    11.5430     8.7290     9.3590   -26.0290 
  138.2500     2.2090    72.2000    23.0320    11.6150     8.0470     8.5520   -25.7200 
  138.3750     2.2480    75.1290    23.2100    11.3620     7.3560     7.7760   -25.4750 
  138.5000     2.2790    80.8210    23.4560    10.3330     6.7860     7.2030   -25.3070 
  138.6250     2.2820    86.1570    23.7060     8.5350     6.4820     6.9940   -25.2210 
  138.7500     2.2640    87.0340    23.9010     7.3250     6.4440     7.1030   -25.1810 
  138.8750     2.2330    84.3150    23.9940     7.5670     6.6460     7.4470   -25.1620 
  139.0000     2.2000    81.3430    24.0030     8.8780     6.9910     7.8790   -25.1490 
  139.1250     2.1820    79.9720    23.9840    10.2060     7.3060     8.1810   -25.1270 
  139.2500     2.1880    79.7960    24.0030    10.6400     7.4330     8.2140   -25.0890 
  139.3750     2.2200    80.9890    24.0380    10.1180     7.3020     7.9340   -25.0340 
  139.5000     2.2640    83.7180    24.0600     9.1680     6.9240     7.4010   -24.9710 
  139.6250     2.3050    88.3970    24.0690     8.5890     6.3850     6.7700   -24.9240 
  139.7500     2.3360    93.8000    24.0750     8.1020     5.8480     6.2230   -24.9180 
  139.8750     2.3560    97.4450    24.0720     7.1530     5.4050     5.8390   -24.9770 
  140.0000     2.3640    97.9280    24.0620     5.9900     5.1050     5.6420   -25.1170 
  140.1250     2.3510    97.4230    24.0420     5.5530     4.9830     5.6310   -25.3560 
  140.2500     2.3220    97.4960    23.9850     5.7520     4.9750     5.7170   -25.6660 
  140.3750     2.2880    96.4710    23.8670     6.1390     5.0350     5.8430   -26.0260 
  140.5000     2.2600    93.3340    23.6840     6.3550     5.1190     5.9670   -26.4100 
  140.6250     2.2440    89.8670    23.3160     6.4590     5.1990     6.0760   -26.8000 
  140.7500     2.2400    87.5580    22.7980     6.7610     5.2750     6.1830   -27.1850 
  140.8750     2.2470    86.0300    22.3080     7.2270     5.3660     6.3210   -27.5610 
  141.0000     2.2650    85.1490    22.0710     7.4620     5.4970     6.5240   -27.9220 
  141.1250     2.2880    84.9080    22.2140     7.3390     5.7150     6.8440   -28.2620 
  141.2500     2.3060    84.7560    22.6280     7.4680     6.0220     7.2660   -28.5860 
  141.3750     2.3160    85.1480    23.1190     8.4440     6.3980     7.7500   -28.8890 
  141.5000     2.3170    87.2340    23.4500    10.2410     6.8020     8.2310   -29.1670 
  141.6250     2.3060    90.9120    23.5000    11.6570     7.1710     8.6230   -29.4110 
  141.7500     2.2810    93.3290    23.4110    12.0180     7.4600     8.8950   -29.6190 
  141.8750     2.2470    93.1010    23.2950    11.7010     7.6520     9.0480   -29.7830 
  142.0000     2.2200    90.6720    23.2330    11.4440     7.7640     9.1090   -29.8880 
  142.1250     2.2140    86.5190    23.2100    11.5770     7.8340     9.1380   -29.9060 
  142.2500     2.2150    81.6860    23.2340    11.7330     7.9140     9.2050   -29.8370 
  142.3750     2.2050    77.6320    23.3630    11.7230     8.0330     9.3360   -29.6800 
  142.5000     2.1780    75.4400    23.5660    11.6190     8.1890     9.5130   -29.4370 
  142.6250     2.1460    74.8230    23.8480    11.5960     8.3300     9.6530   -29.0920 
  142.7500     2.1260    75.6470    24.0180    11.6650     8.3880     9.6710   -28.6590 
  142.8750     2.1210    79.0590    23.9660    11.7240     8.3040     9.5080   -28.1470 
  143.0000     2.1280    84.0930    23.7000    11.5580     8.0520     9.1460   -27.5820 
  143.1250     2.1390    87.4480    23.3740    10.9190     7.6200     8.5970   -26.9980 
  143.2500     2.1560    89.5320    23.2350     9.8630     7.0960     7.9700   -26.4330 
  143.3750     2.1840    93.5560    23.2860     8.5240     6.5520     7.3610   -25.9200 
  143.5000     2.2220   100.4210    23.4910     7.1850     6.0530     6.8470   -25.4850 
  143.6250     2.2570   106.0070    23.8040     6.1970     5.6580     6.4840   -25.1700 
  143.7500     2.2800   107.5840    24.1400     5.6820     5.3670     6.2380   -24.9670 
  143.8750     2.2870   106.4360    24.3040     5.4840     5.1640     6.0710   -24.8730 
  144.0000     2.2770   105.2720    24.3000     5.4980     5.0160     5.9370   -24.8800 
  144.1250     2.2590   104.9350    24.2100     5.5970     4.8900     5.7960   -24.9900 
  144.2500     2.2540   104.4300    24.0990     5.5290     4.7610     5.6370   -25.1710 
  144.3750     2.2730   103.7310    24.0440     5.2230     4.6350     5.4820   -25.4060 
  144.5000     2.3110   103.5210    24.0370     4.8610     4.5440     5.3790   -25.6810 
  144.6250     2.3360   103.7720    24.0510     4.7190     4.5460     5.4100   -25.9870 
  144.7500     2.3290   102.7290    24.0780     4.8190     4.6630     5.6020   -26.3100 
  144.8750     2.3010    98.6550    24.0850     5.0940     4.9280     5.9800   -26.6300 
