~V
VERS. 2.00: Ver 2.00
~W
STRT.M 61.0000:
STOP.M 247.0000:
STEP.M 0.1250:
NULL. -999.2500:
UWI. DF5042:
~C
DEPT.M :
SP.MV :
GR.API :
CALI.CM :
RXO.OHMM :
RI. :
RML.OHMM :
DEN.GM/CC :
~A
# ...
  229.7500   -13.7570    72.2010    25.5840    14.1910    17.4630    17.0110     2.2480 
  229.8750   -13.3900    69.1610    25.6110    14.7910    16.6630    16.4740     2.2350 
  230.0000   -12.9850    66.3570    25.6390    15.1150    16.6500    16.6640     2.2300 
  230.1250   -12.6330    65.8010    25.6630    15.1770    17.1700    17.2400     2.2290 
  230.2500   -12.2900    67.2810    25.6690    15.7420    17.8100    17.7960     2.2280 
  230.3750   -12.0350    69.0640    25.6670    15.8220    18.2960    18.0900     2.2270 
  230.5000   -11.7090    69.5550    25.6690    15.1810    18.4000    17.9480     2.2290 
  230.6250   -11.5230    69.3050    25.6750    15.3290    17.8770    17.1970     2.2370 
  230.7500   -11.2590    70.0930    25.6850    16.7840    16.8280    16.0030     2.2490 
  230.8750   -11.0470    72.5820    25.6710    17.3200    15.4580    14.6070     2.2670 
  231.0000   -10.8090    75.7120    25.5980    15.2350    14.0800    13.3230     2.2860 
  231.1250   -10.6170    78.4990    25.4790    12.5480    13.0580    12.4940     2.3030 
  231.2500   -10.4840    81.4550    25.3930    10.8980    12.4730    12.1300     2.3130 
  231.3750   -10.3820    83.0430    25.3870    10.4520    12.2780    12.1260     2.3120 
  231.5000   -10.3120    81.4270    25.4340    11.4230    12.3170    12.2860     2.3020 
  231.6250   -10.1930    79.2500    25.4510    12.2960    12.3680    12.3660     2.2890 
  231.7500   -10.1790    79.0970    25.4100    11.6000    12.2780    12.2670     2.2780 
  231.8750   -10.1200    80.5540    25.3480    10.1680    12.0610    12.0520     2.2690 
  232.0000   -10.0730    82.0190    25.3120     9.0020    11.8360    11.8730     2.2600 
  232.1250   -10.0310    82.5570    25.3110     9.5000    11.7530    11.8790     2.2480 
  232.2500    -9.9670    82.5110    25.3140    10.4700    11.8110    12.0280     2.2330 
  232.3750    -9.9730    80.9700    25.3080    11.1320    11.9360    12.2160     2.2220 
  232.5000    -9.9780    78.0690    25.2950    11.3050    12.0210    12.3370     2.2170 
  232.6250   -10.0650    75.6900    25.2910    11.3540    11.9950    12.3520     2.2190 
  232.7500   -10.1660    74.5600    25.3000    11.0580    11.9290    12.3710     2.2240 
  232.8750   -10.3150    74.2810    25.3120    10.5570    11.9330    12.5120     2.2280 
  233.0000   -10.4140    73.3420    25.3150    10.3560    12.0900    12.8370     2.2290 
  233.1250   -10.4890    72.6210    25.3030    11.0350    12.4300    13.3370     2.2300 
  233.2500   -10.5680    73.8210    25.2930    12.1830    12.8440    13.8680     2.2330 
  233.3750   -10.5900    75.0020    25.2940    12.9010    13.2250    14.3120     2.2390 
  233.5000   -10.5990    74.3250    25.3060    12.8360    13.4880    14.5890     2.2440 
  233.6250   -10.4830    71.9510    25.3140    12.5250    13.5630    14.6480     2.2440 
  233.7500   -10.3490    70.2740    25.3130    12.2790    13.4970    14.5770     2.2390 
  233.8750   -10.1500    71.1230    25.3130    12.2590    13.3630    14.4750     2.2290 
  234.0000    -9.9770    73.0580    25.3130    12.3150    13.2630    14.4540     2.2180 
  234.1250    -9.8970    73.2980    25.3140    12.2030    13.2960    14.6060     2.2080 
  234.2500    -9.7860    71.0870    25.3100    12.0190    13.4420    14.8820     2.2050 
  234.3750    -9.5400    67.8870    25.2660    12.9720    13.6400    15.2000     2.2150 
  234.5000    -9.3970    67.1080    25.1370    16.9230    13.8120    15.4810     2.2350 
  234.6250    -9.3270    69.2730    24.9290    17.7060    13.9170    15.7100     2.2610 
  234.7500    -9.2750    72.4080    24.7510    15.1200    14.0250    15.9830     2.2810 
  234.8750    -9.2480    74.3480    24.6630    12.5090    14.2110    16.3830     2.2850 
  235.0000    -9.1970    73.8230    24.6480    12.3790    14.5000    16.9060     2.2830 
  235.1250    -9.1290    70.7040    24.6590    13.9130    14.8290    17.4140     2.2850 
  235.2500    -9.1060    65.8790    24.6740    16.5810    15.0670    17.7330     2.2960 
  235.3750    -9.2110    60.8730    24.6900    17.0530    15.1430    17.8110     2.3080 
  235.5000    -9.2340    59.1180    24.6920    15.1220    15.1170    17.8070     2.3090 
  235.6250    -9.1560    62.8770    24.6770    13.3540    15.2800    18.1830     2.2940 
  235.7500    -9.0920    69.4610    24.6590    13.9010    15.9360    19.2920     2.2730 
  235.8750    -9.1070    72.1630    24.6390    15.8060    17.2910    21.2810     2.2610 
  236.0000    -9.1500    72.1630    24.6140    19.2560    19.3850    24.0070     2.2650 
  236.1250    -9.1930    72.1630    24.6080    23.1690    21.9790    26.8770     2.2830 
  236.2500    -9.1810    72.1630    24.6370    26.2150    24.1820    28.8180     2.3110 
  236.3750    -9.1930    72.1630    24.6860    27.7920    24.9740    28.8530     2.3440 
  236.5000    -9.1940    72.1630    24.7310    26.5560    23.7010    26.5760     2.3730 
  236.6250    -9.3060    72.1630    24.7610    22.6650    20.5220    22.4530     2.3950 
  236.7500    -9.4030    72.1630    24.7840    17.9500    16.8900    18.1030     2.4020 
  236.8750    -9.4180    72.1630    24.8010    13.5060    13.6490    14.4320     2.3930 
  237.0000    -9.4230    72.1630    24.8090     8.9200    11.1690    11.7880     2.3720 
  237.1250    -9.3450    72.1630    24.8240     5.6530     9.5520    10.2010     2.3490 
  237.2500    -9.2950    72.1630    24.8610     5.0410     8.4750     9.2020     2.3290 
  237.3750    -9.2230    72.1630    24.9090     4.8630     7.7630     8.5470     2.3190 
  237.5000    -9.1850    72.1630    24.9450     4.7170     7.2780     8.0690     2.3170 
  237.6250    -9.0710    72.1630    24.9670     4.6280     6.9360     7.6880     2.3210 
  237.7500    -8.9700    72.1630    24.9860     4.5460     6.6710     7.3830     2.3250 
  237.8750    -8.8820    72.1630    24.9950     4.4450     6.4930     7.1880     2.3270 
  238.0000    -8.8330    72.1630    25.0010     4.3910     6.4180     7.1260     2.3250 
  238.1250    -8.8050    72.1630    25.0340     4.3970     6.4620     7.2010     2.3190 
  238.2500    -8.7460    72.1630    25.0990     4.4640     6.5830     7.3550     2.3120 
  238.3750    -8.6740    72.1630    25.1800     4.6920     6.7490     7.5500     2.3060 
  238.5000    -8.5020    72.1630    25.2500     5.0080     6.9260     7.7500     2.3020 
  238.6250    -8.4270    72.1630    25.2990     5.1790     7.0680     7.9130     2.3000 
  238.7500    -8.3390    72.1630    25.3360     5.2460     7.1530     8.0210     2.2990 
  238.8750    -8.3510    72.1630    25.3710     5.2840     7.1750     8.0650     2.3020 
  239.0000    -8.3230    72.1630    25.4030     5.3030     7.1400     8.0540     2.3070 
  239.1250    -8.3080    72.1630    25.4310     5.2110     7.0670     8.0090     2.3110 
  239.2500    -8.3250    72.1630    25.4540     5.1010     6.9880     7.9690     2.3130 
  239.3750    -8.4240    72.1630    25.4700     5.0090     6.9260     7.9570     2.3110 
  239.5000    -8.5570    72.1630    25.4750     5.0890     6.8930     7.9890     2.3080 
  239.6250    -8.6410    72.1630    25.4740     5.3220     6.9040     8.0720     2.3080 
  239.7500    -8.7020    72.1630    25.4890     5.3980     6.9540     8.1900     2.3100 
  239.8750    -8.6620    72.1630    25.5330     5.3560     7.0420     8.3300     2.3150 
  240.0000    -8.6880    72.1630    25.5980     5.4590     7.1620     8.4770     2.3220 
  240.1250    -8.6990    72.1630    25.6670     5.5870     7.2940     8.6080     2.3300 
  240.2500    -8.6640    72.1630    25.7480     5.5760     7.4110     8.7090     2.3390 
  240.3750    -8.5950    72.1630    25.8420     5.5620     7.4950     8.7760     2.3460 
  240.5000    -8.5520    72.1630    25.9200     5.6420     7.5360     8.8170     2.3510 
  240.6250    -8.5280    72.1630    25.9620     5.7980     7.5390     8.8400     2.3580 
  240.7500    -8.5170    72.1630    25.9990     5.8960     7.5330     8.8530     2.3680 
  240.8750    -8.4120    72.1630    26.0370     5.9750     7.5330     8.8580     2.3840 
