~V
VERS. 2.00: Ver 2.00
~W
STRT.M 55.0000:
STOP.M 270.0000:
STEP.M 0.1250:
NULL. -999.2500:
UWI. DF5017:
~C
DEPT.M :
SP.MV :
GR.API :
CALI.CM :
RXO.OHMM :
RI. :
RML.OHMM :
DEN.GM/CC :
~A
# ...
  178.7500   -35.3010    71.4300    24.5040    62.2400    80.5850    85.1200     2.2910 
  178.8750   -35.1940    72.3470    24.3570    54.4910    79.4890    83.9590     2.2880 
  179.0000   -35.0990    74.3690    24.2250    63.5120    78.3620    82.7640     2.2840 
  179.1250   -35.0200    75.3390    24.1760    74.7950    75.8840    80.1380     2.2850 
  179.2500   -34.9260    77.6740    24.1950    71.9200    72.0300    76.0520     2.2950 
  179.3750   -34.8400    80.3990    24.2840    60.2670    67.4400    71.1870     2.3130 
  179.5000   -34.7460    79.9290    24.4450    51.6470    63.2370    66.7310     2.3290 
  179.6250   -34.6250    77.0090    24.4880    51.9790    60.9740    64.3320     2.3350 
  179.7500   -34.5570    75.6260    24.3830    54.8420    61.0790    64.4440     2.3290 
  179.8750   -34.5980    75.1750    24.3820    56.5610    63.6320    67.1500     2.3140 
  180.0000   -34.6970    74.3560    24.5840    61.5630    68.4530    72.2610     2.2930 
  180.1250   -34.8480    74.0520    24.6360    71.7640    75.2320    79.4460     2.2790 
  180.2500   -35.0320    74.5760    24.5730    80.3120    82.6340    87.2920     2.2720 
  180.3750   -35.1990    73.3810    24.4740    82.2190    89.6030    94.6790     2.2640 
  180.5000   -35.3680    70.9130    24.4060    82.1180    95.3590   100.7800     2.2530 
  180.6250   -35.5220    70.9320    24.3530    86.2080    99.3600   105.0220     2.2510 
  180.7500   -35.6940    72.6540    24.2830    91.1530   102.2150   108.0480     2.2630 
  180.8750   -35.8390    71.6000    24.2290    94.3270   104.5100   110.4810     2.2790 
  181.0000   -35.9470    67.3530    24.2350    94.8650   106.5250   112.6170     2.2830 
  181.1250   -36.0140    65.3330    24.2560    95.4480   107.8500   114.0210     2.2700 
  181.2500   -36.0300    66.6280    24.2640    96.6170   108.0640   114.2470     2.2590 
  181.3750   -36.0630    68.2580    24.2700    96.3090   106.7760   112.8830     2.2610 
  181.5000   -36.1730    68.9250    24.2870    93.4430   103.7240   109.6480     2.2730 
  181.6250   -36.3060    70.6760    24.3210    89.6280    98.7960   104.4240     2.2760 
  181.7500   -36.3830    72.0010    24.3620    84.5610    93.0190    98.3000     2.2690 
  181.8750   -36.4200    70.3450    24.4500    77.0370    87.3370    92.2770     2.2630 
  182.0000   -36.4410    66.7970    24.5920    67.8760    82.5380    87.1900     2.2660 
  182.1250   -36.4050    66.4720    24.5080    60.6800    79.2330    83.6870     2.2740 
  182.2500   -36.3960    70.1870    24.2990    56.5110    77.1490    81.4780     2.2760 
  182.3750   -36.3220    74.8320    24.1180    54.7320    75.9430    80.2000     2.2780 
  182.5000   -36.1360    76.7220    24.0690    53.7290    75.0890    79.2940     2.2820 
  182.6250   -35.8940    75.1870    24.0710    52.2360    73.9360    78.0720     2.2820 
  182.7500   -35.6450    74.3670    23.9410    51.4150    72.2660    76.3020     2.2750 
  182.8750   -35.3370    76.8070    23.8900    51.6760    70.3110    74.2290     2.2730 
  183.0000   -34.9960    80.4820    23.8890    51.6040    68.5460    72.3590     2.2830 
  183.1250   -34.6940    80.2550    23.9620    49.8510    67.5620    71.3150     2.2950 
  183.2500   -34.3640    77.6220    24.0430    48.6080    67.4510    71.1980     2.2960 
  183.3750   -34.0850    76.5440    24.0360    50.1870    68.2140    72.0070     2.2850 
  183.5000   -33.7760    76.7000    23.9660    53.5240    69.8680    73.7600     2.2740 
  183.6250   -33.4800    76.8160    23.9640    55.4340    72.7350    76.8000     2.2690 
  183.7500   -33.2180    79.2270    24.0550    57.1480    76.5600    80.8530     2.2620 
  183.8750   -33.0060    81.5500    24.0330    61.8710    80.3980    84.9220     2.2540 
  184.0000   -32.7880    79.5810    23.9920    71.6790    82.4010    87.0460     2.2510 
  184.1250   -32.5160    75.4230    23.9570    86.2180    79.9720    84.4700     2.2590 
  184.2500   -32.1960    74.6380    23.9720    95.6660    73.7510    77.8760     2.2720 
  184.3750   -31.8890    76.7310    24.0170    91.6100    65.8250    69.4740     2.2820 
  184.5000   -31.6530    78.0020    24.0180    75.3380    58.7630    61.9880     2.2860 
  184.6250   -31.4670    78.5470    24.0330    63.9740    54.4730    57.4420     2.2900 
  184.7500   -31.2960    78.2990    24.0060    62.2620    52.2720    55.1090     2.3000 
  184.8750   -31.1120    77.9210    23.9320    66.5110    51.1580    53.9280     2.3180 
  185.0000   -30.9450    80.4490    23.8320    68.5750    50.2260    52.9400     2.3370 
  185.1250   -30.8160    85.5670    23.7960    59.6110    49.0290    51.6710     2.3460 
  185.2500   -30.7990    88.8730    23.7940    45.5160    48.0220    50.6040     2.3380 
  185.3750   -30.8320    88.7090    23.8000    37.8910    48.1440    50.7320     2.3190 
  185.5000   -30.9270    86.9670    23.8020    41.4700    50.2700    52.9860     2.2980 
  185.6250   -31.0870    85.5020    23.7990    51.2370    55.1540    58.1640     2.2870 
  185.7500   -31.2690    83.4020    23.7970    56.2620    61.8300    65.2400     2.2840 
  185.8750   -31.4870    79.9400    23.8040    57.1230    68.8200    72.6490     2.2830 
  186.0000   -31.7440    75.8200    23.8130    57.6110    74.0190    78.1600     2.2850 
  186.1250   -32.0660    73.1480    23.8400    59.0840    75.2340    79.4480     2.2980 
  186.2500   -32.4030    72.1070    23.9080    59.1620    73.2640    77.3600     2.3230 
  186.3750   -32.7080    73.7750    23.9990    55.5970    69.2330    73.0870     2.3460 
  186.5000   -32.9770    78.1840    24.0510    49.8550    64.2080    67.7610     2.3550 
  186.6250   -33.2050    83.0970    24.0060    46.1890    59.2330    62.4870     2.3510 
  186.7500   -33.4250    85.2750    24.0020    45.1180    55.0280    58.0300     2.3440 
  186.8750   -33.6670    83.3940    23.9800    44.7690    52.0300    54.8520     2.3370 
  187.0000   -33.9340    79.5770    23.9750    43.9250    50.7060    53.4480     2.3270 
  187.1250   -34.2760    76.8060    23.8700    43.3170    52.2070    55.0390     2.3150 
  187.2500   -34.5810    76.3490    23.8660    42.6240    57.3730    60.5150     2.3040 
  187.3750   -34.8810    76.2120    24.0360    42.5520    68.2320    72.0250     2.2930 
  187.5000   -35.2210    75.0560    24.1520    49.5030    87.6820    92.6430     2.2770 
  187.6250   -35.5900    73.5400    24.0700    77.9480   120.5610   127.4950     2.2570 
  187.7500   -35.9930    71.6190    23.9890   123.3090   164.2940   173.8520     2.2430 
  187.8750   -36.4370    69.1040    23.9610   167.1020   211.5110   223.9020     2.2370 
  188.0000   -36.8560    67.2580    23.9680   192.3690   248.0610   262.6450     2.2370 
  188.1250   -37.2160    67.2020    23.9890   201.4960   255.0360   270.0380     2.2330 
  188.2500   -37.5910    68.0040    24.0150   194.4920   236.4800   250.3690     2.2290 
  188.3750   -37.9890    68.5930    24.0310   169.8270   203.1560   215.0450     2.2350 
  188.5000   -38.3870    67.8720    24.0210   133.2920   165.8770   175.5300     2.2620 
  188.6250   -38.7790    67.4030    23.9980   104.1810   132.9960   140.6750     2.3020 
  188.7500   -39.1830    68.3080    23.9800    84.1690   107.8220   113.9920     2.3290 
  188.8750   -39.5050    71.1080    24.0200    69.5330    91.3930    96.5770     2.3270 
  189.0000   -39.8450    74.5600    24.0370    60.3410    83.6810    88.4020     2.2980 
  189.1250   -40.1930    75.6790    24.1030    60.1840    86.3870    91.2700     2.2580 
  189.2500   -40.5530    73.0030    24.1760    68.9780    99.2330   104.8870     2.2220 
  189.3750   -40.8940    67.3050    24.2180    89.7500   123.5440   130.6560     2.1950 
  189.5000   -41.1870    62.4470    24.1850   125.0340   159.1010   168.3470     2.1790 
  189.6250   -41.4750    60.5980    24.1320   163.3950   201.0440   212.8070     2.1780 
  189.7500   -41.7150    60.3440    24.1580   183.9070   236.1950   250.0670     2.1870 
  189.8750   -41.9590    61.5880    24.1460   181.8320   254.2480   269.2030     2.1980 
