~V
VERS. 2.00: Ver 2.00
~W
STRT.M 60.0000:
STOP.M 271.0000:
STEP.M 0.1250:
NULL. -999.2500:
UWI. DF5026:
~C
DEPT.M :
SP.MV :
GR.API :
CALI.CM :
RXO.OHMM :
RI. :
RML.OHMM :
DEN.GM/CC :
~A
# ...
  206.2500   -37.1150    67.1710    24.5580    85.8370    70.5120    85.1610     2.2070 
  206.3750   -37.6280    66.4260    24.5560   100.3970    79.1960    95.0670     2.1990 
  206.5000   -38.1310    63.8410    24.5550    93.3060    83.6730    99.6490     2.1930 
  206.6250   -38.4740    62.9420    24.5560    74.1880    84.3310    99.8970     2.1870 
  206.7500   -38.6470    64.4950    24.5570    58.5440    85.4750   101.4020     2.1790 
  206.8750   -38.7320    66.2570    24.5570    69.7020    90.6430   108.0340     2.1710 
  207.0000   -38.8200    65.6950    24.5560   103.9230   101.8670   121.9400     2.1630 
  207.1250   -38.8950    62.5800    24.5550   133.5730   120.1970   145.0800     2.1600 
  207.2500   -39.0340    60.2020    24.5550   151.7030   142.4020   174.2850     2.1610 
  207.3750   -39.2550    60.1970    24.5550   165.3230   164.8180   204.5810     2.1650 
  207.5000   -39.4910    60.5000    24.5570   198.6800   183.6450   229.5510     2.1710 
  207.6250   -39.7260    59.6620    24.5570   263.4550   196.2690   244.6650     2.1750 
  207.7500   -39.9060    59.2590    24.5570   281.0960   205.1130   254.0030     2.1760 
  207.8750   -40.0500    59.5700    24.5570   253.0100   212.0320   260.5100     2.1750 
  208.0000   -40.1620    58.2140    24.5570   232.8170   217.2710   264.6600     2.1750 
  208.1250   -40.2830    56.6470    24.5570   223.5030   218.8180   264.0320     2.1770 
  208.2500   -40.4060    58.7500    24.5550   263.1210   215.3580   257.0260     2.1800 
  208.3750   -40.4700    63.1000    24.5550   330.9720   206.3350   243.1100     2.1830 
  208.5000   -40.5530    64.3580    24.5560   306.9610   193.2280   224.8590     2.1850 
  208.6250   -40.6930    61.3940    24.5570   174.2460   180.1180   208.3190     2.1850 
  208.7500   -40.7910    59.6610    24.5580   142.8560   171.0710   197.9300     2.1850 
  208.8750   -40.7970    60.5540    24.5590   164.4690   168.1450   195.4200     2.1830 
  209.0000   -40.7240    62.0620    24.5590   183.5370   172.2170   201.0950     2.1780 
  209.1250   -40.6530    62.4640    24.5610   204.8510   183.5690   214.5960     2.1700 
  209.2500   -40.5590    63.0670    24.5610   223.5330   197.4860   230.0090     2.1620 
  209.3750   -40.5190    63.7500    24.5580   207.7980   208.5030   240.3210     2.1580 
  209.5000   -40.4490    63.7800    24.5550   207.9650   211.6410   239.6110     2.1590 
  209.6250   -40.2360    64.8770    24.5550   221.1560   203.8270   225.7210     2.1660 
  209.7500   -39.9980    66.3030    24.5560   201.5020   189.8160   206.0330     2.1780 
  209.8750   -39.8060    66.8570    24.5590   143.0690   174.0360   186.0350     2.1890 
  210.0000   -39.7350    66.3010    24.5620   114.4300   159.9260   169.1210     2.1950 
  210.1250   -39.6790    64.4370    24.5630   103.6590   149.8620   157.3000     2.1980 
  210.2500   -39.5950    63.5780    24.5630    95.5830   143.3600   149.3950     2.2010 
  210.3750   -39.4380    63.8440    24.5630    86.7820   139.4590   144.0040     2.2080 
  210.5000   -39.2840    64.9240    24.5630    82.1880   136.4230   139.0730     2.2190 
  210.6250   -39.2230    66.5900    24.5630    89.4990   132.0360   132.4000     2.2300 
  210.7500   -39.1530    67.2780    24.5620   100.7730   125.8080   124.1010     2.2390 
  210.8750   -39.1150    67.3160    24.5640    96.7080   118.6120   115.5310     2.2470 
  211.0000   -39.1620    67.7420    24.5680    87.2440   111.9440   108.2170     2.2580 
  211.1250   -39.2470    69.4480    24.5180    83.3340   107.0980   103.0730     2.2670 
  211.2500   -39.2380    69.6830    24.3620    78.2530   103.4450    98.9890     2.2690 
  211.3750   -39.1420    65.5420    24.1510    72.1600    99.7500    94.5820     2.2630 
  211.5000   -38.9490    60.3840    23.9950    64.9400    94.8300    88.8540     2.2550 
  211.6250   -38.7730    60.9100    23.9610    48.0810    88.3730    81.9980     2.2500 
  211.7500   -38.8510    64.6860    23.9640    39.7960    81.9730    75.8270     2.2490 
  211.8750   -39.0980    66.9390    23.9660    36.8430    77.3970    71.9750     2.2470 
  212.0000   -39.2290    67.0650    24.0330    38.4950    76.0730    71.5200     2.2380 
  212.1250   -39.2150    68.5800    24.2140    43.3560    79.3900    75.4550     2.2200 
  212.2500   -39.1890    69.7840    24.3990    56.0520    86.4120    82.6810     2.2000 
  212.3750   -39.2140    67.9990    24.4930    85.6970    95.7990    91.8120     2.1820 
  212.5000   -39.2840    64.2370    24.5010   125.1490   105.1150   100.4290     2.1720 
  212.6250   -39.3370    62.8860    24.4980   174.4030   110.5730   104.7550     2.1710 
  212.7500   -39.3080    64.2420    24.4990   189.4010   110.7910   103.7620     2.1760 
  212.8750   -39.1700    66.3690    24.4960   148.5260   106.0920    98.2300     2.1830 
  213.0000   -39.1130    67.3400    24.4940    85.6160    98.2180    90.2580     2.1870 
  213.1250   -39.1830    68.0390    24.4940    57.9020    89.7730    82.6080     2.1850 
  213.2500   -39.3270    68.0000    24.4970    53.6960    83.1290    77.2600     2.1780 
  213.3750   -39.4560    66.5610    24.5000    51.2580    79.5510    75.2010     2.1700 
  213.5000   -39.6260    65.7340    24.5010    45.6480    79.8060    76.9460     2.1670 
  213.6250   -39.7460    67.0510    24.5010    47.5430    84.9870    83.2670     2.1680 
  213.7500   -39.7230    68.0250    24.5010    59.8820    94.0140    92.9840     2.1700 
  213.8750   -39.6820    66.4760    24.5010    76.0830   105.6560   104.8960     2.1700 
  214.0000   -39.6320    64.1170    24.5010    84.6090   117.9010   117.1300     2.1690 
  214.1250   -39.5750    63.6760    24.5030    83.4980   127.7430   126.9500     2.1720 
  214.2500   -39.5620    64.6030    24.5090    82.8220   133.9380   133.4440     2.1770 
  214.3750   -39.6160    65.3730    24.5140    88.3010   137.0290   137.3820     2.1840 
  214.5000   -39.6810    65.4420    24.5170   110.2040   138.7140   140.5090     2.1860 
  214.6250   -39.8010    65.2360    24.5160   147.1450   140.7920   144.5700     2.1800 
  214.7500   -39.9920    65.1200    24.5160   173.3480   144.3350   150.3440     2.1690 
  214.8750   -40.1040    64.7860    24.5160   210.2250   150.1620   158.4500     2.1550 
  215.0000   -40.1260    64.7710    24.5160   226.9740   158.9880   169.4780     2.1440 
  215.1250   -40.1490    64.3910    24.5160   225.0420   171.9150   184.4780     2.1380 
  215.2500   -40.2570    62.6600    24.5160   415.9350   188.4570   202.9140     2.1380 
  215.3750   -40.4060    62.2660    24.5160   673.5550   207.6050   223.5890     2.1410 
  215.5000   -40.5410    63.4170    24.5160   717.6370   226.6340   243.3680     2.1440 
  215.6250   -40.6530    62.5600    24.5160  1098.0330   239.9620   255.6950     2.1450 
  215.7500   -40.7300    60.5350    24.5170  1520.4610   243.9410   256.6650     2.1430 
  215.8750   -40.8330    61.1320    24.5160  1754.9230   236.5110   244.5230     2.1410 
  216.0000   -40.9550    63.8030    24.5060  1475.2320   218.4000   221.1380     2.1390 
  216.1250   -41.1050    65.5520    24.4740   842.3210   192.7760   191.3840     2.1400 
  216.2500   -41.2020    66.8470    24.4210   436.7950   166.0990   162.3560     2.1420 
  216.3750   -41.2360    67.7230    24.3660   306.1500   142.0980   137.6400     2.1460 
  216.5000   -41.3150    65.7810    24.3290   177.8750   123.1020   118.9550     2.1500 
  216.6250   -41.4510    61.4930    24.3100   105.4380   110.9920   107.4650     2.1530 
  216.7500   -41.5260    59.0890    24.2600   116.1900   104.2440   101.1080     2.1560 
  216.8750   -41.5640    60.0520    24.1570   149.4770   101.6400    98.5070     2.1580 
  217.0000   -41.6020    63.2110    24.0380   151.5390   101.7270    98.1600     2.1620 
  217.1250   -41.6610    65.4750    23.9690   110.9520   102.8740    98.4280     2.1650 
  217.2500   -41.7700    66.0500    23.9520    82.8050   103.3390    97.8840     2.1660 
  217.3750   -41.8550    66.1950    23.9570    79.5130   102.4530    96.1860     2.1640 
