~V
VERS. 2.00: Ver 2.00
~W
STRT.M 55.0000:
STOP.M 274.0000:
STEP.M 0.1250:
NULL. -999.2500:
UWI. DF5015:
~C
DEPT.M :
DEN.GM/CC :
GR.API :
CALI.CM :
RXO.OHMM :
RI. :
RML.OHMM :
SP.MV :
~A
# ...
  111.2500     2.1860    71.9250    22.5190    11.6550     8.2870     9.0260   -21.2880 
  111.3750     2.2010    73.0220    22.6320    12.3630     8.3790     9.1840   -21.3690 
  111.5000     2.2470    74.7830    22.8250    14.6620     8.4870     9.3180   -21.4760 
  111.6250     2.3210    74.3440    23.0970    19.4470     8.5560     9.3610   -21.6130 
  111.7500     2.3700    71.0720    23.3030    24.0490     8.5580     9.3010   -21.7730 
  111.8750     2.3600    67.8360    23.3700    24.0100     8.4870     9.1520   -21.9570 
  112.0000     2.2980    67.9600    23.3320    19.0430     8.3650     8.9550   -22.1640 
  112.1250     2.2290    71.5960    23.2910    14.5120     8.2350     8.7640   -22.3930 
  112.2500     2.1870    75.0490    23.2920    12.5660     8.1370     8.6260   -22.6300 
  112.3750     2.1740    77.0640    23.3540    12.2700     8.0900     8.5610   -22.8620 
  112.5000     2.1760    77.8240    23.4270    12.4480     8.0970     8.5680   -23.0810 
  112.6250     2.1770    77.4870    23.4900    12.6050     8.1520     8.6250   -23.2740 
  112.7500     2.1710    76.3740    23.5710    12.6340     8.2180     8.6840   -23.4310 
  112.8750     2.1620    74.6340    23.6610    12.5160     8.2660     8.7140   -23.5410 
  113.0000     2.1530    72.9130    23.7050    12.3200     8.2740     8.6970   -23.5970 
  113.1250     2.1400    72.7020    23.6700    12.2290     8.2220     8.6180   -23.5950 
  113.2500     2.1240    74.0550    23.5690    12.3210     8.1150     8.4880   -23.5480 
  113.3750     2.1180    76.1210    23.4270    12.3470     7.9600     8.3170   -23.4590 
  113.5000     2.1300    78.3830    23.2780    12.0780     7.7690     8.1220   -23.3390 
  113.6250     2.1530    80.4930    23.2490    11.6220     7.5600     7.9270   -23.1990 
  113.7500     2.1710    81.3280    23.3020    11.1490     7.3600     7.7510   -23.0500 
  113.8750     2.1800    80.1010    23.3760    10.7890     7.1850     7.6040   -22.8940 
  114.0000     2.1800    78.3580    23.4060    10.6510     7.0520     7.4970   -22.7260 
  114.1250     2.1740    78.2760    23.3700    10.6300     6.9860     7.4400   -22.5280 
  114.2500     2.1650    78.7290    23.2900    10.5170     6.9830     7.4330   -22.2930 
  114.3750     2.1580    77.8220    23.1950    10.2300     7.0460     7.4800   -22.0140 
  114.5000     2.1490    75.7380    23.1090     9.8600     7.1700     7.5820   -21.6790 
  114.6250     2.1410    75.2040    23.0110     9.6960     7.3440     7.7250   -21.2660 
  114.7500     2.1460    77.0150    22.9220    10.0320     7.5190     7.8630   -20.7820 
  114.8750     2.1660    79.1110    22.8610    10.8510     7.6390     7.9360   -20.2320 
  115.0000     2.1940    78.9560    22.8480    11.7060     7.6410     7.8860   -19.6200 
  115.1250     2.2040    76.3060    22.8700    11.8870     7.4470     7.6470   -18.9570 
  115.2500     2.1890    74.9230    22.9140    11.4790     7.0880     7.2580   -18.2760 
  115.3750     2.1600    77.5540    22.9920    10.7360     6.6190     6.7760   -17.6090 
  115.5000     2.1450    83.9180    23.0570     9.8850     6.1170     6.2880   -16.9850 
  115.6250     2.1680    91.3190    23.1500     8.8980     5.6780     5.8960   -16.4430 
  115.7500     2.2130    96.9250    23.3730     7.7830     5.3570     5.6390   -15.9930 
  115.8750     2.2510    99.5630    23.6830     6.9260     5.1780     5.5290   -15.6350 
  116.0000     2.2640    99.3580    23.8460     6.8120     5.1380     5.5440   -15.3590 
  116.1250     2.2480    98.6900    23.7760     7.3860     5.2110     5.6410   -15.1530 
  116.2500     2.2300    99.8890    23.6220     8.0150     5.3190     5.7460   -14.9880 
  116.3750     2.2250   102.2680    23.5130     8.1050     5.4140     5.8190   -14.8460 
  116.5000     2.2310   104.0580    23.5090     7.6640     5.4630     5.8370   -14.7090 
  116.6250     2.2300   104.5640    23.4870     7.4020     5.4400     5.7810   -14.5570 
  116.7500     2.2200   104.3280    23.4790     7.4240     5.3580     5.6730   -14.3850 
  116.8750     2.2180   103.4340    23.6060     7.3550     5.2370     5.5340   -14.2070 
  117.0000     2.2390   102.4240    23.8120     6.9380     5.1040     5.3910   -14.0520 
  117.1250     2.2790   103.0650    23.9370     6.6240     4.9900     5.2730   -13.9560 
  117.2500     2.3150   105.6630    23.9650     6.7640     4.9180     5.2070   -13.9140 
  117.3750     2.3360   108.8860    23.9800     6.9780     4.9090     5.2130   -13.9110 
  117.5000     2.3340   110.9080    23.9480     6.7960     4.9750     5.3060   -13.9370 
  117.6250     2.3090   109.6490    23.8520     6.3650     5.1310     5.4860   -13.9830 
  117.7500     2.2750   105.6920    23.7500     6.3700     5.3320     5.6980   -14.0270 
  117.8750     2.2400   100.8370    23.6510     6.7870     5.5290     5.8810   -14.0450 
  118.0000     2.2120    97.3700    23.5240     7.4540     5.6640     5.9760   -14.0230 
  118.1250     2.1970    97.2970    23.4750     7.9940     5.6730     5.9290   -13.9580 
  118.2500     2.1990    99.9110    23.6050     8.0420     5.5670     5.7700   -13.8740 
  118.3750     2.2160   104.6460    23.8420     7.4930     5.3760     5.5480   -13.7940 
  118.5000     2.2340   110.3870    24.0520     6.6630     5.1530     5.3270   -13.7340 
  118.6250     2.2420   113.6530    24.1830     5.9980     4.9690     5.1880   -13.7120 
  118.7500     2.2450   112.6300    24.2530     5.6820     4.8580     5.1460   -13.7280 
  118.8750     2.2490   108.9860    24.2400     5.7030     4.8250     5.1820   -13.7750 
  119.0000     2.2520   106.2210    24.0990     6.0520     4.8480     5.2550   -13.8380 
  119.1250     2.2510   106.2790    23.8650     6.5760     4.8890     5.3150   -13.9000 
  119.2500     2.2530   107.7520    23.6780     6.8580     4.9070     5.3330   -13.9520 
  119.3750     2.2640   109.7300    23.6070     6.6280     4.8760     5.2970   -13.9920 
  119.5000     2.2820   111.0800    23.6280     6.0470     4.7950     5.2080   -14.0100 
  119.6250     2.2930   110.4980    23.6880     5.6740     4.6750     5.0890   -13.9960 
  119.7500     2.2920   110.1190    23.7210     5.6650     4.5530     4.9870   -13.9610 
  119.8750     2.2870   112.4350    23.6690     5.8650     4.4750     4.9580   -13.9220 
  120.0000     2.2880   116.3290    23.5810     5.9750     4.4840     5.0410   -13.8980 
  120.1250     2.3030   116.3270    23.5950     5.7280     4.6200     5.2670   -13.8980 
  120.2500     2.3220   111.2230    23.7330     5.4860     4.8520     5.5810   -13.9100 
  120.3750     2.3410   103.4470    23.9140     5.7220     5.1470     5.9370   -13.9280 
  120.5000     2.3660    96.3470    23.9970     6.9890     5.4520     6.2730   -13.9490 
  120.6250     2.4120    93.1240    23.9370     9.4680     5.6800     6.4860   -13.9770 
  120.7500     2.4530    94.7410    23.7940    11.6360     5.7720     6.5250   -14.0140 
  120.8750     2.4570   100.2330    23.6770    11.6610     5.6960     6.3740   -14.0570 
  121.0000     2.4180   105.9390    23.6470     9.4610     5.4800     6.0870   -14.0970 
  121.1250     2.3610   106.9630    23.5660     7.3510     5.2370     5.8260   -14.1170 
  121.2500     2.3110   103.3800    23.3860     6.6960     5.1310     5.7810   -14.1100 
  121.3750     2.2710    98.3560    23.1210     6.9760     5.2790     6.0750   -14.0750 
  121.5000     2.2470    94.5840    22.9240     7.2140     5.7530     6.7520   -14.0140 
  121.6250     2.2600    91.6380    22.8490     7.2140     6.6120     7.7920   -13.9330 
  121.7500     2.3070    88.0050    22.8630     8.2410     7.6780     8.9310   -13.8380 
  121.8750     2.3840    84.4390    22.9390    11.8340     8.7080     9.8780   -13.7290 
  122.0000     2.4720    82.8550    23.0810    18.0660     9.3930    10.3180   -13.6140 
  122.1250     2.5260    85.1520    23.2020    22.7680     9.3570     9.9320   -13.5020 
  122.2500     2.5150    90.5380    23.2450    21.7800     8.6910     8.9370   -13.4020 
  122.3750     2.4440    97.1480    23.1850    16.1910     7.6320     7.6500   -13.3170 
