~V
VERS. 2.00: Ver 2.00
~W
STRT.M 55.0000:
STOP.M 271.0000:
STEP.M 0.1250:
NULL. -999.2500:
UWI. DF5032:
~C
DEPT.M :
SP.MV :
GR.API :
CALI.CM :
RXO.OHMM :
RI. :
RML.OHMM :
DEN.GM/CC :
~A
# ...
  201.2500   -29.7340    53.3470    24.4510   269.1200   161.7320   168.3580     2.1810 
  201.3750   -29.1120    51.3670    24.4430   227.4840   127.0600   132.3690     2.1980 
  201.5000   -28.4820    52.1690    24.4460   170.4550    97.7170   101.9100     2.2350 
  201.6250   -27.8360    56.0740    24.4550   112.5750    77.2180    80.6320     2.2780 
  201.7500   -27.1770    59.2610    24.4490    70.8260    63.0740    65.9510     2.3000 
  201.8750   -26.5220    59.8310    24.4680    52.9270    52.8950    55.3850     2.3120 
  202.0000   -25.8980    58.8490    24.5340    55.8530    44.4350    46.6040     2.3460 
  202.1250   -25.3350    58.6780    24.5270    68.5390    36.3690    38.2310     2.4170 
  202.2500   -24.8300    60.3200    24.3730    74.5450    28.5980    30.1640     2.4830 
  202.3750   -24.3890    63.7950    24.1320    65.1260    21.6700    22.9730     2.5090 
  202.5000   -24.0240    68.5510    23.9350    43.2040    16.0760    17.1670     2.4980 
  202.6250   -23.7720    74.1230    24.0380    21.2730    12.2650    13.2110     2.4680 
  202.7500   -23.6230    80.8700    24.4320     9.8970     9.8440    10.6980     2.4370 
  202.8750   -23.5680    88.8610    24.7710     6.6800     8.5170     9.3200     2.4180 
  203.0000   -23.5940    96.7240    24.7440     7.2090     7.9520     8.7340     2.4270 
  203.1250   -23.7080   102.3710    24.5310     8.3150     7.9140     8.6950     2.4610 
  203.2500   -23.8970   106.5180    24.4140     8.9900     8.0860     8.8730     2.4850 
  203.3750   -24.1490   110.5730    24.4250     9.2270     8.3010     9.0970     2.4850 
  203.5000   -24.4390   114.6030    24.5080     9.0630     8.4540     9.2550     2.4790 
  203.6250   -24.7320   116.9680    24.6900     8.5550     8.4820     9.2840     2.4810 
  203.7500   -25.0120   116.7010    24.8750     8.1120     8.4210     9.2210     2.4820 
  203.8750   -25.2870   113.1460    25.0350     8.0950     8.3180     9.1140     2.4700 
  204.0000   -25.5660   105.9420    25.1040     8.3390     8.2020     8.9930     2.4500 
  204.1250   -25.8450    97.6350    24.9310     8.6530     8.1140     8.9030     2.4390 
  204.2500   -26.1030    93.8980    24.6630     9.0150     8.1060     8.8940     2.4400 
  204.3750   -26.3200    96.4320    24.4750     9.3060     8.2340     9.0270     2.4440 
  204.5000   -26.4920   100.9700    24.4050     9.5270     8.5470     9.3510     2.4400 
  204.6250   -26.6270   100.7780    24.3890    10.2080     9.1170     9.9430     2.4220 
  204.7500   -26.7360    95.9780    24.3750    11.7100     9.8850    10.7400     2.4060 
  204.8750   -26.8040    90.3290    24.3660    13.6750    10.7380    11.6260     2.4010 
  205.0000   -26.8090    86.6550    24.3480    15.4820    11.4880    12.4040     2.4130 
  205.1250   -26.7240    85.3010    24.3400    16.6040    11.8420    12.7720     2.4400 
  205.2500   -26.5720    84.6920    24.3390    17.2060    11.7120    12.6370     2.4590 
  205.3750   -26.3800    84.8470    24.3450    17.2000    11.1210    12.0240     2.4460 
  205.5000   -26.1710    86.9630    24.3700    16.2940    10.2350    11.1040     2.3960 
  205.6250   -25.9500    91.9680    24.4070    14.1620     9.3110    10.1440     2.3510 
  205.7500   -25.7190    97.4580    24.5290    11.5380     8.5790     9.3850     2.3460 
  205.8750   -25.4840   100.5640    24.7250     9.3060     8.1540     8.9440     2.3650 
  206.0000   -25.2620    99.5120    24.8000     8.4380     8.0920     8.8790     2.3760 
  206.1250   -25.0740    95.8480    24.6270     9.7530     8.4580     9.2600     2.3740 
  206.2500   -24.9110    93.2490    24.4120    12.1100     9.1660     9.9940     2.3760 
  206.3750   -24.7460    92.2730    24.2940    14.4580    10.1850    11.0520     2.3900 
  206.5000   -24.5470    91.4420    24.3030    16.0600    11.4640    12.3790     2.4170 
  206.6250   -24.2700    89.6250    24.2830    17.2280    12.8530    13.8220     2.4580 
  206.7500   -23.9110    88.4020    24.2490    19.1040    14.0340    15.0470     2.5030 
  206.8750   -23.4690    88.4900    24.2460    21.4210    14.6910    15.7290     2.5460 
  207.0000   -22.9500    88.3440    24.2750    23.1520    14.5640    15.5970     2.5850 
  207.1250   -22.3630    84.5710    24.3020    24.0030    13.4430    14.4340     2.5940 
  207.2500   -21.7440    77.0470    24.3020    23.8470    11.7090    12.6340     2.5540 
  207.3750   -21.1220    68.0380    24.3620    21.1800     9.7430    10.5940     2.4750 
  207.5000   -20.5260    60.7970    24.5450    15.2790     7.9050     8.6850     2.3910 
  207.6250   -19.9910    57.8170    24.8750     9.0740     6.5080     7.2350     2.3330 
  207.7500   -19.5280    58.4830    24.9950     5.4660     5.5650     6.2570     2.3110 
  207.8750   -19.1470    62.2400    24.7340     4.2770     5.0310     5.7030     2.3220 
  208.0000   -18.8520    68.2030    24.3660     4.1250     4.8250     5.4880     2.3500 
  208.1250   -18.6560    74.3680    24.3100     4.1990     4.8790     5.5440     2.3650 
  208.2500   -18.5360    78.6280    24.7330     4.2790     5.0520     5.7240     2.3610 
  208.3750   -18.4770    81.0820    25.6350     4.3270     5.2620     5.9420     2.3510 
  208.5000   -18.4620    83.1430    26.4300     4.3680     5.4480     6.1350     2.3500 
  208.6250   -18.4870    86.1730    26.5160     4.4560     5.5720     6.2640     2.3660 
  208.7500   -18.5510    89.6620    25.9080     4.6020     5.6250     6.3180     2.3930 
  208.8750   -18.6620    91.8070    25.1690     4.7670     5.6020     6.2950     2.4190 
  209.0000   -18.8210    91.1040    24.6170     4.9030     5.5110     6.2000     2.4270 
  209.1250   -19.0200    88.3860    24.3220     4.9530     5.3680     6.0520     2.4090 
  209.2500   -19.2300    87.0400    24.2880     4.9300     5.2190     5.8970     2.3900 
  209.3750   -19.4410    88.8510    24.3010     4.8420     5.0970     5.7710     2.3900 
  209.5000   -19.6530    93.2040    24.2240     4.7530     5.0370     5.7090     2.4110 
  209.6250   -19.8820    98.0370    24.1800     4.8030     5.0730     5.7450     2.4340 
  209.7500   -20.1330   101.8050    24.2320     5.0580     5.1810     5.8580     2.4430 
  209.8750   -20.4080   103.8220    24.3190     5.4890     5.3400     6.0230     2.4400 
  210.0000   -20.7000   103.7190    24.3580     6.0150     5.5270     6.2170     2.4320 
  210.1250   -21.0080   101.7890    24.3510     6.5590     5.7400     6.4380     2.4200 
  210.2500   -21.3240    99.8260    24.3490     7.0260     6.0110     6.7200     2.4070 
  210.3750   -21.6430    98.2300    24.3240     7.4130     6.4150     7.1300     2.3930 
  210.5000   -21.9610    95.9160    24.3150     7.8970     7.0560     7.7730     2.3810 
  210.6250   -22.2720    92.4260    24.3390     8.9290     8.1640     8.8870     2.3690 
  210.7500   -22.5750    88.8650    24.3510    11.0250     9.8270    10.6230     2.3580 
  210.8750   -22.8750    84.8730    24.3620    14.8490    12.1130    13.0400     2.3580 
  211.0000   -23.1730    79.7690    24.3610    20.8090    14.9710    16.0690     2.3720 
  211.1250   -23.4720    75.1390    24.3500    29.0850    18.1720    19.4620     2.3940 
  211.2500   -23.7730    73.2300    24.3430    37.7940    21.1790    22.6500     2.4030 
  211.3750   -24.0800    73.6340    24.3380    44.0800    23.5270    25.1390     2.3890 
  211.5000   -24.3970    74.4480    24.3220    45.2490    24.9370    26.6340     2.3520 
  211.6250   -24.7340    74.9200    24.3600    40.7100    25.3160    27.0350     2.3080 
  211.7500   -25.0870    75.8420    24.3830    35.2590    25.1480    26.8560     2.2740 
  211.8750   -25.4450    77.3020    24.3940    31.5350    24.7510    26.4360     2.2550 
  212.0000   -25.7920    78.6650    24.4020    30.3230    24.3200    25.9800     2.2480 
  212.1250   -26.1050    78.9470    24.4110    30.8470    23.9110    25.5450     2.2530 
  212.2500   -26.3850    78.7730    24.4220    31.1290    23.5060    25.1170     2.2640 
  212.3750   -26.6340    79.1770    24.4360    30.4330    23.1220    24.7090     2.2720 
