~V
VERS. 2.00: Ver 2.00
~W
STRT.M 67.0000:
STOP.M 277.0000:
STEP.M 0.1250:
NULL. -999.2500:
UWI. DF5013:
~C
DEPT.M :
SP.MV :
GR.API :
RML.OHMM :
RI. :
RXO.OHMM :
CALI.CM :
DEN.GM/CC :
~A
# ...
  157.0000   -20.6260    50.6620    28.5660    26.4880    27.3650    24.1420     2.5370 
  157.1250   -20.6850    48.2420    28.2630    26.3440    28.5400    24.1360     2.5380 
  157.2500   -20.7770    47.2350    26.6360    25.1480    27.6180    24.1310     2.5340 
  157.3750   -20.8720    48.9040    23.8990    22.9600    25.1170    24.1260     2.5240 
  157.5000   -20.9630    52.2290    20.9540    20.3520    21.8810    24.1200     2.5090 
  157.6250   -21.0730    57.1730    18.7940    18.1950    18.6390    24.1110     2.4960 
  157.7500   -21.1650    62.3860    17.8300    16.9590    16.4200    24.1080     2.4920 
  157.8750   -21.2010    64.2040    18.0760    16.7850    16.4120    24.0960     2.4960 
  158.0000   -21.2060    59.8270    19.3380    17.6240    19.6190    24.0850     2.5050 
  158.1250   -21.1680    52.7510    20.8920    18.8790    22.9750    24.0790     2.5090 
  158.2500   -21.1110    47.6780    22.1750    20.0660    24.0710    24.0780     2.5060 
  158.3750   -21.0550    49.2740    22.7820    20.7940    22.9000    24.0780     2.5010 
  158.5000   -21.0120    55.5270    22.5950    20.8520    21.5690    24.0780     2.4990 
  158.6250   -20.9690    59.1420    22.1380    20.5790    20.6000    24.0790     2.5020 
  158.7500   -20.9680    57.9990    21.8300    20.3000    19.8320    24.0870     2.5060 
  158.8750   -21.0060    55.3760    21.8810    20.2240    19.8070    24.1080     2.5080 
  159.0000   -21.1010    53.2450    22.3250    20.4240    20.7360    24.1340     2.5060 
  159.1250   -21.2200    50.1850    22.9560    20.7900    21.5980    24.1560     2.5030 
  159.2500   -21.3340    48.4090    23.6390    21.2530    21.8840    24.1850     2.5010 
  159.3750   -21.4330    51.6040    24.2780    21.7610    21.9390    24.2050     2.4980 
  159.5000   -21.5140    57.4400    24.8180    22.2740    22.7000    24.2110     2.4950 
  159.6250   -21.5830    60.7700    25.2840    22.7570    24.2060    24.2110     2.4930 
  159.7500   -21.6150    61.7160    25.6990    23.1890    25.6730    24.2110     2.4900 
  159.8750   -21.6530    62.8570    26.0760    23.5560    26.3810    24.2050     2.4870 
  160.0000   -21.6760    63.6140    26.3810    23.8390    26.2300    24.1810     2.4800 
  160.1250   -21.7080    61.9850    26.5520    24.0210    25.2730    24.1100     2.4710 
  160.2500   -21.7400    59.7510    26.5040    24.0520    24.0880    23.9380     2.4630 
  160.3750   -21.7930    59.0880    26.1710    23.8740    23.5940    23.6130     2.4570 
  160.5000   -21.8380    59.8870    25.5070    23.4150    23.4490    23.2830     2.4570 
  160.6250   -21.9160    61.0120    24.6400    22.7410    22.3430    23.0710     2.4610 
  160.7500   -21.9750    62.7750    23.6630    21.9110    20.4900    22.9750     2.4680 
  160.8750   -22.0130    64.0660    22.6320    20.9780    19.0790    22.9060     2.4760 
  161.0000   -22.0150    63.2460    21.5480    19.9610    18.6980    22.8340     2.4840 
  161.1250   -21.9980    61.2180    20.4310    18.9070    18.4340    22.8000     2.4900 
  161.2500   -21.9580    59.8600    19.3400    17.8680    17.5560    22.7900     2.4920 
  161.3750   -21.9030    60.5060    18.3800    16.9250    16.0320    22.7920     2.4900 
  161.5000   -21.8440    61.2100    17.7190    16.2110    14.9590    22.7740     2.4860 
  161.6250   -21.7780    61.1610    17.3680    15.7580    14.7030    22.7300     2.4850 
  161.7500   -21.7400    60.3080    17.2740    15.5560    15.0860    22.6990     2.4890 
  161.8750   -21.7260    58.6530    17.3190    15.5310    15.5980    22.7430     2.4960 
  162.0000   -21.7260    56.8400    17.3570    15.5720    15.7300    22.9150     2.5010 
  162.1250   -21.7390    54.4640    17.3140    15.5720    15.6900    23.0980     2.5000 
  162.2500   -21.7650    52.8310    17.1980    15.5080    15.6160    23.2620     2.4940 
  162.3750   -21.7810    53.3060    17.0640    15.4160    15.4090    23.4460     2.4840 
  162.5000   -21.7860    54.5210    16.9650    15.3610    15.1550    23.6000     2.4770 
  162.6250   -21.7750    53.4040    16.8980    15.3630    14.8270    23.7450     2.4740 
  162.7500   -21.7510    51.1090    16.8430    15.4050    15.1160    23.8810     2.4780 
  162.8750   -21.7020    50.4990    16.7830    15.4550    15.6270    24.0120     2.4880 
  163.0000   -21.6620    51.5710    16.7170    15.4870    15.8220    24.0680     2.5010 
  163.1250   -21.6260    52.7750    16.6560    15.5000    15.5130    24.0950     2.5150 
  163.2500   -21.6120    55.1480    16.6130    15.5060    15.1430    24.1170     2.5290 
  163.3750   -21.6110    57.4020    16.5850    15.5080    14.9700    24.1320     2.5370 
  163.5000   -21.6380    57.4320    16.5300    15.4710    15.0430    24.1360     2.5360 
  163.6250   -21.7110    55.9650    16.3850    15.3430    14.9150    24.1360     2.5220 
  163.7500   -21.8390    54.4960    16.0960    15.0810    14.7100    24.1360     2.4970 
  163.8750   -22.0070    54.9090    15.6520    14.6770    14.4370    24.1390     2.4630 
  164.0000   -22.1840    57.9420    15.1180    14.1880    13.7370    24.1530     2.4270 
  164.1250   -22.3950    62.0690    14.6860    13.7680    13.1650    24.1770     2.3960 
  164.2500   -22.6470    65.8520    14.5760    13.5880    12.9360    24.1960     2.3730 
  164.3750   -22.9530    70.5540    15.0300    13.8470    13.3330    24.2030     2.3570 
  164.5000   -23.3150    74.6200    16.4360    14.8850    14.8670    24.2070     2.3480 
  164.6250   -23.6640    75.3770    18.7990    16.7710    18.0000    24.2360     2.3410 
  164.7500   -24.0000    74.6800    22.0470    19.5240    22.8980    24.3080     2.3330 
  164.8750   -24.3270    74.6560    25.8700    22.9590    28.6260    24.3940     2.3240 
  165.0000   -24.6400    74.3860    29.6640    26.6140    34.5880    24.4500     2.3180 
  165.1250   -24.9220    73.1090    32.7290    29.8250    37.6000    24.4670     2.3170 
  165.2500   -25.1580    72.6230    34.7550    32.2040    37.0230    24.4640     2.3220 
  165.3750   -25.3280    73.8730    36.0470    33.7810    36.1700    24.4480     2.3290 
  165.5000   -25.4300    74.8670    37.4890    35.1360    36.7320    24.4140     2.3340 
  165.6250   -25.4960    74.4410    40.3670    37.1860    38.2860    24.3990     2.3330 
  165.7500   -25.5380    73.1640    45.3330    40.5730    42.1590    24.3950     2.3260 
  165.8750   -25.5540    72.6250    52.4970    45.5940    49.5200    24.3950     2.3140 
  166.0000   -25.5810    71.7690    61.5470    52.2520    59.4990    24.3950     2.2990 
  166.1250   -25.5780    68.5600    69.9010    59.5460    69.6520    24.3950     2.2860 
  166.2500   -25.5610    66.8060    77.7450    66.5690    74.7610    24.3950     2.2780 
  166.3750   -25.5600    69.0660    84.2370    72.5640    73.4660    24.3820     2.2740 
  166.5000   -25.5660    70.5610    88.8690    77.0460    71.6480    24.3150     2.2720 
  166.6250   -25.5900    66.3460    92.3480    80.5540    72.0060    24.2010     2.2700 
  166.7500   -25.6100    61.0900    95.2090    83.5310    72.8710    24.1400     2.2670 
  166.8750   -25.6330    61.7530    97.7270    86.2370    74.1440    24.2010     2.2630 
  167.0000   -25.6380    65.5780    99.7520    88.5710    78.1680    24.3250     2.2610 
  167.1250   -25.6510    67.1550   101.1310    90.3720    81.8280    24.4280     2.2590 
  167.2500   -25.6610    68.8390   101.7820    91.5350    82.8330    24.4650     2.2570 
  167.3750   -25.6640    73.4790   101.7900    92.1150    82.6650    24.4690     2.2550 
  167.5000   -25.6570    76.1610   101.3490    92.2730    82.4040    24.4530     2.2540 
  167.6250   -25.6210    72.4110   100.8450    92.3450    80.7890    24.3970     2.2540 
  167.7500   -25.5430    66.4460   100.5390    92.5410    77.2100    24.2930     2.2570 
  167.8750   -25.4620    63.8820   100.5900    92.9820    73.9310    24.1790     2.2630 
  168.0000   -25.3810    65.8200   101.0170    93.7000    75.2290    24.1060     2.2690 
  168.1250   -25.3070    67.9010   101.5030    94.4840    78.0060    24.0510     2.2750 
