~V
VERS. 2.00: Ver 2.00
~W
STRT.M 59.0000:
STOP.M 253.0000:
STEP.M 0.1250:
NULL. -999.2500:
UWI. DF5043:
~C
DEPT.M :
SP.MV :
GR.API :
CALI.CM :
RXO.OHMM :
RI. :
RML.OHMM :
DEN.GM/CC :
~A
# ...
  239.0000   -23.3830    79.3320    24.1540    14.8560    12.3840    13.4160     2.2170 
  239.1250   -23.2300    77.1700    24.0820    15.9830    13.0480    14.1900     2.2060 
  239.2500   -23.0730    78.4740    24.0380    16.7870    13.8230    15.0810     2.2010 
  239.3750   -22.9150    82.3060    24.0360    17.2410    14.6570    16.0410     2.2050 
  239.5000   -22.7560    86.9450    24.0060    18.6510    15.4730    16.9790     2.2230 
  239.6250   -22.6020    91.6370    23.9280    22.1120    16.2220    17.8400     2.2570 
  239.7500   -22.4580    95.3040    23.8480    27.3120    16.8870    18.6110     2.3010 
  239.8750   -22.3310    95.5970    23.8350    29.9960    17.4890    19.3190     2.3440 
  240.0000   -22.2220    92.4770    23.9290    28.9770    18.0620    19.9930     2.3690 
  240.1250   -22.1350    88.3520    24.0310    25.9210    18.5500    20.5620     2.3660 
  240.2500   -22.0760    86.2360    24.0450    23.1690    18.8170    20.8640     2.3350 
  240.3750   -22.0550    86.7710    23.9670    23.0050    18.6090    20.6020     2.3120 
  240.5000   -22.0710    87.4970    23.8650    25.4280    17.8490    19.6930     2.3260 
  240.6250   -22.1200    87.4960    23.8130    28.4250    16.5260    18.1250     2.3680 
  240.7500   -22.1970    86.8010    23.7830    29.7230    14.7720    16.0470     2.4130 
  240.8750   -22.2960    85.6390    23.7770    27.5530    12.8500    13.7720     2.4400 
  241.0000   -22.4080    84.8400    23.7930    22.9870    11.0870    11.7010     2.4420 
  241.1250   -22.5290    85.9550    23.7700    17.3190     9.6630    10.0600     2.4170 
  241.2500   -22.6540    89.2510    23.7110    12.9550     8.6430     8.9240     2.3730 
  241.3750   -22.7770    92.6210    23.6930    11.4440     8.0600     8.3080     2.3300 
  241.5000   -22.8880    94.0170    23.7090    11.7880     7.7770     8.0170     2.3050 
  241.6250   -22.9750    93.3050    23.7300    13.7160     7.7170     7.9490     2.3010 
  241.7500   -23.0290    91.3380    23.7500    16.0800     7.8030     8.0190     2.3120 
  241.8750   -23.0340    89.2080    23.7110    16.4000     7.9670     8.1630     2.3260 
  242.0000   -22.9950    88.6460    23.6930    14.7940     8.1530     8.3270     2.3350 
  242.1250   -22.9100    91.8640    23.7140    12.7940     8.3430     8.5020     2.3410 
  242.2500   -22.7830   100.4070    23.7970    11.3450     8.5340     8.6910     2.3410 
  242.3750   -22.6200   109.3060    23.8360    10.6490     8.7230     8.8990     2.3310 
  242.5000   -22.4450   111.0500    23.8620    10.4530     8.9030     9.1120     2.3230 
  242.6250   -22.2770   105.1340    23.8430    10.2980     9.0700     9.3160     2.3300 
  242.7500   -22.1330    96.5780    23.7570     9.9910     9.2170     9.4980     2.3470 
  242.8750   -22.0280    89.8290    23.6660     9.8700     9.3270     9.6410     2.3520 
  243.0000   -21.9530    85.0750    23.6250    10.3950     9.3980     9.7480     2.3460 
  243.1250   -21.8950    82.5280    23.6280    11.4110     9.4340     9.8170     2.3400 
  243.2500   -21.8340    81.7370    23.6490    12.2430     9.4480     9.8510     2.3370 
  243.3750   -21.7480    81.7370    23.6480    12.0940     9.4570     9.8640     2.3360 
  243.5000   -21.6290    81.7370    23.6320    11.7070     9.4730     9.8730     2.3480 
  243.6250   -21.4780    81.7370    23.6220    11.9700     9.5030     9.8940     2.3730 
  243.7500   -21.2980    81.7370    23.6230    12.8570     9.5510     9.9340     2.3910 
  243.8750   -21.0900    81.7370    23.6150    13.2340     9.6080     9.9940     2.3840 
  244.0000   -20.8640    81.7370    23.5970    12.6370     9.6590    10.0630     2.3680 
  244.1250   -20.6360    81.7370    23.5580    11.7700     9.6940    10.1290     2.3600 
  244.2500   -20.4230    81.7370    23.4830    11.3480     9.7170    10.1960     2.3660 
  244.3750   -20.2450    81.7370    23.4050    11.4280     9.7650    10.2950     2.3810 
  244.5000   -20.0970    81.7370    23.3720    11.8220     9.8810    10.4670     2.3980 
  244.6250   -19.9650    81.7370    23.3330    12.3520    10.1060    10.7550     2.4090 
  244.7500   -19.8370    81.7370    23.2430    13.0500    10.4690    11.1930     2.4140 
  244.8750   -19.7100    81.7370    23.1830    14.1560    11.0040    11.8270     2.4210 
  245.0000   -19.5850    81.7370    23.2700    15.9000    11.6640    12.5960     2.4350 
  245.1250   -19.4620    81.7370    23.4080    18.8090    12.3900    13.4190     2.4550 
  245.2500   -19.3410    81.7370    23.4510    22.5910    13.1000    14.1920     2.4820 
  245.3750   -19.2200    81.7370    23.3810    24.7930    13.6850    14.7790     2.5090 
  245.5000   -19.1040    81.7370    23.3490    24.5170    14.1010    15.1480     2.5290 
  245.6250   -18.9990    81.7370    23.3720    23.4980    14.3370    15.3030     2.5320 
  245.7500   -18.9180    81.7370    23.4510    22.8930    14.4180    15.2850     2.5190 
  245.8750   -18.8750    81.7370    23.4660    21.5200    14.3870    15.1600     2.4940 
  246.0000   -18.8670    81.7370    23.4630    19.3780    14.3210    15.0280     2.4670 
  246.1250   -18.8900    81.7370    23.5080    17.8190    14.2650    14.9420     2.4450 
  246.2500   -18.9350    81.7370    23.5740    17.4540    14.2380    14.9250     2.4320 
  246.3750   -18.9970    81.7370    23.6140    17.9500    14.2370    14.9590     2.4340 
  246.5000   -19.0670    81.7370    23.6170    18.3630    14.2430    14.9940     2.4410 
  246.6250   -19.1390    81.7370    23.6270    18.3840    14.2490    15.0040     2.4440 
  246.7500   -19.2060    81.7370    23.6520    18.3950    14.2530    14.9910     2.4410 
  246.8750   -19.2610    81.7370    23.6460    19.0060    14.2500    14.9600     2.4300 
  247.0000   -19.3070    81.7370    23.6380    19.9510    14.2450    14.9200     2.4210 
  247.1250   -19.3520    81.7370    23.6640    20.3970    14.2410    14.8740     2.4220 
  247.2500   -19.4110    81.7370    23.6800    20.1780    14.2370    14.8280     2.4330 
  247.3750   -19.4990    81.7370    23.6600    20.1380    14.2330    14.7870     2.4420 
  247.5000   -19.6170    81.7370    23.6580    20.3540    14.2270    14.7640     2.4380 
  247.6250   -19.7560    81.7370    23.7220    20.3920    14.2210    14.7660     2.4230 
  247.7500   -19.9020    81.7370    23.7970    19.8770    14.2160    14.7780     2.4130 
  247.8750   -20.0340    81.7370    23.8330    19.3390    14.2140    14.7850     2.4230 
  248.0000   -20.1470    81.7370    23.7950    19.4310    14.2130    14.7840     2.4460 
  248.1250   -20.2470    81.7370    23.7150    19.8190    14.2140    14.7760     2.4720 
  248.2500   -20.3380    81.7370    23.6580    19.8310    14.2170    14.7590     2.4900 
  248.3750   -20.4240    81.7370    23.6780    19.2900    14.2250    14.7340     2.4890 
  248.5000   -20.4990    81.7370    23.7230    19.0940    14.2330    14.7100     2.4710 
  248.6250   -20.5270    81.7370    23.7400    19.5510    14.2390    14.6940     2.4500 
  248.7500   -20.6110    81.7370    23.7950    20.4910    14.2420    14.6860     2.4360 
  248.8750   -20.6460    81.7370    23.8250    21.4480    14.2410    14.6900     2.4270 
  249.0000  -999.2500    81.7370    23.8400    22.3190    14.2380    14.6960     2.4210 
  249.1250  -999.2500    81.7370    23.8040    23.2610    14.2370    14.6980     2.4270 
  249.2500  -999.2500    81.7370    23.7520    24.2370    14.2370    14.6990     2.4460 
  249.3750  -999.2500    81.7370    23.7010    24.3750    14.2370    14.6990     2.4620 
  249.5000  -999.2500    81.7370    23.6940    23.8420    14.2370    14.6990     2.4630 
  249.6250  -999.2500    81.7370    23.6660    23.0880    14.2370    14.6990     2.4560 
  249.7500  -999.2500    81.7370    23.6430    22.5750    14.2370    14.6990     2.4550 
  249.8750  -999.2500    81.7370    23.5870    22.4230    14.2370    14.6990     2.4640 
  250.0000  -999.2500    81.7370    23.5400    22.2620    14.2370    14.6990     2.4760 
  250.1250  -999.2500    81.7370    23.5170    22.0000    14.2370    14.6990     2.4800 
