~V
VERS. 2.00: Ver 2.00
~W
STRT.M 64.0000:
STOP.M 243.0000:
STEP.M 0.1250:
NULL. -999.2500:
UWI. DF5061:
~C
DEPT.M :
GR.API :
RML.OHMM :
RI. :
RXO.OHMM :
CALI.CM :
DEN.GM/CC :
SP.MV :
~A
# ...
  199.0000    58.5280   100.4090    91.6360    83.1190    24.3520     2.2340   -13.5180 
  199.1250    59.4520   106.9590    96.6390    89.0270    24.3960     2.2230   -13.7210 
  199.2500    61.0590   113.1160   100.9680    92.7440    24.4050     2.2200   -13.8440 
  199.3750    60.6680   117.7020   103.9110    94.8550    24.3920     2.2220   -13.8470 
  199.5000    58.6260   120.4430   105.4160    94.8660    24.3590     2.2230   -13.7530 
  199.6250    56.8640   121.7380   105.8420    92.4980    24.3000     2.2230   -13.5890 
  199.7500    56.9610   122.5310   106.0040    89.6110    24.2200     2.2210   -13.4030 
  199.8750    59.0410   124.0040   107.0530    89.2540    24.1450     2.2190   -13.2380 
  200.0000    62.5940   126.7700   109.5560    91.9410    24.0650     2.2180   -13.1210 
  200.1250    65.6720   131.1630   113.7630    96.6060    24.0000     2.2180   -13.1050 
  200.2500    65.1340   137.4380   119.8190   101.6950    24.0000     2.2200   -13.2060 
  200.3750    62.7250   146.5330   128.5400   104.6920    24.0880     2.2210   -13.4380 
  200.5000    63.4460   159.0040   140.4140   105.4400    24.2150     2.2190   -13.7460 
  200.6250    66.3160   175.6520   156.1780   108.0660    24.2980     2.2110   -14.0740 
  200.7500    65.0210   196.2960   175.7210   117.0150    24.3160     2.1990   -14.3950 
  200.8750    57.5850   218.3830   196.9500   130.8720    24.2780     2.1880   -14.7270 
  201.0000    51.3850   236.1940   214.8600   142.7880    24.2070     2.1880   -15.1030 
  201.1250    50.9320   244.0840   224.4370   147.0210    24.1190     2.2020   -15.5080 
  201.2500    56.1710   238.6790   222.3070   138.0280    24.0270     2.2250   -15.9210 
  201.3750    61.5950   220.3090   207.7760   120.1390    23.9690     2.2430   -16.3410 
  201.5000    62.7050   198.0450   188.5150   108.0000    23.9470     2.2450   -16.7460 
  201.6250    61.4350   179.0870   170.9540   103.1530    23.9600     2.2330   -17.1550 
  201.7500    62.6040   167.6510   159.8800    96.2630    23.9610     2.2140   -17.5590 
  201.8750    65.5550   169.2180   159.2440    89.5600    23.9280     2.2010   -17.9180 
  202.0000    65.8510   181.4920   167.7150    87.6360    23.8660     2.1980   -18.1930 
  202.1250    64.2750   203.9520   183.9750    88.9610    23.7590     2.2020   -18.3520 
  202.2500    62.7590   233.5500   205.4680    89.4200    23.6340     2.2090   -18.4150 
  202.3750    61.9800   258.7580   228.0810    86.1330    23.5610     2.2120   -18.4450 
  202.5000    60.6930   279.9040   247.1180    81.5810    23.5810     2.2080   -18.5170 
  202.6250    59.8190   293.9860   259.8770    79.0020    23.6790     2.1990   -18.6500 
  202.7500    58.0810   300.4200   265.7180    78.7290    23.8070     2.1880   -18.8190 
  202.8750    54.6450   299.9280   265.2140    77.3710    23.8880     2.1790   -18.9900 
  203.0000    51.8130   295.7550   261.4660    77.3510    23.9640     2.1730   -19.1160 
  203.1250    50.6200   289.3520   256.0050    77.4260    24.0420     2.1720   -19.1730 
  203.2500    51.4760   281.7470   249.8040    77.4150    24.0470     2.1720   -19.1480 
  203.3750    52.3140   273.9100   243.5220    76.9020    23.9490     2.1760   -19.0000 
  203.5000    52.1850   266.6230   237.5700    76.4530    23.8190     2.1810   -18.7350 
  203.6250    52.4230   260.0700   232.0610    75.5100    23.6950     2.1880   -18.3760 
  203.7500    53.5220   253.9260   226.8990    73.8350    23.6070     2.1980   -17.9830 
  203.8750    53.2910   247.2590   221.7630    72.0930    23.5610     2.2100   -17.6150 
  204.0000    51.5690   239.0740   216.1290    70.9600    23.5160     2.2220   -17.3420 
  204.1250    51.0570   228.5650   209.3460    69.9420    23.4590     2.2290   -17.1880 
  204.2500    53.2310   215.2730   200.6310    68.7130    23.3890     2.2290   -17.1340 
  204.3750    56.8110   198.8850   188.8530    66.8520    23.3140     2.2220   -17.0900 
  204.5000    58.8840   180.7690   174.4860    64.2370    23.2620     2.2110   -17.0020 
  204.6250    60.4020   162.2870   158.4190    61.3040    23.2510     2.2010   -16.8470 
  204.7500    63.2010   144.8210   142.0590    59.7400    23.2630     2.1940   -16.6070 
  204.8750    65.3880   129.7340   127.1640    57.3770    23.2170     2.1910   -16.2830 
  205.0000    63.6600   117.1500   114.5570    54.3780    23.1000     2.1930   -15.9060 
  205.1250    61.0540   107.3480   104.7400    51.2960    22.9350     2.1990   -15.5170 
  205.2500    62.2480   100.7080    98.0900    48.9180    22.7940     2.2080   -15.1630 
  205.3750    64.4660    98.3370    95.5760    47.1300    22.7310     2.2190   -14.9380 
  205.5000    64.3030    99.9010    96.8410    45.8860    22.7530     2.2270   -14.8620 
  205.6250    63.4200   105.1820   101.7790    46.2610    22.8770     2.2290   -14.9420 
  205.7500    62.4300   113.4060   109.7870    49.7500    23.0990     2.2280   -15.1660 
  205.8750    58.4990   123.2010   119.6240    55.0330    23.2870     2.2250   -15.5070 
  206.0000    55.0130   132.3110   128.9030    57.3320    23.3590     2.2260   -15.9070 
  206.1250    54.7400   139.0620   135.7570    57.3600    23.3220     2.2300   -16.3430 
  206.2500    54.8670   142.3370   138.9160    58.0380    23.2290     2.2330   -16.7840 
  206.3750    53.5050   141.1500   137.4210    61.0820    23.2310     2.2340   -17.1880 
  206.5000    53.5420   136.4590   132.5100    65.8720    23.3350     2.2300   -17.5580 
  206.6250    56.5810   128.8370   124.9500    71.0330    23.5540     2.2250   -17.8930 
  206.7500    60.1480   119.1240   115.5620    75.5440    23.8650     2.2210   -18.1970 
  206.8750    60.3390   108.6590   105.4460    77.7520    24.1840     2.2190   -18.4560 
  207.0000    59.8450    99.3290    96.2200    76.1980    24.4140     2.2180   -18.6500 
  207.1250    60.9000    92.5240    89.1500    70.0610    24.5130     2.2170   -18.7500 
  207.2500    63.6190    89.0890    85.0710    64.0650    24.5370     2.2170   -18.7730 
  207.3750    65.1580    89.7800    84.7360    64.9350    24.5430     2.2200   -18.7480 
  207.5000    64.9470    93.5160    87.2240    70.3050    24.5470     2.2240   -18.7090 
  207.6250    63.5910    99.3970    91.8050    78.8570    24.5530     2.2270   -18.6700 
  207.7500    60.9530   106.2640    97.5180    88.3480    24.5600     2.2280   -18.6520 
  207.8750    58.3810   112.8670   103.3180    92.4490    24.5650     2.2240   -18.6620 
  208.0000    57.1180   118.6630   108.5890    93.3910    24.5700     2.2200   -18.6890 
  208.1250    57.3810   123.8160   113.3250    97.4850    24.5770     2.2190   -18.7300 
  208.2500    59.9340   128.7670   117.7860   103.7730    24.5810     2.2220   -18.7610 
  208.3750    62.3700   133.7280   122.1040   109.6650    24.5810     2.2270   -18.7390 
  208.5000    60.5260   138.1790   125.9480   114.5300    24.5780     2.2280   -18.6540 
  208.6250    56.4070   141.0990   128.5470   117.3790    24.5710     2.2240   -18.5190 
  208.7500    54.9020   141.4160   129.0150   118.8120    24.5620     2.2150   -18.3340 
  208.8750    57.4070   137.9170   126.2240   115.1790    24.5590     2.2080   -18.1150 
  209.0000    58.5990   131.2790   120.6140   108.1190    24.5460     2.2070   -17.9010 
  209.1250    57.8580   122.2310   112.7450    98.1090    24.5330     2.2110   -17.6970 
  209.2500    56.9030   111.8590   103.5720    88.9460    24.5260     2.2170   -17.5070 
  209.3750    57.4960   101.5190    94.3360    82.2120    24.5260     2.2210   -17.3470 
  209.5000    58.9340    92.3500    86.1090    76.5070    24.5270     2.2240   -17.1980 
  209.6250    59.5190    84.9900    79.4820    69.6460    24.5280     2.2270   -17.0250 
  209.7500    59.2130    79.6880    74.7300    63.8150    24.5310     2.2310   -16.8000 
  209.8750    61.1080    76.6540    72.1060    62.1140    24.5410     2.2360   -16.5110 
  210.0000    64.3130    75.2320    70.9690    62.6210    24.5600     2.2400   -16.1850 
  210.1250    66.7630    75.0500    70.8660    64.3250    24.5770     2.2410   -15.8540 
