~V
VERS. 2.00: Ver 2.00
~W
STRT.M 59.0000:
STOP.M 253.0000:
STEP.M 0.1250:
NULL. -999.2500:
UWI. DF5043:
~C
DEPT.M :
SP.MV :
GR.API :
CALI.CM :
RXO.OHMM :
RI. :
RML.OHMM :
DEN.GM/CC :
~A
   59.0000    41.9260    56.2550    25.5970     0.6360     0.2840     0.7930  -999.2500 
   59.1250    41.4710    56.4430    25.6020     0.6680     0.2920     0.8010  -999.2500 
   59.2500    41.0490    57.7280    25.6000     0.7250     0.2970     0.8060  -999.2500 
   59.3750    40.6550    57.6210    25.6050     0.7610     0.2990     0.8080  -999.2500 
   59.5000    40.2860    56.2080    25.6130     0.7400     0.2990     0.8080  -999.2500 
   59.6250    39.9450    54.1810    25.6090     0.6840     0.2980     0.8070  -999.2500 
   59.7500    39.6330    51.3170    25.5950     0.6290     0.2960     0.8050  -999.2500 
   59.8750    39.3420    48.0250    25.5920     0.6230     0.2930     0.8020  -999.2500 
   60.0000    39.0380    46.5600    25.5980     0.6630     0.2920     0.8010  -999.2500 
   60.1250    38.6920    47.4000    25.6010     0.7070     0.2940     0.8030  -999.2500 
   60.2500    38.2840    49.0350    25.5940     0.7350     0.2990     0.8070  -999.2500 
   60.3750    37.7940    50.6070    25.5900     0.8290     0.3060     0.8150  -999.2500 
   60.5000    37.2240    52.5480    25.5940     1.0030     0.3130     0.8220  -999.2500 
   60.6250    36.5470    54.0760    25.5970     1.1150     0.3180     0.8280  -999.2500 
   60.7500    35.7310    53.4320    25.5900     1.0280     0.3220     0.8310  -999.2500 
   60.8750    34.7190    50.2770    25.5850     0.7340     0.3230     0.8330  -999.2500 
   61.0000    33.5170    47.9210    25.5600     0.5500     0.3220     0.8310  -999.2500 
   61.1250    32.1070    48.6200    25.4990     0.4800     0.3130     0.8230  -999.2500 
   61.2500    30.4600    51.7550    25.4730     0.4740     0.2950     0.8040     1.9610 
   61.3750    28.4920    55.8750    25.4910     0.5050     0.2660     0.7740     1.9610 
   61.5000    26.2240    60.8270    25.5310     0.5940     0.2330     0.7400     1.9510 
   61.6250    23.6510    65.2700    25.5430     0.7600     0.2040     0.7100     1.9260 
   61.7500    20.7810    66.4320    25.5070     0.9950     0.1950     0.7000     1.8890 
   61.8750    17.5890    65.4150    25.4080     1.2670     0.2490     0.7570     1.8950 
   62.0000    14.1750    69.4680    25.1180     1.6550     0.4000     0.9120     1.9820 
   62.1250    10.6150    79.1500    24.5150     2.3720     0.6880     1.2090     2.1190 
   62.2500     7.0090    86.5330    23.8000     3.5410     1.1510     1.6850     2.2210 
   62.3750     3.4750    85.2580    23.3320     4.8090     1.8300     2.3850     2.2270 
   62.5000     0.0960    82.2100    23.1650     5.6340     2.6530     3.2330     2.1860 
   62.6250    -3.0610    83.6310    23.1100     5.9610     3.5310     4.1370     2.1480 
   62.7500    -5.9400    89.1660    23.0510     5.9820     4.3540     4.9840     2.1330 
   62.8750    -8.4440    93.8680    23.0510     5.8900     4.9950     5.6450     2.1400 
   63.0000   -10.6310    96.5430    23.1080     5.7950     5.4490     6.1130     2.1510 
   63.1250   -12.5360    99.0630    23.2140     5.7200     5.7440     6.4160     2.1600 
   63.2500   -14.2060   102.3640    23.2460     5.6830     5.9120     6.5900     2.1630 
   63.3750   -15.6590   103.8330    23.2270     5.7100     5.9680     6.6470     2.1540 
   63.5000   -16.9630   102.8330    23.1850     5.7470     5.9610     6.6400     2.1400 
   63.6250   -18.1510   102.6070    23.1400     5.7330     5.9260     6.6040     2.1330 
   63.7500   -19.2490   105.0150    23.1070     5.6650     5.8930     6.5700     2.1450 
   63.8750   -20.2610   107.1190    23.0990     5.5850     5.8820     6.5590     2.1740 
   64.0000   -21.2010   106.1920    23.1270     5.5530     5.8890     6.5660     2.1950 
   64.1250   -22.0690   103.4520    23.2180     5.6140     5.9060     6.5830     2.1950 
   64.2500   -22.8610   100.0630    23.3710     5.7510     5.9220     6.5990     2.1790 
   64.3750   -23.5620    95.6430    23.4740     5.8550     5.9240     6.6020     2.1660 
   64.5000   -24.1780    91.2810    23.5370     5.8890     5.9120     6.5890     2.1620 
   64.6250   -24.7020    88.6510    23.5670     5.8830     5.8880     6.5640     2.1580 
   64.7500   -25.1420    87.5800    23.5420     5.8560     5.8620     6.5380     2.1470 
   64.8750   -25.5020    86.7150    23.5700     5.8160     5.8470     6.5230     2.1260 
   65.0000   -25.8100    85.8910    23.6090     5.8220     5.8510     6.5270     2.1110 
   65.1250   -26.0660    85.3480    23.6250     5.9340     5.8740     6.5510     2.1100 
   65.2500   -26.2760    84.8280    23.6260     6.1440     5.9140     6.5920     2.1210 
   65.3750   -26.4520    85.4060    23.5550     6.3690     5.9670     6.6460     2.1300 
   65.5000   -26.6240    88.0600    23.4870     6.5320     6.0220     6.7020     2.1330 
   65.6250   -26.8020    91.3820    23.4490     6.6390     6.0720     6.7540     2.1370 
   65.7500   -26.9780    92.3860    23.4350     6.7090     6.1100     6.7940     2.1480 
   65.8750   -27.1340    89.2270    23.4180     6.7200     6.1310     6.8150     2.1590 
   66.0000   -27.2750    84.7740    23.3950     6.6910     6.1330     6.8170     2.1630 
   66.1250   -27.4170    81.8920    23.3860     6.6630     6.1130     6.7970     2.1670 
   66.2500   -27.5690    82.0120    23.3720     6.6190     6.0740     6.7570     2.1760 
   66.3750   -27.7250    84.8830    23.3700     6.4870     6.0190     6.7000     2.1880 
   66.5000   -27.8670    87.6860    23.3700     6.3150     5.9610     6.6400     2.1930 
   66.6250   -27.9940    88.4030    23.3650     6.2080     5.9140     6.5920     2.1890 
   66.7500   -28.1190    86.7540    23.3480     6.1960     5.8900     6.5660     2.1780 
   66.8750   -28.2560    85.0860    23.2790     6.2120     5.8960     6.5730     2.1730 
   67.0000   -28.3950    85.5090    23.2540     6.2470     5.9220     6.6000     2.1790 
   67.1250   -28.5160    86.8570    23.2540     6.3100     5.9560     6.6350     2.1890 
   67.2500   -28.6090    86.4420    23.2360     6.3870     5.9790     6.6590     2.1890 
   67.3750   -28.6790    83.9080    23.2500     6.4390     5.9840     6.6640     2.1760 
   67.5000   -28.7440    82.4480    23.2730     6.4940     5.9920     6.6710     2.1630 
   67.6250   -28.7990    82.5970    23.2120     6.5480     6.0230     6.7040     2.1560 
   67.7500   -28.8280    83.5040    23.0780     6.5140     6.0950     6.7780     2.1580 
   67.8750   -28.8100    86.1430    22.9760     6.3680     6.2210     6.9080     2.1780 
   68.0000   -28.7670    90.2300    23.0370     6.5070     6.3800     7.0710     2.2160 
   68.1250   -28.7250    92.4050    23.2510     7.5680     6.5340     7.2300     2.2570 
   68.2500   -28.7020    90.6100    23.4750     9.7730     6.6360     7.3350     2.2710 
   68.3750   -28.6990    89.0340    23.5800    11.5330     6.6240     7.3230     2.2470 
   68.5000   -28.6960    93.5770    23.5470    10.8300     6.5040     7.1990     2.2150 
   68.6250   -28.6840   102.8950    23.4900     8.4410     6.3040     6.9930     2.1990 
   68.7500   -28.6660   109.9160    23.5200     6.5670     6.0800     6.7620     2.2020 
   68.8750   -28.6530   108.9700    23.6640     6.0110     5.9040     6.5810     2.2150 
   69.0000   -28.6490   104.3390    23.8270     6.0290     5.8180     6.4920     2.2260 
   69.1250   -28.6440    99.1090    23.8630     6.1600     5.8370     6.5120     2.2340 
   69.2500   -28.6250    93.0860    23.8010     6.2740     5.9550     6.6330     2.2350 
   69.3750   -28.5810    86.3500    23.6800     6.3420     6.1370     6.8210     2.2260 
   69.5000   -28.5240    80.9670    23.5950     6.5220     6.3200     7.0090     2.2080 
   69.6250   -28.4670    77.1320    23.5550     7.0280     6.4590     7.1530     2.1930 
   69.7500   -28.4140    74.4900    23.5310     7.8670     6.5220     7.2180     2.1880 
   69.8750   -28.3530    73.9370    23.4840     8.3010     6.4770     7.1710     2.1870 
   70.0000   -28.2720    74.4940    23.4070     7.9840     6.3500     7.0410     2.1810 
   70.1250   -28.1750    74.5760    23.3150     7.2380     6.1690     6.8540     2.1690 
