~V
VERS. 2.00: Ver 2.00
~W
STRT.M 60.0000:
STOP.M 273.0000:
STEP.M 0.1250:
NULL. -999.2500:
UWI. DF5008:
~C
DEPT.M :
GR.API :
CALI.CM :
RXO.OHMM :
RI. :
RML.OHMM :
DEN.GM/CC :
SP.MV :
~A
# ...
  127.5000    73.5930    23.4150     8.0910     6.6320     7.5400     2.2310   -41.5590 
  127.6250    73.0800    23.5110     7.5620     6.6870     7.7020     2.2580   -41.5730 
  127.7500    70.3230    23.5370     7.8320     6.9450     8.2210     2.3000   -41.5500 
  127.8750    67.8400    23.5340     8.4570     7.5280     9.2280     2.3490   -41.4860 
  128.0000    67.4680    23.5350    10.6860     8.4860    10.6820     2.3880   -41.3820 
  128.1250    68.9610    23.5530    16.7440     9.7210    12.2480     2.3860   -41.2760 
  128.2500    70.8110    23.5940    21.3380    10.7860    13.3170     2.3440   -41.1170 
  128.3750    70.4100    23.6380    19.8900    11.2370    13.4560     2.2830   -40.9580 
  128.5000    67.4620    23.6180    14.6460    10.9160    12.6700     2.2270   -40.8640 
  128.6250    65.6970    23.4640    10.7950    10.0790    11.4650     2.1880   -40.8520 
  128.7500    66.9040    23.2500     9.5020     9.2800    10.5260     2.1650   -40.8970 
  128.8750    69.6470    23.0710     9.3940     8.7740    10.1130     2.1540   -41.0160 
  129.0000    73.0460    22.9780     9.6550     8.6380    10.2100     2.1480   -41.1930 
  129.1250    74.6720    22.9810     9.7370     8.8490    10.6470     2.1480   -41.3700 
  129.2500    72.7970    23.0630     9.9210     9.1940    11.1140     2.1520   -41.5680 
  129.3750    69.2140    23.2390     9.9730     9.5270    11.4560     2.1580   -41.7620 
  129.5000    66.7790    23.4740     9.7070     9.7660    11.6260     2.1640   -41.8460 
  129.6250    66.9150    23.6680     9.2620     9.8890    11.6510     2.1660   -41.8510 
  129.7500    67.2160    23.7630     9.0720     9.9500    11.6250     2.1660   -41.8490 
  129.8750    66.8260    23.7810     9.0640     9.9790    11.5970     2.1650   -41.7790 
  130.0000    65.9280    23.7640     9.0850    10.0000    11.5970     2.1650   -41.6750 
  130.1250    64.3340    23.7280     8.9240    10.0190    11.6200     2.1670   -41.5330 
  130.2500    62.4370    23.6760     8.8180    10.0160    11.6110     2.1710   -41.3060 
  130.3750    62.2180    23.6090     8.9550     9.9540    11.5100     2.1760   -41.0060 
  130.5000    66.0570    23.5430     9.1770     9.8050    11.2850     2.1810   -40.6990 
  130.6250    71.0940    23.4910     9.1760     9.5690    10.9600     2.1850   -40.3850 
  130.7500    70.6830    23.4410     9.2080     9.3210    10.6530     2.1850   -40.0250 
  130.8750    66.5350    23.4140     9.3490     9.1350    10.4580     2.1830   -39.7250 
  131.0000    64.4550    23.4460     9.4330     9.0580    10.4080     2.1800   -39.4370 
  131.1250    65.4370    23.5320     9.8090     9.0870    10.4500     2.1800   -39.2540 
  131.2500    64.9190    23.5810    10.4630     9.1290    10.4320     2.1820   -39.1380 
  131.3750    63.5860    23.5240    10.8680     9.0970    10.2520     2.1880   -39.0990 
  131.5000    64.0230    23.3510    10.4250     8.9510     9.8990     2.2000   -39.1070 
  131.6250    66.9170    23.1760     9.3630     8.7430     9.5180     2.2170   -39.0640 
  131.7500    69.8880    23.1820     8.5660     8.6220     9.3390     2.2380   -39.0220 
  131.8750    70.2200    23.4350     8.2990     8.7050     9.4970     2.2550   -38.9420 
  132.0000    68.0130    23.8060     8.5210     9.0330     9.9670     2.2610   -38.8200 
  132.1250    65.7150    24.0560     9.3590     9.5020    10.4910     2.2550   -38.6270 
  132.2500    64.6600    24.1390    10.1580     9.7870    10.6400     2.2470   -38.3780 
  132.3750    65.0410    24.1660    10.4980     9.5900    10.1240     2.2450   -38.0840 
  132.5000    67.0320    24.2310    10.2140     8.8130     8.9430     2.2530   -37.7220 
  132.6250    72.5170    24.3390     8.8140     7.6550     7.4510     2.2680   -37.3990 
  132.7500    79.7250    24.4390     6.7960     6.5520     6.1670     2.2830   -37.1030 
  132.8750    86.3790    24.4980     5.7090     5.7170     5.3110     2.2900   -36.8390 
  133.0000    91.6160    24.4900     5.6820     5.2270     4.9140     2.2890   -36.6490 
  133.1250    92.3490    24.4280     5.8640     5.1230     4.9560     2.2800   -36.5100 
  133.2500    89.7380    24.3890     6.2180     5.2800     5.2430     2.2710   -36.3990 
  133.3750    87.4550    24.3980     6.5360     5.5930     5.6340     2.2650   -36.3880 
  133.5000    87.5260    24.4250     6.5740     5.9340     5.9850     2.2680   -36.4780 
  133.6250    88.6650    24.4340     7.0730     6.1470     6.1420     2.2780   -36.6050 
  133.7500    87.6170    24.4380     7.3310     6.1580     6.0650     2.2900   -36.7740 
  133.8750    86.2280    24.4640     6.6790     5.9430     5.7550     2.2990   -36.9340 
  134.0000    87.6640    24.5230     5.7570     5.5350     5.2640     2.3040   -37.1120 
  134.1250    89.4190    24.5760     5.4360     5.0100     4.6990     2.3090   -37.2680 
  134.2500    88.7340    24.5790     5.3070     4.5100     4.2210     2.3090   -37.5060 
  134.3750    87.8780    24.5460     5.1200     4.1470     3.9510     2.2980   -37.7570 
  134.5000    91.3500    24.5300     4.8210     4.0060     3.9810     2.2710   -38.0270 
  134.6250    96.8130    24.5080     4.7790     4.1980     4.4410     2.2330   -38.3750 
  134.7500    95.1380    24.3920     5.9110     4.7150     5.3120     2.2010   -38.7470 
  134.8750    85.8150    24.1880     7.5410     5.5690     6.5760     2.1850   -39.2060 
  135.0000    76.5880    24.0150     8.9130     6.7260     8.1230     2.1840   -39.6560 
  135.1250    73.0010    23.9740    11.4260     8.0830     9.7220     2.1850   -40.1550 
  135.2500    70.4030    23.9850    18.3670     9.3890    11.0950     2.1780   -40.6110 
  135.3750    68.2440    23.9900    25.1360    10.4360    12.0740     2.1620   -40.9890 
  135.5000    68.5820    23.9830    23.3930    11.1000    12.6010     2.1420   -41.3030 
  135.6250    70.9630    23.9380    15.8640    11.3140    12.6750     2.1300   -41.5270 
  135.7500    70.3590    23.8280    10.7250    11.2350    12.4850     2.1300   -41.6750 
  135.8750    69.2270    23.6510     9.7870    10.9740    12.1620     2.1390   -41.7180 
  136.0000    69.7290    23.4470    10.5200    10.6470    11.8340     2.1520   -41.7420 
  136.1250    69.8180    23.2790    11.8880    10.3580    11.6130     2.1630   -41.6690 
  136.2500    69.6620    23.1750    12.9300    10.1470    11.5050     2.1670   -41.5650 
  136.3750    70.1920    23.1580    12.7730    10.0080    11.4820     2.1660   -41.4660 
  136.5000    70.4640    23.2520    11.7080     9.9160    11.4910     2.1610   -41.3460 
  136.6250    68.0610    23.4510    11.0550     9.8290    11.4590     2.1560   -41.2670 
  136.7500    65.9520    23.6520    11.0680     9.7190    11.3390     2.1540   -41.1960 
  136.8750    66.1960    23.7790    10.9770     9.5720    11.1110     2.1570   -41.1630 
  137.0000    68.0860    23.8280    10.8040     9.3950    10.7990     2.1700   -41.0960 
  137.1250    69.8370    23.8460    10.7490     9.2390    10.5360     2.2010   -41.0260 
  137.2500    69.7030    23.8830    10.9330     9.2180    10.5380     2.2520   -40.8880 
  137.3750    67.7210    23.9420    11.0760     9.4770    11.0090     2.3220   -40.6870 
  137.5000    65.4330    23.9780    11.2540    10.1300    12.0210     2.4020   -40.4190 
  137.6250    65.1600    23.9980    12.2080    11.1770    13.3540     2.4650   -40.1460 
  137.7500    65.1250    24.0670    14.7810    12.1610    14.2980     2.4840   -39.8510 
  137.8750    63.8930    24.1840    19.7400    12.4610    14.1610     2.4590   -39.5200 
  138.0000    63.4680    24.2840    22.8140    11.6500    12.6640     2.4110   -39.1860 
  138.1250    66.6620    24.3280    16.1370     9.9110    10.2690     2.3650   -38.8880 
  138.2500    71.7960    24.3660     8.4730     8.1300     8.0750     2.3280   -38.6530 
  138.3750    76.5890    24.4080     5.5450     6.7520     6.5790     2.3010   -38.5050 
  138.5000    80.9070    24.4440     5.7400     5.9030     5.8350     2.2850   -38.5150 
  138.6250    81.7950    24.4880     6.3550     5.5910     5.7140     2.2810   -38.5720 
