~V
VERS. 2.00: Ver 2.00
~W
STRT.M 53.0000:
STOP.M 257.0000:
STEP.M 0.1250:
NULL. -999.2500:
UWI. DF5014:
~C
DEPT.M :
GR.API :
RML.OHMM :
RI. :
RXO.OHMM :
CALI.CM :
DEN.GM/CC :
SP.MV :
~A
# ...
   86.7500   103.2520     8.0880     7.5100     7.7770    22.6660     2.3870   -12.6940 
   86.8750   108.5650     7.5240     7.0710     6.9930    22.6950     2.3890   -12.3400 
   87.0000   110.5080     7.0840     6.6860     6.4730    22.6820     2.3860   -12.0320 
   87.1250   110.1390     6.8250     6.4160     6.2060    22.6320     2.3860   -11.7460 
   87.2500   111.1550     6.7140     6.2630     6.0920    22.5600     2.3920   -11.5100 
   87.3750   116.5050     6.6710     6.1820     6.0380    22.4760     2.3980   -11.3730 
   87.5000   120.4920     6.6140     6.1050     5.9440    22.3950     2.3970   -11.2690 
   87.6250   119.9050     6.5300     6.0110     5.8280    22.3400     2.3880   -11.2620 
   87.7500   118.8820     6.4470     5.9150     5.6870    22.3080     2.3790   -11.2910 
   87.8750   119.0950     6.4080     5.8490     5.5580    22.2780     2.3770   -11.3290 
   88.0000   119.1700     6.4050     5.8160     5.4990    22.2540     2.3820   -11.3640 
   88.1250   117.7400     6.4040     5.8000     5.5050    22.2440     2.3880   -11.4000 
   88.2500   116.4710     6.3690     5.7750     5.5580    22.2460     2.3880   -11.4380 
   88.3750   114.6530     6.2760     5.7150     5.5280    22.2640     2.3790   -11.4520 
   88.5000   112.0630     6.1560     5.6330     5.4260    22.3030     2.3660   -11.4960 
   88.6250   109.5290     6.0500     5.5550     5.3530    22.3480     2.3550   -11.4860 
   88.7500   109.4740     5.9920     5.5150     5.3300    22.3810     2.3510   -11.4200 
   88.8750   112.7290     6.0080     5.5430     5.2950    22.4200     2.3570   -11.4390 
   89.0000   115.5370     6.0730     5.6270     5.2460    22.4860     2.3690   -11.4970 
   89.1250   115.5690     6.1690     5.7520     5.2230    22.5860     2.3820   -11.6330 
   89.2500   116.1030     6.2940     5.9020     5.2340    22.7770     2.3880   -11.7870 
   89.3750   117.6280     6.4910     6.0780     5.3780    23.1470     2.3810   -11.9600 
   89.5000   117.0800     6.7970     6.2850     5.6140    23.5760     2.3620   -12.1570 
   89.6250   113.7300     7.2220     6.5240     5.9510    23.8720     2.3350   -12.3950 
   89.7500   107.5310     7.7070     6.7690     6.3030    23.9850     2.3070   -12.7150 
   89.8750    97.6630     8.0810     6.9330     6.6030    23.9590     2.2840   -12.9720 
   90.0000    90.1890     8.1870     6.9300     6.8150    23.8990     2.2680   -13.2220 
   90.1250    92.0770     7.9330     6.7040     6.8840    23.8930     2.2620   -13.4220 
   90.2500   100.1910     7.3470     6.2650     6.5740    23.9700     2.2710   -13.5890 
   90.3750   104.9660     6.5970     5.7090     5.8360    24.0810     2.2940   -13.7570 
   90.5000   105.9320     5.9950     5.2290     5.2640    24.1200     2.3210   -13.9150 
   90.6250   105.7890     5.7850     4.9820     5.0920    24.0840     2.3420   -14.1060 
   90.7500   105.2330     6.1210     5.0790     5.2370    23.9370     2.3500   -14.3090 
   90.8750   102.7470     7.0840     5.6200     5.7700    23.5970     2.3440   -14.6500 
   91.0000    97.3590     8.3770     6.4650     6.5250    23.1150     2.3290   -15.0540 
   91.1250    87.8030     9.6900     7.4470     7.3680    22.6530     2.3080   -15.5370 
   91.2500    76.5740    10.6920     8.3440     8.1680    22.2920     2.2790   -16.1170 
   91.3750    69.1220    11.0610     8.8850     8.6420    22.3470     2.2460   -16.7230 
   91.5000    65.0290    10.9280     9.0570     8.8760    22.7110     2.2180   -17.3710 
   91.6250    62.6870    10.5320     8.9690     9.1760    23.0870     2.2000   -17.9690 
   91.7500    63.1750    10.1450     8.7930     9.4000    23.2750     2.1940   -18.5220 
   91.8750    65.0200     9.9870     8.6860     9.4130    23.3170     2.1970   -18.9520 
   92.0000    64.0330    10.0480     8.6840     9.4060    23.3140     2.2040   -19.2940 
   92.1250    62.0700    10.2430     8.7500     9.3190    23.2870     2.2090   -19.5310 
   92.2500    61.3490    10.4590     8.8240     9.1500    23.2330     2.2120   -19.6270 
   92.3750    60.5700    10.5790     8.8450     8.9880    23.1790     2.2110   -19.6820 
   92.5000    59.2390    10.5660     8.7940     8.9200    23.1360     2.2090   -19.6280 
   92.6250    59.5390    10.4150     8.6670     8.8710    23.0800     2.2050   -19.4900 
   92.7500    62.4930    10.1520     8.4710     8.8310    23.0470     2.2020   -19.2370 
   92.8750    65.1450     9.8080     8.2150     8.6500    23.0570     2.2000   -18.9170 
   93.0000    66.8040     9.4270     7.9220     8.3170    23.0900     2.1980   -18.5110 
   93.1250    69.4890     9.0260     7.6030     7.8490    23.1190     2.1990   -18.0780 
   93.2500    73.4700     8.6280     7.2740     7.3820    23.1610     2.2040   -17.6450 
   93.3750    77.5920     8.2810     6.9720     7.0750    23.2200     2.2160   -17.1660 
   93.5000    80.8350     8.0490     6.7460     6.7790    23.3060     2.2300   -16.7360 
   93.6250    82.9100     8.0060     6.6520     6.5730    23.4490     2.2440   -16.3510 
   93.7500    84.6250     8.2060     6.7300     6.5360    23.5730     2.2520   -16.1070 
   93.8750    84.5050     8.6550     7.0030     6.7310    23.5050     2.2500   -15.9760 
   94.0000    82.2300     9.1700     7.3620     7.1070    23.3620     2.2410   -15.9210 
   94.1250    81.5310     9.5490     7.6780     7.5070    23.2970     2.2280   -15.8530 
   94.2500    84.2300     9.6030     7.8140     7.7470    23.3440     2.2160   -15.7110 
   94.3750    88.8450     9.1900     7.6400     7.6570    23.4240     2.2140   -15.4950 
   94.5000    92.1400     8.4980     7.2340     7.1250    23.5320     2.2260   -15.1590 
   94.6250    96.1690     7.7450     6.7150     6.3810    23.6900     2.2510   -14.7870 
   94.7500   102.5810     7.1410     6.2190     5.7690    23.8270     2.2810   -14.3320 
   94.8750   107.3870     6.8540     5.8710     5.5740    23.8750     2.3080   -13.7880 
   95.0000   108.6330     6.8270     5.6830     5.6190    23.8850     2.3240   -13.2860 
   95.1250   106.1410     6.9650     5.6260     5.6660    23.8860     2.3300   -12.8570 
   95.2500   101.4490     7.1380     5.6430     5.6580    23.8850     2.3280   -12.5810 
   95.3750    99.3020     7.2030     5.6650     5.7060    23.8710     2.3220   -12.5000 
   95.5000   101.2150     7.1340     5.6520     5.7900    23.8330     2.3170   -12.6180 
   95.6250   104.8640     6.9900     5.6170     5.8630    23.7890     2.3140   -12.8450 
   95.7500   106.0530     6.8850     5.6050     5.8970    23.7760     2.3130   -13.1610 
   95.8750   103.9190     6.9620     5.6860     5.9200    23.7790     2.3060   -13.5920 
   96.0000    99.2320     7.2360     5.8780     6.1030    23.7020     2.2890   -14.0320 
   96.1250    92.7790     7.6660     6.1740     6.5280    23.5310     2.2650   -14.5440 
   96.2500    89.2690     8.1650     6.5310     7.1010    23.3810     2.2380   -15.0850 
   96.3750    88.0670     8.6070     6.8760     7.3410    23.3200     2.2160   -15.6280 
   96.5000    86.8340     8.9190     7.1460     7.3640    23.3080     2.2000   -16.1070 
   96.6250    85.8640     9.0850     7.3090     7.3520    23.3070     2.1910   -16.5730 
   96.7500    85.5950     9.1310     7.3660     7.3790    23.3070     2.1850   -16.9830 
   96.8750    82.4850     9.1000     7.3360     7.4010    23.3070     2.1810   -17.3060 
   97.0000    77.6560     9.0430     7.2650     7.4040    23.3070     2.1780   -17.6060 
   97.1250    77.8470     8.9730     7.1740     7.4010    23.3110     2.1770   -17.7930 
   97.2500    82.8320     8.8860     7.0700     7.3770    23.3220     2.1780   -17.8990 
   97.3750    85.7770     8.7660     6.9510     7.3180    23.3480     2.1790   -17.8870 
   97.5000    86.3930     8.5990     6.8170     7.2300    23.3640     2.1810   -17.8170 
   97.6250    86.4950     8.3820     6.6770     7.1820    23.3740     2.1810   -17.6790 
   97.7500    84.5380     8.1670     6.5620     7.2110    23.3840     2.1780   -17.5030 
   97.8750    79.0420     8.1540     6.5840     7.3280    23.4020     2.1720   -17.3130 
