~V
VERS. 2.00: Ver 2.00
~W
STRT.M 64.0000:
STOP.M 243.0000:
STEP.M 0.1250:
NULL. -999.2500:
UWI. DF5061:
~C
DEPT.M :
GR.API :
RML.OHMM :
RI. :
RXO.OHMM :
CALI.CM :
DEN.GM/CC :
SP.MV :
~A
# ...
  109.0000    87.9290     9.3330     7.5490     8.3400    23.8340     2.2030   -23.4990 
  109.1250    82.2250     9.9710     7.9870     8.5060    23.9260     2.2120   -23.5050 
  109.2500    73.0940    10.8260     8.6280     8.8250    23.9730     2.2420   -23.5680 
  109.3750    69.8750    11.7240     9.3710     9.2980    23.9830     2.2950   -23.7030 
  109.5000    72.6290    12.4160    10.0190     9.8210    23.9800     2.3480   -23.8810 
  109.6250    75.2540    12.7220    10.4110    10.3090    23.9440     2.3770   -24.0970 
  109.7500    75.0100    12.5730    10.4540    10.7030    23.8600     2.3710   -24.3290 
  109.8750    74.9160    12.0250    10.1370    10.8030    23.7450     2.3350   -24.5600 
  110.0000    76.2320    11.3530     9.6550    10.6820    23.6760     2.2960   -24.7860 
  110.1250    77.1790    10.7200     9.1340    10.4910    23.6770     2.2680   -24.9800 
  110.2500    74.4920    10.2110     8.6530    10.3260    23.7770     2.2470   -25.1120 
  110.3750    67.5550     9.8850     8.2690    10.2030    24.0380     2.2200   -25.1530 
  110.5000    63.5660     9.7620     8.0190    10.0660    24.4760     2.1820   -25.1060 
  110.6250    65.2320     9.9320     7.9880     9.8490    24.9990     2.1400   -24.9370 
  110.7500    66.3430    10.4760     8.2740     9.7220    25.2490     2.1120   -24.6080 
  110.8750    62.0500    11.3860     8.9490    10.4590    24.9910     2.1230   -24.0660 
  111.0000    57.4970    12.3330     9.7950    12.4780    24.5140     2.1800   -23.3280 
  111.1250    58.8580    12.9450    10.5210    15.1480    24.1840     2.2720   -22.4230 
  111.2500    67.2340    12.8820    10.8000    17.4960    24.1110     2.3740   -21.3830 
  111.3750    80.1220    11.8920    10.3060    17.8680    24.1750     2.4440   -20.2380 
  111.5000    91.4390    10.3840     9.2560    14.1440    24.2100     2.4690   -19.0660 
  111.6250    96.6600     8.8300     7.9860     8.7780    24.1990     2.4540   -17.9340 
  111.7500    99.1410     7.6310     6.8420     6.3300    24.1670     2.4180   -16.9110 
  111.8750   103.7900     7.0560     6.0900     5.6570    24.1200     2.3800   -16.0610 
  112.0000   106.8340     6.9540     5.7000     5.5390    24.0700     2.3480   -15.3720 
  112.1250   103.5610     7.1500     5.6020     5.5530    24.0160     2.3270   -14.8590 
  112.2500    95.0400     7.4330     5.6920     5.6810    23.9500     2.3150   -14.5150 
  112.3750    89.8010     7.5860     5.8710     5.8730    23.8480     2.3100   -14.3340 
  112.5000    92.4840     7.5350     6.0380     6.0410    23.7320     2.3080   -14.2520 
  112.6250   100.3270     7.3030     6.1400     6.1120    23.6450     2.3070   -14.2060 
  112.7500   106.1710     6.9780     6.1430     6.0750    23.5930     2.3100   -14.1470 
  112.8750   105.1690     6.6800     6.0220     5.9220    23.5550     2.3190   -14.0780 
  113.0000   103.4000     6.4730     5.8300     5.6640    23.4960     2.3300   -14.0040 
  113.1250   105.0240     6.3690     5.6250     5.4410    23.4590     2.3410   -13.9230 
  113.2500   107.6600     6.3770     5.4700     5.3050    23.4870     2.3460   -13.8450 
  113.3750   101.6470     6.5440     5.4400     5.3250    23.5100     2.3390   -13.7700 
  113.5000    91.7150     6.8530     5.5250     5.4930    23.5080     2.3230   -13.6840 
  113.6250    89.0310     7.2420     5.6920     5.7870    23.4790     2.3040   -13.6180 
  113.7500    93.4510     7.5960     5.8780     6.0670    23.4240     2.2870   -13.6060 
  113.8750    94.8180     7.7580     6.0020     6.2050    23.3220     2.2760   -13.6350 
  114.0000    92.2870     7.7010     6.0270     6.2200    23.2170     2.2720   -13.6790 
  114.1250    94.0000     7.4680     5.9440     6.1030    23.1600     2.2750   -13.7170 
  114.2500   100.4730     7.1460     5.7780     5.8500    23.1850     2.2850   -13.7260 
  114.3750   104.9870     6.8350     5.5770     5.5800    23.2760     2.3050   -13.7130 
  114.5000   105.7330     6.5810     5.3930     5.3870    23.4370     2.3310   -13.7010 
  114.6250   105.1190     6.3820     5.2420     5.3010    23.6700     2.3620   -13.6820 
  114.7500   103.4180     6.2160     5.1210     5.3400    23.8910     2.3910   -13.6690 
  114.8750    99.2970     6.0640     5.0150     5.5020    24.0120     2.4090   -13.6890 
  115.0000    94.3610     5.9370     4.9200     5.6640    24.0600     2.4140   -13.7670 
  115.1250    92.6660     5.8800     4.8540     5.6180    24.0810     2.4060   -13.9280 
  115.2500    95.4290     5.9380     4.8550     5.4740    24.0900     2.3860   -14.1930 
  115.3750    97.3460     6.1360     4.9730     5.5750    24.0930     2.3580   -14.5840 
  115.5000    94.8040     6.4000     5.1970     6.0130    24.1000     2.3290   -15.0720 
  115.6250    89.5110     6.6560     5.4950     6.6010    24.1050     2.3020   -15.6520 
  115.7500    83.6990     6.8380     5.8110     7.0740    24.0850     2.2780   -16.3000 
  115.8750    77.3180     6.9210     6.0720     7.3130    24.0390     2.2570   -16.9580 
  116.0000    71.1430     6.9840     6.2710     7.4800    23.9990     2.2390   -17.5800 
  116.1250    69.1350     7.1390     6.4660     7.8510    23.9810     2.2330   -18.1390 
  116.2500    72.0110     7.5030     6.7600     8.3200    23.9960     2.2460   -18.6120 
  116.3750    73.0760     8.1630     7.2670     9.0030    24.0140     2.2860   -18.9500 
  116.5000    69.9010     8.9910     7.9400    10.1120    24.0170     2.3360   -19.1690 
  116.6250    66.5300     9.8130     8.6590    11.6230    24.0000     2.3730   -19.2960 
  116.7500    64.3070    10.4250     9.2510    12.9760    23.9520     2.3790   -19.3520 
  116.8750    62.0580    10.6160     9.4940    12.7680    23.8290     2.3500   -19.3750 
  117.0000    60.8120    10.4430     9.3880    10.6470    23.6460     2.3100   -19.3730 
  117.1250    60.9620    10.0030     8.9980     9.0540    23.5030     2.2750   -19.3310 
  117.2500    61.5940     9.3900     8.4190     8.5140    23.5010     2.2560   -19.2400 
  117.3750    64.5200     8.6290     7.7040     8.4240    23.6630     2.2570   -19.0790 
  117.5000    70.2370     7.7600     6.9070     8.0970    23.8830     2.2710   -18.8530 
  117.6250    75.8140     6.8450     6.0710     7.3140    24.0640     2.2940   -18.5420 
  117.7500    80.9980     6.0360     5.2910     6.2080    24.2120     2.3230   -18.1500 
  117.8750    88.4950     5.6420     4.7800     5.3470    24.3750     2.3570   -17.7270 
  118.0000    94.5030     5.7950     4.6600     5.3760    24.5020     2.3940   -17.3580 
  118.1250    94.0370     6.5020     4.9910     6.4510    24.5390     2.4320   -17.0980 
  118.2500    85.2420     7.6030     5.7290     8.3650    24.5080     2.4600   -16.9890 
  118.3750    74.6230     8.7660     6.7160    10.7350    24.4180     2.4570   -17.0890 
  118.5000    70.1430     9.6130     7.6150    12.5580    24.2580     2.4210   -17.3790 
  118.6250    71.4030     9.9640     8.1790    12.2190    24.0250     2.3640   -17.8400 
  118.7500    72.1900     9.8830     8.3160    10.0500    23.8100     2.3040   -18.4320 
  118.8750    68.8920     9.6480     8.1390     8.7970    23.6900     2.2580   -19.0790 
  119.0000    67.0540     9.5610     7.9650     8.8370    23.6510     2.2280   -19.7160 
  119.1250    68.5770     9.7060     7.9580     9.2570    23.6390     2.2100   -20.3000 
  119.2500    70.0870    10.0340     8.1530     9.6090    23.6270     2.2030   -20.7990 
  119.3750    70.0140    10.4530     8.5010     9.8510    23.6070     2.2070   -21.2100 
  119.5000    69.8210    10.8730     8.8690    10.0280    23.5890     2.2220   -21.5360 
  119.6250    69.8640    11.2520     9.1820    10.0740    23.5890     2.2420   -21.7880 
  119.7500    70.2580    11.5360     9.3960    10.1120    23.6140     2.2600   -21.9920 
  119.8750    70.2130    11.6010     9.4780    10.2410    23.7010     2.2700   -22.1760 
  120.0000    69.9880    11.4340     9.4550    10.4000    23.8260     2.2740   -22.3290 
  120.1250    69.0790    11.0790     9.3510    10.5140    23.8950     2.2750   -22.4660 
