~V
VERS. 2.00: Ver 2.00
~W
STRT.M 59.0000:
STOP.M 275.0000:
STEP.M 0.1250:
NULL. -999.2500:
UWI. DF5021:
~C
DEPT.M :
SP.MV :
GR.API :
CALI.CM :
RXO.OHMM :
RI. :
RML.OHMM :
DEN.GM/CC :
~A
# ...
  261.5000   -11.6710    72.5370    24.4530    12.0190    10.6610    11.6540     2.3530 
  261.6250   -11.6600    71.2190    24.4520    11.1280    10.7510    11.7500     2.3690 
  261.7500   -11.6920    72.5840    24.4300    11.2220    10.9990    12.0140     2.3880 
  261.8750   -11.7490    75.0680    24.4500    12.2740    11.4110    12.4530     2.3990 
  262.0000   -11.7480    76.8270    24.4620    13.5320    11.9100    12.9840     2.4000 
  262.1250   -11.6950    77.4510    24.3840    14.2900    12.4310    13.5390     2.4010 
  262.2500   -11.7130    77.4410    24.2770    14.3520    12.9000    14.0390     2.4110 
  262.3750   -11.8140    77.5090    24.2000    14.2280    13.2300    14.3900     2.4280 
  262.5000   -11.9510    77.5370    24.1900    14.3530    13.4160    14.5880     2.4440 
  262.6250   -12.0210    77.2370    24.2230    14.9530    13.4770    14.6530     2.4530 
  262.7500   -12.0810    76.5430    24.2430    15.8490    13.4660    14.6410     2.4500 
  262.8750   -12.1040    76.1540    24.2230    16.1220    13.4600    14.6340     2.4350 
  263.0000   -12.1830    76.8940    24.1920    15.2430    13.5290    14.7090     2.4230 
  263.1250   -12.3000    78.3380    24.1930    13.8740    13.7120    14.9030     2.4170 
  263.2500   -12.3580    79.7620    24.2070    13.3080    14.0150    15.2260     2.4160 
  263.3750   -12.2950    81.4200    24.1580    14.3920    14.4160    15.6530     2.4130 
  263.5000   -12.1270    82.8960    24.1080    16.0590    14.8330    16.0970     2.4140 
  263.6250   -11.9740    82.5990    24.1480    17.2710    15.2040    16.4920     2.4200 
  263.7500   -11.8000    80.4180    24.2540    17.7280    15.4820    16.7880     2.4240 
  263.8750   -11.6160    78.4940    24.3920    17.6280    15.6160    16.9310     2.4130 
  264.0000   -11.3200    77.8310    24.5050    17.0770    15.6270    16.9430     2.3990 
  264.1250   -10.9880    77.7400    24.5350    16.1390    15.5420    16.8520     2.3950 
  264.2500   -10.7240    77.7430    24.4950    15.1500    15.4000    16.7010     2.4050 
  264.3750   -10.5380    77.7430    24.4860    14.5910    15.2460    16.5370     2.4150 
  264.5000   -10.4150    77.7430    24.5180    14.5230    15.1180    16.4000     2.4120 
  264.6250   -10.2890    77.7430    24.5480    14.7180    15.0370    16.3140     2.4010 
  264.7500   -10.1760    77.7430    24.5280    14.6390    15.0200    16.2960     2.3950 
  264.8750   -10.1750    77.7430    24.4420    14.0410    15.0830    16.3640     2.3980 
  265.0000   -10.2820    77.7430    24.3470    13.4650    15.2050    16.4940     2.3990 
  265.1250   -10.3890    77.7430    24.2620    13.7600    15.3740    16.6730     2.3930 
  265.2500   -10.4010    77.7430    24.2570    15.2340    15.5770    16.8900     2.3970 
  265.3750   -10.4030    77.7430    24.3210    17.6430    15.8080    17.1360     2.4240 
  265.5000   -10.4640    77.7430    24.4450    19.8480    16.0480    17.3920     2.4550 
  265.6250   -10.5550    77.7430    24.5700    20.8780    16.2820    17.6400     2.4640 
  265.7500   -10.7200    77.7430    24.6340    20.6270    16.4970    17.8690     2.4460 
  265.8750   -10.7850    77.7430    24.6270    19.7910    16.6820    18.0670     2.4220 
  266.0000   -10.8150    77.7430    24.6000    19.2050    16.8290    18.2230     2.4090 
  266.1250   -10.8550    77.7430    24.5730    18.8680    16.9240    18.3250     2.4010 
  266.2500   -10.9660    77.7430    24.5450    18.7220    16.9660    18.3690     2.3880 
  266.3750   -11.0870    77.7430    24.5380    18.7880    16.9540    18.3560     2.3780 
  266.5000   -11.2220    77.7430    24.5470    18.9770    16.9050    18.3040     2.3870 
  266.6250   -11.2860    77.7430    24.5470    19.6530    16.8250    18.2180     2.4150 
  266.7500   -11.3510    77.7430    24.5240    21.1770    16.7190    18.1060     2.4470 
  266.8750   -11.4220    77.7430    24.4680    23.1550    16.5990    17.9780     2.4610 
  267.0000   -11.4880    77.7430    24.4140    24.2020    16.4810    17.8520     2.4510 
  267.1250   -11.5500    77.7430    24.3690    24.2420    16.3780    17.7430     2.4270 
  267.2500   -11.6320    77.7430    24.3820    23.9130    16.3000    17.6600     2.4020 
  267.3750   -11.6830    77.7430    24.4480    22.7130    16.2690    17.6270     2.3860 
  267.5000   -11.7270    77.7430    24.4460    21.1510    16.2910    17.6500     2.3810 
  267.6250   -11.8480    77.7430    24.3900    21.2300    16.3650    17.7280     2.3910 
  267.7500   -11.8700    77.7430    24.3310    25.0000    16.4770    17.8480     2.4130 
  267.8750   -11.8880    77.7430    24.2840    30.7130    16.6110    17.9900     2.4330 
  268.0000   -11.9790    77.7430    24.2640    32.9530    16.7440    18.1320     2.4470 
  268.1250   -12.0670    77.7430    24.2570    30.1760    16.8600    18.2560     2.4550 
  268.2500   -12.1720    77.7430    24.2530    25.3630    16.9490    18.3500     2.4560 
  268.3750   -12.3720    77.7430    24.2400    22.4550    16.9980    18.4030     2.4410 
  268.5000   -12.4910    77.7430    24.2430    20.5740    17.0210    18.4280     2.4170 
  268.6250   -12.5700    77.7430    24.2610    18.8880    17.0270    18.4340     2.3930 
  268.7500   -12.6950    77.7430    24.2890    17.3640    17.0240    18.4300     2.3750 
  268.8750   -12.8510    77.7430    24.3270    16.2670    17.0180    18.4240     2.3700 
  269.0000   -12.9190    77.7430    24.3340    15.5410    17.0130    18.4190     2.3780 
  269.1250   -12.9890    77.7430    24.3070    15.1860    17.0100    18.4160     2.3870 
  269.2500   -13.0450    77.7430    24.2630    14.9680    17.0090    18.4150     2.3940 
  269.3750   -13.0280    77.7430    24.2120    14.3580    17.0090    18.4150     2.3970 
  269.5000   -13.0810    77.7430    24.1710    13.8320    17.0100    18.4160     2.3950 
  269.6250   -13.0540    77.7430    24.1610    14.2300    17.0120    18.4170     2.3930 
  269.7500   -13.0350    77.7430    24.1640    15.8430    17.0130    18.4190     2.3900 
  269.8750   -13.0420    77.7430    24.1050    17.8060    17.0140    18.4200     2.3830 
  270.0000   -13.0670    77.7430    24.0010    19.1830    17.0150    18.4210     2.3640 
  270.1250   -13.1090    77.7430    23.8890    19.0700    17.0150    18.4210     2.3450 
  270.2500   -13.0600    77.7430    23.7420    17.2390    17.0150    18.4210     2.3350 
  270.3750   -13.2870    77.7430    23.6390    14.8100    17.0150    18.4210     2.3340 
  270.5000   -13.7010    77.7430    23.5770    13.4920    17.0150    18.4210     2.3420 
  270.6250   -14.1840    77.7430    23.5180    13.6170    17.0150    18.4210     2.3580 
  270.7500   -14.6870    77.7430    23.3370    14.3640    17.0150    18.4210     2.3670 
  270.8750   -15.1710    77.7430    22.9050    14.4740    17.0150    18.4210     2.3490 
  271.0000   -15.6690    77.7430    22.1880    13.9360    17.0150    18.4210     2.3010 
  271.1250   -16.1300    77.7430    21.2850    12.7920    17.0150    18.4210     2.2570 
  271.2500   -16.7000    77.7430    20.2880    11.1000    17.0150    18.4210     2.2340 
  271.3750   -16.7000    77.7430    19.3620     9.4220    17.0150    18.4210     2.2260 
  271.5000   -16.7000    77.7430    18.7290     8.5170    17.0150    18.4210     2.2250 
  271.6250  -999.2500    77.7430    18.3990     8.2700    17.0150    18.4210     2.2220 
  271.7500  -999.2500    77.7430    18.1670     8.3750    17.0150    18.4210     2.2120 
  271.8750  -999.2500    77.7430    17.9110     8.8790    17.0150    18.4210     2.1910 
  272.0000  -999.2500    77.7430    17.6380     9.6630    17.0150    18.4210     2.1600 
  272.1250  -999.2500    77.7430    17.4550    10.2840    17.0150    18.4210     2.1230 
  272.2500  -999.2500    77.7430    17.3490    10.3690    17.0150    18.4210     2.0850 
  272.3750  -999.2500    77.7430    17.1750     9.9280    17.0150    18.4210     2.0480 
  272.5000  -999.2500    77.7430    16.9260     9.3990    17.0150    18.4210     2.0140 
  272.6250  -999.2500    77.7430    16.5980     8.8790    17.0150    18.4210     1.9770 
