~V
VERS. 2.00: Ver 2.00
~W
STRT.M 59.0000:
STOP.M 243.0000:
STEP.M 0.1250:
NULL. -999.2500:
UWI. DF5058:
~C
DEPT.M :
GR.API :
CALI.CM :
RXO.OHMM :
RI. :
RML.OHMM :
DEN.GM/CC :
SP.MV :
~A
# ...
  115.2500    80.3680    23.8340     5.5610     5.4120     5.4020     2.2580   -35.2310 
  115.3750    78.9400    23.8770     4.6880     5.0820     5.0430     2.2710   -35.2820 
  115.5000    79.8240    23.8780     3.8560     4.8460     4.8500     2.2820   -35.4040 
  115.6250    81.0350    23.7500     4.0690     4.7600     4.8540     2.2830   -35.4320 
  115.7500    81.1120    23.5730     4.7220     4.7900     4.9880     2.2720   -35.5420 
  115.8750    80.2680    23.4490     5.0440     4.8970     5.1880     2.2560   -35.5630 
  116.0000    77.5000    23.4140     5.1380     5.0240     5.3830     2.2440   -35.6790 
  116.1250    72.7390    23.4490     5.1510     5.1220     5.5300     2.2400   -35.8710 
  116.2500    71.4490    23.5000     5.2060     5.2060     5.6680     2.2380   -36.0400 
  116.3750    72.5290    23.5190     5.2680     5.3280     5.8770     2.2340   -36.3440 
  116.5000    71.6460    23.4910     5.4990     5.5440     6.2280     2.2270   -36.5180 
  116.6250    68.8060    23.4630     6.1000     5.9010     6.7600     2.2170   -36.8170 
  116.7500    68.5340    23.4450     7.2960     6.3520     7.3710     2.2080   -37.0510 
  116.8750    69.4540    23.3840     8.5690     6.8190     7.9340     2.2010   -37.2590 
  117.0000    67.3860    23.2900     9.1510     7.1990     8.3170     2.1950   -37.5120 
  117.1250    65.5860    23.2760     8.7980     7.3670     8.3960     2.1910   -37.6060 
  117.2500    66.4050    23.3410     8.4890     7.3390     8.2450     2.1890   -37.7380 
  117.3750    67.8820    23.4010     8.3110     7.1690     7.9680     2.1860   -37.6860 
  117.5000    68.2580    23.4140     8.1880     6.9410     7.6720     2.1800   -37.6740 
  117.6250    68.4800    23.4100     8.0130     6.7370     7.4510     2.1710   -37.5820 
  117.7500    69.3490    23.3980     7.9270     6.6040     7.3380     2.1640   -37.3900 
  117.8750    68.7830    23.3650     7.7880     6.5700     7.3530     2.1610   -37.2590 
  118.0000    66.3210    23.3470     7.7480     6.6400     7.4780     2.1620   -36.9720 
  118.1250    65.4930    23.3800     7.6800     6.7790     7.6240     2.1650   -36.7680 
  118.2500    67.7950    23.4530     7.5570     6.8630     7.6350     2.1680   -36.4720 
  118.3750    71.3260    23.5580     7.6590     6.7770     7.3920     2.1710   -36.2220 
  118.5000    72.4060    23.6300     7.9090     6.4580     6.8660     2.1800   -35.9400 
  118.6250    70.9500    23.6150     7.1360     5.9310     6.1520     2.1990   -35.5540 
  118.7500    72.6390    23.6240     5.3920     5.3730     5.4780     2.2210   -35.2410 
  118.8750    79.1720    23.7330     4.0780     4.9060     4.9850     2.2370   -34.7520 
  119.0000    85.2000    23.8670     3.9180     4.5990     4.7250     2.2380   -34.3290 
  119.1250    84.7120    23.8430     4.0090     4.4970     4.7070     2.2230   -33.9400 
  119.2500    80.7370    23.7200     4.1730     4.5330     4.8090     2.2060   -33.5520 
  119.3750    78.5680    23.6370     4.1440     4.6390     4.9340     2.1960   -33.3060 
  119.5000    79.8830    23.6420     4.1910     4.7400     5.0080     2.1980   -33.0770 
  119.6250    80.9470    23.7290     4.5010     4.7720     4.9850     2.2130   -32.9100 
  119.7500    78.8380    23.8770     4.8630     4.7340     4.8910     2.2310   -32.8520 
  119.8750    76.5840    24.0860     4.6600     4.6520     4.7710     2.2460   -32.8850 
  120.0000    77.2710    24.3350     4.2630     4.5750     4.6830     2.2530   -32.9110 
  120.1250    79.8840    24.5470     4.3140     4.5820     4.7280     2.2520   -32.9670 
  120.2500    80.2700    24.6480     4.3910     4.7210     4.9490     2.2460   -33.0790 
  120.3750    79.2420    24.5610     4.6330     5.0080     5.3360     2.2380   -33.2020 
  120.5000    78.1610    24.3050     5.1190     5.3990     5.7930     2.2280   -33.3010 
  120.6250    76.1080    24.0740     5.8460     5.7470     6.1120     2.2200   -33.5100 
  120.7500    75.9680    24.0150     6.5280     5.9000     6.1580     2.2170   -33.6460 
  120.8750    78.4330    24.1060     6.6760     5.8010     5.9260     2.2260   -33.7330 
  121.0000    80.4340    24.2800     5.5190     5.5070     5.5360     2.2450   -33.9310 
  121.1250    80.3780    24.4930     4.2970     5.1570     5.1790     2.2660   -34.0010 
  121.2500    80.5730    24.6430     3.8940     4.8790     4.9660     2.2770   -34.0850 
  121.3750    82.0460    24.6560     4.3610     4.7160     4.9030     2.2760   -34.0260 
  121.5000    82.1640    24.5800     4.7800     4.6500     4.9330     2.2680   -34.0620 
  121.6250    80.9150    24.5370     4.6130     4.6210     4.9560     2.2620   -34.1080 
  121.7500    80.8150    24.5290     4.3260     4.5440     4.8860     2.2610   -34.0850 
  121.8750    81.1280    24.5020     4.1730     4.3910     4.7180     2.2620   -34.2580 
  122.0000    81.6700    24.4320     4.1090     4.2050     4.5370     2.2660   -34.3660 
  122.1250    83.0890    24.3560     4.0720     4.1190     4.5410     2.2740   -34.6110 
  122.2500    83.8410    24.3400     4.2250     4.2350     4.8470     2.2920   -34.9030 
  122.3750    83.0290    24.4210     4.5080     4.6120     5.5060     2.3210   -35.2820 
  122.5000    80.9940    24.5780     5.4170     5.2550     6.4700     2.3560   -35.6930 
  122.6250    76.9310    24.7140     9.1590     6.0840     7.5240     2.3780   -36.0480 
  122.7500    70.8510    24.7810    11.2570     6.8280     8.3010     2.3690   -36.5820 
  122.8750    66.5700    24.8140    10.3200     7.2610     8.5740     2.3250   -37.0270 
  123.0000    66.8970    24.8370     8.9280     7.3210     8.3760     2.2680   -37.5200 
  123.1250    67.6390    24.7960     8.3710     7.1540     7.9970     2.2190   -38.0150 
  123.2500    64.5640    24.6570     8.3990     7.0300     7.7790     2.1870   -38.4010 
  123.3750    60.9630    24.4620     8.6930     7.0690     7.8280     2.1690   -38.7780 
  123.5000    60.1320    24.3080     9.4040     7.2780     8.0940     2.1640   -38.9580 
  123.6250    61.4900    24.2310    10.4670     7.5660     8.4250     2.1660   -39.1130 
  123.7500    62.7180    24.1240    10.9280     7.8050     8.6750     2.1680   -39.1500 
  123.8750    63.2630    23.9980    10.2450     7.9430     8.7990     2.1710   -39.0090 
  124.0000    64.1860    23.9940     9.1590     7.9640     8.7820     2.1730   -38.7580 
  124.1250    65.7300    24.2030     8.6080     7.8120     8.5460     2.1750   -38.3260 
  124.2500    66.6260    24.4070     8.8710     7.4490     8.0470     2.1770   -37.8810 
  124.3750    67.3290    24.4460     9.2560     6.8490     7.2690     2.1820   -37.3260 
  124.5000    70.5250    24.3480     8.5920     6.0670     6.3070     2.1920   -36.8030 
  124.6250    75.9660    24.2400     5.9840     5.2700     5.4000     2.2080   -36.2650 
  124.7500    79.9370    24.1990     3.8660     4.6380     4.7680     2.2280   -35.5610 
  124.8750    81.6590    24.2190     3.2870     4.2750     4.5350     2.2460   -35.0260 
  125.0000    82.0970    24.2330     3.5050     4.2480     4.7550     2.2530   -34.4790 
  125.1250    81.3090    24.1470     4.3020     4.6600     5.4930     2.2460   -34.0080 
  125.2500    80.8470    23.9920     5.1580     5.4360     6.5640     2.2370   -33.6780 
  125.3750    81.1830    23.8700     6.1120     6.4700     7.7390     2.2360   -33.3730 
  125.5000    80.0800    23.8840     7.9900     7.5100     8.6620     2.2480   -33.2560 
  125.6250    76.3480    24.0570    11.5280     8.0500     8.8200     2.2770   -33.0930 
  125.7500    74.1460    24.2490    11.5330     7.8740     8.1980     2.3120   -32.9980 
  125.8750    75.1400    24.3630     8.6010     7.1050     7.0660     2.3400   -32.9580 
  126.0000    78.5300    24.3940     6.4660     6.0860     5.8360     2.3530   -32.8930 
  126.1250    85.5530    24.3880     5.1900     5.1570     4.8750     2.3480   -32.8270 
  126.2500    93.0580    24.4140     3.9240     4.4590     4.2480     2.3400   -32.7160 
  126.3750    96.4800    24.4950     3.3400     3.9980     3.8940     2.3360   -32.5560 
