~V
VERS. 2.00: Ver 2.00
~W
STRT.M 53.0000:
STOP.M 257.0000:
STEP.M 0.1250:
NULL. -999.2500:
UWI. DF5014:
~C
DEPT.M :
GR.API :
RML.OHMM :
RI. :
RXO.OHMM :
CALI.CM :
DEN.GM/CC :
SP.MV :
~A
# ...
  233.0000    57.4550     9.0180     8.6260     7.1190    23.9760     2.4140   -10.4870 
  233.1250    55.0470     8.8230     8.5390     7.1790    23.9290     2.4150   -10.7840 
  233.2500    51.0660     8.5540     8.3490     7.2460    23.9320     2.4160   -11.0940 
  233.3750    48.5510     8.1790     8.0030     6.9200    23.9070     2.4150   -11.3660 
  233.5000    50.9990     7.7180     7.5340     6.4280    23.8910     2.4110   -11.5980 
  233.6250    58.1330     7.2270     7.0060     5.9570    23.8860     2.4040   -11.7930 
  233.7500    65.2110     6.8120     6.5220     5.6110    23.8880     2.3950   -11.9130 
  233.8750    70.6390     6.6340     6.2280     5.6110    23.8950     2.3850   -11.9860 
  234.0000    77.2680     6.7340     6.1760     5.9910    23.9170     2.3770   -11.9560 
  234.1250    84.8790     7.1050     6.3710     6.8130    23.9650     2.3750   -11.8020 
  234.2500    88.8300     7.6780     6.7610     7.7940    24.0420     2.3780   -11.5100 
  234.3750    88.3340     8.3350     7.2470     8.4260    24.1170     2.3880   -11.1380 
  234.5000    90.3680     8.9220     7.6930     8.3940    24.1580     2.4000   -10.7450 
  234.6250    96.9660     9.3470     8.0250     8.2040    24.1910     2.4130   -10.3600 
  234.7500   104.9650     9.5730     8.2210     8.1130    24.2110     2.4220   -10.0090 
  234.8750   109.8480     9.6120     8.3000     8.2030    24.2180     2.4250    -9.6860 
  235.0000   112.9520     9.5730     8.3340     8.3000    24.2200     2.4230    -9.3960 
  235.1250   115.6900     9.5230     8.3570     8.3450    24.2200     2.4180    -9.1610 
  235.2500   119.3010     9.4950     8.3810     8.3490    24.2110     2.4130    -9.0270 
  235.3750   125.8030     9.5040     8.4070     8.2850    24.1840     2.4130    -8.9790 
  235.5000   129.5630     9.5360     8.4330     8.2060    24.1570     2.4170    -8.9510 
  235.6250   125.1150     9.5900     8.4720     8.1540    24.1360     2.4210    -8.9280 
  235.7500   117.0410     9.6890     8.5470     8.1140    24.1080     2.4230    -8.9240 
  235.8750   115.3450     9.8840     8.6970     8.1900    24.0950     2.4190    -8.9000 
  236.0000   120.2540    10.1730     8.9230     8.3910    24.0900     2.4100    -8.8760 
  236.1250   124.4810    10.5170     9.1980     8.7590    24.0900     2.3990    -8.8740 
  236.2500   124.9430    10.8200     9.4570     9.2420    24.0900     2.3900    -8.8880 
  236.3750   125.1600    10.9070     9.5660     9.5050    24.0870     2.3870    -8.8410 
  236.5000   124.6000    10.7010     9.4470     9.4190    24.0750     2.3880    -8.7880 
  236.6250   121.5530    10.2120     9.0760     9.1510    24.0520     2.3920    -8.7020 
  236.7500   118.6780     9.5690     8.5270     8.8440    24.0260     2.3950    -8.5650 
  236.8750   121.9660     9.0910     8.0050     8.5920    24.0160     2.3930    -8.4130 
  237.0000   127.8870     9.1860     7.7980     8.5560    24.0140     2.3860    -8.2750 
  237.1250   126.9510    10.3560     8.2510     9.4610    24.0090     2.3750    -8.1520 
  237.2500   119.0360    13.1880     9.8520    12.2350    23.9960     2.3660    -8.0350 
  237.3750   107.3480    18.6740    13.6350    18.2470    23.9870     2.3680    -7.9890 
  237.5000    93.4120    26.7120    19.9420    27.0810    23.9760     2.3840    -7.9590 
  237.6250    79.2260    37.0290    28.9340    37.5020    23.8310     2.4100    -7.9600 
  237.7500    68.5180    48.8640    40.1510    48.2050    23.4630     2.4310    -7.9680 
  237.8750    65.7110    61.2360    52.5700    57.8820    23.2260     2.4260    -7.9760 
  238.0000    65.9500    73.5660    64.9010    68.2670    23.2660     2.3940    -7.9810 
  238.1250    66.5820    86.2330    76.9530    82.5350    23.4600     2.3470    -7.9720 
  238.2500    65.9760    99.8480    89.0790    99.3260    23.6020     2.3020    -7.9560 
  238.3750    64.2300   114.2830   101.2080   115.8030    23.5960     2.2720    -7.9090 
  238.5000    64.4460   127.6850   112.1890   123.6080    23.5450     2.2580    -7.8470 
  238.6250    65.4760   137.7850   120.4790   123.0870    23.5300     2.2550    -7.7570 
  238.7500    64.7060   142.7520   124.8850   121.9470    23.5460     2.2570    -7.6640 
  238.8750    62.2460   141.3190   124.5620   121.9820    23.4690     2.2590    -7.6000 
  239.0000    61.9820   135.6790   121.0510   118.1250    23.2630     2.2580    -7.5060 
  239.1250    64.3620   127.4610   115.4010   109.3500    23.0800     2.2560    -7.3750 
  239.2500    66.2820   118.0850   108.5990    96.7120    23.0620     2.2540    -7.2250 
  239.3750    65.6310   108.9800   101.5520    84.3480    23.1950     2.2520    -7.0760 
  239.5000    63.9440   100.6730    94.8230    76.5030    23.3840     2.2490    -6.9420 
  239.6250    63.1310    93.1980    88.3460    72.1770    23.5160     2.2430    -6.8120 
  239.7500    63.4680    85.7140    81.6800    68.8940    23.5910     2.2350    -6.7130 
  239.8750    64.7440    78.0080    74.1370    65.4700    23.6180     2.2300    -6.6230 
  240.0000    67.2750    69.5130    65.7590    59.3250    23.6220     2.2320    -6.6000 
  240.1250    71.8340    59.9970    57.1620    49.7060    23.6220     2.2430    -6.6190 
  240.2500    78.3150    50.9250    49.3650    40.5420    23.6220     2.2610    -6.6650 
  240.3750    83.9930    44.7400    43.7840    33.5470    23.6220     2.2790    -6.7460 
  240.5000    87.3690    41.6410    40.7510    29.5430    23.6220     2.2890    -6.8600 
  240.6250    88.6040    41.5820    40.3790    29.2280    23.6240     2.2870    -6.9930 
  240.7500    87.9120    44.0620    42.4070    32.6380    23.6330     2.2750    -7.1470 
  240.8750    84.8760    48.2880    46.3620    40.1070    23.6460     2.2600    -7.2560 
  241.0000    80.5240    52.6770    50.8070    48.1070    23.6540     2.2490    -7.3160 
  241.1250    76.9970    56.0910    54.5540    54.8480    23.6390     2.2450    -7.3570 
  241.2500    74.7950    57.7830    56.6430    56.9900    23.5930     2.2460    -7.3560 
  241.3750    72.7020    57.5180    56.5300    50.3690    23.5700     2.2500    -7.2900 
  241.5000    72.4140    56.5080    55.2900    45.0780    23.5610     2.2540    -7.1820 
  241.6250    76.2600    55.9550    54.1050    43.3290    23.5590     2.2590    -7.0780 
  241.7500    81.6060    57.0890    54.2240    42.2400    23.5600     2.2620    -6.9720 
  241.8750    79.2420    61.6160    57.3360    43.5960    23.5610     2.2620    -6.9380 
  242.0000    71.6170    69.8410    63.9040    49.8710    23.5700     2.2570    -6.9170 
  242.1250    66.0390    81.6730    74.0490    61.3840    23.5970     2.2460    -6.9000 
  242.2500    65.1620    95.9420    86.9170    76.5700    23.6290     2.2320    -6.9230 
  242.3750    63.9000   109.6460   100.1170    93.0160    23.6650     2.2180    -7.0240 
  242.5000    60.8560   119.1670   110.3320   103.7130    23.6780     2.2060    -7.1340 
  242.6250    59.5920   122.4790   115.3140   106.5670    23.6820     2.1990    -7.2530 
  242.7500    61.9610   119.6030   114.6000   102.8490    23.6820     2.1980    -7.3880 
  242.8750    66.5700   113.4910   109.3320    94.5200    23.6990     2.2030    -7.5570 
  243.0000    68.4680   107.3010   102.7190    84.8850    23.7730     2.2120    -7.7450 
  243.1250    67.1990   102.5980    96.2610    78.6160    23.9180     2.2220    -7.9470 
  243.2500    66.4770    99.3360    90.4750    78.7920    24.0370     2.2310    -8.1270 
  243.3750    67.9540    93.5950    85.3760    80.1920    24.0770     2.2350    -8.2700 
  243.5000    68.9270    87.7180    80.7810    78.3710    24.0820     2.2350    -8.4080 
  243.6250    68.4280    82.3970    76.9750    70.8100    24.0820     2.2330    -8.5410 
  243.7500    68.0410    79.1620    74.6640    63.4200    24.0830     2.2300    -8.6710 
  243.8750    68.9500    80.7580    75.5400    61.1990    24.0930     2.2290    -8.7360 
  244.0000    69.0140    87.5490    80.3890    63.0300    24.1140     2.2290    -8.7590 
  244.1250    67.0120    99.8820    89.6790    69.9130    24.1390     2.2330    -8.7730 
