~V
VERS. 2.00: Ver 2.00
~W
STRT.M 60.0000:
STOP.M 256.0000:
STEP.M 0.1250:
NULL. -999.2500:
UWI. DF5048:
~C
DEPT.M :
GR.API :
CALI.CM :
RXO.OHMM :
RI. :
RML.OHMM :
DEN.GM/CC :
SP.MV :
~A
# ...
  183.7500    63.1360    24.5450    44.3300    77.3680    77.2330     2.2870   -36.2030 
  183.8750    66.6950    24.5910    44.6760    72.3410    72.5640     2.2490   -36.2580 
  184.0000    67.6360    24.7160    47.5260    68.4520    69.6390     2.2240   -36.3990 
  184.1250    66.8820    24.8070    53.4250    66.9340    69.2820     2.2100   -36.4950 
  184.2500    67.2710    24.8450    58.4270    67.2810    70.7940     2.2030   -36.6030 
  184.3750    68.3560    24.8330    59.3580    69.2950    74.0600     2.2000   -36.6980 
  184.5000    68.4090    24.7830    56.4580    73.1190    79.3600     2.1980   -36.7460 
  184.6250    67.6770    24.7120    55.3450    79.6250    87.7120     2.1950   -36.7480 
  184.7500    67.8870    24.6230    58.9820    89.0130    99.1680     2.1920   -36.7560 
  184.8750    68.5020    24.5240    80.1190   101.4430   113.5930     2.1880   -36.7770 
  185.0000    67.3270    24.4450   111.7360   116.0990   129.8360     2.1840   -36.8380 
  185.1250    65.3500    24.4210   122.7720   130.4640   145.1200     2.1820   -36.8360 
  185.2500    65.8130    24.4430   118.8390   141.8400   156.9500     2.1790   -36.8100 
  185.3750    66.3090    24.5160   119.5900   149.2380   164.6040     2.1740   -36.7660 
  185.5000    64.0900    24.6460   124.4400   153.3460   169.0200     2.1690   -36.6850 
  185.6250    62.4690    24.7900   127.0840   155.5040   171.5800     2.1680   -36.6780 
  185.7500    64.6310    24.8940   129.7210   156.8620   173.2240     2.1700   -36.6310 
  185.8750    66.9250    24.9480   133.4920   157.0470   173.3450     2.1750   -36.6240 
  186.0000    66.7890    24.9580   134.9210   155.2590   170.9850     2.1810   -36.5270 
  186.1250    66.5450    24.9410   124.8810   150.5540   165.0940     2.1870   -36.4980 
  186.2500    66.4310    24.9090   113.8860   143.5650   156.6440     2.1940   -36.4540 
  186.3750    64.8150    24.8460   104.8160   135.3150   147.1530     2.2010   -36.4230 
  186.5000    61.9040    24.7280    92.0410   127.6070   138.8780     2.2070   -36.3800 
  186.6250    61.2100    24.6020    82.7740   123.1630   134.7660     2.2060   -36.4110 
  186.7500    64.1090    24.5800    75.2320   123.0400   135.4460     2.1980   -36.4260 
  186.8750    67.9760    24.6910    85.6750   127.4990   140.7300     2.1820   -36.4230 
  187.0000    69.9810    24.8540   119.8590   135.4280   149.0180     2.1650   -36.3560 
  187.1250    69.3630    24.9480   153.4420   143.6920   156.3820     2.1550   -36.2970 
  187.2500    67.7690    24.9680   153.5230   147.7850   157.9310     2.1540   -36.2490 
  187.3750    65.8810    24.9560   137.9540   144.3390   150.4110     2.1590   -36.1880 
  187.5000    66.0030    24.9360   122.2160   132.6860   134.2580     2.1700   -36.1730 
  187.6250    69.4920    24.9190   104.9670   115.5400   113.9720     2.1850   -36.0370 
  187.7500    71.6660    24.9120    87.4730    98.6940    95.6410     2.2000   -35.9320 
  187.8750    71.1920    24.9120    71.1310    85.0620    81.6630     2.2140   -35.7720 
  188.0000    70.2480    24.9110    56.7380    75.6460    72.4010     2.2220   -35.7520 
  188.1250    70.4100    24.9100    54.5550    70.6670    67.5670     2.2230   -35.6710 
  188.2500    70.8560    24.9110    55.7630    68.2720    65.0720     2.2210   -35.6330 
  188.3750    70.4530    24.9120    58.0370    67.2080    63.6370     2.2170   -35.6320 
  188.5000    68.9320    24.9130    59.9910    66.3550    62.2320     2.2160   -35.6420 
  188.6250    67.6550    24.9130    57.5120    64.7350    60.0830     2.2170   -35.7280 
  188.7500    66.8140    24.9120    52.6620    62.1560    57.1990     2.2210   -35.8190 
  188.8750    66.6180    24.9130    50.2760    58.7850    53.8340     2.2270   -35.9560 
  189.0000    68.6500    24.9150    48.6130    54.9480    50.3240     2.2330   -36.0330 
  189.1250    72.7190    24.9150    43.4140    51.1770    47.2350     2.2390   -36.2260 
  189.2500    75.4170    24.9140    38.6230    48.2740    45.3100     2.2420   -36.4200 
  189.3750    75.7850    24.9130    35.6990    47.1350    45.5010     2.2400   -36.6410 
  189.5000    75.9710    24.9210    33.6360    48.7710    48.9290     2.2320   -36.9050 
  189.6250    75.8100    24.9390    35.0910    55.4230    57.7930     2.2150   -37.1580 
  189.7500    73.8800    24.9610    51.4480    68.1690    72.4950     2.1980   -37.4200 
  189.8750    70.7690    24.9860    88.1070    87.6860    92.9560     2.1840   -37.6640 
  190.0000    67.2380    25.0110   124.7540   111.9000   116.5920     2.1790   -37.9480 
  190.1250    64.5440    25.0250   130.6910   132.5330   134.7740     2.1800   -38.1880 
  190.2500    63.4130    25.0160   124.1710   140.5410   139.2910     2.1830   -38.4210 
  190.3750    62.7030    24.9920   112.0580   133.9200   129.6470     2.1850   -38.6080 
  190.5000    60.8510    24.9710    93.6520   118.5800   113.2060     2.1880   -38.7470 
  190.6250    58.7460    24.9650    77.3020   103.1300    98.7090     2.1930   -38.8400 
  190.7500    59.5650    24.9760    67.7710    92.0020    89.1960     2.1960   -38.9210 
  190.8750    64.0310    24.9980    63.5810    85.7080    84.5870     2.1940   -39.0110 
  191.0000    68.5470    25.0180    63.0590    83.7160    84.1220     2.1880   -39.1190 
  191.1250    68.2930    25.0240    68.0880    85.7240    87.3700     2.1820   -39.2050 
  191.2500    64.7120    25.0240    74.1640    90.3110    92.9460     2.1780   -39.2380 
  191.3750    63.8180    25.0260    79.2840    96.8720   100.2440     2.1780   -39.2580 
  191.5000    66.4670    25.0280    83.7120   104.8110   108.6200     2.1790   -39.2170 
  191.6250    68.2890    25.0280    87.6280   113.0100   116.8690     2.1790   -39.2200 
  191.7500    68.0030    25.0280   103.2600   119.8350   123.4260     2.1770   -39.1990 
  191.8750    67.8280    25.0280   122.8280   124.1000   127.1690     2.1750   -39.1770 
  192.0000    67.9700    25.0280   131.0390   125.4390   127.9050     2.1740   -39.0520 
  192.1250    63.3100    25.0270   114.0350   124.5260   126.6680     2.1750   -38.8940 
  192.2500    57.6280    25.0240    98.5220   123.7480   126.0010     2.1790   -38.7260 
  192.3750    56.3640    25.0200    96.0010   124.9760   127.6240     2.1830   -38.5350 
  192.5000    58.7040    25.0150   107.3070   129.2900   132.1970     2.1840   -38.3390 
  192.6250    60.1350    25.0130   115.2750   136.5550   138.9030     2.1820   -38.2000 
  192.7500    60.1740    25.0130   123.9540   143.5780   144.2980     2.1800   -38.0120 
  192.8750    61.7670    25.0130   131.4240   146.6510   144.8320     2.1790   -37.8250 
  193.0000    65.2040    25.0130   129.6670   143.1500   138.5810     2.1790   -37.6370 
  193.1250    67.7580    25.0110   117.8680   132.8140   126.4370     2.1800   -37.4650 
  193.2500    68.3700    25.0010    99.6070   120.1500   113.2300     2.1820   -37.3230 
  193.3750    66.9620    24.9820    83.4500   108.3910   101.9740     2.1860   -37.2180 
  193.5000    65.0580    24.9650    75.5930    99.6840    94.3540     2.1890   -37.1920 
  193.6250    64.0230    24.9800    75.5840    95.6260    91.4680     2.1920   -37.0210 
  193.7500    63.1570    25.0180    74.3750    95.2530    91.9710     2.1910   -36.9230 
  193.8750    62.4490    25.0450    80.8470    97.4840    94.6380     2.1900   -36.7850 
  194.0000    62.1780    25.0400    94.4780   100.7800    97.9920     2.1880   -36.6850 
  194.1250    62.9720    25.0290   101.1440   103.5990   100.7630     2.1880   -36.5510 
  194.2500    63.6390    25.0410    95.4340   105.8080   103.1750     2.1880   -36.4050 
  194.3750    62.0070    25.0610    87.0510   108.4910   106.4890     2.1860   -36.2490 
  194.5000    58.4430    25.0060    87.8110   113.3470   112.3660     2.1820   -36.0080 
  194.6250    57.3060    24.7790   112.8740   122.8460   123.0090     2.1770   -35.8540 
  194.7500    59.1450    24.4880   148.4940   137.0670   138.1790     2.1720   -35.6300 
  194.8750    60.8260    24.2560   174.2660   154.8500   156.5910     2.1680   -35.4150 
