~V
VERS. 2.00: Ver 2.00
~W
STRT.M 50.0000:
STOP.M 260.0000:
STEP.M 0.1250:
NULL. -999.2500:
UWI. DF5023:
~C
DEPT.M :
GR.API :
RML.OHMM :
RI. :
RXO.OHMM :
CALI.CM :
DEN.GM/CC :
SP.MV :
~A
# ...
  218.7500    61.0160   111.2440   106.5880   111.4460    25.0390     2.2020   -22.4830 
  218.8750    59.9960   120.8310   114.6160   116.5110    25.1040     2.1950   -22.5970 
  219.0000    61.9890   128.3800   120.4600   124.1570    25.1530     2.1880   -22.6900 
  219.1250    63.5460   133.1490   123.4260   125.3430    25.1760     2.1830   -22.7530 
  219.2500    62.6070   135.2520   123.9940   122.4720    25.1640     2.1790   -22.7850 
  219.3750    60.6170   135.1570   122.7190   119.2950    25.1120     2.1760   -22.8080 
  219.5000    60.2140   133.6350   120.3570   118.4020    25.0210     2.1760   -22.8120 
  219.6250    61.5240   131.3550   117.7050   111.7320    24.8960     2.1770   -22.7910 
  219.7500    61.8050   129.5010   115.7210   106.1090    24.7470     2.1790   -22.7850 
  219.8750    61.7150   128.9940   115.2140   102.5950    24.5910     2.1820   -22.7970 
  220.0000    62.4050   130.2660   116.7160   100.2890    24.4410     2.1840   -22.8120 
  220.1250    63.7250   133.4980   120.2310   100.5730    24.3180     2.1830   -22.8570 
  220.2500    63.8540   137.2240   124.4950   109.8830    24.2300     2.1790   -22.9250 
  220.3750    61.4830   139.8360   128.1030   126.0960    24.1780     2.1740   -23.0400 
  220.5000    58.0350   139.8020   129.6670   140.3000    24.1490     2.1700   -23.0990 
  220.6250    56.4940   136.0130   127.9150   153.7480    24.1370     2.1760   -23.2340 
  220.7500    57.0280   129.7270   123.4730   160.5990    24.1340     2.1890   -23.2490 
  220.8750    58.0060   122.0970   117.1220   145.0260    24.1410     2.2060   -23.2640 
  221.0000    58.8930   114.3310   109.9510   114.6970    24.1530     2.2210   -23.2400 
  221.1250    61.1730   107.4960   103.2290   106.2990    24.1720     2.2260   -23.2200 
  221.2500    63.6720   101.7170    97.4820   102.1900    24.2000     2.2210   -23.2090 
  221.3750    64.1430    97.1160    92.8910   101.9550    24.2360     2.2100   -23.1850 
  221.5000    62.5440    93.6550    89.4960    97.7320    24.2740     2.1970   -23.1540 
  221.6250    62.6540    91.4790    87.3690    86.5870    24.3160     2.1870   -23.1160 
  221.7500    65.7320    90.5270    86.3690    78.5520    24.3590     2.1820   -23.1180 
  221.8750    69.3240    90.9300    86.6180    71.7090    24.3990     2.1850   -23.0820 
  222.0000    70.8350    92.7540    88.1630    71.7700    24.4340     2.1990   -23.0260 
  222.1250    68.7950    95.8870    90.9920    80.3020    24.5310     2.2220   -22.9470 
  222.2500    65.5210    99.6510    94.5410    94.2620    24.5280     2.2420   -22.8190 
  222.3750    62.9990   103.3560    98.2260   105.6130    24.5210     2.2510   -22.7360 
  222.5000    61.2510   106.2370   101.3490   100.2780    24.5180     2.2410   -22.6660 
  222.6250    59.4700   107.3470   103.0350    96.8770    24.5140     2.2180   -22.5870 
  222.7500    57.6210   106.5800   103.0450    98.6370    24.5120     2.1940   -22.4920 
  222.8750    58.4690   104.0020   101.3110   102.1090    24.5130     2.1790   -22.4390 
  223.0000    60.8450    99.9180    98.0290    99.1310    24.5080     2.1760   -22.4100 
  223.1250    61.8140    94.8030    93.4750    89.7510    24.4930     2.1800   -22.4360 
  223.2500    62.6980    89.4250    88.3580    80.2830    24.4800     2.1860   -22.4860 
  223.3750    63.9030    84.1550    83.1160    70.7260    24.4930     2.1890   -22.4680 
  223.5000    64.9980    79.2570    78.1290    63.2490    24.5080     2.1890   -22.4520 
  223.6250    66.2790    75.0390    73.8280    61.9270    24.5130     2.1870   -22.4220 
  223.7500    67.9250    71.5880    70.3340    60.4150    24.5080     2.1860   -22.4580 
  223.8750    67.9360    69.0550    67.7290    58.8990    24.4930     2.1880   -22.4490 
  224.0000    64.9790    67.6180    66.1130    56.3660    24.4590     2.1920   -22.5500 
  224.1250    62.4350    67.7050    65.8570    55.4220    24.4550     2.1970   -22.5960 
  224.2500    62.1710    69.2390    66.9070    55.6970    24.4780     2.2010   -22.6660 
  224.3750    62.8300    72.2540    69.3020    56.6460    24.5100     2.2040   -22.7590 
  224.5000    65.2890    76.6470    72.9510    59.2070    24.5240     2.2050   -22.9040 
  224.6250    68.9110    82.1600    77.6550    65.8200    24.5260     2.2030   -22.9530 
  224.7500    69.0620    87.9840    82.7060    76.5860    24.5290     2.1960   -23.0290 
  224.8750    65.1140    93.5400    87.5910    88.9470    24.5300     2.1870   -23.1510 
  225.0000    60.5780    98.4220    91.9030    94.1960    24.5780     2.1780   -23.1910 
  225.1250    59.8700   102.3450    95.3330    91.5410    24.6160     2.1730   -23.2630 
  225.2500    60.4010   105.5690    98.0750    89.9600    24.6560     2.1730   -23.3460 
  225.3750    61.9620   108.2510   100.2410    91.4340    24.6950     2.1760   -23.3570 
  225.5000    64.4620   110.4080   101.8460    95.7540    24.7320     2.1790   -23.3130 
  225.6250    65.5270   111.7410   102.6650   100.5950    24.7590     2.1800   -23.3480 
  225.7500    63.7180   112.0260   102.6010   103.0480    24.7750     2.1780   -23.3250 
  225.8750    60.4110   111.0330   101.5050   102.5590    24.7850     2.1740   -23.2700 
  226.0000    59.6280   108.8360    99.4440   102.2240    24.7930     2.1680   -23.2820 
  226.1250    62.5600   105.9480    96.8060    95.0410    24.7970     2.1630   -23.2210 
  226.2500    64.8330   103.3870    94.4130    85.6570    24.7910     2.1610   -23.1880 
  226.3750    64.0870   101.9910    93.0050    78.5540    24.7760     2.1620   -23.2050 
  226.5000    62.4270   102.4060    93.1670    76.6360    24.7500     2.1670   -23.1360 
  226.6250    63.8890   105.3210    95.5340    78.9850    24.7070     2.1740   -23.0380 
  226.7500    65.5800   110.1640    99.6430    83.7570    24.6480     2.1810   -23.0110 
  226.8750    65.1640   116.1440   104.8430    87.3900    24.5740     2.1840   -23.0250 
  227.0000    63.2140   122.0080   110.0260    90.4760    24.4870     2.1830   -22.8980 
  227.1250    62.4730   125.8160   113.5230    98.9450    24.3940     2.1770   -22.8800 
  227.2500    62.8960   126.5040   114.4400   107.9690    24.3010     2.1700   -22.7610 
  227.3750    62.5890   123.6690   112.3880   116.5830    24.2150     2.1650   -22.6510 
  227.5000    62.4090   117.9340   107.7490   119.4530    24.1390     2.1640   -22.6350 
  227.6250    63.3530   110.7890   101.5580   107.4840    24.0740     2.1660   -22.5550 
  227.7500    63.0850   104.3740    95.6420    91.3800    24.0210     2.1700   -22.4340 
  227.8750    61.4220    99.9700    91.2340    80.1220    23.9820     2.1730   -22.2450 
  228.0000    61.5970    98.2400    89.1370    75.5870    23.9530     2.1750   -22.1780 
  228.1250    66.2690    99.6060    89.9340    76.3530    23.9370     2.1780   -21.9900 
  228.2500    70.3130   103.0060    92.6870    80.8640    23.9310     2.1830   -21.8600 
  228.3750    70.5230   107.4330    96.5140    90.4130    23.9370     2.1890   -21.7080 
  228.5000    66.1910   111.6870   100.3580   105.2210    23.9570     2.1930   -21.5730 
  228.6250    59.5420   114.3420   102.9540   110.2210    23.9920     2.1930   -21.5600 
  228.7500    57.4990   114.9660   103.8450   110.9220    24.0380     2.1900   -21.4570 
  228.8750    61.3600   113.6490   103.0470   109.2520    24.0880     2.1880   -21.4240 
  229.0000    65.9990   110.9010   100.9740   104.0920    24.1420     2.1880   -21.2800 
  229.1250    65.8090   107.2730    98.0800    96.6540    24.1950     2.1890   -21.2330 
  229.2500    63.7120   103.4610    94.9130    91.4430    24.2460     2.1890   -21.1740 
  229.3750    62.5190    99.7640    91.7360    90.0940    24.2890     2.1860   -21.1740 
  229.5000    62.2390    96.1690    88.5880    91.6780    24.3240     2.1790   -21.2560 
  229.6250    62.5770    92.4030    85.2520    91.3770    24.3550     2.1730   -21.2270 
  229.7500    62.5150    88.3670    81.5800    86.0280    24.3860     2.1720   -21.3230 
  229.8750    62.5930    84.0470    77.5600    73.2620    24.4340     2.1740   -21.4060 
