~V
VERS. 2.00: Ver 2.00
~W
STRT.M 60.0000:
STOP.M 259.0000:
STEP.M 0.1250:
NULL. -999.2500:
UWI. DF5006:
~C
DEPT.M :
SP.MV :
GR.API :
RML.OHMM :
RI. :
RXO.OHMM :
CALI.CM :
DEN.GM/CC :
~A
# ...
  172.5000   -24.1820    57.4120   131.6600   127.8840    69.5160    23.2890     2.2310 
  172.6250   -24.1760    59.3560   122.8260   119.5280    69.2670    23.2890     2.2290 
  172.7500   -24.1940    62.9720   116.2230   112.9790    68.7480    23.2890     2.2240 
  172.8750   -24.2100    66.0730   112.1830   108.8250    69.9090    23.2890     2.2190 
  173.0000   -24.2020    67.5690   110.2670   106.8500    72.3040    23.2840     2.2150 
  173.1250   -24.1820    67.8220   109.5830   106.3010    75.0260    23.2570     2.2150 
  173.2500   -24.1560    68.7850   109.2640   106.3240    76.0970    23.1660     2.2230 
  173.3750   -24.1610    67.5290   108.9180   106.3460    75.2320    23.0530     2.2330 
  173.5000   -24.1200    62.9490   108.8460   106.4960    73.0940    22.9920     2.2420 
  173.6250   -24.1150    59.6730   109.5730   107.2010    71.2340    23.0420     2.2450 
  173.7500   -24.0800    60.8160   111.5610   108.9150    70.7110    23.1110     2.2420 
  173.8750   -24.0780    63.2090   114.3200   111.2830    70.8840    23.1950     2.2360 
  174.0000   -24.0720    64.7520   117.2610   113.7970    71.5910    23.2990     2.2330 
  174.1250   -24.0840    66.4760   119.9140   116.0200    72.5980    23.4350     2.2330 
  174.2500   -24.1740    67.8480   122.3100   117.9380    75.0220    23.5330     2.2370 
  174.3750   -24.2550    67.0070   125.1920   120.2290    78.6980    23.5280     2.2420 
  174.5000   -24.4140    64.9760   129.3550   123.6580    83.8990    23.5300     2.2430 
  174.6250   -24.5480    62.4470   135.2580   128.7100    92.3670    23.6840     2.2390 
  174.7500   -24.7050    60.2310   142.8490   135.4370   102.9820    23.9880     2.2310 
  174.8750   -24.8720    59.7280   150.8060   142.6590   114.6440    24.2930     2.2220 
  175.0000   -25.0560    59.9760   157.8110   149.1690   124.8030    24.4920     2.2140 
  175.1250   -25.2010    58.5600   162.6390   153.8000   129.8680    24.5700     2.2100 
  175.2500   -25.2230    56.4020   163.9300   155.2580   129.2120    24.5790     2.2080 
  175.3750   -25.2110    57.0810   161.9870   153.7710   126.7470    24.5640     2.2090 
  175.5000   -25.1530    59.9850   157.0190   149.5280   123.5960    24.5240     2.2110 
  175.6250   -25.0980    62.6810   149.4140   142.8700   118.6410    24.4800     2.2150 
  175.7500   -24.9790    65.2610   139.5930   134.0810   113.3560    24.4510     2.2220 
  175.8750   -24.8200    69.2760   129.1420   124.4740   105.4300    24.4250     2.2290 
  176.0000   -24.6020    73.8760   119.6810   115.4420    96.7300    24.3990     2.2380 
  176.1250   -24.3960    76.1160   113.0040   108.6720    89.6320    24.3750     2.2470 
  176.2500   -24.2260    72.2540   111.5840   106.6610    84.0390    24.3450     2.2520 
  176.3750   -24.1450    66.7600   115.6540   109.9680    82.8870    24.3310     2.2530 
  176.5000   -24.1010    63.5470   125.1700   118.8100    88.5020    24.3280     2.2490 
  176.6250   -24.0720    61.9920   139.0390   132.3290   101.1010    24.3280     2.2430 
  176.7500   -24.0580    59.2730   154.8070   148.3180   117.1880    24.3240     2.2360 
  176.8750   -24.0750    56.3740   168.3900   162.6510   129.5780    24.3090     2.2330 
  177.0000   -24.1100    56.1960   176.4140   171.8710   131.2070    24.2790     2.2330 
  177.1250   -24.1520    59.0430   176.6140   173.5110   124.7010    24.2400     2.2360 
  177.2500   -24.2020    62.8300   167.5470   165.7910   117.5780    24.1810     2.2380 
  177.3750   -24.1730    65.1660   152.8130   152.0300   112.8890    24.1430     2.2380 
  177.5000   -24.1260    65.3520   135.5190   135.1830   107.4770    24.1540     2.2350 
  177.6250   -24.0360    66.6390   118.6790   118.2320    96.9030    24.1370     2.2330 
  177.7500   -23.9990    69.1830   105.3230   104.2030    82.7510    24.1140     2.2340 
  177.8750   -23.9290    69.6770    96.5020    94.3310    74.1680    24.0970     2.2390 
  178.0000   -23.9090    68.8480    93.0470    89.4950    72.2910    24.1190     2.2470 
  178.1250   -23.9070    68.0500    95.6940    90.4400    72.8420    24.1440     2.2550 
  178.2500   -23.9260    67.7720   106.5700    99.2210    75.7190    24.1360     2.2590 
  178.3750   -23.9710    64.9220   125.3250   115.5190    83.1160    24.1300     2.2540 
  178.5000   -24.0130    59.5590   151.8680   139.2280   100.2780    24.1610     2.2430 
  178.6250   -24.0600    53.1910   184.5630   168.7430   126.2000    24.1920     2.2280 
  178.7500   -24.0660    48.8360   219.4890   200.2610   152.2000    24.2190     2.2150 
  178.8750   -24.0540    48.5540   250.7190   228.2140   168.9700    24.2640     2.2060 
  179.0000   -24.0100    49.8980   274.1250   248.8540   174.2800    24.3040     2.2020 
  179.1250   -23.9440    50.2930   288.0130   260.7350   174.7880    24.3060     2.2000 
  179.2500   -23.8460    50.7780   291.8600   263.5300   171.8480    24.2140     2.2000 
  179.3750   -23.7460    52.9340   288.0870   259.7640   164.8520    24.0400     2.2000 
  179.5000   -23.6360    54.3200   275.9610   249.1600   154.2980    23.8330     2.2010 
  179.6250   -23.5720    52.9250   254.6180   231.0420   143.1460    23.6980     2.2040 
  179.7500   -23.4190    51.5100   224.8560   205.6340   132.9780    23.6610     2.2100 
  179.8750   -23.2730    51.2430   193.1490   177.9280   122.4290    23.6650     2.2180 
  180.0000   -23.0620    51.5730   164.3030   151.9890   109.8640    23.7140     2.2300 
  180.1250   -22.8090    55.0960   141.0860   130.5780    95.6880    23.8310     2.2440 
  180.2500   -22.5340    62.4280   125.0250   115.5300    85.9590    24.0280     2.2560 
  180.3750   -22.2230    66.7210   114.2210   105.3830    83.0500    24.2490     2.2650 
  180.5000   -21.9480    65.2010   107.6640    99.2190    81.9770    24.3900     2.2680 
  180.6250   -21.6550    62.5360   104.5170    96.2160    78.4180    24.4390     2.2680 
  180.7500   -21.4810    63.6840   104.5330    96.0860    74.5730    24.4350     2.2670 
  180.8750   -21.3130    65.2900   106.6640    97.8700    74.6360    24.4230     2.2670 
  181.0000   -21.2100    64.8910   110.3340   101.0830    78.0720    24.4280     2.2690 
  181.1250   -21.1610    62.6790   114.8130   105.1320    82.8740    24.4390     2.2730 
  181.2500   -21.1730    58.4950   119.0900   109.1840    86.5930    24.4460     2.2770 
  181.3750   -21.2160    56.0650   122.3660   112.4730    89.9800    24.4460     2.2800 
  181.5000   -21.2220    57.6610   124.4600   114.7590    93.1120    24.4460     2.2810 
  181.6250   -21.1730    62.5150   125.9520   116.4480    95.7280    24.4460     2.2790 
  181.7500   -21.0480    66.0940   128.5840   118.9300    96.6450    24.4450     2.2740 
  181.8750   -20.9320    65.4890   134.0700   123.6810    96.5210    24.4400     2.2650 
  182.0000   -20.7980    62.9580   143.2880   131.5310    99.2380    24.4230     2.2530 
  182.1250   -20.6730    61.0700   155.3950   141.9440   106.6290    24.3890     2.2380 
  182.2500   -20.4970    62.3200   166.4590   151.8620   117.6860    24.3570     2.2260 
  182.3750   -20.3160    64.1990   170.9830   156.6260   127.0230    24.3240     2.2220 
  182.5000   -20.1200    64.2790   164.8350   152.5040   129.2350    24.3010     2.2260 
  182.6250   -19.9830    63.7600   147.4730   138.4890   120.4430    24.2620     2.2400 
  182.7500   -19.8730    66.0590   123.3070   117.3870   102.1470    24.1790     2.2610 
  182.8750   -19.7880    70.2570   101.3410    96.9120    82.4370    24.0420     2.2800 
  183.0000   -19.6840    73.8400    86.5300    81.9600    64.6700    23.9230     2.2920 
  183.1250   -19.6040    73.6740    80.9160    75.0670    54.0190    23.8720     2.2930 
  183.2500   -19.5940    70.6810    86.4100    78.5650    56.4450    23.8780     2.2810 
  183.3750   -19.6350    69.0270   100.6950    90.6540    68.1770    23.9020     2.2640 
  183.5000   -19.6990    68.0330   121.7840   109.7520    85.6310    23.9410     2.2480 
  183.6250   -19.7140    65.9980   145.8210   132.4870   104.8390    24.0110     2.2380 
