~V
VERS. 2.00: Ver 2.00
~W
STRT.M 55.0000:
STOP.M 263.0000:
STEP.M 0.1250:
NULL. -999.2500:
UWI. DF5056:
~C
DEPT.M :
GR.API :
CALI.CM :
RXO.OHMM :
RI. :
RML.OHMM :
DEN.GM/CC :
SP.MV :
~A
# ...
  178.7500    54.8440    29.7630   136.8350   148.1460   160.0700     2.1520   -44.2950 
  178.8750    56.6700    29.5730   147.8470   141.4790   146.8370     2.1580   -44.3200 
  179.0000    58.2900    29.4310   152.1680   130.5800   130.5280     2.1660   -44.3160 
  179.1250    59.8300    29.3530   131.4920   117.9200   114.6310     2.1710   -44.3030 
  179.2500    60.9470    29.2890    96.9350   106.1900   101.1530     2.1730   -44.2590 
  179.3750    61.3030    29.2230    74.8000    96.2070    90.2070     2.1760   -44.2330 
  179.5000    61.4680    29.1760    74.5150    87.2950    80.6460     2.1810   -44.1760 
  179.6250    61.5260    29.1650    70.4810    77.6860    70.7200     2.1890   -44.2420 
  179.7500    60.8870    29.1620    60.7050    66.5390    59.7600     2.1960   -44.2800 
  179.8750    59.8980    29.1750    52.3280    54.6450    48.6300     2.1980   -44.3680 
  180.0000    60.8160    29.2620    41.0180    43.8930    39.0890     2.1960   -44.4930 
  180.1250    64.7130    29.4460    24.4810    36.7600    33.5410     2.1940   -44.6470 
  180.2500    67.7890    29.6260    15.4460    33.7050    32.5330     2.1910   -44.8500 
  180.3750    68.3690    29.6410    14.3170    35.3920    36.9330     2.1880   -45.0670 
  180.5000    66.8400    29.3960    17.4710    43.4510    48.1910     2.1830   -45.3900 
  180.6250    64.2870    28.9990    38.9400    63.3060    70.6040     2.1750   -45.7260 
  180.7500    61.6940    28.6900    91.1630    97.8430   105.9510     2.1640   -46.1560 
  180.8750    58.5860    28.5150   149.2480   148.3160   155.6660     2.1550   -46.5720 
  181.0000    55.4980    28.3720   200.3370   207.5110   214.4050     2.1490   -46.9940 
  181.1250    53.5030    28.1890   219.4900   253.1170   260.8430     2.1470   -47.4080 
  181.2500    52.8420    28.0300   201.5200   271.9640   279.8350     2.1480   -47.8000 
  181.3750    54.0070    27.9250   173.0010   269.0890   276.9790     2.1510   -48.1370 
  181.5000    57.1190    27.8580   166.7820   257.5920   267.0190     2.1550   -48.3850 
  181.6250    60.4740    27.7970   159.9560   247.7120   260.4260     2.1580   -48.5770 
  181.7500    62.7570    27.7240   165.5680   242.9240   259.6870     2.1630   -48.7210 
  181.8750    63.3330    27.6460   178.1590   244.0800   265.0920     2.1700   -48.8460 
  182.0000    61.4550    27.5540   189.8390   250.9270   275.8160     2.1770   -48.9520 
  182.1250    56.7690    27.4360   208.3760   262.0560   289.4420     2.1790   -49.0620 
  182.2500    53.0870    27.3100   228.5670   272.6880   300.3480     2.1750   -49.1170 
  182.3750    53.5940    27.1870   240.0480   277.6480   302.5600     2.1660   -49.1720 
  182.5000    55.8950    27.0590   249.2730   271.9410   291.0420     2.1590   -49.1660 
  182.6250    56.0050    26.9260   243.3850   251.8820   263.6730     2.1570   -49.2320 
  182.7500    56.4080    26.8230   210.9910   224.1420   230.0270     2.1610   -49.2640 
  182.8750    57.5670    26.7670   173.3040   195.6120   198.1730     2.1690   -49.2960 
  183.0000    57.5500    26.7410   146.4530   171.7300   173.1910     2.1800   -49.3060 
  183.1250    57.2990    26.7150   127.7930   156.2380   157.8620     2.1890   -49.2930 
  183.2500    59.5010    26.6760   112.5630   147.6950   149.6230     2.1940   -49.3120 
  183.3750    60.5430    26.6340   126.3590   144.3540   146.2880     2.1960   -49.3280 
  183.5000    57.7120    26.6050   151.9400   143.7470   145.2900     2.1940   -49.3920 
  183.6250    55.4750    26.5880   154.8010   143.3200   144.1520     2.1930   -49.4310 
  183.7500    56.6360    26.5480   145.8020   141.4730   141.5430     2.1910   -49.5170 
  183.8750    57.9110    26.4780   129.5170   138.0450   137.5950     2.1900   -49.6110 
  184.0000    56.2230    26.4130   110.2220   134.0900   133.6160     2.1880   -49.7270 
  184.1250    53.3730    26.3990   112.5380   131.9570   132.0280     2.1860   -49.8350 
  184.2500    52.6020    26.4350   116.9880   133.1100   133.9450     2.1850   -49.9070 
  184.3750    54.4270    26.4980   112.6760   138.1250   139.6270     2.1830   -49.9880 
  184.5000    57.0820    26.5530   108.4860   146.6070   148.3230     2.1800   -50.0870 
  184.6250    57.1990    26.5550   126.1440   156.4290   157.4120     2.1760   -50.1650 
  184.7500    55.3940    26.4980   145.8530   162.9580   162.2810     2.1700   -50.2120 
  184.8750    52.7770    26.4090   149.0020   162.0120   159.0610     2.1660   -50.2590 
  185.0000    50.6600    26.3400   140.6360   151.8570   146.7590     2.1650   -50.2700 
  185.1250    50.1830    26.3580   127.2320   134.2510   128.2330     2.1700   -50.2720 
  185.2500    54.1320    26.4690   110.5200   115.7620   110.1180     2.1820   -50.2910 
  185.3750    61.5230    26.6620    92.2110   100.4170    96.0000     2.1960   -50.2880 
  185.5000    66.7380    26.9050    79.0730    90.1840    87.3180     2.2060   -50.2270 
  185.6250    66.0240    27.1460    70.6200    86.1880    84.8110     2.2070   -50.0930 
  185.7500    63.6070    27.3530    70.5700    86.8220    86.6770     2.2000   -49.9440 
  185.8750    62.3480    27.5100    71.0020    91.0920    91.8040     2.1900   -49.7620 
  186.0000    61.0650    27.6140    75.8160    97.6570    98.8010     2.1810   -49.5750 
  186.1250    58.9710    27.6500    87.9130   104.6150   105.7990     2.1760   -49.3700 
  186.2500    58.5860    27.6460    97.6780   109.9070   111.0200     2.1770   -49.1140 
  186.3750    59.2330    27.6100    99.0010   112.3380   113.4820     2.1820   -48.8030 
  186.5000    58.8720    27.5100    93.6880   111.6520   113.0460     2.1900   -48.4280 
  186.6250    58.2630    27.3360    93.0310   108.3660   110.3250     2.2000   -48.0310 
  186.7500    59.1450    27.1840    92.5430   104.5340   107.4090     2.2080   -47.5340 
  186.8750    60.5300    27.1180    90.1520   101.8010   106.0330     2.2110   -46.9910 
  187.0000    59.7950    27.1210    83.7390   101.5270   107.6160     2.2080   -46.3970 
  187.1250    57.4560    27.1300    74.6530   105.2890   113.8230     2.2010   -45.7360 
  187.2500    55.4210    27.1280    75.4070   113.0170   124.4820     2.1950   -45.0640 
  187.3750    54.2890    27.1740    97.0450   124.7770   139.6140     2.1910   -44.4050 
  187.5000    53.7440    27.3980   140.2870   140.2010   158.7320     2.1870   -43.7800 
  187.6250    53.2980    27.8670   175.1510   158.1950   180.4120     2.1770   -43.1820 
  187.7500    53.1750    28.3270   178.8200   175.2410   200.4160     2.1660   -42.6480 
  187.8750    53.6670    28.6150   176.2290   187.2860   213.6340     2.1640   -42.1190 
  188.0000    54.2120    28.7300   195.0290   190.8010   215.6410     2.1770   -41.6080 
  188.1250    54.2030    28.6160   219.8770   183.9400   204.7340     2.2150   -41.1260 
  188.2500    54.1360    28.2670   195.4280   171.7200   188.0540     2.2750   -40.6570 
  188.3750    54.3000    27.8290   141.9540   158.2210   170.8470     2.3550   -40.1870 
  188.5000    53.9020    27.5440   112.8100   146.4860   156.4860     2.4270   -39.8090 
  188.6250    53.5880    27.5110   130.5750   138.6330   146.9490     2.4420   -39.4040 
  188.7500    54.2320    27.5880   152.3660   134.1680   141.1690     2.4100   -39.0100 
  188.8750    54.9470    27.7250   141.0100   132.3630   138.0930     2.3630   -38.6050 
  189.0000    54.1900    27.8910   114.5520   132.0780   136.3430     2.3190   -38.1980 
  189.1250    53.2710    28.1240   107.7960   131.4180   133.7760     2.2850   -37.7830 
  189.2500    52.9660    28.4580   115.4850   128.1120   128.0790     2.2610   -37.3690 
  189.3750    53.3230    28.7910   120.0820   120.4940   117.7540     2.2460   -36.9490 
  189.5000    55.7020    28.9600   114.1820   108.3560   103.2740     2.2380   -36.4230 
  189.6250    59.9630    28.9250    84.9560    93.6400    87.7990     2.2410   -35.8920 
  189.7500    63.6560    28.8480    58.6790    80.5620    75.5190     2.2490   -35.3280 
  189.8750    65.7070    28.7600    45.0580    71.8160    68.3440     2.2590   -34.8010 
