~V
VERS. 2.00: Ver 2.00
~W
STRT.M 72.0000:
STOP.M 259.0000:
STEP.M 0.1250:
NULL. -999.2500:
UWI. DF5020:
~C
DEPT.M :
DEN.GM/CC :
GR.API :
RML.OHMM :
RI. :
RXO.OHMM :
CALI.CM :
SP.MV :
~A
# ...
  218.2500     2.2260    62.6460   175.3430   163.7800   237.3140    24.6070   -25.3260 
  218.3750     2.2180    64.1210   181.2490   168.8900   210.8670    24.7040   -25.4850 
  218.5000     2.2030    64.7520   181.9240   169.3330   182.3180    24.7000   -25.5920 
  218.6250     2.1910    64.5360   177.5810   165.4870   160.8290    24.6130   -25.7430 
  218.7500     2.1890    62.4080   169.5250   158.6050   156.8910    24.4990   -25.8640 
  218.8750     2.1990    59.8040   158.3250   149.0870   156.3350    24.4100   -25.9520 
  219.0000     2.2140    59.2030   145.2790   137.7980   161.3590    24.4190   -26.0620 
  219.1250     2.2240    60.9160   132.7590   126.5210   134.6390    24.5840   -26.1210 
  219.2500     2.2230    63.0620   122.7550   117.1420   122.4740    24.6170   -26.2150 
  219.3750     2.2130    63.6310   116.1220   110.6810   106.2750    24.5530   -26.2660 
  219.5000     2.2010    62.7590   112.7580   107.3010    90.4790    24.4670   -26.3490 
  219.6250     2.1930    62.3150   112.0780   106.6590    83.8760    24.2680   -26.3590 
  219.7500     2.1910    61.2760   112.3700   107.1400    78.3210    23.9130   -26.4010 
  219.8750     2.1930    60.4470   112.5760   107.6830    70.4820    23.5690   -26.4420 
  220.0000     2.1960    61.3550   112.0180   107.5420    64.3050    23.5590   -26.5260 
  220.1250     2.1980    64.9860   110.4680   106.3510    63.3000    23.7580   -26.5650 
  220.2500     2.1980    65.3630   108.5840   104.6490    66.1310    23.9160   -26.6300 
  220.3750     2.1970    61.9830   107.0370   103.0490    68.6710    23.9860   -26.6890 
  220.5000     2.1990    61.1970   106.3340   102.0790    71.1850    23.9770   -26.7210 
  220.6250     2.2060    65.0850   106.7820   102.1170    70.3680    23.9530   -26.8080 
  220.7500     2.2150    66.4920   107.9920   102.9060    69.2970    23.9590   -26.8980 
  220.8750     2.2250    63.1680   109.6990   104.2460    67.9910    23.9470   -26.9790 
  221.0000     2.2300    59.9260   111.8280   106.0710    68.4410    23.8530   -27.0080 
  221.1250     2.2270    59.6540   114.7490   108.7020    67.4480    23.7330   -27.1250 
  221.2500     2.2160    59.6660   118.7060   112.3350    70.1380    23.7300   -27.1610 
  221.3750     2.2000    60.8150   123.6470   116.9660    79.0950    24.0130   -27.2230 
  221.5000     2.1830    63.0910   128.8280   122.0050    99.6170    24.3550   -27.2700 
  221.6250     2.1690    64.6200   132.4080   125.8880   123.2960    24.4670   -27.3180 
  221.7500     2.1620    64.5610   132.9720   127.2390   150.6530    24.4740   -27.3530 
  221.8750     2.1620    63.5590   129.8720   125.2920   173.6720    24.4630   -27.4380 
  222.0000     2.1680    62.5940   123.5610   120.2070   172.2640    24.4460   -27.5390 
  222.1250     2.1780    62.7670   115.3340   112.8630   157.0180    24.4070   -27.6030 
  222.2500     2.1860    63.7590   107.2440   105.1870   117.1450    24.4160   -27.7400 
  222.3750     2.1910    62.3460   100.4490    98.3910   104.3670    24.4390   -27.8730 
  222.5000     2.1940    59.9480    95.6710    93.3230   104.8430    24.4340   -28.0150 
  222.6250     2.1960    60.9320    93.8830    91.0320   100.3960    24.4170   -28.1130 
  222.7500     2.2010    62.1890    95.1160    91.5980    91.0030    24.3690   -28.2320 
  222.8750     2.2080    61.1580    99.6280    95.2190    83.2780    24.3240   -28.3100 
  223.0000     2.2170    60.7000   107.3450   101.7140    83.4480    24.2700   -28.4000 
  223.1250     2.2240    62.8920   117.8550   110.5350    89.8290    24.2610   -28.4300 
  223.2500     2.2280    63.8120   129.1340   119.8220    98.5550    24.2820   -28.4790 
  223.3750     2.2280    62.2430   139.3750   128.0050   108.8950    24.2860   -28.4960 
  223.5000     2.2240    62.6840   147.1110   133.8890   113.7110    24.1720   -28.5580 
  223.6250     2.2150    65.1200   151.5310   136.8070   108.5710    24.0730   -28.6420 
  223.7500     2.2050    65.0110   154.2420   138.1190   107.9250    23.9310   -28.7170 
  223.8750     2.1930    62.3550   156.8550   139.1710   101.4420    23.8490   -28.8050 
  224.0000     2.1830    61.1400   160.7860   141.1970    95.2300    23.7900   -28.9310 
  224.1250     2.1740    63.2550   167.2300   145.2700    98.9030    23.7470   -29.1790 
  224.2500     2.1680    64.7330   175.7750   151.1190   113.0350    23.7070   -29.3980 
  224.3750     2.1620    63.4180   185.7160   158.2010   135.8110    23.7310   -29.7350 
  224.5000     2.1580    60.1890   195.9250   165.6280   183.2160    23.9360   -30.0410 
  224.6250     2.1580    57.1450   204.6230   172.0320   249.6480    24.2740   -30.4140 
  224.7500     2.1640    55.4650   210.6210   176.4640   290.0750    24.5180   -30.7340 
  224.8750     2.1780    55.1970   213.2540   178.3780   293.3860    24.6230   -31.0270 
  225.0000     2.1990    57.2590   212.5890   177.7610   317.3900    24.6940   -31.2260 
  225.1250     2.2210    60.7860   208.9450   174.7910   321.6920    24.8090   -31.3260 
  225.2500     2.2330    62.8840   203.3610   170.3200   292.5880    24.7900   -31.3630 
  225.3750     2.2300    62.6920   195.5810   164.2810   211.3880    24.6020   -31.2580 
  225.5000     2.2130    61.9810   184.7020   156.0770   144.5170    24.4060   -31.0550 
  225.6250     2.1890    63.0400   169.4040   144.5800   144.6430    24.3720   -30.6820 
  225.7500     2.1730    65.3300   151.1860   130.5310   161.7060    24.5360   -30.2670 
  225.8750     2.1710    66.3200   132.2950   115.2960   181.8840    24.6640   -29.7970 
  226.0000     2.1810    64.3810   115.4100   100.8800   168.4930    24.7050   -29.3270 
  226.1250     2.1980    61.9140   103.4310    89.8550   122.4120    24.6820   -28.8330 
  226.2500     2.2120    62.5140    96.4350    82.8740    85.8820    24.6300   -28.4060 
  226.3750     2.2200    65.3110    93.9940    79.9270    74.3700    24.5700   -27.9880 
  226.5000     2.2220    67.3740    94.8750    80.2030    71.9900    24.4960   -27.6430 
  226.6250     2.2200    67.1230    97.0330    82.2120    74.6250    24.3960   -27.3640 
  226.7500     2.2200    66.9480    97.8340    83.6410    79.2990    24.3430   -27.1420 
  226.8750     2.2210    66.2530    95.9990    83.2010    87.2960    24.3760   -26.9580 
  227.0000     2.2240    65.4560    92.0750    80.8590    94.5390    24.5140   -26.8000 
  227.1250     2.2280    66.9020    88.8470    78.2360    98.3790    24.6430   -26.6370 
  227.2500     2.2430    69.7190    88.5560    77.3520    89.3020    24.6420   -26.4400 
  227.3750     2.2810    70.4400    90.7730    78.4770    71.0660    24.6210   -26.2530 
  227.5000     2.3530    67.7390    92.4080    79.7330    61.5560    24.5850   -26.0310 
  227.6250     2.4530    65.4360    87.5520    76.6310    71.9010    24.5530   -25.8510 
  227.7500     2.5470    65.2370    74.0220    66.8680    92.5580    24.5750   -25.6380 
  227.8750     2.6020    65.1600    54.2590    51.2740   115.9570    24.5500   -25.4840 
  228.0000     2.6020    64.6630    34.6240    34.1210   158.3880    24.4410   -25.3600 
  228.1250     2.5510    63.8080    21.2800    21.0500    93.1370    24.3540   -25.3750 
  228.2500     2.4850    62.0820    13.1630    12.8850    31.6550    24.3530   -25.4790 
  228.3750     2.4230    60.2180     8.7340     8.4520    11.5950    24.3400   -25.6740 
  228.5000     2.3730    61.1760     7.1070     6.3610     7.6710    24.3490   -25.9520 
  228.6250     2.3400    66.7700     7.1070     5.8260     6.2270    24.4030   -26.2390 
  228.7500     2.3220    74.0480     7.8310     6.0910     6.0570    24.4880   -26.5040 
  228.8750     2.3150    79.9550     8.8920     6.8430     6.5280    24.6040   -26.6690 
  229.0000     2.3190    83.9960     9.9340     7.7830     7.3350    24.7020   -26.7640 
  229.1250     2.3290    86.9430    10.5930     8.5760     8.5200    24.8350   -26.7090 
  229.2500     2.3400    89.4900    10.8080     9.0440     9.0280    24.9050   -26.6140 
  229.3750     2.3500    90.7110    10.6760     9.1770     9.0170    24.9430   -26.4510 
