~V
VERS. 2.00: Ver 2.00
~W
STRT.M 55.0000:
STOP.M 250.0000:
STEP.M 0.1250:
NULL. -999.2500:
UWI. DF5052:
~C
DEPT.M :
SP.MV :
GR.API :
CALI.CM :
RXO.OHMM :
RI. :
RML.OHMM :
DEN.GM/CC :
~A
# ...
  111.2500   -23.0210    69.2000    22.6570     8.5670     7.7180     8.5510     2.1500 
  111.3750   -23.3560    70.9120    22.6060     8.6160     7.7060     8.5380     2.1670 
  111.5000   -23.5940    73.7560    22.5430     8.6560     7.7880     8.6250     2.1830 
  111.6250   -23.7070    74.4150    22.4950     8.6720     7.8940     8.7370     2.1870 
  111.7500   -23.7320    72.3710    22.5900     8.5850     7.9770     8.8260     2.1970 
  111.8750   -23.6990    70.0140    22.7690     8.3530     8.0250     8.8770     2.2270 
  112.0000   -23.6330    70.3150    22.8970     8.0970     8.0340     8.8860     2.2620 
  112.1250   -23.5360    73.0680    22.8860     8.0050     7.9960     8.8460     2.2630 
  112.2500   -23.4030    74.7450    22.8850     8.0690     7.9190     8.7640     2.2250 
  112.3750   -23.2300    74.7730    22.9110     8.2300     7.8060     8.6440     2.1710 
  112.5000   -23.0240    75.0420    22.9330     8.3920     7.6610     8.4910     2.1300 
  112.6250   -22.8060    77.2510    22.9350     8.4610     7.4790     8.2980     2.1240 
  112.7500   -22.5920    80.2280    22.9130     8.4260     7.2680     8.0740     2.1410 
  112.8750   -22.3780    82.3610    22.8280     8.3290     7.0420     7.8350     2.1560 
  113.0000   -22.1500    82.0680    22.6490     8.2150     6.8430     7.6240     2.1530 
  113.1250   -21.8900    78.7070    22.5170     8.1520     6.7930     7.5710     2.1380 
  113.2500   -21.6000    74.9990    22.5990     8.2600     7.0170     7.8080     2.1270 
  113.3750   -21.2900    73.2990    22.8980     8.5770     7.6300     8.4180     2.1190 
  113.5000   -20.9690    74.2720    23.3000     9.2300     8.6930     9.4150     2.1170 
  113.6250   -20.6300    77.2890    23.6410    12.0790    10.1880    10.7300     2.1530 
  113.7500   -20.2630    80.3690    23.9620    20.2340    11.7600    12.2410     2.2400 
  113.8750   -19.8540    81.9700    24.1840    36.0600    12.9620    13.4280     2.3620 
  114.0000   -19.4050    81.4760    24.2520    56.6760    13.3190    13.6990     2.4940 
  114.1250   -18.9370    81.0570    24.1960    68.4300    12.4180    12.5710     2.5900 
  114.2500   -18.4840    84.5670    24.1310    63.2270    10.7270    10.6260     2.6160 
  114.3750   -18.0670    92.3830    24.0770    43.6490     8.7780     8.5230     2.5660 
  114.5000   -17.6900   100.3100    24.1360    21.8660     7.0370     6.7620     2.4750 
  114.6250   -17.3490   103.7620    24.2320     9.8410     5.8250     5.6300     2.3930 
  114.7500   -17.0340   106.0450    24.3260     5.5100     5.0780     4.9760     2.3330 
  114.8750   -16.7580   109.8370    24.3900     4.6210     4.6980     4.6680     2.2930 
  115.0000   -16.5400   112.1780    24.4280     4.6310     4.5590     4.5670     2.2680 
  115.1250   -16.4020   108.4010    24.4530     4.7700     4.5390     4.5450     2.2590 
  115.2500   -16.3190   103.3910    24.4620     4.8340     4.5220     4.5040     2.2570 
  115.3750   -16.2720   102.4670    24.4640     4.7710     4.4730     4.4260     2.2620 
  115.5000   -16.2430   106.0120    24.4680     4.5680     4.4100     4.3440     2.2750 
  115.6250   -16.2400   110.4910    24.4290     4.2230     4.3830     4.3210     2.2950 
  115.7500   -16.2740   113.0230    24.3380     3.8950     4.4200     4.3810     2.3080 
  115.8750   -16.3520   112.6540    24.2380     3.8080     4.5280     4.5170     2.3000 
  116.0000   -16.4640   109.3780    24.1460     4.1080     4.6840     4.6970     2.2680 
  116.1250   -16.5860   104.5090    24.0410     4.7290     4.8380     4.8610     2.2250 
  116.2500   -16.6890   100.2730    23.9240     5.3540     4.9340     4.9530     2.1930 
  116.3750   -16.7670    97.6590    23.9110     5.6780     4.9400     4.9520     2.1780 
  116.5000   -16.8250    97.3490    24.0120     5.5490     4.8520     4.8640     2.1800 
  116.6250   -16.8730    99.9930    24.1950     5.1120     4.6820     4.7070     2.1970 
  116.7500   -16.9130   104.4800    24.3180     4.6430     4.4810     4.5340     2.2250 
  116.8750   -16.9370   108.9170    24.3570     4.2570     4.2760     4.3620     2.2620 
  117.0000   -16.9400   110.6030    24.3300     4.0040     4.0790     4.2040     2.3030 
  117.1250   -16.9310   107.8210    24.2430     3.9620     3.8940     4.0600     2.3330 
  117.2500   -16.9420   104.5350    24.1710     4.0090     3.7230     3.9290     2.3460 
  117.3750   -17.0040   104.9590    24.2280     3.9920     3.5950     3.8390     2.3500 
  117.5000   -17.1350   109.8430    24.3830     3.8580     3.5610     3.8530     2.3560 
  117.6250   -17.3400   114.4550    24.4070     3.7090     3.7250     4.0870     2.3600 
  117.7500   -17.5930   114.5380    24.3900     3.7140     4.1150     4.5720     2.3550 
  117.8750   -17.8840   109.2540    24.3840     4.1170     4.7590     5.3300     2.3500 
  118.0000   -18.2190    99.2330    24.3620     5.5950     5.6420     6.3350     2.3580 
  118.1250   -18.6180    87.2790    24.3200     9.4330     6.6770     7.4930     2.3860 
  118.2500   -19.0660    78.2740    24.2580    14.7820     7.6550     8.5710     2.4090 
  118.3750   -19.5390    74.7670    24.1260    18.0930     8.3880     9.3370     2.4070 
  118.5000   -20.0030    75.7450    23.9040    16.5790     8.7360     9.6110     2.3800 
  118.6250   -20.4320    78.4930    23.6740    12.2000     8.6260     9.3210     2.3370 
  118.7500   -20.8280    80.8670    23.4740     9.0620     8.2650     8.7620     2.2920 
  118.8750   -21.1950    82.5970    23.3270     7.8630     7.8150     8.1590     2.2490 
  119.0000   -21.5240    83.5340    23.2510     7.5730     7.4050     7.6620     2.2140 
  119.1250   -21.7740    82.8160    23.1870     7.3710     7.1240     7.3570     2.1970 
  119.2500   -21.9260    80.6080    23.0930     7.1540     6.9540     7.1900     2.1910 
  119.3750   -21.9710    77.9520    22.9950     7.0220     6.8680     7.1170     2.1860 
  119.5000   -21.9200    75.8690    22.9490     7.0420     6.8390     7.1020     2.1780 
  119.6250   -21.7820    75.0640    22.9400     7.1490     6.8600     7.1260     2.1670 
  119.7500   -21.5830    75.0200    22.8900     7.1780     6.9080     7.1640     2.1550 
  119.8750   -21.3200    74.5850    22.7930     7.1100     6.9420     7.1800     2.1450 
  120.0000   -20.9870    73.1950    22.7300     7.0530     6.9000     7.1120     2.1430 
  120.1250   -20.5810    72.5150    22.7290     7.1170     6.7030     6.9390     2.1540 
  120.2500   -20.1330    73.6230    22.7620     7.2090     6.3630     6.7030     2.1700 
  120.3750   -19.6710    75.3030    22.8190     7.1130     5.9190     6.3690     2.1850 
  120.5000   -19.2100    76.9220    22.8860     6.6240     5.4370     5.9190     2.2010 
  120.6250   -18.7580    80.0600    22.9710     5.6680     5.0040     5.4640     2.2270 
  120.7500   -18.3140    84.6820    23.1670     4.5860     4.6760     5.1200     2.2550 
  120.8750   -17.8900    88.4120    23.3740     3.9090     4.4880     4.9210     2.2670 
  121.0000   -17.5110    89.0820    23.4860     4.0120     4.4450     4.8760     2.2520 
  121.1250   -17.2250    87.1770    23.4480     4.7120     4.5380     4.9740     2.2180 
  121.2500   -17.0380    85.7660    23.2890     5.2720     4.7040     5.1490     2.2020 
  121.3750   -16.9450    86.3880    23.1980     5.3450     4.9050     5.3600     2.2150 
  121.5000   -16.9250    88.7650    23.2780     5.0980     5.1130     5.5790     2.2390 
  121.6250   -16.9660    90.6990    23.3930     5.1400     5.3020     5.7770     2.2400 
  121.7500   -17.0490    90.6830    23.4320     5.5700     5.4610     5.9450     2.2190 
  121.8750   -17.1710    89.1040    23.4120     6.0880     5.5930     6.0840     2.1960 
  122.0000   -17.3220    86.6800    23.3660     6.3900     5.7040     6.2010     2.1860 
  122.1250   -17.4790    83.0480    23.2960     6.3610     5.8000     6.3010     2.1870 
  122.2500   -17.6130    78.8910    23.2780     6.1730     5.8870     6.3930     2.1880 
  122.3750   -17.7130    76.0780    23.3310     6.0040     5.9700     6.4810     2.1900 
