~V
VERS. 2.00: Ver 2.00
~W
STRT.M 50.0000:
STOP.M 258.0000:
STEP.M 0.1250:
NULL. -999.2500:
UWI. DF5038:
~C
DEPT.M :
GR.API :
CALI.CM :
RXO.OHMM :
RI. :
RML.OHMM :
DEN.GM/CC :
SP.MV :
~A
# ...
  140.0000    76.6140    25.6800     8.3450     6.6470     7.7640     2.1590   -31.1160 
  140.1250    70.0040    25.6800     8.4250     6.8640     7.9780     2.1660   -31.1480 
  140.2500    68.4060    25.6800     8.2080     6.7830     7.8060     2.1830   -31.0120 
  140.3750    71.0370    25.6800     7.9260     6.4300     7.3190     2.2110   -30.8220 
  140.5000    75.0880    25.6800     7.5280     5.9240     6.6860     2.2480   -30.5850 
  140.6250    80.4350    25.6800     6.5970     5.4190     6.1160     2.2780   -30.3020 
  140.7500    87.1970    25.6800     5.6440     5.0280     5.7200     2.2860   -29.9690 
  140.8750    91.9830    25.6800     5.2960     4.7930     5.5320     2.2790   -29.7700 
  141.0000    91.2670    25.6800     5.3540     4.7140     5.5340     2.2730   -29.5850 
  141.1250    87.9500    25.6800     5.4660     4.7720     5.6830     2.2790   -29.5100 
  141.2500    87.0310    25.6800     5.4230     4.8760     5.8560     2.2890   -29.5120 
  141.3750    88.4850    25.6800     5.4740     4.9530     5.9590     2.2950   -29.4770 
  141.5000    90.2220    25.6800     5.6650     4.9510     5.9300     2.3010   -29.5180 
  141.6250    91.5880    25.6800     5.6690     4.8430     5.7520     2.3110   -29.6540 
  141.7500    93.9190    25.6800     5.3460     4.6780     5.5120     2.3190   -29.8050 
  141.8750    97.5320    25.6800     4.9440     4.5110     5.2920     2.3210   -29.9370 
  142.0000   100.9580    25.6800     4.8590     4.3980     5.1710     2.3160   -30.1710 
  142.1250    98.7910    25.6800     5.2230     4.4260     5.2460     2.3010   -30.3470 
  142.2500    92.6700    25.6800     5.6990     4.6200     5.5280     2.2710   -30.6160 
  142.3750    88.0200    25.6800     6.0000     4.9990     6.0240     2.2320   -31.0120 
  142.5000    85.2650    25.6800     6.2480     5.5530     6.7140     2.1960   -31.3170 
  142.6250    80.5740    25.6800     6.8590     6.2550     7.5510     2.1750   -31.6060 
  142.7500    74.8840    25.6800     7.7810     6.9860     8.3880     2.1640   -31.8600 
  142.8750    70.4070    25.6800     8.7110     7.6160     9.0570     2.1580   -32.0600 
  143.0000    65.9280    25.6800     9.2210     7.9890     9.3750     2.1580   -32.0860 
  143.1250    63.1580    25.6800     9.3800     7.9040     9.1250     2.1760   -32.0370 
  143.2500    66.0020    25.6800     9.0390     7.4230     8.4190     2.2080   -31.8630 
  143.3750    74.1600    25.6800     7.7890     6.6750     7.4350     2.2410   -31.5390 
  143.5000    85.0900    25.6800     6.1390     5.8390     6.4050     2.2580   -31.1410 
  143.6250    95.8370    25.6800     5.2000     5.1050     5.5560     2.2550   -30.7730 
  143.7500   102.9930    25.6800     4.8380     4.5660     4.9690     2.2460   -30.4150 
  143.8750   103.4010    25.6800     4.6760     4.2670     4.6730     2.2350   -30.1070 
  144.0000    98.5240    25.6800     4.7470     4.2300     4.6800     2.2230   -29.8840 
  144.1250    95.4390    25.6800     4.8650     4.5110     5.0470     2.2090   -29.8560 
  144.2500    95.1270    25.6800     5.2880     5.0720     5.7370     2.1940   -29.8870 
  144.3750    93.7750    25.6800     6.2920     5.8960     6.7180     2.1800   -29.9310 
  144.5000    89.5310    25.6800     7.5960     6.8870     7.8410     2.1690   -30.0240 
  144.6250    84.9240    25.6800     8.5540     7.7540     8.7180     2.1650   -30.0070 
  144.7500    81.5980    25.6800     8.9670     8.1360     8.9770     2.1750   -29.9390 
  144.8750    78.5690    25.6800     8.9050     7.8360     8.4600     2.2020   -29.8060 
  145.0000    76.6850    25.6800     7.8710     6.9530     7.3400     2.2430   -29.6220 
  145.1250    80.6370    25.6800     6.3050     5.8350     6.0590     2.2880   -29.2400 
  145.2500    88.9150    25.6800     5.0950     4.8720     5.0530     2.3230   -28.8620 
  145.3750    95.9470    25.6800     4.6230     4.2380     4.5080     2.3460   -28.5940 
  145.5000    96.7740    25.6800     4.4780     4.0300     4.5270     2.3670   -28.3160 
  145.6250    93.4220    25.6800     5.0550     4.4340     5.3600     2.4020   -28.1530 
  145.7500    89.9410    25.6780     7.0460     5.4980     7.0780     2.4570   -28.0300 
  145.8750    84.1160    25.6770    10.6990     7.3620     9.8070     2.5190   -27.9470 
  146.0000    73.9620    25.6770    15.0570    10.0800    13.4400     2.5690   -27.9560 
  146.1250    63.4500    25.6750    17.4350    13.4110    17.3390     2.5930   -28.0630 
  146.2500    57.9450    25.6730    17.8320    16.4230    20.3940     2.6070   -28.1910 
  146.3750    57.5720    25.6710    17.9250    18.3860    22.0030     2.6180   -28.2730 
  146.5000    58.6670    25.6710    18.5650    19.1700    22.3280     2.6240   -28.4200 
  146.6250    57.6910    25.6710    18.8080    19.1550    22.0200     2.6130   -28.5460 
  146.7500    54.0070    25.6710    18.7890    18.9760    21.7710     2.5920   -28.7430 
  146.8750    49.2370    25.6710    19.1300    18.8540    21.7620     2.5730   -28.9120 
  147.0000    45.9070    25.6710    19.8640    18.8520    21.9780     2.5630   -29.1150 
  147.1250    45.6740    25.6710    19.4930    18.9920    22.3810     2.5650   -29.2850 
  147.2500    47.0570    25.6710    18.7780    19.2650    22.9160     2.5730   -29.4020 
  147.3750    47.5260    25.6710    18.9220    19.6700    23.5490     2.5820   -29.5060 
  147.5000    46.4540    25.6710    20.0010    20.1600    24.1970     2.5880   -29.5670 
  147.6250    47.1600    25.6710    20.8300    20.6420    24.7100     2.5870   -29.5300 
  147.7500    49.8750    25.6710    21.1120    21.0200    25.0060     2.5810   -29.5060 
  147.8750    50.4770    25.6710    21.1150    21.2500    25.0790     2.5720   -29.4810 
  148.0000    48.4390    25.6710    20.9150    21.3700    25.0360     2.5630   -29.4260 
  148.1250    48.8680    25.6710    20.9610    21.5160    25.1000     2.5630   -29.3940 
  148.2500    51.8500    25.6710    21.0320    21.8210    25.4190     2.5800   -29.3650 
  148.3750    53.2430    25.6710    21.2230    22.3200    25.9990     2.6090   -29.2720 
  148.5000    52.2940    25.6710    21.3330    22.9220    26.6870     2.6350   -29.2010 
  148.6250    52.7440    25.6710    21.6480    23.3570    27.1100     2.6380   -29.2600 
  148.7500    55.2450    25.6710    21.9680    23.3550    26.9530     2.6180   -29.2070 
  148.8750    56.8660    25.6710    22.4110    22.7510    26.0440     2.5880   -29.1900 
  149.0000    56.2880    25.6710    21.9720    21.5570    24.4330     2.5620   -29.1400 
  149.1250    54.0340    25.6710    20.1930    19.9840    22.4160     2.5490   -29.1460 
  149.2500    52.4230    25.6680    18.4980    18.4600    20.5270     2.5420   -29.1880 
  149.3750    53.0040    25.6560    16.9300    17.2560    19.0970     2.5320   -29.2450 
  149.5000    54.9690    25.6290    15.6020    16.5330    18.3210     2.5110   -29.3110 
  149.6250    57.1290    25.6000    15.3170    16.4540    18.3640     2.4920   -29.3210 
  149.7500    59.0260    25.5860    16.0670    16.8670    18.9780     2.4930   -29.3470 
  149.8750    58.9550    25.5870    17.0250    17.6000    19.8970     2.5130   -29.4140 
  150.0000    56.9960    25.5840    17.4210    18.3870    20.7680     2.5370   -29.4390 
  150.1250    56.9810    25.5640    16.9580    18.8150    21.1050     2.5450   -29.4690 
  150.2500    59.5960    25.5400    16.9830    18.6480    20.7150     2.5370   -29.4900 
  150.3750    62.1590    25.5240    16.9290    17.8660    19.6500     2.5180   -29.5210 
  150.5000    62.7840    25.5190    16.3280    16.7100    18.2350     2.5010   -29.5120 
  150.6250    63.4460    25.5190    14.6040    15.5940    16.9880     2.4960   -29.4920 
  150.7500    63.5320    25.5210    13.1970    14.8360    16.2560     2.5010   -29.4780 
  150.8750    60.8910    25.5240    12.8050    14.5550    16.1490     2.5080   -29.4100 
  151.0000    56.6400    25.5240    13.4970    14.7240    16.5770     2.5150   -29.4140 
  151.1250    53.7200    25.5240    14.9750    15.2170    17.3050     2.5180   -29.2940 
