~V
VERS. 2.00: Ver 2.00
~W
STRT.M 59.0000:
STOP.M 277.0000:
STEP.M 0.1250:
NULL. -999.2500:
UWI. DF5027:
~C
DEPT.M :
GR.API :
RML.OHMM :
RI. :
RXO.OHMM :
CALI.CM :
DEN.GM/CC :
SP.MV :
~A
# ...
  149.0000    65.7810     9.4970     8.5480     9.0070    24.2690     2.4190   -25.6690 
  149.1250    60.8290    10.1070     9.1740    11.8240    24.2220     2.4820   -25.7070 
  149.2500    60.1500    10.2360     9.4790    14.6410    24.0900     2.5160   -25.7210 
  149.3750    63.6550     9.9660     9.4850    14.9690    23.9240     2.5090   -25.6840 
  149.5000    70.1520     9.6090     9.3690    11.7470    23.8340     2.4720   -25.7360 
  149.6250    75.3410     9.6380     9.4470     8.9920    23.8400     2.4340   -25.6860 
  149.7500    74.8970    10.3740     9.9590     9.0300    23.8870     2.4180   -25.6900 
  149.8750    68.0530    11.9680    11.0330    11.2070    23.9360     2.4280   -25.6350 
  150.0000    58.0920    14.4970    12.6620    14.6000    24.0160     2.4570   -25.5830 
  150.1250    50.7240    17.6240    14.7420    20.6130    24.1570     2.4880   -25.5160 
  150.2500    46.9660    20.6100    16.9090    25.1590    24.2750     2.5070   -25.4310 
  150.3750    45.9990    22.7750    18.8540    25.1920    24.3800     2.5130   -25.3870 
  150.5000    46.8000    24.3080    20.3500    23.8260    24.4910     2.5140   -25.3390 
  150.6250    49.9930    25.1220    21.2560    23.2740    24.5590     2.5220   -25.3380 
  150.7500    52.6280    25.5070    21.7500    24.1180    24.6100     2.5380   -25.3330 
  150.8750    51.4980    25.6650    21.9830    25.5170    24.6160     2.5530   -25.3930 
  151.0000    49.0710    25.7410    22.0930    25.0180    24.5300     2.5540   -25.4190 
  151.1250    51.0090    25.7910    22.1470    23.2100    24.3120     2.5320   -25.5380 
  151.2500    55.1110    25.8340    22.1770    21.5150    23.9950     2.4980   -25.5990 
  151.3750    56.9750    25.9140    22.2220    19.6930    23.6550     2.4640   -25.7010 
  151.5000    56.9650    26.0660    22.3220    18.4560    23.3630     2.4420   -25.7540 
  151.6250    56.3780    26.3100    22.5110    18.9350    23.2580     2.4390   -25.7790 
  151.7500    54.1620    26.6010    22.7600    21.5010    23.2430     2.4480   -25.8180 
  151.8750    52.3910    26.8710    23.0200    23.5600    23.2900     2.4610   -25.7670 
  152.0000    54.2040    27.0530    23.2280    24.5150    23.4220     2.4710   -25.7540 
  152.1250    56.7860    27.1090    23.3500    24.8310    23.7160     2.4740   -25.6350 
  152.2500    56.2810    27.0470    23.3740    24.5220    24.1350     2.4730   -25.5530 
  152.3750    55.4080    26.8430    23.2740    24.5590    24.5520     2.4730   -25.4340 
  152.5000    57.3310    26.4840    23.0410    25.4390    24.7210     2.4780   -25.3210 
  152.6250    59.1490    25.9740    22.6790    25.7230    24.6940     2.4950   -25.2610 
  152.7500    58.2150    25.3970    22.2470    26.6910    24.6470     2.5170   -25.1500 
  152.8750    56.6500    24.8500    21.8090    25.0200    24.5790     2.5370   -25.0890 
  153.0000    56.5590    24.4430    21.4550    21.6540    24.5050     2.5460   -24.9610 
  153.1250    58.3780    24.3110    21.3050    19.3080    24.5010     2.5400   -24.9290 
  153.2500    60.9490    24.4570    21.3820    19.0600    24.5040     2.5260   -24.8690 
  153.3750    62.2060    24.8540    21.6780    19.5970    24.3990     2.5130   -24.8460 
  153.5000    60.2710    25.3720    22.0980    19.9450    24.2070     2.5090   -24.8200 
  153.6250    58.0290    25.7320    22.4250    20.8960    24.0580     2.5170   -24.7840 
  153.7500    57.9540    25.7030    22.4640    20.7430    24.0550     2.5290   -24.7380 
  153.8750    58.3460    25.1690    22.1020    19.6320    24.1010     2.5370   -24.6880 
  154.0000    57.1710    24.1410    21.3200    18.2200    24.0600     2.5350   -24.7050 
  154.1250    56.4680    22.7670    20.1900    18.6680    23.9860     2.5190   -24.6270 
  154.2500    57.6760    21.3980    18.9910    19.3900    23.9540     2.4960   -24.6250 
  154.3750    58.9640    20.2800    17.9310    17.8080    23.9560     2.4770   -24.5600 
  154.5000    58.6840    19.5630    17.1630    15.1230    24.0090     2.4670   -24.5520 
  154.6250    57.7100    19.3630    16.8170    13.5890    24.1890     2.4720   -24.4970 
  154.7500    57.6320    19.5360    16.8020    13.3280    24.4510     2.4860   -24.4940 
  154.8750    58.3350    19.9360    17.0160    13.5570    24.6080     2.5020   -24.5090 
  155.0000    57.1870    20.3750    17.3240    14.6430    24.6310     2.5160   -24.4300 
  155.1250    55.2380    20.6480    17.5600    16.4980    24.6220     2.5230   -24.4450 
  155.2500    54.7440    20.6690    17.6220    17.4820    24.6300     2.5230   -24.3930 
  155.3750    55.4130    20.4400    17.4830    17.0320    24.6600     2.5190   -24.3830 
  155.5000    56.3190    20.0570    17.1900    15.9810    24.6700     2.5140   -24.3140 
  155.6250    57.1680    19.6640    16.8390    15.8910    24.6410     2.5110   -24.2280 
  155.7500    56.8780    19.3480    16.5160    16.2400    24.6000     2.5080   -24.1550 
  155.8750    54.9710    19.1210    16.2480    15.9910    24.5940     2.5020   -24.0590 
  156.0000    54.2520    18.9530    16.0320    14.7910    24.6500     2.4950   -24.0580 
  156.1250    56.7990    18.7720    15.8330    14.3070    24.6800     2.4870   -23.9890 
  156.2500    58.1020    18.5090    15.5950    14.1830    24.6690     2.4830   -23.9750 
  156.3750    56.3840    18.1670    15.3000    14.1060    24.6110     2.4860   -23.9060 
  156.5000    54.0040    17.7980    14.9750    13.7580    24.5730     2.4950   -23.9110 
  156.6250    53.6070    17.4850    14.6750    13.0310    24.5800     2.5060   -23.9510 
  156.7500    54.8370    17.2810    14.4450    12.8170    24.5980     2.5170   -23.9810 
  156.8750    56.8510    17.2220    14.3200    13.0590    24.6100     2.5230   -24.0160 
  157.0000    58.7900    17.3080    14.3160    13.2360    24.6140     2.5210   -24.0880 
  157.1250    59.8560    17.5280    14.4380    13.3220    24.6140     2.5070   -24.1580 
  157.2500    60.7500    17.8240    14.6460    13.8380    24.6240     2.4830   -24.2220 
  157.3750    62.9080    18.1560    14.9080    14.5480    24.6560     2.4530   -24.3410 
  157.5000    66.6910    18.4970    15.1940    14.9600    24.6710     2.4240   -24.3810 
  157.6250    68.8650    18.8540    15.4950    14.2690    24.6480     2.4080   -24.4830 
  157.7500    68.6550    19.2360    15.8130    14.1490    24.6090     2.4100   -24.5030 
  157.8750    69.4540    19.6250    16.1350    14.7090    24.5980     2.4250   -24.5640 
  158.0000    73.0920    19.9770    16.4320    15.3920    24.5920     2.4470   -24.5460 
  158.1250    76.2080    20.1900    16.6330    16.1530    24.5790     2.4630   -24.5520 
  158.2500    74.8250    20.1980    16.6920    16.6130    24.5500     2.4670   -24.5580 
  158.3750    70.6400    19.9770    16.5790    16.4450    24.4890     2.4590   -24.5000 
  158.5000    67.2200    19.5520    16.3020    16.3030    24.4360     2.4410   -24.4970 
  158.6250    66.6520    18.9900    15.8960    16.3550    24.4560     2.4180   -24.3790 
  158.7500    66.7060    18.4170    15.4490    16.0390    24.5190     2.3960   -24.3290 
  158.8750    66.9060    17.8900    15.0070    14.3250    24.5620     2.3840   -24.2330 
  159.0000    68.3040    17.4190    14.5940    12.6490    24.5730     2.3840   -24.1670 
  159.1250    70.1590    16.9920    14.2150    12.3110    24.5570     2.3980   -24.1080 
  159.2500    69.6320    16.5680    13.8520    12.6450    24.5170     2.4170   -24.0420 
  159.3750    67.1490    16.1230    13.4860    12.9680    24.4770     2.4360   -24.0130 
  159.5000    64.3200    15.6640    13.1180    12.6290    24.4890     2.4510   -23.9290 
  159.6250    62.1170    15.2340    12.7820    11.7750    24.5440     2.4630   -23.9520 
  159.7500    60.7730    14.8800    12.5120    10.8860    24.6230     2.4720   -23.9020 
  159.8750    61.0720    14.6410    12.3400    10.7160    24.6680     2.4780   -23.8880 
  160.0000    63.2190    14.5410    12.2890    11.0710    24.6600     2.4800   -23.8500 
  160.1250    65.1470    14.5850    12.3670    11.6170    24.6300     2.4750   -23.8300 
