~V
VERS. 2.00: Ver 2.00
~W
STRT.M 53.0000:
STOP.M 257.0000:
STEP.M 0.1250:
NULL. -999.2500:
UWI. DF5014:
~C
DEPT.M :
GR.API :
RML.OHMM :
RI. :
RXO.OHMM :
CALI.CM :
DEN.GM/CC :
SP.MV :
~A
# ...
   75.5000    74.7830     8.8130     7.9410     8.9060    22.9750     2.1540   -22.7180 
   75.6250    72.0190     9.0430     8.1890     8.9620    23.0150     2.1550   -22.7630 
   75.7500    70.9200     9.1370     8.3860     8.9730    23.0310     2.1550   -22.7340 
   75.8750    72.3750     9.1390     8.4980     9.0440    22.9380     2.1550   -22.5920 
   76.0000    75.1070     9.1080     8.5460     9.0640    22.8410     2.1580   -22.3950 
   76.1250    78.9150     9.0620     8.5440     8.9850    22.8140     2.1660   -22.1250 
   76.2500    82.4190     9.0150     8.5100     8.8550    22.8020     2.1800   -21.7700 
   76.3750    84.4970     8.9990     8.4720     8.7300    22.7550     2.1970   -21.3980 
   76.5000    86.6480     9.0340     8.4560     8.6560    22.7170     2.2130   -21.0160 
   76.6250    86.8580     9.1240     8.4770     8.6440    22.6990     2.2240   -20.7130 
   76.7500    82.2560     9.2460     8.5320     8.7410    22.6850     2.2290   -20.5070 
   76.8750    75.5040     9.3530     8.6050     8.9290    22.6580     2.2300   -20.3500 
   77.0000    74.3680     9.4070     8.6650     9.1130    22.6480     2.2280   -20.2540 
   77.1250    78.0610     9.4020     8.6920     9.2530    22.6480     2.2260   -20.1810 
   77.2500    80.1210     9.3520     8.6800     9.2860    22.6400     2.2240   -20.1600 
   77.3750    78.6480     9.2890     8.6360     9.1220    22.5840     2.2200   -20.1250 
   77.5000    76.6250     9.2420     8.5890     8.9330    22.4270     2.2150   -20.0990 
   77.6250    73.8290     9.2250     8.5690     8.7940    22.1630     2.2100   -20.0780 
   77.7500    69.9420     9.2420     8.5870     8.7610    21.8740     2.2070   -19.9890 
   77.8750    66.4980     9.2920     8.6600     8.8710    21.7560     2.2100   -19.9640 
   78.0000    66.0870     9.3570     8.7420     8.9210    21.7270     2.2140   -19.9740 
   78.1250    66.8070     9.4220     8.7900     8.9170    21.7380     2.2140   -20.0590 
   78.2500    66.2750     9.4710     8.7930     8.8990    21.8160     2.2070   -20.1850 
   78.3750    64.3800     9.4850     8.7380     8.9260    22.1020     2.1880   -20.3940 
   78.5000    63.0770     9.4590     8.6630     8.9980    22.5770     2.1630   -20.6710 
   78.6250    60.7850     9.3920     8.5920     9.0860    23.0450     2.1390   -20.9010 
   78.7500    57.6130     9.2910     8.5220     9.1140    23.2960     2.1220   -21.1260 
   78.8750    57.3200     9.1780     8.4400     9.0530    23.3340     2.1150   -21.2600 
   79.0000    59.7770     9.0860     8.3630     8.9890    23.3200     2.1190   -21.3150 
   79.1250    62.4460     9.0340     8.3250     8.9160    23.3240     2.1290   -21.3020 
   79.2500    63.3790     9.0290     8.3010     8.8840    23.3510     2.1420   -21.2120 
   79.3750    63.2220     9.0660     8.3000     8.8970    23.3670     2.1570   -21.0610 
   79.5000    64.9600     9.1180     8.3200     8.9170    23.3700     2.1710   -20.8280 
   79.6250    68.9850     9.1680     8.3540     8.9530    23.3680     2.1830   -20.6540 
   79.7500    72.0400     9.1990     8.3910     8.9890    23.3670     2.1900   -20.5230 
   79.8750    69.8630     9.2020     8.4180     8.9890    23.3790     2.1900   -20.4210 
   80.0000    65.8960     9.1730     8.4230     8.9640    23.4000     2.1840   -20.3520 
   80.1250    64.0040     9.1150     8.4040     8.9370    23.3980     2.1770   -20.2610 
   80.2500    63.2540     9.0480     8.3580     8.9080    23.3460     2.1700   -20.2180 
   80.3750    62.7770     8.9680     8.2930     8.8500    23.2710     2.1670   -20.1390 
   80.5000    64.0500     8.9230     8.2260     8.7730    23.2590     2.1660   -20.0900 
   80.6250    66.7410     8.9550     8.1730     8.6930    23.3080     2.1660   -20.0000 
   80.7500    68.7180     9.0410     8.1520     8.6220    23.3660     2.1660   -19.8710 
   80.8750    68.4130     9.1650     8.1810     8.6240    23.2720     2.1690   -19.7500 
   81.0000    67.1550     9.2580     8.2560     8.6990    23.0280     2.1790   -19.6390 
   81.1250    65.3020     9.3980     8.3690     8.8310    22.7970     2.1950   -19.5740 
   81.2500    64.2120     9.5640     8.5040     8.9780    22.7220     2.2130   -19.4680 
   81.3750    65.2760     9.7210     8.6310     9.0530    22.7490     2.2240   -19.4560 
   81.5000    66.2640     9.8380     8.7260     9.0670    22.7680     2.2250   -19.4930 
   81.6250    64.2250     9.8940     8.7730     8.9900    22.7780     2.2150   -19.5480 
   81.7500    61.4650     9.8850     8.7640     8.8780    22.7950     2.1970   -19.6280 
   81.8750    64.3110     9.8070     8.6900     8.8120    22.8180     2.1780   -19.6480 
   82.0000    68.8480     9.6720     8.5640     8.7870    22.8320     2.1650   -19.6220 
   82.1250    71.2070     9.4780     8.3920     8.7610    22.8470     2.1580   -19.5640 
   82.2500    70.9510     9.2340     8.1940     8.7490    22.8790     2.1580   -19.5000 
   82.3750    71.1860     8.9980     8.0180     8.7630    22.8910     2.1610   -19.3720 
   82.5000    73.3940     8.8740     7.9310     8.7740    22.8730     2.1680   -19.1520 
   82.6250    76.0370     8.9570     7.9960     8.7560    22.8210     2.1780   -18.9370 
   82.7500    77.9380     9.2890     8.2380     8.6610    22.7830     2.1910   -18.7380 
   82.8750    76.4200     9.8330     8.6330     8.4080    22.7710     2.2020   -18.6110 
   83.0000    74.0800    10.3860     9.0410     8.2840    22.7700     2.2040   -18.5670 
   83.1250    73.5440    10.7660     9.3350     8.3260    22.7510     2.1930   -18.5500 
   83.2500    73.2930    10.8440     9.4210     8.3360    22.6650     2.1740   -18.6160 
   83.3750    71.6470    10.5820     9.2590     8.1710    22.4350     2.1530   -18.7120 
   83.5000    71.2790    10.1800     8.9780     7.9430    22.1920     2.1380   -18.8550 
   83.6250    74.1280     9.8050     8.6930     7.8240    22.0710     2.1330   -18.9830 
   83.7500    78.0890     9.5640     8.4870     7.8800    22.1020     2.1360   -19.0500 
   83.8750    79.6130     9.4900     8.3970     8.0750    22.2040     2.1470   -19.1220 
   84.0000    79.3010     9.4940     8.3710     8.2870    22.2860     2.1580   -19.1570 
   84.1250    78.1550     9.5130     8.3650     8.4300    22.3400     2.1690   -19.2290 
   84.2500    76.3530     9.5080     8.3520     8.4480    22.4110     2.1800   -19.2770 
   84.3750    73.3080     9.4740     8.3330     8.3660    22.4830     2.1880   -19.3380 
   84.5000    69.3960     9.4410     8.3310     8.3010    22.5420     2.1930   -19.4290 
   84.6250    66.3660     9.4340     8.3630     8.4760    22.6310     2.1950   -19.5530 
   84.7500    66.8520     9.4660     8.4290     8.8450    22.7280     2.1930   -19.7170 
   84.8750    68.5290     9.5420     8.5200     9.0450    22.7310     2.1880   -19.7690 
   85.0000    67.3820     9.6380     8.6130     9.1690    22.6170     2.1810   -19.7690 
   85.1250    62.9860     9.7360     8.6970     9.2540    22.4800     2.1750   -19.6500 
   85.2500    59.2630     9.8140     8.7640     9.3020    22.4010     2.1720   -19.4360 
   85.3750    61.2460     9.8360     8.7950     9.1590    22.2950     2.1740   -19.1220 
   85.5000    66.9040     9.7830     8.7760     8.7250    22.0020     2.1810   -18.6550 
   85.6250    72.4640     9.6400     8.6890     8.1180    21.6390     2.1950   -18.0880 
   85.7500    74.4500     9.4150     8.5300     7.6450    21.5360     2.2170   -17.3980 
   85.8750    74.2030     9.1640     8.3260     7.5040    21.8890     2.2420   -16.7040 
   86.0000    76.4260     8.9800     8.1550     7.6190    22.3630     2.2640   -16.0040 
   86.1250    81.7410     8.9190     8.0700     7.8100    22.6360     2.2800   -15.3400 
   86.2500    87.2670     8.9710     8.0790     7.9060    22.6640     2.2950   -14.7380 
   86.3750    88.6910     9.0240     8.1170     7.8500    22.5810     2.3150   -14.1400 
   86.5000    90.5970     8.9290     8.0720     7.9760    22.5680     2.3420   -13.6030 
   86.6250    95.9540     8.6060     7.8710     8.0750    22.6010     2.3690   -13.0980 
