~V
VERS. 2.00: Ver 2.00
~W
STRT.M 55.0000:
STOP.M 268.0000:
STEP.M 0.1250:
NULL. -999.2500:
UWI. DF5007:
~C
DEPT.M :
SP.MV :
GR.API :
RML.OHMM :
RI. :
RXO.OHMM :
CALI.CM :
DEN.GM/CC :
~A
# ...
   66.2500   -20.8480    88.5300     7.1770     6.7410     6.5010    23.6120     2.3180 
   66.3750   -19.7800    94.9160     6.9710     6.4550     6.0590    22.8570     2.3000 
   66.5000   -18.8710    99.9380     6.8510     6.2310     5.8270    22.5440     2.2850 
   66.6250   -18.2370   102.1790     6.8400     6.1150     5.6710    22.5000     2.2800 
   66.7500   -17.8330   102.3080     6.9020     6.0920     5.6940    22.4410     2.2790 
   66.8750   -17.5850   101.1960     7.0100     6.1480     5.8510    22.4070     2.2780 
   67.0000   -17.4430   100.8970     7.1480     6.2680     6.0470    22.5470     2.2790 
   67.1250   -17.4350   100.2350     7.3140     6.4340     6.1150    22.9230     2.2850 
   67.2500   -17.4370    97.3410     7.4980     6.6160     6.1580    23.4860     2.2970 
   67.3750   -17.5390    93.5600     7.7030     6.8000     6.2370    24.1850     2.3120 
   67.5000   -17.7120    92.3240     7.9190     6.9660     6.4650    24.8000     2.3240 
   67.6250   -17.8740    92.8510     8.1130     7.0740     6.8750    24.8940     2.3260 
   67.7500   -18.0910    90.4160     8.2430     7.0960     7.5620    24.7430     2.3160 
   67.8750   -18.3670    88.8980     8.2660     7.0110     7.8690    24.6490     2.2960 
   68.0000   -18.6950    92.7860     8.1400     6.8070     7.0000    24.5760     2.2710 
   68.1250   -19.0800    94.3930     7.8540     6.4910     6.6430    24.3880     2.2460 
   68.2500   -19.4280    88.1930     7.5470     6.1670     6.8580    24.3380     2.2230 
   68.3750   -19.7260    79.3690     7.3610     5.9480     7.2270    24.7320     2.2060 
   68.5000   -19.9900    76.1470     7.4420     5.9580     7.4100    25.5430     2.1960 
   68.6250   -20.3230    79.7690     8.0130     6.3990     7.3060    26.3150     2.2050 
   68.7500   -20.6710    83.0070     9.0890     7.3000     7.4170    26.6780     2.2380 
   68.8750   -21.1060    81.9640    10.6230     8.6420     8.8610    26.4510     2.2940 
   69.0000   -21.7050    76.0290    12.4390    10.2670    12.5370    25.6600     2.3630 
   69.1250   -22.2980    71.8660    14.0480    11.8130    18.5800    24.8150     2.4180 
   69.2500   -23.0940    72.0660    14.9470    12.8670    24.6490    24.3710     2.4390 
   69.3750   -24.0010    72.8470    14.7680    13.1550    27.4880    24.2100     2.4170 
   69.5000   -24.8190    72.9430    13.6500    12.6550    24.3730    24.1540     2.3620 
   69.6250   -25.6690    73.5100    11.8750    11.5830    17.1770    24.1710     2.2970 
   69.7500   -26.3780    73.6820    10.2190    10.4300    11.5060    24.2570     2.2390 
   69.8750   -26.8270    71.8220     9.1770     9.4660     9.6070    24.5490     2.1920 
   70.0000   -27.0410    69.7310     8.7190     8.8170     9.3640    25.1200     2.1530 
   70.1250   -27.0550    69.3130     8.5900     8.5190     9.5170    25.6710     2.1160 
   70.2500   -26.8860    69.2110     8.6120     8.4150     9.6980    25.7990     2.0760 
   70.3750   -26.5010    69.6750     8.6840     8.4050     9.7550    25.7600     2.0340 
   70.5000   -26.0340    69.8910     8.7270     8.4070     9.6870    25.8900     2.0010 
   70.6250   -25.4460    70.7460     8.7080     8.3630     9.4280    26.0300     1.9980 
   70.7500   -24.8260    72.3330     8.6650     8.2800     8.8690    25.6660     2.0280 
   70.8750   -24.2760    74.8470     8.6340     8.1810     8.0860    24.8190     2.0830 
   71.0000   -23.7340    77.0380     8.6330     8.0830     7.4780    24.0070     2.1370 
   71.1250   -23.2930    75.6640     8.6540     7.9940     7.5280    23.8310     2.1560 
   71.2500   -22.9230    72.5640     8.6580     7.9010     7.7900    24.2450     2.1400 
   71.3750   -22.6570    71.8960     8.6110     7.7880     8.1840    25.0280     2.1050 
   71.5000   -22.4890    74.7770     8.5060     7.6480     8.7040    25.7180     2.0730 
   71.6250   -22.4210    76.6390     8.3740     7.5090     8.7530    25.9260     2.0590 
   71.7500   -22.3800    76.4750     8.3030     7.4350     8.1600    25.7630     2.0630 
   71.8750   -22.3800    77.6040     8.3780     7.4930     7.6650    25.3010     2.0830 
   72.0000   -22.5450    79.0450     8.6630     7.7420     7.6870    24.5110     2.1180 
   72.1250   -22.7310    77.2840     9.2030     8.2340     7.9890    23.5880     2.1620 
   72.2500   -22.9150    74.4830     9.8900     8.8770     8.8450    22.9490     2.2010 
   72.3750   -23.2260    73.4480    10.5930     9.5640    10.4120    22.7440     2.2200 
   72.5000   -23.5040    73.2680    11.1540    10.1500    12.6520    22.7520     2.2090 
   72.6250   -23.8110    72.1130    11.3800    10.4500    13.2910    22.7220     2.1670 
   72.7500   -24.1790    71.2200    11.2720    10.4410    11.2250    22.7320     2.1170 
   72.8750   -24.4040    70.4390    10.9100    10.1650    10.0360    22.8710     2.0760 
   73.0000   -24.5600    69.5900    10.4430     9.7310     9.6680    23.0080     2.0580 
   73.1250   -24.6890    68.6050    10.0340     9.2770     9.4850    22.9460     2.0710 
   73.2500   -24.8020    68.3450     9.7630     8.9070     9.2450    22.7220     2.1010 
   73.3750   -24.8510    68.9230     9.6370     8.6570     8.8860    22.3960     2.1340 
   73.5000   -24.8780    70.5780     9.6140     8.5170     8.6220    22.1420     2.1610 
   73.6250   -24.9060    74.2820     9.6310     8.4510     8.5560    22.0630     2.1740 
   73.7500   -24.9000    76.0660     9.6250     8.4000     8.5300    22.0730     2.1740 
   73.8750   -24.9670    74.3110     9.5780     8.3410     8.6070    22.0750     2.1660 
   74.0000   -25.0560    71.8150     9.4940     8.2710     8.6960    22.0500     2.1540 
   74.1250   -25.0940    72.4330     9.4000     8.2060     8.8450    22.0950     2.1470 
   74.2500   -25.0900    73.8640     9.3280     8.1630     9.0430    22.2280     2.1490 
   74.3750   -24.9800    72.6840     9.2920     8.1470     9.3470    22.4390     2.1590 
   74.5000   -24.8550    68.7380     9.2970     8.1520     9.5400    22.7500     2.1700 
   74.6250   -24.6600    64.7810     9.3320     8.1650     9.4670    23.1510     2.1660 
   74.7500   -24.3760    64.0140     9.3720     8.1680     9.2890    23.5660     2.1430 
   74.8750   -24.0700    66.8170     9.4020     8.1440     9.2390    23.8250     2.1030 
   75.0000   -23.7320    70.7510     9.4100     8.0890     9.1470    23.8260     2.0590 
   75.1250   -23.3830    73.8430     9.3850     8.0000     8.9530    23.5580     2.0270 
   75.2500   -23.0370    75.0110     9.3380     7.8980     8.6430    23.2170     2.0140 
   75.3750   -22.8330    73.8610     9.2860     7.8010     8.3130    22.8420     2.0200 
   75.5000   -22.6770    73.0900     9.2500     7.7270     7.9340    22.3920     2.0410 
   75.6250   -22.4970    74.7180     9.2530     7.6960     7.6350    21.8650     2.0670 
   75.7500   -22.5580    76.6480     9.2940     7.7100     7.4630    21.5620     2.0880 
   75.8750   -22.6880    76.3540     9.3670     7.7640     7.4500    21.4370     2.1020 
   76.0000   -22.8120    74.2630     9.4560     7.8480     7.5930    21.4960     2.1120 
   76.1250   -23.1570    72.5180     9.5410     7.9390     7.9020    21.7220     2.1200 
   76.2500   -23.4930    71.7430     9.6060     8.0180     8.3540    21.9940     2.1300 
   76.3750   -23.8380    71.7500     9.6380     8.0700     8.8640    22.2570     2.1410 
   76.5000   -24.1860    72.3420     9.6350     8.0870     9.2480    22.5990     2.1470 
   76.6250   -24.5020    71.2370     9.6030     8.0670     9.3080    23.3990     2.1410 
   76.7500   -24.7630    68.1750     9.5630     8.0280     9.3070    24.7150     2.1270 
   76.8750   -24.9370    63.7440     9.5380     7.9850     9.3740    26.4150     2.1140 
   77.0000   -25.0780    60.5190     9.5390     7.9510     9.4710    27.9260     2.1100 
   77.1250   -25.0520    61.6050     9.5700     7.9390     9.5180    28.6550     2.1210 
   77.2500   -24.9560    62.8150     9.6140     7.9410     9.5530    28.8400     2.1370 
   77.3750   -24.8230    60.7850     9.6530     7.9470     9.6140    28.7950     2.1480 
