~V
VERS. 2.00: Ver 2.00
~W
STRT.M 58.0000:
STOP.M 276.0000:
STEP.M 0.1250:
NULL. -999.2500:
UWI. DF5012:
~C
DEPT.M :
SP.MV :
GR.API :
CALI.CM :
RXO.OHMM :
RI. :
RML.OHMM :
DEN.GM/CC :
~A
# ...
  238.0000   -33.4650    73.1180    25.4470    68.6200    64.2050    67.5320     2.2370 
  238.1250   -33.6690    74.9500    25.4490    68.1090    61.3060    63.7680     2.2350 
  238.2500   -33.8580    74.8640    25.4530    63.9200    58.0810    59.9270     2.2340 
  238.3750   -34.0150    72.8790    25.4440    55.2440    55.0830    56.5590     2.2370 
  238.5000   -34.1230    71.9340    25.3650    48.2270    52.5940    53.8440     2.2450 
  238.6250   -34.1480    74.2050    25.1730    51.4870    50.6070    51.6290     2.2540 
  238.7500   -34.1600    76.3590    25.0030    59.9220    48.7430    49.4890     2.2610 
  238.8750   -34.1130    76.3360    24.9870    56.7860    46.8840    47.3840     2.2640 
  239.0000   -34.0620    75.8100    25.1070    45.1930    45.2540    45.6650     2.2650 
  239.1250   -34.0140    77.3460    25.2150    41.6530    44.5950    45.2920     2.2660 
  239.2500   -33.9620    78.9160    25.2690    39.7440    45.6090    47.0070     2.2700 
  239.3750   -33.8870    79.4460    25.3120    39.7140    49.1370    51.5680     2.2780 
  239.5000   -33.8370    79.2320    25.3520    45.6770    55.8880    59.4230     2.2830 
  239.6250   -33.8140    77.2450    25.3640    58.7810    66.5340    70.8120     2.2800 
  239.7500   -33.8280    73.6330    25.3590    80.2600    79.3760    83.7490     2.2710 
  239.8750   -33.8690    69.8710    25.3560   108.9160    92.0140    95.6130     2.2580 
  240.0000   -33.9470    66.7540    25.3550   126.1830   101.1590   103.0620     2.2470 
  240.1250   -34.0380    64.6030    25.3550   110.1090   102.7860   102.3660     2.2410 
  240.2500   -34.1570    63.5720    25.3550    97.0990    97.7160    95.2130     2.2390 
  240.3750   -34.2580    64.2550    25.3550    94.1880    88.0830    84.3130     2.2440 
  240.5000   -34.3550    67.9690    25.3550    86.9030    76.8900    72.8310     2.2570 
  240.6250   -34.4280    74.5660    25.3520    68.8650    67.4110    63.9640     2.2800 
  240.7500   -34.4560    79.6250    25.3490    51.8500    61.3060    58.9630     2.3050 
  240.8750   -34.4150    80.5830    25.3450    44.4080    59.4110    58.4350     2.3180 
  241.0000   -34.3060    79.1560    25.3450    45.4480    62.2120    62.5520     2.3130 
  241.1250   -34.1510    77.2680    25.3480    63.3610    70.4410    71.5490     2.2980 
  241.2500   -33.9400    73.7010    25.3520    96.0500    81.9140    83.0470     2.2830 
  241.3750   -33.7620    68.7370    25.3450   124.9150    93.6060    93.9530     2.2760 
  241.5000   -33.5680    64.1730    25.3200   145.2070   101.3930   100.1920     2.2770 
  241.6250   -33.3960    61.1300    25.2990   141.0880   100.9020    97.7930     2.2800 
  241.7500   -33.1990    60.1560    25.3140   114.4260    94.2380    89.7990     2.2800 
  241.8750   -33.0760    61.8010    25.3550    86.0460    84.8820    80.1670     2.2750 
  242.0000   -32.9830    66.0520    25.3880    75.0140    76.1560    72.0880     2.2690 
  242.1250   -32.9000    71.1380    25.3950    66.8250    70.6600    67.8040     2.2630 
  242.2500   -32.8180    74.1410    25.3940    60.3260    68.7920    67.2590     2.2590 
  242.3750   -32.7910    74.7280    25.3930    62.7980    70.5790    70.2250     2.2560 
  242.5000   -32.7810    73.9730    25.3930    73.8800    75.2630    75.7690     2.2510 
  242.6250   -32.8350    72.5000    25.3950    89.2790    80.7300    81.5730     2.2410 
  242.7500   -32.9550    69.2670    25.4000    98.5790    83.6590    84.2770     2.2320 
  242.8750   -33.0990    65.0070    25.3880    96.4310    82.0430    81.9970     2.2320 
  243.0000   -33.2450    63.1360    25.2960    82.2700    76.3930    75.7760     2.2440 
  243.1250   -33.4190    65.8460    25.0970    69.3240    69.7550    69.3510     2.2700 
  243.2500   -33.6290    69.9750    24.9110    54.0930    65.3700    65.8200     2.3050 
  243.3750   -33.7940    73.4250    24.8210    46.1830    64.4860    66.1140     2.3430 
  243.5000   -33.9400    75.6880    24.8150    47.1680    67.1730    70.0590     2.3840 
  243.6250   -34.0240    77.3600    24.8610    68.8620    73.0520    77.1360     2.4270 
  243.7500   -34.0900    77.7320    24.9440    87.5660    80.2430    85.3950     2.4670 
  243.8750   -34.0820    75.6320    25.0290    85.1620    87.3290    93.3460     2.4970 
  244.0000   -34.0810    73.0010    25.0690    69.5700    93.2080    99.8170     2.5100 
  244.1250   -34.0550    74.7150    25.0850    70.6260    96.9300   103.7470     2.5090 
  244.2500   -34.0010    79.6670    25.1530    73.4740    98.4200   105.0560     2.5010 
  244.3750   -33.9110    82.8410    25.2810    85.6050    97.2810   103.3030     2.4880 
  244.5000   -33.8000    80.9890    25.4160   108.7100    93.2900    98.3650     2.4710 
  244.6250   -33.6260    77.3410    25.4780   100.0550    86.7890    91.0500     2.4560 
  244.7500   -33.4070    75.4710    25.4410    70.4760    79.9980    84.0830     2.4460 
  244.8750   -33.1600    75.8550    25.3100    49.8870    75.0030    79.7290     2.4390 
  245.0000   -32.8910    77.3440    25.1320    48.3050    73.5610    79.5430     2.4330 
  245.1250   -32.5660    77.8770    25.0000    58.7800    76.9210    84.1930     2.4300 
  245.2500   -32.2230    76.4130    24.9490    80.0370    81.6030    89.3600     2.4310 
  245.3750   -31.8660    73.7340    24.9440   114.2640    80.9840    87.4390     2.4390 
  245.5000   -31.4760    71.4150    24.9460   144.7620    68.6650    72.0370     2.4520 
  245.6250   -31.1180    70.2390    24.9400   126.7770    47.5000    48.1710     2.4620 
  245.7500   -30.8080    69.2240    24.9340    72.4050    29.3140    28.7490     2.4550 
  245.8750   -30.5630    68.0140    24.9310    25.6630    17.7070    16.8720     2.4290 
  246.0000   -30.3960    66.7940    24.9290     6.9940    11.5710    10.9200     2.3940 
  246.1250   -30.2870    64.8410    24.9320     6.1730     9.1300     8.9250     2.3720 
  246.2500   -30.2130    59.7140    24.9400     7.2410     8.2930     8.6270     2.3750 
  246.3750   -30.2000    51.4840    24.9490    13.8930     8.3370     9.1010     2.4010 
  246.5000   -30.2560    44.9010    24.9540    21.4600     8.7140     9.5930     2.4370 
  246.6250   -30.3490    46.0630    24.9540    20.5050     8.7820     9.3820     2.4510 
  246.7500   -30.4450    53.3620    24.9540    12.2390     8.3210     8.5070     2.4300 
  246.8750   -30.5410    61.3330    24.9500     7.5400     7.5420     7.3830     2.3890 
  247.0000   -30.5240    65.5780    24.9500     5.9530     6.7660     6.4370     2.3500 
  247.1250   -30.5460    65.6360    25.0160     5.5800     6.2380     5.9140     2.3290 
  247.2500   -30.5340    65.5110    25.1540     5.7880     5.9550     5.7060     2.3200 
  247.3750   -30.5580    66.1990    25.3030     6.1260     5.8620     5.7040     2.3210 
  247.5000   -30.5180    66.5260    25.3910     6.1200     5.8780     5.8070     2.3250 
  247.6250   -30.3890    65.6530    25.4090     6.5560     5.9190     5.9250     2.3240 
  247.7500   -30.2130    63.9580    25.4120     8.4220     5.9210     5.9950     2.3160 
  247.8750   -30.0330    62.3970    25.4100    12.6060     5.8650     5.9920     2.3060 
  248.0000   -29.9750    62.4770    25.4070    15.0740     5.7600     5.9230     2.2990 
  248.1250   -29.9510    62.8830    25.4070    11.5410     5.6290     5.8200     2.3020 
  248.2500   -29.8930    61.4820    25.4060     7.1330     5.5140     5.7380     2.3100 
  248.3750   -29.7440    60.6700    25.3900     5.6260     5.4340     5.7050     2.3180 
  248.5000   -29.5910    61.4810    25.3280     5.4990     5.3940     5.7260     2.3210 
  248.6250   -29.5000    61.8550    25.1830     5.8040     5.3950     5.7960     2.3170 
  248.7500   -29.4510    61.1950    25.0150     6.5790     5.4240     5.8950     2.3090 
  248.8750   -29.3930    61.8260    24.8960     8.6010     5.4770     6.0160     2.3020 
  249.0000   -29.2800    63.9100    24.8470    10.6740     5.5520     6.1640     2.3000 
  249.1250   -29.2340    65.9840    24.8250     9.8720     5.6570     6.3480     2.3050 
