~V
VERS. 2.00: Ver 2.00
~W
STRT.M 58.0000:
STOP.M 276.0000:
STEP.M 0.1250:
NULL. -999.2500:
UWI. DF5012:
~C
DEPT.M :
SP.MV :
GR.API :
CALI.CM :
RXO.OHMM :
RI. :
RML.OHMM :
DEN.GM/CC :
~A
# ...
  125.5000   -47.3060    77.7730    25.5780     8.7750     6.4090     8.4240     2.2990 
  125.6250   -47.3910    71.3280    25.5890    14.2600     8.2970    11.5840     2.3220 
  125.7500   -47.4820    66.6850    25.6460    26.2870    11.3080    15.9590     2.3710 
  125.8750   -47.6060    62.5610    25.6860    38.0450    15.3500    20.9870     2.4430 
  126.0000   -47.7390    61.2640    25.6900    43.8760    19.6450    25.4200     2.5240 
  126.1250   -47.8390    63.0610    25.6790    39.5200    22.2720    27.1600     2.5850 
  126.2500   -47.9520    63.9380    25.6610    33.3770    22.3700    25.9710     2.6050 
  126.3750   -48.0700    63.7160    25.6390    30.4630    20.4280    22.8050     2.5830 
  126.5000   -48.2140    63.8850    25.5550    27.1020    17.5770    19.0690     2.5290 
  126.6250   -48.3550    65.2330    25.2920    20.2610    14.8200    15.8880     2.4580 
  126.7500   -48.4740    66.8510    24.9400    15.1870    12.6030    13.5600     2.3920 
  126.8750   -48.5290    69.1220    24.6730    13.9710    11.0120    12.0740     2.3380 
  127.0000   -48.5560    70.0690    24.5700    13.0720    10.0070    11.2940     2.2920 
  127.1250   -48.5420    68.6770    24.5650    11.8900     9.5520    11.0850     2.2540 
  127.2500   -48.4860    66.7090    24.5350    11.5260     9.4230    11.1300     2.2190 
  127.3750   -48.3650    64.8830    24.4450    11.1370     9.4790    11.2510     2.1920 
  127.5000   -48.2510    64.9490    24.3110    10.6680     9.5980    11.3400     2.1730 
  127.6250   -48.1320    68.4780    24.2070    10.1610     9.7080    11.3730     2.1630 
  127.7500   -48.0130    70.9050    24.1680     9.4650     9.7930    11.3850     2.1590 
  127.8750   -47.9310    67.8540    24.1630     8.8470     9.8520    11.3910     2.1570 
  128.0000   -47.8420    61.8010    24.1530     8.5400     9.8800    11.3780     2.1580 
  128.1250   -47.7690    60.6360    24.1300     8.4590     9.8500    11.3080     2.1650 
  128.2500   -47.7480    63.0700    24.1020     8.4000     9.7540    11.1690     2.1780 
  128.3750   -47.7540    67.2550    24.0870     8.4020     9.5940    10.9730     2.1930 
  128.5000   -47.7750    72.2830    24.0870     8.3750     9.4020    10.7670     2.2050 
  128.6250   -47.7860    74.3340    24.0490     8.4090     9.2440    10.6500     2.2100 
  128.7500   -47.8240    72.0860    23.9500     8.8420     9.1770    10.6810     2.2080 
  128.8750   -47.8620    68.4180    23.8550     9.6480     9.2250    10.8670     2.2030 
  129.0000   -47.8850    68.4920    23.8980    10.4940     9.3800    11.1650     2.2000 
  129.1250   -47.9310    72.4160    24.1910    11.0170     9.6060    11.4920     2.2010 
  129.2500   -47.9280    73.6720    24.5520    11.4330     9.8230    11.7520     2.2040 
  129.3750   -47.9160    69.5200    24.7980    11.5890     9.9790    11.9040     2.2060 
  129.5000   -47.8120    63.0190    24.8750    11.5110    10.0540    11.9520     2.2050 
  129.6250   -47.6820    62.4950    24.8630    11.7190    10.0560    11.9320     2.2000 
  129.7500   -47.4820    64.6480    24.8580    11.7990    10.0260    11.8850     2.1940 
  129.8750   -47.2510    64.3930    24.8590    11.8140     9.9720    11.8010     2.1870 
  130.0000   -46.9940    63.3030    24.8610    11.6220     9.8690    11.6180     2.1810 
  130.1250   -46.6710    66.7670    24.8620    11.4510     9.6360    11.2140     2.1740 
  130.2500   -46.3170    71.7130    24.8610    11.0610     9.2560    10.6090     2.1680 
  130.3750   -45.9640    73.2020    24.8610    10.5280     8.7820     9.9120     2.1680 
  130.5000   -45.6460    71.6450    24.8610     9.8190     8.3230     9.3040     2.1770 
  130.6250   -45.3500    72.2460    24.8610     8.6390     8.0410     9.0160     2.1960 
  130.7500   -45.0940    75.3610    24.8610     8.2950     7.9820     9.0490     2.2160 
  130.8750   -44.8610    75.7380    24.8620     9.2450     8.1070     9.2790     2.2280 
  131.0000   -44.6400    70.0300    24.8610    10.5070     8.2810     9.4620     2.2240 
  131.1250   -44.4670    64.8110    24.8620    10.7380     8.2460     9.2510     2.2080 
  131.2500   -44.3380    65.1220    24.8660    10.0940     7.8800     8.5860     2.1960 
  131.3750   -44.2220    68.7230    24.8720     8.4400     7.2260     7.6090     2.1960 
  131.5000   -44.1460    72.7160    24.8810     6.7270     6.4550     6.5840     2.2110 
  131.6250   -44.1170    78.7590    24.9710     5.6710     5.7770     5.7930     2.2360 
  131.7500   -44.1270    85.6900    25.1900     5.2370     5.2770     5.2840     2.2610 
  131.8750   -44.1700    89.6880    25.4700     5.0390     4.9650     5.0260     2.2840 
  132.0000   -44.2620    91.6530    25.6820     4.9160     4.8210     4.9590     2.3020 
  132.1250   -44.3530    95.1210    25.7410     5.0120     4.8270     5.0370     2.3170 
  132.2500   -44.4600    96.6800    25.7260     5.1650     4.9270     5.1940     2.3250 
  132.3750   -44.6080    93.3960    25.6930     5.5590     5.0960     5.4060     2.3210 
  132.5000   -44.7620    87.3190    25.6690     5.9200     5.3130     5.6500     2.3040 
  132.6250   -44.8980    84.0890    25.6630     6.4090     5.5450     5.8770     2.2800 
  132.7500   -45.0240    83.3940    25.6440     6.6600     5.7410     6.0290     2.2630 
  132.8750   -45.1370    82.7780    25.5910     6.9310     5.8610     6.0720     2.2580 
  133.0000   -45.2250    81.6440    25.5260     7.2700     5.8890     6.0060     2.2640 
  133.1250   -45.3430    79.9560    25.4900     7.1220     5.8310     5.8740     2.2780 
  133.2500   -45.4450    78.3110    25.4860     6.4540     5.7530     5.7580     2.2930 
  133.3750   -45.5380    78.0390    25.4780     6.0180     5.7070     5.7070     2.3050 
  133.5000   -45.6400    80.1300    25.4340     6.3950     5.7180     5.7300     2.3120 
  133.6250   -45.7700    82.4090    25.3300     6.6410     5.7830     5.8070     2.3130 
  133.7500   -45.9210    83.0240    25.2030     6.7580     5.8600     5.8870     2.3070 
  133.8750   -46.0490    82.6680    25.1420     6.7130     5.9170     5.9440     2.2980 
  134.0000   -46.2080    82.4480    25.2450     6.5220     5.9310     5.9660     2.2900 
  134.1250   -46.3140    83.4460    25.4960     6.1100     5.8860     5.9490     2.2850 
  134.2500   -46.4610    84.3400    25.7060     6.2340     5.7950     5.8920     2.2840 
  134.3750   -46.5840    85.3800    25.7900     6.2750     5.6450     5.7670     2.2850 
  134.5000   -46.7200    86.6620    25.7920     6.0900     5.4180     5.5330     2.2880 
  134.6250   -46.8660    88.8980    25.7890     5.7040     5.0870     5.1500     2.2940 
  134.7500   -47.0160    91.2730    25.7910     5.4150     4.7100     4.7100     2.3010 
  134.8750   -47.2200    91.6740    25.7890     4.9080     4.3840     4.3740     2.3120 
  135.0000   -47.4580    90.0540    25.7880     4.4860     4.2290     4.3240     2.3230 
  135.1250   -47.8000    87.0130    25.7870     4.4410     4.4110     4.8150     2.3370 
  135.2500   -48.1630    84.8410    25.7820     5.5510     4.9860     5.9130     2.3550 
  135.3750   -48.5850    83.5740    25.7560    10.2010     6.0220     7.6430     2.3790 
  135.5000   -48.9950    80.9720    25.6330    15.5210     7.4990     9.7980     2.4030 
  135.6250   -49.4330    76.7930    25.3540    16.7890     9.1410    11.7220     2.4120 
  135.7500   -49.8250    72.8460    25.0650    14.4920    10.3740    12.7660     2.4000 
  135.8750   -50.1980    69.3660    24.9050    13.6470    10.8570    12.7740     2.3710 
  136.0000   -50.5140    66.1170    24.8780    13.2450    10.6830    12.1090     2.3330 
  136.1250   -50.7540    64.5160    24.8870    12.9480    10.2410    11.3880     2.2970 
  136.2500   -50.9260    65.5070    24.8850    13.0950     9.9000    10.9890     2.2650 
  136.3750   -51.0430    66.8380    24.8850    13.1180     9.7330    10.9050     2.2360 
  136.5000   -51.1360    68.3940    24.8840    12.9060     9.6940    10.9950     2.2130 
  136.6250   -51.1420    71.5460    24.8840    12.8480     9.7020    11.1020     2.1950 
