~V
VERS. 2.00: Ver 2.00
~W
STRT.M 58.0000:
STOP.M 256.0000:
STEP.M 0.1250:
NULL. -999.2500:
UWI. DF5024:
~C
DEPT.M :
SP.MV :
GR.API :
CALI.CM :
RXO.OHMM :
RI. :
RML.OHMM :
DEN.GM/CC :
~A
# ...
  125.5000   -26.8720    80.0070    22.3020     9.7360     6.8870     7.7130     2.2450 
  125.6250   -26.8270    80.1410    22.3000    10.0250     6.9720     7.8480     2.2560 
  125.7500   -26.7650    79.7870    22.2950    10.1330     7.0100     7.9160     2.2540 
  125.8750   -26.7060    78.9830    22.3000    10.1370     6.9930     7.9130     2.2380 
  126.0000   -26.6580    78.3180    22.3020    10.2170     6.9250     7.8570     2.2170 
  126.1250   -26.6220    77.8870    22.2950    10.3200     6.8330     7.7820     2.2080 
  126.2500   -26.5910    77.1000    22.2980    10.2930     6.7700     7.7480     2.2110 
  126.3750   -26.5760    76.2690    22.3000    10.1350     6.7890     7.8130     2.2130 
  126.5000   -26.5920    76.4330    22.2840     9.9600     6.9350     8.0170     2.2040 
  126.6250   -26.6610    77.1850    22.2690     9.9160     7.2560     8.4030     2.1870 
  126.7500   -26.7670    76.5400    22.2620    10.1580     7.7220     8.9250     2.1760 
  126.8750   -26.8890    73.7650    22.2600    10.8400     8.2920     9.5230     2.1730 
  127.0000   -27.0080    70.2550    22.2600    12.0960     8.8880    10.0990     2.1660 
  127.1250   -27.1210    69.0050    22.2600    13.9290     9.3740    10.5150     2.1510 
  127.2500   -27.2320    70.4030    22.2600    15.5390     9.6670    10.7130     2.1420 
  127.3750   -27.3380    72.3130    22.2600    16.0720     9.7360    10.6800     2.1480 
  127.5000   -27.4280    72.0650    22.2600    15.4480     9.6100    10.4690     2.1620 
  127.6250   -27.4780    69.8450    22.2600    14.4970     9.3580    10.1710     2.1610 
  127.7500   -27.4970    68.7720    22.2570    13.8060     9.0920     9.8960     2.1480 
  127.8750   -27.5040    69.9400    22.2380    13.4940     8.8710     9.7030     2.1330 
  128.0000   -27.5200    72.0780    22.1930    13.4860     8.7300     9.6110     2.1260 
  128.1250   -27.5560    73.0040    22.1280    13.5850     8.6810     9.6090     2.1280 
  128.2500   -27.6000    72.7760    22.0970    13.5730     8.6760     9.6350     2.1370 
  128.3750   -27.6410    72.7690    22.0920    13.4560     8.6840     9.6510     2.1500 
  128.5000   -27.6810    73.7440    22.0980    13.2860     8.6820     9.6390     2.1590 
  128.6250   -27.7350    74.3330    22.1290    12.9750     8.6520     9.5870     2.1630 
  128.7500   -27.8040    73.6160    22.1390    12.6290     8.5960     9.5040     2.1660 
  128.8750   -27.8740    73.0160    22.1430    12.4170     8.5280     9.4060     2.1690 
  129.0000   -27.9230    73.5020    22.1340    12.3780     8.4620     9.3180     2.1700 
  129.1250   -27.9310    74.0260    22.1140    12.2900     8.4140     9.2620     2.1750 
  129.2500   -27.9110    74.1170    22.1060    12.1380     8.3860     9.2380     2.1820 
  129.3750   -27.8730    74.5980    22.1020    11.9760     8.3730     9.2360     2.1890 
  129.5000   -27.8200    75.3100    22.1130    11.8660     8.3700     9.2430     2.1910 
  129.6250   -27.7330    74.7440    22.1350    11.8130     8.3780     9.2570     2.1910 
  129.7500   -27.6040    73.4550    22.1420    11.7900     8.3920     9.2770     2.1890 
  129.8750   -27.4350    73.2010    22.1460    11.7780     8.4100     9.3010     2.1920 
  130.0000   -27.2420    75.1870    22.1530    11.7500     8.4290     9.3240     2.1970 
  130.1250   -27.0440    79.0890    22.1750    11.7220     8.4400     9.3380     2.1970 
  130.2500   -26.8440    81.9140    22.2400    11.7190     8.4300     9.3340     2.1840 
  130.3750   -26.6340    82.0290    22.3220    11.7450     8.3760     9.2910     2.1660 
  130.5000   -26.4080    80.8680    22.4080    11.7760     8.2560     9.1840     2.1550 
  130.6250   -26.1760    81.3790    22.5230    11.6900     8.0480     8.9780     2.1540 
  130.7500   -25.9650    82.3770    22.6610    11.4920     7.7970     8.7210     2.1530 
  130.8750   -25.7900    81.0480    22.7880    11.2580     7.5810     8.5120     2.1490 
  131.0000   -25.6550    77.1580    22.8850    11.0780     7.5020     8.4790     2.1430 
  131.1250   -25.5630    73.4040    22.9510    11.0650     7.7230     8.8160     2.1410 
  131.2500   -25.5180    71.5200    22.9750    11.3460     8.2900     9.5520     2.1540 
  131.3750   -25.5420    71.3380    23.0360    12.1510     9.2140    10.6550     2.1950 
  131.5000   -25.6600    72.0350    23.2160    14.3180    10.4130    11.9800     2.2740 
  131.6250   -25.8890    72.4260    23.5450    19.5870    11.6570    13.2150     2.3870 
  131.7500   -26.1890    72.1520    23.8120    26.4450    12.6010    14.0200     2.4850 
  131.8750   -26.5280    71.9310    23.9290    31.2430    12.9780    14.1630     2.5250 
  132.0000   -26.8790    72.5390    23.8290    30.8040    12.6990    13.6240     2.4980 
  132.1250   -27.2220    73.6690    23.3980    25.1650    11.8580    12.5800     2.4230 
  132.2500   -27.5350    73.7930    22.8340    19.0750    10.8410    11.4590     2.3400 
  132.3750   -27.7860    72.1470    22.3550    15.2670     9.8970    10.5230     2.2700 
  132.5000   -27.9390    69.4320    22.1150    13.8750     9.1820     9.9090     2.2260 
  132.6250   -27.9570    67.4930    22.0650    13.6890     8.7900     9.6640     2.2060 
  132.7500   -27.8710    66.7890    22.0680    13.6650     8.6350     9.6390     2.1970 
  132.8750   -27.7080    66.5910    22.0840    13.6160     8.6450     9.7240     2.1930 
  133.0000   -27.4890    66.7000    22.0940    13.5910     8.7360     9.8210     2.1900 
  133.1250   -27.2080    68.3540    22.0920    13.6550     8.8260     9.8390     2.1890 
  133.2500   -26.8700    71.8240    22.0920    13.8440     8.8720     9.7740     2.1910 
  133.3750   -26.4790    75.8580    22.0860    13.9720     8.8680     9.6440     2.1950 
  133.5000   -26.0490    78.3560    22.0820    13.8060     8.8250     9.4900     2.2000 
  133.6250   -25.5910    78.2450    22.0960    13.2990     8.7630     9.3560     2.2010 
  133.7500   -25.1070    77.1010    22.1440    12.7040     8.7030     9.2570     2.1940 
  133.8750   -24.5790    75.3270    22.2470    12.1820     8.6360     9.1680     2.1830 
  134.0000   -23.9980    72.3200    22.3740    11.8080     8.5260     9.0370     2.1750 
  134.1250   -23.3710    68.9780    22.4890    11.7590     8.2920     8.7690     2.1700 
  134.2500   -22.7400    68.1630    22.5960    11.7860     7.8980     8.3310     2.1650 
  134.3750   -22.1400    70.9620    22.6710    11.5350     7.3400     7.7130     2.1590 
  134.5000   -21.5920    76.8710    22.7530    10.8260     6.6700     6.9820     2.1620 
  134.6250   -21.1190    85.4330    22.9370     9.7020     6.0050     6.2790     2.1810 
  134.7500   -20.7200    93.5320    23.2250     8.3350     5.4590     5.7370     2.2080 
  134.8750   -20.4110    97.5160    23.5280     6.9520     5.0980     5.4250     2.2370 
  135.0000   -20.2030    96.1490    23.6730     6.0180     4.9430     5.3530     2.2580 
  135.1250   -20.1060    92.4690    23.5880     6.0660     4.9960     5.4920     2.2700 
  135.2500   -20.0760    90.2610    23.4080     6.7850     5.1550     5.7080     2.2740 
  135.3750   -20.0840    90.0710    23.2190     7.7510     5.3380     5.9080     2.2700 
  135.5000   -20.1170    91.5150    23.1670     8.3750     5.4700     6.0170     2.2600 
  135.6250   -20.1870    94.8010    23.3080     8.1400     5.4810     5.9800     2.2580 
  135.7500   -20.2990    99.2580    23.4940     7.5660     5.3940     5.8600     2.2740 
  135.8750   -20.4560   103.1860    23.5880     7.0510     5.2590     5.7290     2.2960 
  136.0000   -20.6450   104.2560    23.6180     6.7770     5.1330     5.6500     2.3050 
  136.1250   -20.8560   101.3970    23.6350     6.7950     5.0570     5.6520     2.2860 
  136.2500   -21.0800    96.9200    23.6500     7.0270     5.0260     5.7060     2.2540 
  136.3750   -21.3180    92.4060    23.6020     7.3120     5.0370     5.7910     2.2280 
  136.5000   -21.5610    88.4620    23.4360     7.4730     5.1070     5.9230     2.2180 
  136.6250   -21.7810    85.6540    23.1400     7.5140     5.3140     6.2140     2.2220 
