~V
VERS. 2.00: Ver 2.00
~W
STRT.M 50.0000:
STOP.M 276.0000:
STEP.M 0.1250:
NULL. -999.2500:
UWI. DF5011:
~C
DEPT.M :
DEN.GM/CC :
GR.API :
CALI.CM :
RXO.OHMM :
RI. :
RML.OHMM :
SP.MV :
~A
# ...
  162.5000     2.4550    62.6750    24.0660    11.8450    12.7150    14.2330   -25.1780 
  162.6250     2.4410    59.5210    24.0650    11.6990    13.4140    15.1000   -25.2420 
  162.7500     2.4440    56.1920    24.0640    12.9500    14.1520    15.9330   -25.3040 
  162.8750     2.4650    53.0310    24.0630    14.7920    14.6590    16.4380   -25.3030 
  163.0000     2.4950    50.7150    24.0630    15.9580    14.7460    16.4320   -25.3560 
  163.1250     2.5230    49.7160    24.0630    14.5300    14.3680    15.9150   -25.3580 
  163.2500     2.5440    50.5080    24.0630    12.7900    13.6610    15.0900   -25.4480 
  163.3750     2.5560    51.5880    24.0610    11.6160    12.9540    14.3490   -25.5470 
  163.5000     2.5560    52.8450    24.0650    11.4750    12.4460    13.9130   -25.5820 
  163.6250     2.5450    54.0700    24.0880    11.5270    12.2310    13.8610   -25.6870 
  163.7500     2.5350    51.9410    24.1380    11.7470    12.3380    14.1800   -25.6950 
  163.8750     2.5340    47.4040    24.2000    12.4590    12.6220    14.6520   -25.7270 
  164.0000     2.5380    44.4360    24.2610    13.2670    12.9670    15.1210   -25.8140 
  164.1250     2.5390    46.4720    24.3110    13.6710    13.2740    15.4730   -25.8820 
  164.2500     2.5360    50.8000    24.3340    13.3720    13.4760    15.6570   -25.9910 
  164.3750     2.5330    53.2310    24.3380    13.3510    13.5960    15.7480   -25.9430 
  164.5000     2.5270    53.3110    24.3350    13.7780    13.6780    15.8190   -25.9830 
  164.6250     2.5110    53.6900    24.3320    14.1970    13.7610    15.9240   -25.9740 
  164.7500     2.4910    57.6320    24.3310    14.8300    13.8520    16.0570   -25.9130 
  164.8750     2.4840    61.6260    24.3340    15.0250    13.9230    16.1600   -25.8820 
  165.0000     2.4890    61.5710    24.3330    14.6850    13.9440    16.1950   -25.7880 
  165.1250     2.4940    58.3010    24.3170    14.0330    13.9080    16.1490   -25.7540 
  165.2500     2.4880    56.2310    24.2910    13.9870    13.8130    16.0250   -25.6580 
  165.3750     2.4850    55.3620    24.2710    13.7430    13.6850    15.8580   -25.6930 
  165.5000     2.4930    54.1490    24.2630    13.7850    13.5350    15.6610   -25.6510 
  165.6250     2.5080    53.6580    24.2640    13.8210    13.3700    15.4430   -25.6810 
  165.7500     2.5200    54.7190    24.2670    13.6990    13.2080    15.2390   -25.7190 
  165.8750     2.5250    55.8620    24.2680    13.3670    13.0900    15.1090   -25.7240 
  166.0000     2.5230    56.5240    24.2680    13.1820    13.0570    15.1030   -25.8110 
  166.1250     2.5160    57.0430    24.2700    13.2010    13.1360    15.2350   -25.8090 
  166.2500     2.5080    58.4850    24.2670    13.7110    13.3340    15.4870   -25.8520 
  166.3750     2.5020    60.2860    24.2420    14.6300    13.5890    15.7670   -25.8700 
  166.5000     2.4960    60.7540    24.1880    15.2250    13.8340    15.9960   -25.8790 
  166.6250     2.4890    59.3240    24.1160    14.8510    13.9970    16.1020   -25.9190 
  166.7500     2.4830    58.7130    24.0520    13.8350    13.9980    16.0150   -26.0330 
  166.8750     2.4780    60.3480    24.0140    13.5890    13.8400    15.7550   -26.2360 
  167.0000     2.4730    61.2380    24.0010    13.7440    13.5490    15.3570   -26.3250 
  167.1250     2.4750    59.5570    24.0010    13.4620    13.1900    14.8980   -26.3890 
  167.2500     2.4870    57.9220    24.0010    12.5280    12.8660    14.5130   -26.4880 
  167.3750     2.5020    58.3820    24.0000    11.7440    12.6490    14.2740   -26.4890 
  167.5000     2.5190    59.3450    23.9980    11.6560    12.5510    14.1760   -26.6010 
  167.6250     2.5350    58.9550    23.9950    12.1780    12.5340    14.1380   -26.6630 
  167.7500     2.5430    58.5230    23.9940    12.5090    12.5070    14.0110   -26.6590 
  167.8750     2.5370    58.4250    23.9940    11.9170    12.3870    13.7110   -26.6600 
  168.0000     2.5250    56.8820    23.9950    10.8690    12.1630    13.2580   -26.6160 
  168.1250     2.5190    54.5520    23.9950    10.1550    11.8960    12.7590   -26.6870 
  168.2500     2.5220    53.0130    23.9950    10.7280    11.6940    12.3680   -26.7530 
  168.3750     2.5230    52.5130    23.9950    11.1390    11.6020    12.1320   -26.8860 
  168.5000     2.5140    51.9370    23.9950    11.0550    11.5990    12.0210   -27.0370 
  168.6250     2.5010    50.9550    23.9950    10.6700    11.6090    11.9460   -27.1020 
  168.7500     2.4970    50.2900    23.9950    10.3690    11.5100    11.7830   -27.2730 
  168.8750     2.5020    49.3450    23.9930     9.7190    11.2620    11.4970   -27.3800 
  169.0000     2.5070    48.1970    23.9960     9.0430    10.8880    11.1250   -27.6010 
  169.1250     2.5040    48.1020    24.0200     8.3950    10.4480    10.7320   -27.8770 
  169.2500     2.4930    50.0210    24.0680     7.8530    10.0100    10.3750   -28.0870 
  169.3750     2.4810    52.0850    24.1100     7.6480     9.5940    10.0470   -28.4320 
  169.5000     2.4730    53.3230    24.1270     7.7960     9.2010     9.7330   -28.7170 
  169.6250     2.4660    54.1650    24.1430     7.9750     8.8760     9.4880   -29.0850 
  169.7500     2.4540    54.7500    24.1990     8.1610     8.8120     9.5840   -29.5190 
  169.8750     2.4340    55.3530    24.2730     8.5880     9.2290    10.3590   -29.9850 
  170.0000     2.4100    57.3010    24.3220     9.7040    10.4630    12.3240   -30.5500 
  170.1250     2.3840    61.5810    24.3330    15.7550    13.0030    16.1110   -31.0370 
  170.2500     2.3540    65.5240    24.3280    28.5630    17.8970    22.7420   -31.6030 
  170.3750     2.3230    68.1340    24.3280    39.9130    25.3310    31.8390   -32.1230 
  170.5000     2.2960    70.1030    24.3280    46.4980    34.8230    42.2380   -32.6330 
  170.6250     2.2780    70.4720    24.3280    55.8460    44.3130    51.4280   -33.2080 
  170.7500     2.2670    68.2450    24.3280    59.7270    50.0740    55.7860   -33.6230 
  170.8750     2.2580    66.0450    24.3170    57.1850    51.5570    55.6530   -34.0930 
  171.0000     2.2530    66.5150    24.2930    53.4810    50.2180    53.0300   -34.4390 
  171.1250     2.2560    68.5080    24.2690    53.7730    47.9490    50.0450   -34.8370 
  171.2500     2.2690    69.3640    24.2590    53.5700    46.2970    48.3150   -35.1130 
  171.3750     2.2820    69.2450    24.2570    55.1130    46.0240    48.3940   -35.3070 
  171.5000     2.2850    67.9290    24.2520    63.6940    47.5590    50.6000   -35.5460 
  171.6250     2.2740    66.3590    24.2430    72.2600    51.1520    55.0570   -35.6120 
  171.7500     2.2540    64.9370    24.2360    72.8160    57.1130    61.9430   -35.7630 
  171.8750     2.2340    63.5420    24.2260    73.0570    64.5800    70.2370   -35.8310 
  172.0000     2.2190    61.9610    24.2120    76.3040    72.5560    78.8190   -35.9370 
  172.1250     2.2120    61.5770    24.1980    80.3460    79.7760    86.3270   -35.9290 
  172.2500     2.2170    63.7900    24.1800    81.9540    84.8930    91.3450   -35.9640 
  172.3750     2.2280    66.6610    24.1540    83.2290    88.1120    94.2460   -36.0780 
  172.5000     2.2380    69.1280    24.1300    83.5690    90.0500    95.7920   -36.0600 
  172.6250     2.2440    70.3040    24.1200    82.7250    91.5010    96.8550   -36.1550 
  172.7500     2.2470    70.1130    24.1220    82.6200    92.8790    97.7250   -36.2520 
  172.8750     2.2480    69.4390    24.1230    85.4830    93.4320    97.3990   -36.3650 
  173.0000     2.2440    69.0290    24.1230    88.8960    91.6590    94.2350   -36.3960 
  173.1250     2.2370    68.6470    24.1230    86.3860    86.5860    87.4670   -36.3620 
  173.2500     2.2330    67.6110    24.1230    79.3110    78.5510    78.0000   -36.4580 
  173.3750     2.2380    66.9000    24.1230    70.7830    69.9090    68.4950   -36.4110 
  173.5000     2.2490    66.7060    24.1230    54.8160    62.1170    60.3610   -36.4140 
  173.6250     2.2600    66.4080    24.1230    36.6140    55.7760    53.9680   -36.5210 
