~V
VERS. 2.00: Ver 2.00
~W
STRT.M 60.0000:
STOP.M 248.0000:
STEP.M 0.1250:
NULL. -999.2500:
UWI. DF5054:
~C
DEPT.M :
SP.MV :
GR.API :
CALI.CM :
RXO.OHMM :
RI. :
RML.OHMM :
DEN.GM/CC :
~A
# ...
   82.5000   -22.7980    75.1160    23.4960     9.6870     7.9710     8.7850     2.1900 
   82.6250   -22.9400    73.4910    23.4980    10.0480     8.1790     8.9770     2.1770 
   82.7500   -23.0040    74.5240    23.4990    10.3200     8.3080     9.0780     2.1780 
   82.8750   -22.9800    75.3950    23.4860    10.4190     8.3570     9.0960     2.1810 
   83.0000   -22.8670    74.5250    23.4440    10.4940     8.3370     9.0510     2.1780 
   83.1250   -22.6680    73.3390    23.3710    10.5800     8.2770     8.9740     2.1730 
   83.2500   -22.4300    73.2850    23.3200    10.5420     8.2180     8.9000     2.1760 
   83.3750   -22.1730    73.6410    23.3110    10.3130     8.1820     8.8470     2.1850 
   83.5000   -21.9150    73.3030    23.3520    10.0540     8.1780     8.8270     2.1910 
   83.6250   -21.6760    72.5040    23.4390    10.0180     8.2040     8.8460     2.1850 
   83.7500   -21.4550    72.3390    23.4860    10.1760     8.2440     8.8870     2.1760 
   83.8750   -21.2330    74.2100    23.4940    10.3700     8.2830     8.9290     2.1720 
   84.0000   -20.9970    77.8520    23.4660    10.4650     8.3070     8.9520     2.1700 
   84.1250   -20.7380    79.1530    23.4080    10.3190     8.2930     8.9420     2.1700 
   84.2500   -20.4420    76.0060    23.3460     9.9490     8.2300     8.9030     2.1740 
   84.3750   -20.0940    71.2390    23.3260     9.5920     8.1080     8.8240     2.1800 
   84.5000   -19.6790    69.0900    23.3950     9.4900     7.9220     8.6740     2.1780 
   84.6250   -19.1650    71.0190    23.5680     9.6330     7.6610     8.4230     2.1600 
   84.7500   -18.5570    75.1440    23.7380     9.6940     7.3400     8.0870     2.1440 
   84.8750   -17.8730    81.3860    23.8580     9.3850     6.9780     7.6910     2.1530 
   85.0000   -17.1510    90.2740    23.9680     8.5980     6.6090     7.2740     2.1920 
   85.1250   -16.4450   100.4840    24.0520     7.4570     6.2820     6.8890     2.2400 
   85.2500   -15.8020   107.5990    24.1150     6.5320     6.0240     6.5780     2.2730 
   85.3750   -15.2510   109.1980    24.1500     6.1120     5.8410     6.3670     2.2870 
   85.5000   -14.8050   106.9800    24.1550     6.0620     5.7290     6.2550     2.2880 
   85.6250   -14.5010   105.3810    24.1340     6.0680     5.6780     6.2260     2.2810 
   85.7500   -14.3380   106.3480    24.1230     6.1120     5.6630     6.2320     2.2710 
   85.8750   -14.3090   108.4230    24.1210     6.2790     5.6740     6.2580     2.2630 
   86.0000   -14.3830   109.7880    24.1150     6.4930     5.7110     6.3040     2.2630 
   86.1250   -14.5260   109.6130    24.1120     6.4190     5.7820     6.3840     2.2680 
   86.2500   -14.6770   108.8700    24.1090     6.1950     5.8770     6.4930     2.2640 
   86.3750   -14.7970   106.8920    24.1000     6.1820     5.9710     6.6060     2.2470 
   86.5000   -14.8520   102.3930    24.0590     6.6480     6.0260     6.6820     2.2190 
   86.6250   -14.7920    96.3300    23.9540     7.3400     5.9920     6.6600     2.1890 
   86.7500   -14.6200    93.2040    23.8280     7.5960     5.8760     6.5430     2.1670 
   86.8750   -14.3540    96.2970    23.8250     7.1880     5.7040     6.3690     2.1650 
   87.0000   -14.0310   105.0090    23.9900     6.2320     5.5190     6.1910     2.1940 
   87.1250   -13.6770   114.3090    24.2310     5.3120     5.3790     6.0820     2.2510 
   87.2500   -13.3210   118.0020    24.3000     4.9350     5.3180     6.0690     2.3040 
   87.3750   -12.9920   114.3550    24.2090     5.2410     5.3430     6.1570     2.3320 
   87.5000   -12.7250   106.1260    24.0840     6.0430     5.4300     6.3140     2.3240 
   87.6250   -12.5540    99.3980    24.0200     6.8030     5.5340     6.4630     2.2860 
   87.7500   -12.4710    98.1200    24.0400     7.0750     5.6010     6.5300     2.2540 
   87.8750   -12.4750   101.5720    24.0830     6.7390     5.6070     6.4850     2.2530 
   88.0000   -12.5550   105.3410    24.1120     6.1130     5.5540     6.3470     2.2890 
   88.1250   -12.6970   104.3110    24.1070     5.6380     5.4700     6.1740     2.3310 
   88.2500   -12.8680   100.2230    24.0890     5.4730     5.4050     6.0470     2.3410 
   88.3750   -13.0630    97.1170    24.0840     5.5280     5.3950     6.0140     2.3180 
   88.5000   -13.2860    97.0600    24.0830     5.6920     5.4530     6.0880     2.2860 
   88.6250   -13.5540    98.1360    24.0530     5.9360     5.5680     6.2530     2.2710 
   88.7500   -13.8490    97.3680    23.9660     6.0840     5.6890     6.4310     2.2710 
   88.8750   -14.1360    94.4020    23.8240     6.2050     5.7740     6.5680     2.2700 
   89.0000   -14.3760    90.8920    23.6120     6.4110     5.7970     6.6210     2.2570 
   89.1250   -14.5360    89.7210    23.4350     6.6700     5.7310     6.5570     2.2420 
   89.2500   -14.6330    90.9780    23.3740     6.6360     5.6000     6.4050     2.2430 
   89.3750   -14.6880    93.5420    23.3570     6.1400     5.4350     6.2020     2.2630 
   89.5000   -14.7260    96.1060    23.2810     5.4660     5.2820     6.0090     2.2830 
   89.6250   -14.7720    96.7500    23.1920     5.2510     5.2320     5.9420     2.2790 
   89.7500   -14.8490    95.0480    23.2850     5.5860     5.3560     6.0970     2.2560 
   89.8750   -14.9770    92.8240    23.5270     6.1170     5.7270     6.5730     2.2310 
   90.0000   -15.1740    93.0480    23.7680     6.6050     6.4050     7.4430     2.2160 
   90.1250   -15.4640    95.7920    23.8200     7.1720     7.4660     8.7680     2.2250 
   90.2500   -15.8350    95.7570    23.8270     8.1760     8.7910    10.3530     2.2690 
   90.3750   -16.2730    91.2140    23.8580    10.4560    10.2120    11.9620     2.3560 
   90.5000   -16.7530    86.7890    23.8980    14.9500    11.4600    13.2810     2.4700 
   90.6250   -17.2540    88.0830    23.9020    20.8800    12.1210    13.8610     2.5610 
   90.7500   -17.7410    90.0010    23.8480    23.7270    12.0930    13.6460     2.5890 
   90.8750   -18.1850    86.4710    23.7270    21.1970    11.4490    12.7490     2.5520 
   91.0000   -18.5640    78.4980    23.5850    15.6880    10.4520    11.4770     2.4730 
   91.1250   -18.8540    73.6120    23.4430    11.8580     9.4720    10.2780     2.3920 
   91.2500   -19.0630    73.5330    23.3630    10.3360     8.7830     9.4780     2.3300 
   91.3750   -19.1910    75.1860    23.3960     9.8390     8.4920     9.2060     2.2860 
   91.5000   -19.2520    76.9370    23.4580     9.4690     8.6050     9.4410     2.2570 
   91.6250   -19.2650    81.0680    23.5030     9.2770     9.0830    10.0780     2.2530 
   91.7500   -19.2750    87.9220    23.5970     9.8150     9.6980    10.7980     2.2820 
   91.8750   -19.3180    93.1440    23.6860    11.4120    10.2640    11.3740     2.3370 
   92.0000   -19.4150    92.1450    23.6920    13.4810    10.6160    11.6470     2.3910 
   92.1250   -19.5730    84.9310    23.6020    13.8690    10.6130    11.5050     2.3960 
   92.2500   -19.7690    77.2710    23.4940    12.7500    10.3410    11.0860     2.3480 
   92.3750   -19.9910    72.2860    23.4710    11.3560     9.9200    10.5330     2.2730 
   92.5000   -20.2250    70.3460    23.4950    10.6130     9.4830    10.0030     2.2080 
   92.6250   -20.4530    70.4940    23.4900    11.2710     9.1490     9.6420     2.1880 
   92.7500   -20.6630    70.9390    23.4390    14.6390     8.9330     9.4550     2.2030 
   92.8750   -20.8470    71.7220    23.3710    20.9660     8.8090     9.3890     2.2340 
   93.0000   -21.0080    73.4260    23.3890    24.8110     8.7160     9.3530     2.2560 
   93.1250   -21.1500    74.9470    23.5460    21.8120     8.5900     9.2530     2.2510 
   93.2500   -21.2750    74.0520    23.6880    15.4970     8.4110     9.0770     2.2230 
   93.3750   -21.3760    71.4610    23.7580    11.5880     8.1920     8.8450     2.1850 
   93.5000   -21.4530    70.0840    23.7590    10.2490     7.9610     8.6060     2.1520 
   93.6250   -21.4910    71.6710    23.7200     9.9410     7.7570     8.4150     2.1400 
