~V
VERS. 2.00: Ver 2.00
~W
STRT.M 55.0000:
STOP.M 253.0000:
STEP.M 0.1250:
NULL. -999.2500:
UWI. DF5051:
~C
DEPT.M :
SP.MV :
GR.API :
RML.OHMM :
RI. :
RXO.OHMM :
CALI.CM :
DEN.GM/CC :
~A
   55.0000     9.8970    36.5270     5.7100     1.9030     5.6290    25.1720  -999.2500 
   55.1250    10.2160    35.7740     5.5720     1.8930     5.1710    25.1450  -999.2500 
   55.2500    10.5810    34.1570     5.3990     1.8810     4.7190    25.1270  -999.2500 
   55.3750    10.8900    33.0920     5.2090     1.8640     4.2730    25.1010  -999.2500 
   55.5000    11.0320    34.2460     5.0290     1.8450     3.9070    25.0810  -999.2500 
   55.6250    10.9090    36.3650     4.8850     1.8270     3.7120    25.0740  -999.2500 
   55.7500    10.5170    36.2930     4.7790     1.8130     3.6590    25.0690  -999.2500 
   55.8750     9.9320    35.1820     4.7130     1.8020     3.6440    25.0560  -999.2500 
   56.0000     9.1950    35.9800     4.6870     1.7960     3.6250    25.0300  -999.2500 
   56.1250     8.3060    39.0170     4.7150     1.7950     3.5720    25.0180  -999.2500 
   56.2500     7.4100    40.5580     4.7930     1.7980     3.4780    25.0090  -999.2500 
   56.3750     6.5880    39.5310     4.9040     1.8040     3.3680    24.9940  -999.2500 
   56.5000     5.9360    37.8640     5.0180     1.8110     3.2500    24.9650  -999.2500 
   56.6250     5.5850    39.4180     5.0910     1.8130     3.1140    24.9510  -999.2500 
   56.7500     5.4840    43.6470     5.1050     1.8100     2.9980    24.9460  -999.2500 
   56.8750     5.5480    47.5130     5.0560     1.8000     2.9170    24.9410  -999.2500 
   57.0000     5.7220    48.7530     4.9540     1.7850     2.8420    24.9270  -999.2500 
   57.1250     6.0050    48.4670     4.7980     1.7650     2.7780    24.9050  -999.2500 
   57.2500     6.3570    47.5990     4.5960     1.7420     2.7000    24.8910  -999.2500 
   57.3750     6.8060    46.9250     4.3510     1.7170     2.5750    24.8780  -999.2500 
   57.5000     7.3520    48.3170     4.0830     1.6910     2.4590    24.8600  -999.2500 
   57.6250     8.0200    51.5380     3.8380     1.6670     2.3920    24.8390  -999.2500 
   57.7500     8.8200    52.9280     3.6500     1.6470     2.3540    24.8290  -999.2500 
   57.8750     9.7200    51.1820     3.5270     1.6330     2.3300    24.8270  -999.2500 
   58.0000    10.6230    49.3770     3.4640     1.6260     2.3130    24.8270     0.0000 
   58.1250    11.3770    49.0630     3.4640     1.6250     2.3000    24.8270     0.0000 
   58.2500    11.9170    47.2410     3.5210     1.6270     2.2820    24.8270     1.0300 
   58.3750    12.2610    44.0840     3.6360     1.6300     2.2690    24.8270     2.0590 
   58.5000    12.5030    42.3580     3.7970     1.6310     2.2580    24.8270     2.0570 
   58.6250    12.7090    42.9050     3.9720     1.6260     2.2400    24.8350     2.0580 
   58.7500    12.9150    42.1550     4.1190     1.6140     2.2040    24.8480     2.0600 
   58.8750    13.1990    40.8030     4.2110     1.5980     2.1440    24.8510     2.0610 
   59.0000    13.6690    40.9150     4.2420     1.5800     2.0560    24.8370     2.0620 
   59.1250    14.3330    40.4500     4.2090     1.5650     1.9370    24.8210     2.0630 
   59.2500    15.1190    37.8100     4.1320     1.5550     1.8140    24.8010     2.0670 
   59.3750    15.9370    35.8090     4.0230     1.5480     1.7090    24.7580     2.0720 
   59.5000    16.7150    37.1590     3.8980     1.5400     1.6410    24.6950     2.0780 
   59.6250    17.3190    40.3070     3.7890     1.5280     1.5930    24.6490     2.0800 
   59.7500    17.7220    42.3510     3.7200     1.5120     1.5470    24.6460     2.0790 
   59.8750    17.9050    43.2390     3.6870     1.4920     1.4950    24.6950     2.0730 
   60.0000    17.8070    43.1220     3.6520     1.4710     1.4600    24.7780     2.0640 
   60.1250    17.5540    42.6190     3.5500     1.4510     1.4310    24.8520     2.0510 
   60.2500    17.2370    42.4290     3.3710     1.4320     1.4050    24.8760     2.0380 
   60.3750    16.8190    42.5500     3.1460     1.4150     1.3650    24.8830     2.0270 
   60.5000    16.2940    42.3180     2.9430     1.4020     1.3250    24.8970     2.0190 
   60.6250    15.7410    41.8550     2.8470     1.3920     1.2700    24.9260     2.0140 
   60.7500    15.1950    41.4450     2.8450     1.3800     1.1920    24.9400     2.0130 
   60.8750    14.6300    40.8350     2.8680     1.3500     1.0860    24.9500     2.0140 
   61.0000    14.1090    39.2140     2.7970     1.2770     0.9380    24.9760     2.0210 
   61.1250    13.4970    38.3860     2.4440     1.1240     0.7330    25.0390     2.0480 
   61.2500    12.7690    39.9200     1.7620     0.8970     0.5430    25.0980     2.1050 
   61.3750    11.9630    43.3530     0.8640     0.6300     0.4160    25.1470     2.2020 
   61.5000    10.9470    47.8640     0.0510     0.3810     0.3220    25.2020     2.3330 
   61.6250     9.5100    51.0790    -0.4200     0.2140     0.3210    25.2470     2.4610 
   61.7500     7.4830    52.2760    -0.6590     0.1210     0.5460    25.2490     2.5370 
   61.8750     4.7060    54.0810    -0.7300     0.1060     1.2400    25.1310     2.5370 
   62.0000     1.1570    59.4670    -0.6090     0.2040     2.5770    24.7810     2.4700 
   62.1250    -2.9480    66.3300    -0.1570     0.5270     4.5850    24.2630     2.3730 
   62.2500    -7.2630    70.6440     0.6390     1.1160     6.8010    23.9480     2.2830 
   62.3750   -11.6470    73.1840     1.7070     1.9730     7.9340    23.8490     2.2150 
   62.5000   -15.9080    75.4240     2.8290     3.0070     8.4130    23.8410     2.1740 
   62.6250   -19.8910    75.9600     3.5790     4.0220     8.4850    23.8360     2.1580 
   62.7500   -23.3390    75.2180     3.8670     4.8530     8.7210    23.8100     2.1550 
   62.8750   -26.1060    73.6420     3.9380     5.4810     9.1030    23.7580     2.1590 
   63.0000   -28.1760    70.6530     4.0400     5.9580     9.6170    23.7310     2.1650 
   63.1250   -29.5760    68.6600     4.2200     6.3040    10.0490    23.7770     2.1710 
   63.2500   -30.6580    69.9830     4.3920     6.5330    10.1740    23.8880     2.1740 
   63.3750   -31.5010    73.3710     4.5020     6.6440     9.8940    23.9910     2.1730 
   63.5000   -32.1560    74.5700     4.5380     6.6580     9.3670    24.0480     2.1690 
   63.6250   -32.6030    72.2240     4.5330     6.6140     9.0280    24.0770     2.1660 
   63.7500   -32.9100    70.7670     4.5400     6.5690     8.7950    24.0570     2.1660 
   63.8750   -33.0840    71.0920     4.5860     6.5520     8.5900    23.9510     2.1690 
   64.0000   -33.1200    71.0000     4.6750     6.5750     8.4670    23.7590     2.1740 
   64.1250   -33.1000    70.2610     4.7930     6.6390     8.3710    23.7230     2.1750 
   64.2500   -33.0290    72.4980     4.9140     6.7260     8.4200    23.8840     2.1700 
   64.3750   -32.8880    76.6930     5.0260     6.8200     8.6640    24.1400     2.1630 
   64.5000   -32.7300    79.0500     5.1310     6.9100     8.7180    24.3040     2.1580 
   64.6250   -32.5070    79.8480     5.2390     6.9890     8.6540    24.1650     2.1610 
   64.7500   -32.2750    80.7820     5.3530     7.0550     8.7460    23.8010     2.1690 
   64.8750   -31.9880    81.6530     5.4620     7.0990     8.9630    23.4550     2.1790 
   65.0000   -31.6250    82.6320     5.5410     7.1070     9.1230    23.2780     2.1880 
   65.1250   -31.1600    84.8120     5.5500     7.0400     8.9790    23.2560     2.2000 
   65.2500   -30.5420    88.8800     5.4810     6.8880     8.6430    23.2910     2.2180 
   65.3750   -29.8500    93.8570     5.3460     6.6580     8.1210    23.3600     2.2430 
   65.5000   -29.1040    98.2470     5.1820     6.3830     7.3850    23.4390     2.2710 
   65.6250   -28.4480   100.3980     5.0550     6.1290     6.9040    23.5140     2.2970 
   65.7500   -27.8770   101.7980     5.0130     5.9540     6.5070    23.5820     2.3140 
   65.8750   -27.4390   103.7730     5.0720     5.8840     6.3200    23.6150     2.3230 
   66.0000   -27.1760   103.7190     5.2090     5.9140     6.4290    23.5910     2.3230 
   66.1250   -27.1630    99.6140     5.3670     6.0110     6.7850    23.5140     2.3100 
