~V
VERS. 2.00: Ver 2.00
~W
STRT.M 55.0000:
STOP.M 261.0000:
STEP.M 0.1250:
NULL. -999.2500:
UWI. DF5033:
~C
DEPT.M :
SP.MV :
GR.API :
CALI.CM :
RXO.OHMM :
RI. :
RML.OHMM :
DEN.GM/CC :
~A
# ...
   77.5000   -21.1190    77.4810    25.3870     5.4780     5.5310     7.9130     2.2410 
   77.6250   -20.9950    79.3150    25.3350     5.5030     5.5320     7.9130     2.2510 
   77.7500   -20.8330    84.8520    25.2910     5.4550     5.4460     7.7540     2.2570 
   77.8750   -20.6720    90.7020    25.2670     5.3310     5.2670     7.4070     2.2620 
   78.0000   -20.5340    96.8840    25.2750     5.1700     5.0130     6.9210     2.2740 
   78.1250   -20.4470   100.5860    25.3220     4.9890     4.7430     6.4450     2.3020 
   78.2500   -20.4130    99.2220    25.3860     4.7860     4.5360     6.1470     2.3350 
   78.3750   -20.4300    94.9970    25.4450     4.6220     4.4470     6.1230     2.3540 
   78.5000   -20.4830    92.7320    25.4740     4.6340     4.4990     6.4010     2.3440 
   78.6250   -20.5960    94.3860    25.4530     4.9230     4.6950     6.9450     2.3060 
   78.7500   -20.7690    94.9460    25.3910     5.2700     4.9520     7.5350     2.2650 
   78.8750   -20.9710    91.9170    25.3030     5.4690     5.1830     7.9700     2.2330 
   79.0000   -21.2010    88.2990    25.2060     5.4970     5.3070     8.1040     2.2140 
   79.1250   -21.4730    88.3960    25.1200     5.4310     5.2680     7.8990     2.2130 
   79.2500   -21.8130    90.6920    25.0570     5.2850     5.1400     7.5770     2.2300 
   79.3750   -22.2270    93.5840    25.0130     5.0670     5.0080     7.3210     2.2620 
   79.5000   -22.7160    95.8780    24.9710     4.9230     4.9490     7.2600     2.2860 
   79.6250   -23.2650    93.9270    24.9060     5.0700     5.0300     7.4800     2.2760 
   79.7500   -23.8350    87.7450    24.8130     5.4630     5.2330     7.9000     2.2400 
   79.8750   -24.4080    82.1240    24.7060     5.9760     5.5210     8.4300     2.1970 
   80.0000   -24.9620    80.7440    24.6070     6.4640     5.8350     8.9530     2.1650 
   80.1250   -25.4550    80.7780    24.5340     6.8310     6.0980     9.3420     2.1510 
   80.2500   -25.8530    79.3110    24.4770     7.1160     6.2770     9.5870     2.1500 
   80.3750   -26.1580    75.7690    24.4190     7.3280     6.3750     9.7220     2.1560 
   80.5000   -26.3840    72.3240    24.3350     7.4160     6.4130     9.7970     2.1640 
   80.6250   -26.5570    71.9300    24.1850     7.3310     6.4090     9.8370     2.1650 
   80.7500   -26.7170    72.7970    23.9570     7.1720     6.3830     9.8590     2.1580 
   80.8750   -26.8900    71.5790    23.6520     7.0370     6.3500     9.8730     2.1470 
   81.0000   -27.0760    66.2210    23.3070     6.9970     6.3220     9.8950     2.1410 
   81.1250   -27.2710    61.0790    23.0030     7.1000     6.3100     9.9440     2.1490 
   81.2500   -27.4730    60.4890    22.8080     7.2600     6.3140    10.0160     2.1590 
   81.3750   -27.6430    63.5850    22.7560     7.4050     6.3260    10.0910     2.1620 
   81.5000   -27.7810    65.9750    22.8530     7.5030     6.3370    10.1400     2.1590 
   81.6250   -27.8560    64.7140    23.1110     7.5320     6.3430    10.1310     2.1580 
   81.7500   -27.8380    64.1860    23.4850     7.4900     6.3460    10.0720     2.1610 
   81.8750   -27.6980    67.5850    23.9380     7.4340     6.3480     9.9900     2.1660 
   82.0000   -27.4260    70.9150    24.4120     7.4270     6.3570     9.9250     2.1700 
   82.1250   -26.9950    69.8550    24.8240     7.4430     6.3800     9.9180     2.1760 
   82.2500   -26.3890    67.6020    25.1310     7.4110     6.4070     9.9510     2.1750 
   82.3750   -25.6510    69.6320    25.3260     7.2990     6.4180     9.9710     2.1640 
   82.5000   -24.8130    78.1740    25.4360     7.1010     6.3820     9.9030     2.1560 
   82.6250   -23.9070    88.4790    25.5010     6.8080     6.2520     9.6480     2.1770 
   82.7500   -22.9830    94.7110    25.5760     6.4780     6.0340     9.2170     2.2230 
   82.8750   -22.0790    97.4330    25.6970     6.1550     5.7510     8.6770     2.2670 
   83.0000   -21.2220    99.2530    25.8840     5.8730     5.4500     8.1390     2.2890 
   83.1250   -20.4520   100.9630    26.1490     5.6320     5.1900     7.7270     2.2870 
   83.2500   -19.8020   100.8100    26.4590     5.4000     4.9900     7.4480     2.2840 
   83.3750   -19.2540   100.5230    26.7730     5.1790     4.8400     7.2450     2.2890 
   83.5000   -18.7880   101.5710    27.0390     4.9930     4.7090     7.0350     2.3020 
   83.6250   -18.3980   103.5450    27.1990     4.8200     4.5610     6.7640     2.3130 
   83.7500   -18.0770   104.2130    27.2610     4.6000     4.3970     6.4790     2.3180 
   83.8750   -17.8290   103.3570    27.2460     4.3620     4.2420     6.2560     2.3200 
   84.0000   -17.6480   101.7090    27.1830     4.2270     4.1270     6.1430     2.3220 
   84.1250   -17.5460    99.6690    27.0950     4.3040     4.0870     6.1620     2.3220 
   84.2500   -17.5110    96.2940    26.9960     4.4660     4.1170     6.2610     2.3110 
   84.3750   -17.5460    90.2330    26.8910     4.5840     4.1990     6.3990     2.2910 
   84.5000   -17.6390    83.5720    26.7940     4.6350     4.3000     6.5160     2.2670 
   84.6250   -17.7830    79.5240    26.7220     4.7070     4.3640     6.5230     2.2440 
   84.7500   -17.9550    78.2230    26.6740     4.8290     4.3900     6.4450     2.2280 
   84.8750   -18.1590    78.1710    26.6390     4.9590     4.4450     6.4320     2.2290 
   85.0000   -18.3990    77.7640    26.6000     5.0720     4.6420     6.7120     2.2550 
   85.1250   -18.6600    76.2350    26.5400     5.5710     5.1500     7.6150     2.3180 
   85.2500   -18.9330    75.2280    26.4470     7.1990     5.9890     9.1560     2.4040 
   85.3750   -19.1780    76.0830    26.3180    10.3590     7.1040    11.1780     2.4830 
   85.5000   -19.3770    78.7530    26.1570    13.6610     8.2510    13.1320     2.5130 
   85.6250   -19.5050    79.4010    25.9880    13.7930     8.8600    13.8540     2.4570 
   85.7500   -19.5740    76.2560    25.8610    11.2210     8.6700    13.0390     2.3550 
   85.8750   -19.5840    73.7490    25.8140     8.4740     7.8360    11.2380     2.2630 
   86.0000   -19.5440    75.9710    25.8670     6.9380     6.7680     9.3170     2.2200 
   86.1250   -19.4660    82.2160    26.0060     6.1300     5.8620     7.9260     2.2360 
   86.2500   -19.3470    85.9730    26.1610     5.4980     5.2590     7.1230     2.2670 
   86.3750   -19.2350    86.2330    26.2750     5.1860     4.9760     6.8510     2.2860 
   86.5000   -19.1510    85.9720    26.3120     5.2030     4.9800     7.0150     2.2860 
   86.6250   -19.0980    86.0380    26.2480     5.2940     5.2230     7.5120     2.2760 
   86.7500   -19.0660    84.3000    26.1140     5.4400     5.5500     8.0650     2.2710 
   86.8750   -19.0300    81.6290    25.9380     5.7490     5.8190     8.4090     2.2710 
   87.0000   -18.9800    82.9520    25.7560     6.0290     5.9120     8.3630     2.2750 
   87.1250   -18.8930    88.8150    25.6040     5.8780     5.7820     7.9460     2.2790 
   87.2500   -18.7900    93.4860    25.4900     5.4800     5.5560     7.4630     2.2790 
   87.3750   -18.6590    92.3340    25.4090     5.1860     5.3300     7.0830     2.2760 
   87.5000   -18.4980    85.5710    25.3410     5.1170     5.1580     6.8640     2.2700 
   87.6250   -18.3400    80.5800    25.2690     5.1740     5.0540     6.7780     2.2670 
   87.7500   -18.2070    82.1350    25.1880     5.2230     4.9700     6.7120     2.2680 
   87.8750   -18.1420    89.0810    25.1050     5.1710     4.8680     6.6000     2.2780 
   88.0000   -18.1600    96.0530    25.0280     4.9480     4.7370     6.4400     2.2940 
   88.1250   -18.2800    97.5230    24.9660     4.6840     4.6090     6.3010     2.3030 
   88.2500   -18.4720    95.9750    24.9110     4.5940     4.5340     6.2760     2.2990 
   88.3750   -18.7410    92.9350    24.8580     4.6740     4.5520     6.4320     2.2880 
   88.5000   -19.1040    87.9230    24.8020     4.8230     4.6760     6.7770     2.2740 
   88.6250   -19.5220    81.2720    24.7510     5.1210     4.9000     7.2460     2.2580 
