~V
VERS. 2.00: Ver 2.00
~W
STRT.M 58.0000:
STOP.M 250.0000:
STEP.M 0.1250:
NULL. -999.2500:
UWI. DF5046:
~C
DEPT.M :
GR.API :
CALI.CM :
RXO.OHMM :
RI. :
RML.OHMM :
DEN.GM/CC :
SP.MV :
~A
# ...
   69.2500    69.6560    23.2450     7.3440     6.4550     8.3430     2.1140   -29.9960 
   69.3750    70.8770    23.0630     7.3440     6.3960     8.3060     2.1170   -29.5860 
   69.5000    71.3350    22.9660     7.2510     6.4470     8.4550     2.1280   -29.2580 
   69.6250    71.9890    23.1260     7.3830     6.6700     8.8700     2.1530   -29.0900 
   69.7500    73.5240    23.4560     8.4940     6.9890     9.4060     2.1890   -29.1020 
   69.8750    74.6460    23.8330    10.7660     7.2770     9.8330     2.2260   -29.2930 
   70.0000    75.3500    24.0770    12.5910     7.3850     9.8950     2.2480   -29.6480 
   70.1250    76.5780    23.9940    11.5850     7.2150     9.4800     2.2450   -30.0770 
   70.2500    77.4750    23.7380     9.1100     6.9460     8.9930     2.2290   -30.4900 
   70.3750    76.8440    23.4550     7.4060     6.7880     8.8240     2.2120   -30.8120 
   70.5000    73.4580    23.0990     7.2230     6.8960     9.1920     2.2100   -31.0210 
   70.6250    68.3450    22.6860     8.6660     7.3520    10.1490     2.2580   -31.0410 
   70.7500    65.1120    22.5520    11.2440     7.9710    11.2710     2.3460   -30.8470 
   70.8750    66.3000    22.7900    13.0360     8.4810    12.0080     2.4250   -30.3970 
   71.0000    70.7710    23.0700    11.9150     8.5960    11.8850     2.4380   -29.7280 
   71.1250    73.6010    22.9430     8.6700     8.1880    10.8970     2.3690   -28.9120 
   71.2500    73.0520    22.5280     6.4890     7.5660     9.7490     2.2800   -28.0320 
   71.3750    72.3980    22.1110     5.7580     6.9560     8.8060     2.2120   -27.1610 
   71.5000    75.6160    21.8860     5.6470     6.4760     8.1670     2.1840   -26.3610 
   71.6250    82.4150    21.9470     5.5970     6.1510     7.7870     2.1960   -25.7250 
   71.7500    87.8900    22.1920     5.5180     5.8940     7.4860     2.2220   -25.2840 
   71.8750    90.6780    22.5670     5.4020     5.6530     7.1890     2.2470   -25.1220 
   72.0000    92.0560    23.0810     5.2260     5.4220     6.9010     2.2630   -25.2260 
   72.1250    93.1680    23.6640     5.0530     5.2350     6.6920     2.2610   -25.5950 
   72.2500    93.4000    23.9430     5.0380     5.1180     6.5930     2.2460   -26.1470 
   72.3750    91.9530    23.6640     5.2180     5.0770     6.6070     2.2270   -26.8270 
   72.5000    89.3910    22.9990     5.4360     5.1050     6.7110     2.2130   -27.5440 
   72.6250    85.5380    22.4270     5.4420     5.1860     6.8690     2.2050   -28.1940 
   72.7500    80.5210    22.0920     5.3250     5.2900     7.0330     2.1950   -28.7270 
   72.8750    76.5050    21.8210     5.3280     5.3990     7.1840     2.1790   -29.0550 
   73.0000    74.2270    21.5000     5.6170     5.5000     7.3130     2.1550   -29.1790 
   73.1250    71.4730    21.2390     6.0920     5.5720     7.3920     2.1310   -29.0490 
   73.2500    67.9990    21.2000     6.4050     5.6120     7.4170     2.1160   -28.7000 
   73.3750    65.6720    21.4020     6.4070     5.6230     7.3990     2.1100   -28.1490 
   73.5000    66.6580    21.6930     6.2280     5.6230     7.3810     2.1070   -27.4520 
   73.6250    69.7760    21.9530     6.1060     5.6450     7.4370     2.1140   -26.7230 
   73.7500    73.4450    22.2240     6.0910     5.7030     7.5890     2.1290   -26.0460 
   73.8750    76.0940    22.4700     6.1500     5.7830     7.7950     2.1440   -25.4970 
   74.0000    79.4670    22.5610     6.2970     5.8370     7.9560     2.1620   -25.0610 
   74.1250    85.1340    22.6060     6.4280     5.7930     7.9200     2.2000   -24.7460 
   74.2500    90.2670    22.9800     6.2930     5.6400     7.6640     2.2490   -24.4940 
   74.3750    91.4340    23.6880     5.8600     5.3990     7.2340     2.2770   -24.2740 
   74.5000    87.3080    24.3560     5.3820     5.1260     6.7450     2.2620   -24.0490 
   74.6250    82.0550    24.6230     5.2480     4.9260     6.4120     2.2200   -23.7790 
   74.7500    79.4970    24.5150     5.4230     4.8930     6.3960     2.1970   -23.4840 
   74.8750    78.4180    24.1040     5.7290     5.0990     6.7950     2.2130   -23.1530 
   75.0000    77.8400    23.6440     6.3490     5.5760     7.6270     2.2650   -22.7800 
   75.1250    78.6610    23.5880     8.3910     6.3050     8.8140     2.3320   -22.3540 
   75.2500    81.0610    23.9180    11.4540     7.0680     9.9430     2.3780   -21.9470 
   75.3750    82.9800    24.3480    13.0190     7.5930    10.5370     2.3830   -21.6040 
   75.5000    83.4420    24.6330    11.3400     7.6470    10.2560     2.3550   -21.3400 
   75.6250    82.7680    24.5670     8.1220     7.1460     9.1520     2.3220   -21.1110 
   75.7500    83.4170    24.2240     6.1800     6.4160     7.8720     2.2990   -20.8670 
   75.8750    88.7660    23.9750     5.4030     5.6930     6.7850     2.2870   -20.5780 
   76.0000    97.1990    24.1440     4.9700     5.1190     6.0360     2.2830   -20.2850 
   76.1250   103.1140    24.6260     4.5890     4.7560     5.6380     2.2860   -20.0500 
   76.2500   107.0090    24.9850     4.3280     4.5300     5.4310     2.2920   -19.8670 
   76.3750   111.0470    25.1110     4.1870     4.3940     5.3350     2.3010   -19.7300 
   76.5000   112.9980    25.1030     4.1500     4.3120     5.2970     2.3140   -19.6870 
   76.6250   110.8130    25.0420     4.2060     4.2610     5.2800     2.3250   -19.8050 
   76.7500   109.8270    24.9980     4.2600     4.2080     5.2350     2.3320   -20.0500 
   76.8750   110.2070    24.9950     4.2580     4.1320     5.1310     2.3360   -20.4740 
   77.0000   108.1410    25.0330     4.2240     4.0320     4.9800     2.3360   -21.0600 
   77.1250   106.2200    25.1120     4.2240     3.9520     4.8680     2.3230   -21.7890 
   77.2500   106.6290    25.1660     4.2510     3.9580     4.9160     2.3040   -22.5850 
   77.3750   105.8620    25.0870     4.4070     4.1110     5.2250     2.2920   -23.4220 
   77.5000    98.7780    24.8190     4.9740     4.4520     5.8550     2.2920   -24.2320 
   77.6250    86.1670    24.3510     6.0810     5.0040     6.8230     2.2870   -24.9440 
   77.7500    75.8450    23.7450     6.9950     5.6530     7.9000     2.2530   -25.5710 
   77.8750    70.4620    23.0830     7.1610     6.2650     8.8210     2.1970   -26.0830 
   78.0000    69.9200    22.5600     6.7620     6.7010     9.3500     2.1450   -26.4890 
   78.1250    71.6610    22.3330     6.4340     6.8580     9.3780     2.1280   -26.7860 
   78.2500    73.0840    22.2080     6.3620     6.8360     9.1790     2.1360   -27.0440 
   78.3750    73.2140    22.0310     6.4280     6.7450     8.9780     2.1530   -27.2740 
   78.5000    71.4180    21.8180     6.5220     6.6760     8.9040     2.1650   -27.5070 
   78.6250    67.7740    21.7130     6.6010     6.6750     8.9910     2.1640   -27.7730 
   78.7500    64.7110    21.7700     6.7640     6.7310     9.1750     2.1530   -28.0290 
   78.8750    63.2850    21.9650     7.0850     6.8270     9.4180     2.1390   -28.2620 
   79.0000    62.1500    22.1810     7.4730     6.9410     9.6860     2.1270   -28.4470 
   79.1250    59.4710    22.2880     7.7250     7.0480     9.9300     2.1220   -28.5930 
   79.2500    57.5220    22.3470     7.8330     7.1300    10.1140     2.1260   -28.7030 
   79.3750    58.1340    22.4580     7.8850     7.1760    10.2030     2.1380   -28.7720 
   79.5000    61.1490    22.6550     7.9260     7.1760    10.1790     2.1490   -28.7820 
   79.6250    64.9300    22.8440     7.8840     7.1240    10.0500     2.1510   -28.7320 
   79.7500    67.5950    22.8890     7.7320     7.0450     9.8920     2.1510   -28.6570 
   79.8750    67.8630    22.7590     7.5380     6.9640     9.7610     2.1590   -28.5730 
   80.0000    65.3400    22.5460     7.4070     6.9030     9.6910     2.1740   -28.4830 
   80.1250    63.3740    22.3820     7.3870     6.8790     9.6900     2.1840   -28.3580 
   80.2500    64.0890    22.2730     7.4110     6.8750     9.7110     2.1840   -28.2150 
   80.3750    66.7300    22.1770     7.4260     6.8700     9.7170     2.1800   -28.0620 
