~V
VERS. 2.00: Ver 2.00
~W
STRT.M 55.0000:
STOP.M 271.0000:
STEP.M 0.1250:
NULL. -999.2500:
UWI. DF5028:
~C
DEPT.M :
SP.MV :
GR.API :
RML.OHMM :
RI. :
RXO.OHMM :
CALI.CM :
DEN.GM/CC :
~A
# ...
  257.5000    -7.7040    53.8610     9.6600     8.1600     7.7350    24.0630     2.3950 
  257.6250    -7.6450    57.3020     9.6690     8.1690     8.0520    24.0670     2.4080 
  257.7500    -7.5970    59.0380     9.6420     8.1420     8.1130    24.1010     2.4280 
  257.8750    -7.5500    58.7080     9.5870     8.0870     8.0810    24.1270     2.4460 
  258.0000    -7.4910    59.2760     9.5190     8.0190     8.2380    24.1290     2.4580 
  258.1250    -7.4650    61.1260     9.4560     7.9560     8.5480    24.1250     2.4590 
  258.2500    -7.4240    61.4950     9.4100     7.9100     8.7290    24.1250     2.4550 
  258.3750    -7.3730    61.9030     9.3870     7.8870     8.7060    24.1320     2.4500 
  258.5000    -7.3200    63.0010     9.3860     7.8860     8.4620    24.1450     2.4490 
  258.6250    -7.2790    63.5380     9.4000     7.9000     8.0640    24.1440     2.4530 
  258.7500    -7.2190    61.9300     9.4250     7.9250     7.6730    24.1310     2.4580 
  258.8750    -7.1870    59.0470     9.4620     7.9620     7.3690    24.1220     2.4630 
  259.0000    -7.1610    56.6250     9.5100     8.0100     7.1550    24.1220     2.4650 
  259.1250    -7.1230    56.7640     9.5650     8.0650     7.0190    24.1270     2.4630 
  259.2500    -7.0600    59.4150     9.6180     8.1180     6.9640    24.1690     2.4570 
  259.3750    -7.0300    61.7320     9.6590     8.1590     6.9900    24.2410     2.4490 
  259.5000    -6.9660    61.0300     9.6840     8.1840     7.0690    24.2940     2.4390 
  259.6250    -6.9460    59.2000     9.6920     8.1920     7.1510    24.3370     2.4290 
  259.7500    -6.9050    59.0350     9.6820     8.1820     7.2040    24.4160     2.4220 
  259.8750    -6.8680    59.7690     9.6540     8.1540     7.1950    24.5070     2.4190 
  260.0000    -6.7950    59.5750     9.6160     8.1160     7.1120    24.5570     2.4180 
  260.1250    -6.7450    58.8550     9.5770     8.0770     7.0620    24.5690     2.4180 
  260.2500    -6.6940    60.1980     9.5400     8.0400     7.1340    24.5760     2.4190 
  260.3750    -6.6120    63.2220     9.5190     8.0190     7.2580    24.5690     2.4240 
  260.5000    -6.5570    64.3850     9.5220     8.0220     7.3230    24.5490     2.4320 
  260.6250    -6.4730    61.4280     9.5550     8.0550     7.3240    24.5470     2.4440 
  260.7500    -6.4380    57.7250     9.6090     8.1090     7.3290    24.5620     2.4560 
  260.8750    -6.3800    57.2160     9.6800     8.1800     7.3390    24.5760     2.4660 
  261.0000    -6.3620    57.4110     9.7580     8.2580     7.3330    24.5830     2.4730 
  261.1250    -6.3490    57.4110     9.8270     8.3270     7.3160    24.5810     2.4760 
  261.2500    -6.3550    57.4110     9.8880     8.3880     7.2900    24.5650     2.4770 
  261.3750    -6.3980    57.4110     9.9410     8.4410     7.2470    24.5370     2.4780 
  261.5000    -6.4470    57.4110     9.9910     8.4910     7.1860    24.5090     2.4790 
  261.6250    -6.4990    57.4110    10.0590     8.5590     7.1090    24.4750     2.4820 
  261.7500    -6.5450    57.4110    10.1430     8.6430     7.0520    24.4160     2.4900 
  261.8750    -6.6040    57.4110    10.2330     8.7330     7.0670    24.3420     2.5010 
  262.0000    -6.6790    57.4110    10.3030     8.8030     7.1800    24.2860     2.5140 
  262.1250    -6.7540    57.4110    10.3220     8.8220     7.3380    24.2690     2.5230 
  262.2500    -6.8380    57.4110    10.2890     8.7890     7.4390    24.2690     2.5250 
  262.3750    -6.9260    57.4110    10.2240     8.7240     7.4550    24.2660     2.5210 
  262.5000    -7.0330    57.4110    10.1670     8.6670     7.4120    24.2600     2.5100 
  262.6250    -7.1780    57.4110    10.1730     8.6730     7.3720    24.2570     2.4950 
  262.7500    -7.3260    57.4110    10.2590     8.7590     7.3960    24.2550     2.4820 
  262.8750    -7.4880    57.4110    10.4180     8.9180     7.6200    24.2490     2.4740 
  263.0000    -7.6490    57.4110    10.6190     9.1190     8.2850    24.2210     2.4750 
  263.1250    -7.8430    57.4110    10.8000     9.3000     9.6730    24.1530     2.4830 
  263.2500    -7.9970    57.4110    10.9110     9.4110    11.5310    24.0940     2.4890 
  263.3750    -8.1700    57.4110    10.9270     9.4270    13.3490    24.0790     2.4840 
  263.5000    -8.3090    57.4110    10.8600     9.3600    14.1190    24.0920     2.4680 
  263.6250    -8.4140    57.4110    10.7450     9.2450    13.1420    24.1000     2.4520 
  263.7500    -8.5130    57.4110    10.6550     9.1550    11.8990    24.1090     2.4460 
  263.8750    -8.5440    57.4110    10.6410     9.1410    11.2010    24.1240     2.4530 
  264.0000    -8.5770    57.4110    10.7200     9.2200    11.1560    24.1170     2.4680 
  264.1250    -8.5040    57.4110    10.8930     9.3930    11.7050    24.0880     2.4800 
  264.2500    -8.4790    57.4110    11.1140     9.6140    12.5650    24.0720     2.4850 
  264.3750    -8.3730    57.4110    11.3420     9.8420    13.5020    24.0810     2.4840 
  264.5000    -8.3210    57.4110    11.5510    10.0510    14.2710    24.0900     2.4840 
  264.6250    -8.2290    57.4110    11.7110    10.2110    14.9090    24.0620     2.4920 
  264.7500    -8.1350    57.4110    11.8220    10.3220    15.5090    24.0230     2.5060 
  264.8750    -8.0720    57.4110    11.8880    10.3880    16.1380    23.9910     2.5230 
  265.0000    -8.0030    57.4110    11.9230    10.4230    16.9840    23.9540     2.5360 
  265.1250    -7.9150    57.4110    11.9400    10.4400    18.3510    23.8840     2.5380 
  265.2500    -7.8600    57.4110    11.9480    10.4480    20.0960    23.7910     2.5320 
  265.3750    -7.8000    57.4110    11.9510    10.4510    21.5860    23.7090     2.5210 
  265.5000    -7.7100    57.4110    11.9500    10.4500    21.4890    23.6770     2.5110 
  265.6250    -7.6680    57.4110    11.9530    10.4530    19.3340    23.7190     2.5030 
  265.7500    -7.6220    57.4110    11.9630    10.4630    17.3570    23.7800     2.4990 
  265.8750    -7.5720    57.4110    11.9760    10.4760    16.3630    23.8180     2.4990 
  266.0000    -7.5210    57.4110    11.9880    10.4880    16.0020    23.8320     2.5020 
  266.1250    -7.5060    57.4110    11.9970    10.4970    15.6150    23.8310     2.5050 
  266.2500    -7.4300    57.4110    12.0020    10.5020    15.1480    23.8220     2.5030 
  266.3750    -7.4630    57.4110    12.0020    10.5020    14.8250    23.8150     2.4980 
  266.5000    -7.4360    57.4110    11.9970    10.4970    14.7210    23.8120     2.4890 
  266.6250    -7.3920    57.4110    11.9840    10.4840    14.8150    23.8030     2.4820 
  266.7500    -7.3380    57.4110    11.9680    10.4680    15.0310    23.7880     2.4790 
  266.8750    -7.2980    57.4110    11.9560    10.4560    15.2440    23.7830     2.4810 
  267.0000    -7.1980    57.4110    11.9540    10.4540    15.1660    23.7970     2.4870 
  267.1250    -7.1530    57.4110    11.9540    10.4540    14.5950    23.8210     2.4940 
  267.2500    -7.1490    57.4110    11.9540    10.4540    13.9520    23.8350     2.5010 
  267.3750    -7.0390    57.4110    11.9540    10.4540    13.5880    23.8310     2.5040 
  267.5000    -6.9840    57.4110    11.9540    10.4540    13.5510    23.8260     2.5010 
  267.6250    -6.9660    57.4110    11.9540    10.4540    13.5640    23.8370     2.4900 
  267.7500    -7.0050    57.4110    11.9540    10.4540    13.3530    23.8410     2.4750 
  267.8750    -6.9900    57.4110    11.9540    10.4540    12.8710    23.8130     2.4570 
  268.0000    -7.0450    57.4110    11.9540    10.4540    12.2140    23.7510     2.4390 
  268.1250    -6.9930    57.4110    11.9540    10.4540    11.5800    23.7030     2.4270 
  268.2500    -6.9140    57.4110    11.9540    10.4540    10.2390    23.6670     2.4220 
  268.3750    -6.9490    57.4110    11.9540    10.4540     9.6280    23.6470     2.4250 
  268.5000    -6.9350    57.4110    11.9540    10.4540     9.2330    23.5880     2.4340 
  268.6250    -6.8730    57.4110    11.9540    10.4540     8.9700    23.5040     2.4450 
