~V
VERS. 2.00: Ver 2.00
~W
STRT.M 59.0000:
STOP.M 253.0000:
STEP.M 0.1250:
NULL. -999.2500:
UWI. DF5043:
~C
DEPT.M :
SP.MV :
GR.API :
CALI.CM :
RXO.OHMM :
RI. :
RML.OHMM :
DEN.GM/CC :
~A
# ...
  137.7500   -15.0030   103.3130    23.3090     4.8510     3.9460     4.4480     2.3490 
  137.8750   -15.2330   104.4120    23.3690     4.9410     3.9770     4.4760     2.3490 
  138.0000   -15.4330   107.7260    23.4530     4.8770     4.0220     4.5130     2.3490 
  138.1250   -15.6120   112.9710    23.5370     4.7660     4.0770     4.5600     2.3470 
  138.2500   -15.7920   119.8900    23.6080     4.7800     4.1400     4.6170     2.3380 
  138.3750   -15.9910   124.0640    23.6230     4.9760     4.2110     4.6940     2.3240 
  138.5000   -16.1970   121.4060    23.6020     5.1490     4.2940     4.7940     2.3160 
  138.6250   -16.3900   113.9170    23.6180     5.2010     4.3970     4.9250     2.3120 
  138.7500   -16.5590   106.8680    23.6400     5.1920     4.5270     5.0910     2.3030 
  138.8750   -16.7210   103.7460    23.5780     5.2530     4.6860     5.2920     2.2860 
  139.0000   -16.9070   103.1140    23.5190     5.3440     4.8570     5.4980     2.2730 
  139.1250   -17.1250   102.5140    23.4590     5.4190     5.0140     5.6790     2.2630 
  139.2500   -17.3570   100.3600    23.3870     5.4530     5.1210     5.7930     2.2430 
  139.3750   -17.5690    99.3650    23.3340     5.4720     5.1210     5.7690     2.2120 
  139.5000   -17.7510   102.1410    23.3190     5.4780     5.0040     5.5960     2.1920 
  139.6250   -17.9190   106.4080    23.3120     5.4610     4.7760     5.2860     2.1950 
  139.7500   -18.1020   108.9810    23.3350     5.3810     4.4680     4.8890     2.2170 
  139.8750   -18.3280   111.1720    23.4640     5.2060     4.1450     4.5000     2.2520 
  140.0000   -18.5810   116.0430    23.6810     4.8990     3.8820     4.2130     2.2910 
  140.1250   -18.8430   122.3970    23.8450     4.5630     3.7370     4.0900     2.3180 
  140.2500   -19.1060   127.3140    23.9260     4.3300     3.7430     4.1590     2.3180 
  140.3750   -19.3880   128.3340    23.9350     4.2700     3.9430     4.4460     2.2990 
  140.5000   -19.7160   124.3540    23.9500     4.4560     4.2930     4.8820     2.2980 
  140.6250   -20.1010   115.0880    23.9100     5.0980     4.7540     5.4060     2.3240 
  140.7500   -20.5340   103.5360    23.7460     6.3080     5.2620     5.9360     2.3600 
  140.8750   -20.9960    96.1230    23.5750     7.6360     5.7280     6.3710     2.3730 
  141.0000   -21.4740    94.0270    23.4650     8.0340     6.0870     6.6610     2.3540 
  141.1250   -21.9840    93.9750    23.3850     7.3070     6.3020     6.7850     2.3140 
  141.2500   -22.5500    92.8790    23.3200     6.2620     6.3690     6.7580     2.2690 
  141.3750   -23.1930    90.9310    23.3520     5.8200     6.3160     6.6320     2.2380 
  141.5000   -23.8840    90.6140    23.4390     5.8300     6.2300     6.5090     2.2220 
  141.6250   -24.5900    92.3990    23.5140     5.9710     6.1690     6.4480     2.2120 
  141.7500   -25.2800    96.0650    23.5880     6.0390     6.1690     6.4770     2.2050 
  141.8750   -25.9380   101.9930    23.6950     6.0190     6.2510     6.6050     2.2040 
  142.0000   -26.5680   107.3340    23.7720     6.1210     6.3980     6.8100     2.2070 
  142.1250   -27.1660   106.9710    23.8120     6.5890     6.6160     7.1030     2.2140 
  142.2500   -27.7100    99.4080    23.8320     7.4890     6.9220     7.5000     2.2320 
  142.3750   -28.1480    91.1820    23.8260     8.4300     7.3710     8.0550     2.2700 
  142.5000   -28.4720    87.7640    23.8140     9.0080     8.0050     8.8010     2.3240 
  142.6250   -28.6860    86.2300    23.8060     9.2630     8.8990     9.8120     2.3850 
  142.7500   -28.8170    81.4440    23.7840    10.1390    10.1060    11.1470     2.4470 
  142.8750   -28.8840    72.8960    23.7320    13.4350    11.6840    12.8660     2.4990 
  143.0000   -28.9050    65.1860    23.7080    18.5330    13.5000    14.8340     2.5350 
  143.1250   -28.8750    60.9020    23.7500    22.9210    15.4000    16.8850     2.5530 
  143.2500   -28.7910    60.0930    23.7990    24.8230    17.1650    18.7820     2.5550 
  143.3750   -28.6690    60.4620    23.8180    24.2400    18.4800    20.1660     2.5590 
  143.5000   -28.5500    59.3410    23.8230    23.0770    19.2520    20.9220     2.5690 
  143.6250   -28.4600    56.6560    23.7970    22.5720    19.5090    21.0910     2.5750 
  143.7500   -28.4010    55.3510    23.6650    22.4830    19.4420    20.9210     2.5700 
  143.8750   -28.3550    59.0580    23.3100    21.0930    19.2970    20.7400     2.5690 
  144.0000   -28.3020    63.6870    22.8810    19.1600    19.2600    20.7360     2.5840 
  144.1250   -28.2420    63.8280    22.7480    18.0890    19.3970    20.9600     2.6030 
  144.2500   -28.1930    58.9570    22.9440    18.2500    19.7190    21.4040     2.6070 
  144.3750   -28.1820    55.1580    23.2750    19.1670    20.2000    22.0310     2.5910 
  144.5000   -28.2040    55.7950    23.5010    20.3810    20.7410    22.7110     2.5780 
  144.6250   -28.2390    58.3450    23.6590    21.9470    21.2610    23.3310     2.5780 
  144.7500   -28.2660    60.1020    23.7530    23.5490    21.6690    23.7630     2.5820 
  144.8750   -28.2820    60.1300    23.8290    24.6430    21.8690    23.8840     2.5830 
  145.0000   -28.3050    59.7900    23.9100    24.9300    21.8770    23.7590     2.5820 
  145.1250   -28.3500    59.9410    23.9740    24.4410    21.7130    23.4440     2.5830 
  145.2500   -28.4110    60.4330    24.0050    23.9670    21.4110    22.9950     2.5850 
  145.3750   -28.4590    60.8770    24.0360    24.4190    21.0060    22.4750     2.5800 
  145.5000   -28.4690    61.4400    24.0470    24.8510    20.5550    21.9570     2.5680 
  145.6250   -28.4440    62.2890    24.0550    24.3910    20.1000    21.4890     2.5490 
  145.7500   -28.4080    63.6720    24.0540    23.1730    19.6930    21.1100     2.5300 
  145.8750   -28.3880    66.2900    24.0260    21.9000    19.4020    20.8610     2.5270 
  146.0000   -28.3820    69.3560    23.9940    21.2260    19.2390    20.7260     2.5390 
  146.1250   -28.3760    70.9030    24.0020    21.2550    19.2070    20.7030     2.5500 
  146.2500   -28.3600    70.4290    24.0190    21.4680    19.2780    20.7720     2.5430 
  146.3750   -28.3500    70.9660    24.0120    21.4940    19.3940    20.8760     2.5250 
  146.5000   -28.3760    74.0300    23.9980    21.4980    19.4740    20.9280     2.5210 
  146.6250   -28.4540    77.1930    23.9560    21.7920    19.4680    20.8810     2.5320 
  146.7500   -28.5750    77.4940    23.9450    22.0290    19.3470    20.7140     2.5420 
  146.8750   -28.7070    74.6980    23.9690    21.3620    19.0970    20.4130     2.5430 
  147.0000   -28.8260    72.7440    23.9420    20.2900    18.7520    20.0140     2.5470 
  147.1250   -28.9340    73.5680    23.9010    19.5330    18.3220    19.5270     2.5590 
  147.2500   -29.0470    75.1060    23.8880    19.5070    17.8110    18.9520     2.5610 
  147.3750   -29.1830    73.5060    23.8810    19.9420    17.2400    18.3060     2.5390 
  147.5000   -29.3280    70.4350    23.7890    19.9270    16.6670    17.6540     2.5110 
  147.6250   -29.4620    69.6470    23.7150    19.0730    16.1400    17.0550     2.4990 
  147.7500   -29.5700    71.0500    23.8020    17.8040    15.7070    16.5680     2.5100 
  147.8750   -29.6630    69.7470    23.9660    16.7490    15.4470    16.2850     2.5310 
  148.0000   -29.7720    65.2310    24.0290    16.0190    15.3580    16.1990     2.5520 
  148.1250   -29.9170    61.3490    24.0070    16.1710    15.4240    16.2770     2.5690 
  148.2500   -30.0940    61.0790    24.0030    17.4760    15.6080    16.4720     2.5840 
  148.3750   -30.2760    63.7990    24.0390    18.8730    15.8590    16.7310     2.5830 
  148.5000   -30.4410    66.2430    24.0480    19.1910    16.1060    16.9810     2.5640 
  148.6250   -30.5920    67.4380    24.0340    18.8570    16.3120    17.1840     2.5410 
  148.7500   -30.7510    67.2040    24.0080    18.8090    16.4570    17.3200     2.5350 
  148.8750   -30.9410    64.9420    23.9990    19.0280    16.5200    17.3680     2.5540 
