~V
VERS. 2.00: Ver 2.00
~W
STRT.M 60.0000:
STOP.M 268.0000:
STEP.M 0.1250:
NULL. -999.2500:
UWI. DF5039:
~C
DEPT.M :
DEN.GM/CC :
GR.API :
CALI.CM :
RXO.OHMM :
RI. :
RML.OHMM :
SP.MV :
~A
# ...
  240.0000     2.2810    76.0940    23.7590    63.8140    86.5790    87.7260   -27.3540 
  240.1250     2.2690    75.2060    24.1110    67.1650    85.9250    87.2170   -27.0290 
  240.2500     2.2500    73.4970    24.4120    69.5160    85.7200    87.2790   -26.6510 
  240.3750     2.2290    72.0190    24.6560    78.0350    85.6300    87.4400   -26.3310 
  240.5000     2.2120    71.3120    24.8500    87.7240    85.1240    87.0870   -25.9600 
  240.6250     2.2040    69.8900    24.9690    92.3710    83.7750    85.8150   -25.5590 
  240.7500     2.2020    67.2860    25.0080    87.5610    82.0050    84.2150   -25.1550 
  240.8750     2.2010    63.4600    24.9950    80.5030    80.5680    83.2130   -24.6350 
  241.0000     2.1990    59.4610    24.9930    74.2250    80.4320    83.8710   -24.2290 
  241.1250     2.1930    58.5420    25.0270    82.4480    82.9320    87.4900   -23.7110 
  241.2500     2.1850    61.1220    25.0720    96.0410    88.0430    93.7940   -23.3000 
  241.3750     2.1750    65.1320    25.1020   106.3400    95.2730   102.0870   -22.9700 
  241.5000     2.1660    66.9670    25.0560   111.5900   103.3650   110.9050   -22.5010 
  241.6250     2.1620    63.8900    24.8480   111.3180   110.0430   117.6040   -22.1490 
  241.7500     2.1680    59.7560    24.5770   105.0080   113.4960   120.3110   -21.6370 
  241.8750     2.1880    58.6890    24.4110    95.9930   112.7460   118.1820   -21.1640 
  242.0000     2.2190    61.7560    24.4640    92.5770   107.8760   111.6920   -20.6550 
  242.1250     2.2480    63.1210    24.6710    92.8610    99.6970   102.1860   -20.1420 
  242.2500     2.2570    60.2320    24.8230    89.9860    90.5080    92.1650   -19.7200 
  242.3750     2.2430    57.1190    24.8560    77.6460    81.7400    83.0120   -19.1420 
  242.5000     2.2170    55.6860    24.8200    64.6040    74.2860    75.4370   -18.6740 
  242.6250     2.1970    54.5250    24.7920    63.2630    68.6360    69.7560   -18.1540 
  242.7500     2.1870    53.2450    24.7660    62.9900    64.2370    65.2990   -17.6230 
  242.8750     2.1840    53.0680    24.7400    61.0370    60.7220    61.6660   -17.2750 
  243.0000     2.1850    53.8800    24.7510    57.7520    57.8340    58.6050   -16.9280 
  243.1250     2.1880    54.3790    24.8040    53.3920    55.5800    56.1730   -16.5310 
  243.2500     2.1910    55.0690    24.8480    49.9230    53.9540    54.4410   -16.1920 
  243.3750     2.1920    55.8830    24.8610    48.6910    53.0780    53.5650   -15.8780 
  243.5000     2.1840    56.2710    24.8590    50.4160    52.9810    53.5390   -15.5550 
  243.6250     2.1670    55.9070    24.8530    52.3290    53.4190    53.9630   -15.4030 
  243.7500     2.1540    55.7540    24.8440    52.8750    53.4530    53.7590   -15.2970 
  243.8750     2.1550    57.4760    24.8660    51.9950    51.9940    51.8340   -15.1010 
  244.0000     2.1750    61.2620    24.9170    49.4360    48.2410    47.5280   -14.9220 
  244.1250     2.2070    62.6970    24.8400    43.6720    42.0890    40.9690   -14.7440 
  244.2500     2.2380    60.7610    24.6000    34.6430    35.1640    33.8650   -14.5560 
  244.3750     2.2580    60.1040    24.3570    25.7880    28.7800    27.4870   -14.4480 
  244.5000     2.2660    62.0930    24.2700    20.2220    23.7990    22.6420   -14.2760 
  244.6250     2.2690    64.8950    24.3100    17.7670    20.7900    19.9060   -13.9450 
  244.7500     2.2800    68.2650    24.3300    15.7630    19.3630    18.8630   -13.6380 
  244.8750     2.3050    72.3680    24.3270    15.2500    19.3180    19.2300   -13.3380 
  245.0000     2.3440    75.4440    24.3280    17.7130    20.3630    20.5580   -13.0140 
  245.1250     2.3830    73.4140    24.3290    23.7640    22.0130    22.1570   -12.8650 
  245.2500     2.4020    68.8000    24.3290    26.6590    23.3620    23.1670   -12.5480 
  245.3750     2.3960    64.4070    24.3300    24.4230    23.7120    23.0610   -12.2430 
  245.5000     2.3730    62.3320    24.3230    19.8580    22.8060    21.7830   -12.0430 
  245.6250     2.3520    63.0470    24.2940    16.9750    20.9880    19.7990   -11.8100 
  245.7500     2.3380    63.8600    24.2440    17.0100    19.1290    17.9350   -11.7090 
  245.8750     2.3270    64.5870    24.1810    17.0630    17.6280    16.5620   -11.5380 
  246.0000     2.3150    65.9660    24.1250    14.6880    16.6080    15.7790   -11.4950 
  246.1250     2.3040    67.8470    24.0970    13.5060    16.1190    15.5940   -11.4130 
  246.2500     2.2990    70.0420    24.1070    15.0320    15.9650    15.7520   -11.3400 
  246.3750     2.3030    72.7160    24.1520    15.0740    16.0170    16.0950   -11.3280 
  246.5000     2.3110    74.3000    24.2180    14.0220    16.1670    16.4920   -11.2380 
  246.6250     2.3130    72.7550    24.2710    14.6890    16.2910    16.7970   -11.2610 
  246.7500     2.3060    69.1590    24.2880    14.8410    16.3030    16.9490   -11.2740 
  246.8750     2.2930    65.9920    24.2860    14.3330    16.2130    16.9900   -11.3090 
  247.0000     2.2810    66.2410    24.3000    14.5050    16.0990    17.0200   -11.3120 
  247.1250     2.2740    69.0920    24.3370    15.1440    16.0560    17.1830   -11.2120 
  247.2500     2.2690    70.4010    24.3640    15.2520    16.2180    17.6760   -11.2550 
  247.3750     2.2710    67.9760    24.3750    15.6470    16.8420    18.8550   -11.2420 
  247.5000     2.2830    64.2130    24.3920    17.0220    18.2890    21.2240   -11.2210 
  247.6250     2.3120    61.9250    24.4840    26.7210    21.4140    25.8540   -11.2240 
  247.7500     2.3560    60.6640    24.6420    50.4940    26.8700    33.1620   -11.1130 
  247.8750     2.4060    59.1160    24.7840    79.1040    35.2520    43.2250   -11.0350 
  248.0000     2.4520    56.2470    24.8470   110.2500    45.6370    54.3740   -10.8790 
  248.1250     2.4730    51.9560    24.8520   130.2030    52.3600    59.9430   -10.7300 
  248.2500     2.4680    49.3430    24.8790   114.4270    49.5960    54.5940   -10.5800 
  248.3750     2.4450    51.9490    24.8840    74.9350    38.5310    40.7970   -10.4130 
  248.5000     2.4120    57.9870    24.7990    41.4780    25.9000    26.3820   -10.3230 
  248.6250     2.3770    62.9940    24.6480    17.9900    17.1100    16.9660   -10.1140 
  248.7500     2.3460    67.3980    24.5210     9.1970    11.8910    11.6610    -9.9280 
  248.8750     2.3260    70.3960    24.4460     7.2140     9.0870     9.0340    -9.7630 
  249.0000     2.3180    70.4670    24.4130     7.3750     7.6980     7.9380    -9.5660 
  249.1250     2.3170    68.1280    24.4020     8.0240     7.2120     7.7260    -9.5220 
  249.2500     2.3110    66.4720    24.3960     8.3950     7.1370     7.8180    -9.3570 
  249.3750     2.2940    65.8040    24.3900     8.7000     7.2410     7.9650    -9.1380 
  249.5000     2.2700    66.1970    24.3940     8.3040     7.3600     8.0300    -8.9690 
  249.6250     2.2510    69.9900    24.4410     7.6980     7.4030     7.9800    -8.8450 
  249.7500     2.2440    71.7150    24.4950     7.2220     7.3980     7.9020    -8.7520 
  249.8750     2.2510    69.7060    24.4500     7.6980     7.4000     7.8790    -8.7110 
  250.0000     2.2670    66.5540    24.2470     8.1600     7.4690     7.9770    -8.6740 
  250.1250     2.2850    65.1400    23.9940     8.9950     7.6510     8.2450    -8.5950 
  250.2500     2.2990    65.9660    23.8570    11.5920     7.9070     8.6160    -8.5750 
  250.3750     2.3070    67.5960    23.8780    15.4160     8.1680     8.9980    -8.5830 
  250.5000     2.3100    67.9140    24.0420    16.2020     8.3480     9.2780    -8.6270 
  250.6250     2.3090    67.3260    24.3070    12.3110     8.3460     9.3310    -8.6310 
  250.7500     2.3070    68.3090    24.5080     9.3550     8.1790     9.1820    -8.5930 
  250.8750     2.3080    69.2710    24.5470     8.2270     7.8920     8.8970    -8.5490 
  251.0000     2.3140    69.1480    24.4690     7.8570     7.5580     8.5740    -8.5100 
  251.1250     2.3240    69.9730    24.4260     7.8470     7.2570     8.3120    -8.5030 
