~V
VERS. 2.00: Ver 2.00
~W
STRT.M 55.0000:
STOP.M 278.0000:
STEP.M 0.1250:
NULL. -999.2500:
UWI. DF5019:
~C
DEPT.M :
DEN.GM/CC :
GR.API :
CALI.CM :
RXO.OHMM :
RI. :
RML.OHMM :
SP.MV :
~A
# ...
  201.2500     2.4670    86.0720    24.8460    13.9560    10.5260    14.0710   -17.5530 
  201.3750     2.4620    85.2770    24.7910    15.2980    11.0270    14.8230   -17.8490 
  201.5000     2.4350    84.4290    24.8810    15.8010    11.0460    14.8400   -18.1230 
  201.6250     2.4080    84.2360    24.8550    14.5540    10.5180    14.0470   -18.3690 
  201.7500     2.3960    86.1190    24.8000    12.4680     9.8010    13.0330   -18.5560 
  201.8750     2.4070    89.6780    24.7650    10.9000     9.1770    12.2320   -18.6570 
  202.0000     2.4340    92.4260    24.7860    10.1660     8.8200    11.8890   -18.6900 
  202.1250     2.4610    92.3620    24.8010    10.5400     8.8330    12.1220   -18.6580 
  202.2500     2.4840    92.1690    24.7860    11.8070     9.0910    12.6890   -18.6110 
  202.3750     2.4970    92.2820    24.7760    13.0800     9.4710    13.3470   -18.5140 
  202.5000     2.5020    90.3330    24.8380    13.4200     9.8400    13.8720   -18.3730 
  202.6250     2.5110    90.7150    24.9660    12.7660    10.0970    14.1370   -18.1660 
  202.7500     2.5250    97.0720    25.0670    11.9760    10.2500    14.2430   -17.9740 
  202.8750     2.5270   103.8270    25.1400    11.6920    10.3370    14.2980   -17.8140 
  203.0000     2.4990   103.9770    25.1480    12.6950    10.3840    14.3590   -17.6780 
  203.1250     2.4580   100.1360    25.0540    13.7500    10.3500    14.3490   -17.5480 
  203.2500     2.4180   101.4620    24.9180    13.6430    10.1620    14.1250   -17.3850 
  203.3750     2.3840   104.6550    24.8940    12.5570     9.7540    13.5600   -17.2130 
  203.5000     2.3610   104.2730    24.9290    11.2450     9.1170    12.6220   -17.0310 
  203.6250     2.3500   102.0720    24.9930    10.4910     8.3200    11.4280   -16.8530 
  203.7500     2.3550   102.6660    25.1120     9.7600     7.5580    10.3070   -16.5980 
  203.8750     2.3820   103.8900    25.1070     8.7590     6.9930     9.5090   -16.2790 
  204.0000     2.4300   102.6910    24.8130     7.7790     6.7430     9.2080   -15.9030 
  204.1250     2.4660   100.6410    24.6610     7.9290     6.9310     9.5810   -15.5260 
  204.2500     2.4660    99.7720    24.7750     9.2010     7.4530    10.4530   -15.1370 
  204.3750     2.4460    98.2930    24.8960    10.6850     8.1440    11.5400   -14.7670 
  204.5000     2.4420    94.4750    24.9340    11.4860     8.7020    12.3430   -14.3470 
  204.6250     2.4490    86.6230    24.9280    11.0270     8.6930    12.1740   -13.8990 
  204.7500     2.4400    76.9010    24.8610     9.6830     8.1170    11.1440   -13.4320 
  204.8750     2.4120    68.6950    24.6640     7.9650     7.2170     9.7290   -12.9980 
  205.0000     2.3950    63.2110    24.3030     6.6200     6.3130     8.4420   -12.5780 
  205.1250     2.3860    58.8820    24.1420     6.0430     5.6660     7.6230   -12.1820 
  205.2500     2.3600    54.2410    24.0800     5.7690     5.2920     7.2050   -11.7940 
  205.3750     2.3170    51.4960    24.1030     5.6080     5.1520     7.0860   -11.4390 
  205.5000     2.2940    51.5450    24.1850     5.5480     5.1750     7.1470   -11.1450 
  205.6250     2.3050    55.3280    24.3590     5.6380     5.2890     7.2830   -10.9850 
  205.7500     2.3300    62.1130    24.4110     5.8250     5.4320     7.4300   -10.8980 
  205.8750     2.3480    70.2160    24.4810     6.0460     5.5910     7.5830   -10.8430 
  206.0000     2.3600    79.1580    24.5850     6.2140     5.7560     7.7470   -10.8150 
  206.1250     2.3770    88.1800    24.5400     6.3460     5.9020     7.8960   -10.8090 
  206.2500     2.4000    94.1120    24.3600     6.5380     6.0040     7.9950   -10.8370 
  206.3750     2.4180    95.7810    24.3170     6.7670     6.0360     8.0160   -10.8600 
  206.5000     2.4220    94.1020    24.3210     6.8980     5.9730     7.9440   -10.9130 
  206.6250     2.4180    92.7940    24.3690     6.8380     5.8180     7.7820   -10.9300 
  206.7500     2.4130    94.7480    24.3840     6.7140     5.6380     7.5970   -10.9920 
  206.8750     2.4080    99.3390    24.4320     6.6010     5.4790     7.4430   -11.0550 
  207.0000     2.4030   103.2320    24.5030     6.5400     5.3720     7.3630   -11.1390 
  207.1250     2.3980   102.6430    24.6230     6.6110     5.3530     7.4000   -11.2410 
  207.2500     2.3910   101.8000    24.6810     6.8070     5.4250     7.5460   -11.3310 
  207.3750     2.3800   102.3320    24.8630     7.0200     5.5970     7.8000   -11.4250 
  207.5000     2.3690   103.2650    24.9690     7.2240     5.8720     8.1600   -11.5230 
  207.6250     2.3640   101.4460    24.9070     7.6820     6.2680     8.6380   -11.6830 
  207.7500     2.3630    97.1910    24.8440     8.5460     6.7640     9.2270   -11.7910 
  207.8750     2.3600    94.6630    24.8040     9.5460     7.3660     9.9420   -11.9320 
  208.0000     2.3540    97.0190    24.6410    10.5180     8.0930    10.8070   -12.0540 
  208.1250     2.3500    98.0960    24.5460    11.5690     8.9940    11.8810   -12.1800 
  208.2500     2.3530    92.5890    24.4940    13.1470    10.0570    13.1470   -12.3070 
  208.3750     2.3630    87.0810    24.4710    15.0810    11.2490    14.5590   -12.4610 
  208.5000     2.3790    86.8750    24.4870    16.5290    12.4870    16.0020   -12.6030 
  208.6250     2.3930    86.3050    24.4080    17.8650    13.5770    17.2210   -12.7260 
  208.7500     2.4020    82.6710    24.3460    18.5880    14.2790    18.1000   -12.8500 
  208.8750     2.4080    81.9350    24.4150    18.3600    14.3840    18.7300   -12.9590 
  209.0000     2.4090    85.9980    24.6440    17.0310    13.8900    19.1710   -13.0780 
  209.1250     2.4020    89.1670    24.7310    15.2870    13.0310    19.1850   -13.1820 
  209.2500     2.3840    90.0270    24.7410    13.6260    12.2090    18.7330   -13.2670 
  209.3750     2.3690    90.5120    24.6610    12.7010    11.6490    17.8970   -13.3480 
  209.5000     2.3720    91.9510    24.5240    14.2850    11.5320    16.9670   -13.4380 
  209.6250     2.3820    91.0870    24.4830    19.5020    12.1210    16.5310   -13.5510 
  209.7500     2.3790    86.9410    24.5800    25.3130    13.5100    17.0420   -13.6880 
  209.8750     2.3510    81.7260    24.7320    27.8010    16.0160    18.8520   -13.8440 
  210.0000     2.3070    79.3180    24.8540    28.5860    20.1640    22.4080   -14.0420 
  210.1250     2.2630    78.4430    25.0180    34.6330    27.3420    29.2240   -14.3230 
  210.2500     2.2250    74.2010    25.2150    50.3650    38.4670    40.5350   -14.6740 
  210.3750     2.1910    68.8970    25.2550    71.3690    54.6980    58.2560   -15.0470 
  210.5000     2.1700    66.2720    25.0770    91.5960    76.0250    83.8220   -15.4270 
  210.6250     2.1740    66.1330    24.7620   106.8050    99.1320   114.9910   -15.7880 
  210.7500     2.2050    64.7590    24.4700   119.3300   117.4790   140.7580   -16.1590 
  210.8750     2.2510    62.8180    24.4270   130.3390   126.7000   151.2440   -16.5610 
  211.0000     2.2990    63.4750    24.5840   134.8710   125.7060   144.1770   -16.9820 
  211.1250     2.3410    65.8200    24.7360   120.6820   116.4150   126.0690   -17.3990 
  211.2500     2.3670    66.8860    24.7430    94.6900   105.2690   108.8970   -17.8150 
  211.3750     2.3610    65.9140    24.5980    72.9410    96.0420    97.7600   -18.2180 
  211.5000     2.3100    64.0340    24.4820    64.5470    90.7710    94.1410   -18.6600 
  211.6250     2.2450    63.7980    24.4600    70.9370    90.5780    98.3040   -19.1720 
  211.7500     2.1960    65.4930    24.4020    80.5090    93.9990   106.4560   -19.7430 
  211.8750     2.1700    68.8830    24.4260    92.2390    99.9970   115.4470   -20.3270 
  212.0000     2.1620    71.8710    24.6370   102.3690   107.6250   123.2130   -20.8860 
  212.1250     2.1680    70.9180    25.0050   105.2740   116.7790   130.0580   -21.4250 
  212.2500     2.1920    66.8720    25.2320   106.8570   127.8380   138.8050   -21.9540 
  212.3750     2.2230    62.6910    25.3260   110.6130   141.1690   151.5650   -22.4780 
