~V
VERS. 2.00: Ver 2.00
~W
STRT.M 60.0000:
STOP.M 259.0000:
STEP.M 0.1250:
NULL. -999.2500:
UWI. DF5006:
~C
DEPT.M :
SP.MV :
GR.API :
RML.OHMM :
RI. :
RXO.OHMM :
CALI.CM :
DEN.GM/CC :
~A
# ...
  217.5000   -14.5130    62.3760    44.9160    42.9050    44.0810    24.2850     2.2590 
  217.6250   -14.8930    66.1430    46.5240    43.3320    44.3990    24.2840     2.2640 
  217.7500   -15.3430    67.2520    51.9030    47.0240    48.7200    24.2830     2.2620 
  217.8750   -15.7810    63.3610    60.9640    53.7120    58.6410    24.2840     2.2540 
  218.0000   -16.2370    57.2800    72.7550    62.9310    73.0420    24.2850     2.2450 
  218.1250   -16.6630    53.4010    84.6570    73.5560    85.5500    24.2860     2.2400 
  218.2500   -17.1220    52.6140    95.2740    83.7950    91.1890    24.2860     2.2420 
  218.3750   -17.5600    53.4860   103.6790    92.3290    92.5880    24.2860     2.2470 
  218.5000   -18.0160    55.7370   109.8810    98.9200    94.3450    24.2860     2.2520 
  218.6250   -18.4570    58.9170   114.8510   104.1820    97.4250    24.2860     2.2550 
  218.7500   -18.8960    58.9160   119.7870   109.0160   100.0800    24.2860     2.2540 
  218.8750   -19.3240    56.4360   125.1200   113.9580   105.5320    24.2860     2.2500 
  219.0000   -19.7690    55.4250   130.6630   118.9780   114.7630    24.2860     2.2440 
  219.1250   -20.1900    55.7760   136.3130   124.0780   123.3750    24.2860     2.2360 
  219.2500   -20.5920    53.7590   142.6410   129.8140   126.7290    24.2820     2.2260 
  219.3750   -20.9500    51.2040   150.5660   137.0350   126.3930    24.2670     2.2150 
  219.5000   -21.2770    51.3870   161.1020   146.7010   130.2830    24.2430     2.2060 
  219.6250   -21.5820    53.0980   175.0350   159.5410   140.0680    24.2290     2.1980 
  219.7500   -21.8050    51.1310   192.8040   176.1430   156.4660    24.2260     2.1930 
  219.8750   -22.0090    48.3880   212.3760   194.8730   174.7540    24.2230     2.1900 
  220.0000   -22.1680    48.6150   231.8520   213.7550   187.6280    24.2070     2.1870 
  220.1250   -22.3200    51.3230   248.2060   230.2070   197.9630    24.1760     2.1850 
  220.2500   -22.4180    53.4370   258.6240   240.3280   205.0740    24.1590     2.1870 
  220.3750   -22.5280    54.5350   261.3010   243.0170   209.4280    24.1790     2.1950 
  220.5000   -22.5780    56.0770   257.2380   238.3360   213.5210    24.2110     2.2070 
  220.6250   -22.5770    58.0090   248.8080   228.3250   210.4580    24.2450     2.2190 
  220.7500   -22.5220    58.2020   234.7440   216.7680   191.3160    24.3030     2.2280 
  220.8750   -22.4460    57.6380   224.6080   207.8470   168.0430    24.3610     2.2320 
  221.0000   -22.3280    58.2230   220.1260   203.6800   154.4520    24.3910     2.2320 
  221.1250   -22.2050    59.4030   220.6750   204.5930   156.0910    24.3880     2.2320 
  221.2500   -22.0580    58.5010   224.4440   209.2150   168.9920    24.3600     2.2320 
  221.3750   -21.9120    55.1320   227.1830   213.5010   178.8770    24.3330     2.2320 
  221.5000   -21.7610    52.3960   226.4570   214.0840   181.6670    24.3020     2.2310 
  221.6250   -21.6550    53.1010   219.8340   208.7210   180.3010    24.2830     2.2300 
  221.7500   -21.5870    55.2050   209.1970   196.6830   178.4960    24.2770     2.2280 
  221.8750   -21.5120    56.6870   196.7210   181.7240   168.8060    24.2770     2.2250 
  222.0000   -21.4370    55.9880   182.5310   167.0190   152.5470    24.2760     2.2200 
  222.1250   -21.3130    54.0090   169.5280   154.9700   135.7150    24.2600     2.2140 
  222.2500   -21.2040    53.6630   161.8260   147.4150   125.7970    24.1700     2.2070 
  222.3750   -21.0240    54.2500   158.3200   143.6800   126.2050    24.0710     2.2020 
  222.5000   -20.8570    55.3530   158.1660   143.1130   127.5820    24.1220     2.2020 
  222.6250   -20.6180    56.1310   160.3790   144.8470   126.8130    24.2290     2.2070 
  222.7500   -20.4010    55.5780   164.1040   148.0860   128.1830    24.2980     2.2170 
  222.8750   -20.1780    53.2350   168.2210   151.7250   132.4570    24.3060     2.2280 
  223.0000   -19.9600    51.9560   172.0510   155.1080   138.4360    24.2810     2.2330 
  223.1250   -19.7570    53.3530   174.9010   157.6290   143.6240    24.2370     2.2310 
  223.2500   -19.5590    54.9730   175.6580   158.3620   146.5820    24.1810     2.2180 
  223.3750   -19.4370    55.7390   174.0870   157.1270   146.8810    24.1690     2.2030 
  223.5000   -19.2820    57.2800   170.4050   154.0920   141.9520    24.1760     2.1920 
  223.6250   -19.1830    59.0430   165.6160   150.0760   134.4910    24.2010     2.1920 
  223.7500   -19.0480    58.9410   161.5620   146.6390   131.0460    24.2110     2.2010 
  223.8750   -18.9240    57.0800   159.5210   144.9830   128.8460    24.2030     2.2140 
  224.0000   -18.7730    54.6840   159.5000   145.2970   125.9620    24.1780     2.2230 
  224.1250   -18.6280    53.8830   159.9620   146.4600   124.4390    24.1580     2.2260 
  224.2500   -18.4190    57.0020   157.0980   145.3320   126.1840    24.1510     2.2250 
  224.3750   -18.1490    61.5570   148.0850   139.1130   125.7300    24.1460     2.2250 
  224.5000   -17.8880    63.4120   132.1560   126.5780   118.0570    24.1250     2.2280 
  224.6250   -17.5960    61.3330   111.5450   109.0360   104.4850    24.0570     2.2340 
  224.7500   -17.3060    58.4640    91.0950    90.2760    84.7480    23.9090     2.2400 
  224.8750   -17.0380    58.6900    74.6680    74.3650    63.8780    23.7250     2.2430 
  225.0000   -16.8150    61.1290    63.3330    62.8830    48.2590    23.6370     2.2420 
  225.1250   -16.6020    62.2570    56.5320    55.7200    40.4190    23.7270     2.2400 
  225.2500   -16.4520    61.6530    53.3110    52.1710    40.4330    23.9510     2.2400 
  225.3750   -16.3330    60.7290    51.6780    50.3390    42.2120    24.1250     2.2440 
  225.5000   -16.2870    60.5040    50.6840    49.2870    42.8610    24.1960     2.2530 
  225.6250   -16.2660    60.8340    49.9870    48.4940    41.6020    24.2070     2.2640 
  225.7500   -16.2930    60.8260    49.8070    48.0840    40.5660    24.1960     2.2720 
  225.8750   -16.3240    60.8480    50.8430    48.6730    39.9970    24.1790     2.2750 
  226.0000   -16.3860    61.2700    53.6100    51.0620    41.2740    24.1730     2.2700 
  226.1250   -16.5100    62.4730    58.7820    55.8360    45.8620    24.1920     2.2570 
  226.2500   -16.6720    63.8540    65.9330    63.3320    56.2340    24.2030     2.2410 
  226.3750   -16.8790    62.9570    74.2720    72.1690    69.6860    24.1940     2.2270 
  226.5000   -17.0410    60.2720    83.2640    80.7920    82.6910    24.1670     2.2160 
  226.6250   -17.2240    57.1190    91.1480    87.5170    91.7620    24.1560     2.2110 
  226.7500   -17.3770    56.4980    95.2130    90.6550    90.9320    24.1870     2.2110 
  226.8750   -17.5230    57.3340    95.9060    90.8690    84.2720    24.2370     2.2130 
  227.0000   -17.6100    58.2280    94.1490    89.2160    78.9930    24.2580     2.2150 
  227.1250   -17.6270    59.4850    91.3570    86.8780    78.7960    24.2470     2.2150 
  227.2500   -17.5550    61.4720    88.6990    84.7090    79.8570    24.3090     2.2120 
  227.3750   -17.4440    62.8620    87.1280    82.9260    77.8400    24.3100     2.2050 
  227.5000   -17.3190    63.3150    86.0230    81.4590    74.6690    24.2890     2.1960 
  227.6250   -17.2120    63.6090    85.3480    80.2100    73.5960    24.2650     2.1910 
  227.7500   -17.1600    63.6100    84.9010    79.2570    74.1950    24.2960     2.1930 
  227.8750   -17.1450    62.9140    84.8160    78.7460    74.3550    24.3190     2.2010 
  228.0000   -17.1800    61.6700    85.1390    78.8360    73.4050    24.3080     2.2120 
  228.1250   -17.2480    60.9070    85.8410    79.5290    72.4210    24.2440     2.2220 
  228.2500   -17.4130    60.7310    86.4830    80.5820    72.8220    24.1240     2.2260 
  228.3750   -17.5870    59.2900    86.7090    81.4000    76.5660    23.9880     2.2230 
  228.5000   -17.8210    57.0030    86.3120    81.4850    82.0410    23.8640     2.2190 
  228.6250   -18.0110    56.6780    84.9860    80.5910    84.8390    23.7760     2.2140 
