~V
VERS. 2.00: Ver 2.00
~W
STRT.M 55.0000:
STOP.M 273.0000:
STEP.M 0.1250:
NULL. -999.2500:
UWI. DF5004:
~C
DEPT.M :
GR.API :
CALI.CM :
RXO.OHMM :
RI. :
RML.OHMM :
DEN.GM/CC :
SP.MV :
~A
# ...
  190.0000    65.9100    23.9350    94.1620    82.4680   100.8700     2.2720   -19.8070 
  190.1250    65.7120    23.9150   101.3180    89.4200   108.7580     2.2590   -19.7880 
  190.2500    67.8410    23.9270   108.9680    99.1520   118.8670     2.2520   -19.7370 
  190.3750    70.0440    23.9300   115.7240   112.0190   131.1020     2.2490   -19.6710 
  190.5000    70.8830    23.9310   124.9740   127.1080   144.1860     2.2420   -19.6180 
  190.6250    69.3690    23.9260   158.6490   139.2890   151.7400     2.2280   -19.5140 
  190.7500    66.0670    23.9140   217.5390   142.2940   147.6460     2.2220   -19.3770 
  190.8750    62.1310    23.9000   267.7770   134.0720   132.5930     2.2340   -19.2260 
  191.0000    59.5360    23.9320   246.8750   118.8410   113.9610     2.2620   -19.0870 
  191.1250    60.2830    23.9350   156.8980   103.8740    99.1740     2.2910   -18.9340 
  191.2500    63.6630    23.9720    81.2650    92.3530    88.5930     2.3080   -18.8310 
  191.3750    67.2800    24.1670    60.2490    82.4200    79.3470     2.3070   -18.7090 
  191.5000    68.4050    24.2240    77.3060    70.3900    67.8590     2.2930   -18.5620 
  191.6250    67.4430    24.2390    86.3160    54.5050    52.6890     2.2900   -18.3790 
  191.7500    69.4540    24.0920    63.8200    38.9440    37.6490     2.3160   -18.2050 
  191.8750    75.4400    23.7520    31.0510    27.0600    25.8180     2.3660   -18.0960 
  192.0000    82.3560    23.4220    13.2750    19.6530    18.1920     2.4220   -18.0380 
  192.1250    89.6460    23.3320     9.1410    16.4670    14.9360     2.4590   -18.0530 
  192.2500    97.6470    23.3050     8.6880    16.2470    14.9510     2.4650   -18.1020 
  192.3750   100.2540    23.3360    11.2280    19.5740    18.5540     2.4340   -18.1920 
  192.5000    92.9070    23.4330    18.5750    28.5740    27.0740     2.3750   -18.3610 
  192.6250    80.0220    23.4000    45.9340    49.5950    45.3770     2.3140   -18.6660 
  192.7500    69.6570    23.4540    87.0690    85.9690    77.8740     2.2720   -19.0380 
  192.8750    62.6130    23.4770   115.7830   136.3140   128.7560     2.2450   -19.4240 
  193.0000    58.2490    23.5570   123.3790   187.5890   190.9310     2.2220   -19.7880 
  193.1250    57.9580    23.6090   136.6290   218.3470   235.0930     2.2040   -20.1570 
  193.2500    59.9770    23.8780   162.4330   229.1230   252.5130     2.1970   -20.4840 
  193.3750    62.1290    24.3860   188.3530   228.8460   256.6520     2.2030   -20.8010 
  193.5000    63.2460    24.8980   201.8770   224.8530   258.8110     2.2140   -21.0390 
  193.6250    62.3380    25.1440   213.5910   220.5970   263.0200     2.2210   -21.2140 
  193.7500    61.5580    24.9440   230.6940   217.3930   269.3290     2.2220   -21.3100 
  193.8750    61.7830    24.8250   248.3000   215.2920   276.5920     2.2130   -21.3790 
  194.0000    62.5460    24.8270   254.6520   213.3570   282.2970     2.1990   -21.4050 
  194.1250    62.6040    24.8500   246.3490   209.7720   282.2110     2.1920   -21.4280 
  194.2500    63.1680    24.8710   233.6300   203.8950   275.6370     2.1950   -21.4660 
  194.3750    64.6750    24.8970   220.8790   196.2120   264.2780     2.2040   -21.4950 
  194.5000    64.8070    24.8990   206.8030   188.1630   251.5840     2.2170   -21.5270 
  194.6250    62.8870    24.8420   193.5600   181.8950   241.3700     2.2310   -21.5410 
  194.7500    62.4070    24.7660   185.2810   178.4150   234.9310     2.2390   -21.5910 
  194.8750    64.8360    24.7700   183.7520   177.9950   232.3650     2.2350   -21.6550 
  195.0000    67.5180    24.7970   187.4130   180.2340   233.0210     2.2250   -21.7590 
  195.1250    66.6950    24.7900   191.8420   184.1880   235.6340     2.2230   -21.8650 
  195.2500    64.3570    24.8050   196.9160   187.6360   237.3670     2.2300   -21.9540 
  195.3750    62.3010    24.8530   199.9090   188.2070   234.9760     2.2380   -21.9870 
  195.5000    60.7280    24.8910   199.1750   183.5370   225.1630     2.2400   -21.9840 
  195.6250    59.7090    24.9240   192.9280   171.5230   205.7240     2.2360   -21.9740 
  195.7500    59.8300    25.0150   173.9480   154.9380   181.6720     2.2320   -21.9870 
  195.8750    62.6380    25.1430   142.3480   136.9740   157.7820     2.2350   -21.9690 
  196.0000    67.1480    24.9980   110.0880   120.6470   137.4090     2.2450   -21.9300 
  196.1250    69.0240    24.7740    91.7790   108.3520   122.5780     2.2560   -21.8180 
  196.2500    68.2540    24.7060    85.7350    99.6370   112.0030     2.2580   -21.7250 
  196.3750    67.3890    24.5490    84.9920    93.6530   104.5000     2.2500   -21.7010 
  196.5000    67.1860    24.0980    83.0920    89.3420    98.8430     2.2450   -21.7160 
  196.6250    66.4880    23.7100    78.6770    86.1160    94.4810     2.2480   -21.7850 
  196.7500    66.7490    23.1900    73.3710    83.7610    91.2720     2.2540   -21.8140 
  196.8750    69.7610    22.7540    68.3650    82.5280    89.5490     2.2600   -21.8650 
  197.0000    72.9110    22.4960    63.4870    82.6130    89.5470     2.2640   -21.9420 
  197.1250    73.4150    22.4860    60.3100    84.0530    91.3350     2.2620   -22.1460 
  197.2500    71.5240    22.5890    59.1870    85.9020    93.7310     2.2520   -22.3560 
  197.3750    67.4310    22.5490    57.9850    87.1410    95.4120     2.2440   -22.5810 
  197.5000    62.5310    22.4480    55.1560    86.9400    95.3040     2.2480   -22.8020 
  197.6250    61.2690    22.3530    52.0100    85.0220    93.1580     2.2680   -23.0060 
  197.7500    64.3330    22.3930    49.7640    82.7200    90.7320     2.2870   -23.1950 
  197.8750    68.8340    22.5270    49.1050    81.7220    90.0030     2.2930   -23.3890 
  198.0000    71.2770    22.6270    51.6520    83.9770    92.9840     2.2850   -23.5830 
  198.1250    70.3480    22.9500    61.6600    92.7290   102.8390     2.2760   -23.7380 
  198.2500    67.3240    23.3850    84.0490   109.4600   121.0160     2.2720   -23.8630 
  198.3750    63.3090    23.9860   127.7810   135.9640   150.1430     2.2650   -23.9150 
  198.5000    61.0610    24.7500   192.5440   172.2920   192.4420     2.2510   -23.9180 
  198.6250    61.4360    25.0690   257.7770   213.7190   246.5090     2.2340   -23.8590 
  198.7500    62.7520    24.9280   303.7890   247.6770   295.5210     2.2270   -23.8140 
  198.8750    63.8610    24.7540   332.1680   264.2060   321.5990     2.2290   -23.7560 
  199.0000    64.0050    24.6940   337.8860   262.2820   320.9890     2.2320   -23.6620 
  199.1250    62.3460    24.6950   300.0160   250.3520   306.9760     2.2330   -23.5370 
  199.2500    59.8730    24.7290   249.4540   241.1570   297.0100     2.2340   -23.4420 
  199.3750    58.0760    24.7850   239.7180   240.3540   297.4840     2.2320   -23.4070 
  199.5000    57.5410    24.8620   280.8300   249.4870   310.0360     2.2230   -23.4670 
  199.6250    55.7400    24.7570   319.3740   268.0840   334.7000     2.2150   -23.6330 
  199.7500    53.8040    24.7200   329.3520   290.5810   364.8850     2.2150   -23.8750 
  199.8750    54.6460    24.7190   329.8280   312.2080   393.9050     2.2220   -24.1410 
  200.0000    58.5260    24.7220   337.9920   329.1350   415.6320     2.2280   -24.3880 
  200.1250    60.9780    24.7240   348.0840   339.8180   427.3620     2.2330   -24.5600 
  200.2500    59.7500    24.7030   360.7810   347.5300   434.4810     2.2430   -24.6840 
  200.3750    57.2500    24.6470   379.3350   354.1780   440.1600     2.2520   -24.7800 
  200.5000    55.0710    24.5520   397.7080   360.4690   445.5200     2.2510   -24.8030 
  200.6250    54.7740    24.5090   408.4460   367.1330   451.4180     2.2370   -24.7110 
  200.7500    56.9660    24.5020   408.0700   374.9620   458.4510     2.2260   -24.5070 
  200.8750    60.3200    24.5230   405.2850   384.0610   466.1370     2.2250   -24.2800 
  201.0000    61.4430    24.5740   409.7630   392.6370   471.2810     2.2340   -24.0650 
  201.1250    58.9780    24.6350   427.5060   391.7520   459.0160     2.2420   -23.9900 
