~V
VERS. 2.00: Ver 2.00
~W
STRT.M 60.0000:
STOP.M 261.0000:
STEP.M 0.1250:
NULL. -999.2500:
UWI. DF5055:
~C
DEPT.M :
SP.MV :
GR.API :
RML.OHMM :
RI. :
RXO.OHMM :
CALI.CM :
DEN.GM/CC :
~A
# ...
  127.5000   -16.1110    71.1630    12.8370    11.7260    15.9160    24.3220     2.4100 
  127.6250   -15.4790    73.1790    11.2700    10.5240    12.5420    24.1970     2.3770 
  127.7500   -14.9420    74.0580    10.4400     9.7450    10.4050    24.2180     2.3690 
  127.8750   -14.5740    73.5030    10.3900     9.4850     9.9610    24.2950     2.3870 
  128.0000   -14.2860    71.7820    10.8360     9.6380    10.6700    24.3310     2.4150 
  128.1250   -14.0370    68.6890    11.2640     9.9270    11.6650    24.3200     2.4330 
  128.2500   -13.8020    64.9410    11.3050    10.0380    12.9130    24.3780     2.4330 
  128.3750   -13.5350    62.9960    10.9230     9.8660    14.1760    24.6370     2.4170 
  128.5000   -13.2890    64.8420    10.2770     9.4600    14.0610    25.0940     2.3960 
  128.6250   -13.2580    69.1640     9.5980     8.9410    12.0340    25.4870     2.3790 
  128.7500   -13.4300    73.5050     9.0310     8.4440    11.7100    25.4570     2.3660 
  128.8750   -13.7330    76.3690     8.5690     8.0070    11.7130    25.1130     2.3490 
  129.0000   -14.1950    76.2570     8.1700     7.6320    10.1630    24.8530     2.3260 
  129.1250   -14.8420    73.4200     7.8450     7.3460     8.1690    24.7760     2.2960 
  129.2500   -15.5770    73.3180     7.6140     7.1560     7.6120    24.7140     2.2690 
  129.3750   -16.3860    75.9400     7.5070     7.0790     7.4750    24.5910     2.2490 
  129.5000   -17.2200    76.2590     7.5600     7.1340     7.4470    24.4860     2.2370 
  129.6250   -17.9150    73.6220     7.7940     7.3410     7.4230    24.4240     2.2310 
  129.7500   -18.4270    72.2500     8.0970     7.6220     7.5120    24.3470     2.2290 
  129.8750   -18.8080    73.3770     8.3610     7.8870     7.7570    24.2690     2.2280 
  130.0000   -18.9960    75.1720     8.4930     8.0530     8.0020    24.2580     2.2260 
  130.1250   -18.8710    76.1610     8.4020     8.0230     7.9170    24.3100     2.2220 
  130.2500   -18.5390    76.0800     8.1300     7.8160     7.5470    24.3860     2.2180 
  130.3750   -18.0500    76.1070     7.7560     7.4860     7.0990    24.4760     2.2170 
  130.5000   -17.4440    77.1000     7.3920     7.1200     6.8350    24.6720     2.2210 
  130.6250   -16.7480    78.7470     7.1680     6.8210     6.5130    25.0920     2.2260 
  130.7500   -16.0720    81.2290     7.1170     6.6330     6.3860    25.4770     2.2280 
  130.8750   -15.5330    83.0350     7.1980     6.5500     6.4390    25.5260     2.2210 
  131.0000   -15.1420    82.8410     7.2970     6.5140     6.8150    25.2850     2.2060 
  131.1250   -14.9260    79.4730     7.2430     6.4370     7.4960    24.7820     2.1860 
  131.2500   -14.8790    75.9910     7.0300     6.3040     7.9880    24.1970     2.1720 
  131.3750   -14.9260    74.8460     6.8110     6.1970     8.1360    23.8830     2.1690 
  131.5000   -14.9950    77.2050     6.8780     6.2730     7.8270    23.9090     2.1860 
  131.6250   -15.0980    80.7980     7.7190     6.8150     7.3870    24.1560     2.2370 
  131.7500   -15.1350    80.3160     9.4390     7.9360     8.5240    24.3580     2.3200 
  131.8750   -14.9770    75.4010    11.8960     9.6600    11.6560    24.6340     2.4230 
  132.0000   -14.6860    71.4120    14.5120    11.7330    16.4820    24.9390     2.5200 
  132.1250   -14.3510    71.3670    16.0070    13.2730    20.4890    25.0620     2.5670 
  132.2500   -14.0820    71.3870    15.6940    13.4850    19.5540    25.0600     2.5530 
  132.3750   -13.9510    69.2570    13.8290    12.3560    15.2970    24.9490     2.4860 
  132.5000   -13.9140    67.4540    11.3740    10.5610    10.0640    24.7620     2.4000 
  132.6250   -13.7930    72.2370     9.2840     8.8420     8.7890    24.5710     2.3340 
  132.7500   -13.6080    80.0760     7.7680     7.4670     7.9410    24.5070     2.2990 
  132.8750   -13.4300    86.3080     6.7340     6.4470     7.0780    24.5470     2.2850 
  133.0000   -13.2330    90.8600     6.0530     5.7460     6.3520    24.7170     2.2770 
  133.1250   -12.9960    97.0990     5.7220     5.3910     5.5640    24.9710     2.2670 
  133.2500   -12.7210   103.2620     5.7630     5.3580     5.3330    25.0770     2.2580 
  133.3750   -12.4770   102.1230     6.3010     5.7020     5.7720    24.7420     2.2550 
  133.5000   -12.3630    91.8730     7.4400     6.4920     6.6130    24.2970     2.2560 
  133.6250   -12.4470    79.9640     9.2220     7.8280     8.3910    23.9510     2.2510 
  133.7500   -12.5910    73.4740    11.2030     9.4640    10.7060    23.8270     2.2360 
  133.8750   -12.7710    72.5800    12.7760    10.9580    13.4820    23.9780     2.2180 
  134.0000   -13.0290    73.5100    13.2880    11.6990    14.7610    24.3770     2.2050 
  134.1250   -13.2820    74.9470    12.3000    11.1660    14.2070    24.6760     2.2040 
  134.2500   -13.4120    76.8820    10.5540     9.9130    11.9040    24.7660     2.2130 
  134.3750   -13.4210    80.4410     8.7710     8.5280     8.5550    24.6820     2.2250 
  134.5000   -13.3310    85.1660     7.4430     7.4100     6.6320    24.4440     2.2350 
  134.6250   -13.1220    86.5740     6.7850     6.7540     6.4700    24.0260     2.2420 
  134.7500   -12.8960    83.5340     6.5570     6.4380     6.5370    23.7790     2.2520 
  134.8750   -12.6380    80.8900     6.5550     6.3470     6.7550    23.8020     2.2680 
  135.0000   -12.2080    82.9620     6.5820     6.3470     6.4790    24.0930     2.2880 
  135.1250   -11.6330    89.9190     6.4930     6.3180     5.7970    24.5790     2.3060 
  135.2500   -11.0820    96.4510     6.3030     6.2280     5.3870    24.9120     2.3180 
  135.3750   -10.5250    99.8350     6.0660     6.0980     5.3980    25.0390     2.3270 
  135.5000    -9.9270   100.5250     5.8210     5.9530     5.5630    25.0820     2.3360 
  135.6250    -9.3460   100.5360     5.5810     5.8040     5.6320    25.0980     2.3460 
  135.7500    -8.8070   100.1100     5.3560     5.6640     5.2850    25.1000     2.3500 
  135.8750    -8.3480    99.1870     5.1710     5.5470     5.0620    25.0860     2.3390 
  136.0000    -8.0670   100.0840     5.0580     5.4710     4.9650    25.0560     2.3090 
  136.1250    -7.9990   101.4070     5.0830     5.4730     4.9210    25.0390     2.2710 
  136.2500    -7.9650    99.9810     5.2540     5.5650     5.0000    25.0310     2.2440 
  136.3750    -7.9000    95.8880     5.5480     5.7410     5.2350    25.0250     2.2460 
  136.5000    -7.8140    91.6480     5.8930     5.9550     5.6820    25.0170     2.2760 
  136.6250    -7.8070    89.1870     6.1390     6.1070     6.0790    25.0060     2.3210 
  136.7500    -7.8250    89.4700     6.1640     6.1020     6.8620    25.0020     2.3490 
  136.8750    -7.7790    92.7540     5.9210     5.8970     7.3390    25.0030     2.3460 
  137.0000    -7.7090    98.9590     5.4940     5.5490     6.3740    25.0060     2.3130 
  137.1250    -7.6720   106.2350     5.1560     5.2520     5.5090    24.9980     2.2700 
  137.2500    -7.6180   108.5680     5.2160     5.2160     5.2860    24.9400     2.2480 
  137.3750    -7.5900   101.9940     5.9360     5.6200     5.7460    24.8430     2.2600 
  137.5000    -7.6390    89.4130     7.5380     6.6340     7.0830    24.7700     2.3080 
  137.6250    -7.6550    77.0420    10.3350     8.5830    10.4420    24.7420     2.3820 
  137.7500    -7.6180    67.1520    14.0170    11.4010    15.4810    24.7560     2.4610 
  137.8750    -7.5860    60.4620    18.0370    14.8100    20.0010    24.7960     2.5350 
  138.0000    -7.5830    56.8400    21.4710    18.0820    21.7980    24.8390     2.5940 
  138.1250    -7.5120    55.5980    23.1040    20.0330    22.9180    24.8710     2.6230 
  138.2500    -7.4040    56.1060    23.0620    20.5080    24.4570    24.8910     2.6250 
  138.3750    -7.2690    57.7700    21.9790    19.9370    23.7210    24.8860     2.6030 
  138.5000    -7.1190    58.5860    20.6430    18.9590    21.4690    24.8560     2.5710 
  138.6250    -6.9610    57.0840    19.7030    18.1220    18.3490    24.8370     2.5460 
