~V
VERS. 2.00: Ver 2.00
~W
STRT.M 55.0000:
STOP.M 268.0000:
STEP.M 0.1250:
NULL. -999.2500:
UWI. DF5007:
~C
DEPT.M :
SP.MV :
GR.API :
RML.OHMM :
RI. :
RXO.OHMM :
CALI.CM :
DEN.GM/CC :
~A
# ...
  201.2500   -31.7780    62.9650   107.5800    99.3000    86.0540    24.3330     2.1920 
  201.3750   -31.8540    64.1860   109.6300   100.5170    86.6470    24.3410     2.1960 
  201.5000   -31.7810    63.7660   110.9340   101.2020    89.2460    24.3600     2.2000 
  201.6250   -31.8020    61.1030   110.7380   100.7240    92.1560    24.3420     2.2040 
  201.7500   -31.6740    59.4150   109.0910    99.0800    93.3690    24.3130     2.2090 
  201.8750   -31.5140    59.4300   106.2220    96.4130    90.3900    24.2980     2.2150 
  202.0000   -31.2630    58.8910   102.6170    93.0830    82.9580    24.2720     2.2220 
  202.1250   -30.9930    57.0070    98.6240    89.4030    76.7800    24.2420     2.2300 
  202.2500   -30.6830    57.4600    94.4250    85.5810    75.7930    24.2670     2.2360 
  202.3750   -30.2450    62.0440    89.9080    81.5820    73.3870    24.3180     2.2410 
  202.5000   -29.8230    66.3640    84.6930    77.1440    68.2410    24.3200     2.2440 
  202.6250   -29.2020    65.5780    78.2550    71.7460    63.5490    24.3160     2.2430 
  202.7500   -28.6700    61.8370    70.9770    65.5590    62.4030    24.3650     2.2410 
  202.8750   -28.1280    59.8010    63.6070    59.0710    60.8610    24.4210     2.2420 
  203.0000   -27.5770    60.0230    56.9340    52.9100    53.9860    24.4040     2.2500 
  203.1250   -27.0790    60.0780    51.9020    47.9070    44.4090    24.3430     2.2660 
  203.2500   -26.5610    61.5450    48.5820    44.3140    34.4320    24.3640     2.2820 
  203.3750   -26.1310    65.6900    46.8410    42.1330    28.7130    24.4210     2.2910 
  203.5000   -25.7840    69.3630    46.3540    41.1520    29.5120    24.4380     2.2870 
  203.6250   -25.4820    67.2990    46.7120    41.0980    36.4010    24.4620     2.2730 
  203.7500   -25.1670    63.9480    47.2040    41.3210    45.2580    24.4710     2.2610 
  203.8750   -24.8760    63.6050    47.4550    41.4650    48.8780    24.4180     2.2550 
  204.0000   -24.5880    65.0840    47.3860    41.4240    45.1370    24.3220     2.2540 
  204.1250   -24.2160    65.8350    47.2380    41.3310    40.9020    24.2470     2.2530 
  204.2500   -23.8160    66.7080    47.4410    41.4760    39.8120    24.2510     2.2470 
  204.3750   -23.4210    68.7540    48.3920    42.1700    41.8490    24.2940     2.2400 
  204.5000   -22.8730    69.9530    50.2050    43.5210    43.2110    24.3880     2.2400 
  204.6250   -22.3380    68.9590    52.4100    45.1760    46.0850    24.4740     2.2650 
  204.7500   -21.6800    66.9380    53.8920    46.2400    52.3300    24.4680     2.3190 
  204.8750   -20.9360    64.8130    53.5750    45.8060    56.6780    24.3180     2.3970 
  205.0000   -20.2130    63.5660    50.5670    43.1680    59.1160    24.1680     2.4810 
  205.1250   -19.4510    62.9180    44.4360    37.9860    65.2390    24.1050     2.5490 
  205.2500   -18.7880    64.8160    36.7160    31.5580    64.8720    24.0680     2.5900 
  205.3750   -18.0420    69.2430    28.7930    25.0150    54.0060    24.0180     2.6070 
  205.5000   -17.4480    73.4750    21.6210    19.2690    38.4060    23.8910     2.6030 
  205.6250   -16.9510    77.8240    16.3220    15.0270    25.3030    23.8360     2.5800 
  205.7500   -16.6130    84.0030    12.8620    12.0760    15.8160    23.8500     2.5450 
  205.8750   -16.4430    91.2480    11.2270    10.2070    10.3330    23.8170     2.5070 
  206.0000   -16.3200    96.3080    10.4660     9.1920     8.4870    23.6900     2.4750 
  206.1250   -16.3790    96.3760    10.3890     8.8750     8.3790    23.6130     2.4560 
  206.2500   -16.4880    93.1160    10.6230     8.9210     8.6700    23.7510     2.4460 
  206.3750   -16.7110    88.9970    10.9770     9.1450     9.0050    23.9700     2.4390 
  206.5000   -17.0160    88.3190    11.3090     9.3910     9.3390    24.0750     2.4330 
  206.6250   -17.3410    90.3510    11.4910     9.5290     9.4710    24.0540     2.4280 
  206.7500   -17.6940    90.9030    11.5330     9.5360     9.4780    23.9620     2.4260 
  206.8750   -18.0690    91.6380    11.4810     9.4460     9.4100    23.8050     2.4300 
  207.0000   -18.4570    96.8890    11.3970     9.3220     9.3870    23.6770     2.4390 
  207.1250   -18.9070   102.1940    11.3570     9.2320     9.3200    23.6280     2.4490 
  207.2500   -19.4220   100.4810    11.4040     9.2130     9.1350    23.5930     2.4570 
  207.3750   -20.0510    95.1760    11.5460     9.2730     9.0840    23.5300     2.4600 
  207.5000   -20.6980    92.3700    11.7670     9.4070     9.3900    23.4480     2.4570 
  207.6250   -21.4590    90.5270    12.0910     9.6110    10.2620    23.3870     2.4470 
  207.7500   -22.3400    86.1080    12.5260     9.8730    10.8210    23.2230     2.4320 
  207.8750   -23.1980    80.9530    13.0860    10.1920    11.0710    22.9540     2.4140 
  208.0000   -24.1100    79.2990    13.7710    10.5650    11.2510    22.6270     2.3930 
  208.1250   -24.7620    78.9710    14.5630    10.9830    11.8170    22.3110     2.3720 
  208.2500   -25.2880    77.7370    15.3760    11.4160    12.7130    22.0340     2.3530 
  208.3750   -25.5540    77.1020    16.1510    11.8360    13.9500    21.8080     2.3400 
  208.5000   -25.5880    77.9520    16.8450    12.2240    15.6740    21.5740     2.3370 
  208.6250   -25.3010    78.2720    17.4160    12.5870    16.5120    21.4150     2.3490 
  208.7500   -24.6270    75.8030    17.9880    12.9970    16.5020    21.3470     2.3730 
  208.8750   -23.7240    71.6580    18.7610    13.5800    16.4630    21.1910     2.4060 
  209.0000   -22.5370    67.7260    19.9750    14.4980    17.2500    20.8580     2.4410 
  209.1250   -21.3040    66.0240    21.9190    15.9520    19.7230    20.4690     2.4680 
  209.2500   -19.9060    68.0780    24.3330    17.7960    22.2230    20.0880     2.4870 
  209.3750   -18.4770    71.7450    26.6680    19.6910    24.5330    19.7580     2.4970 
  209.5000   -17.0620    72.8560    28.1520    21.0840    26.3800    19.6450     2.5030 
  209.6250   -15.6560    72.2610    27.7200    21.1660    28.0230    19.7330     2.5070 
  209.7500   -14.4320    71.5640    25.3780    19.8260    29.7890    19.9980     2.5090 
  209.8750   -13.2910    69.5270    21.6060    17.2940    29.7270    20.3930     2.5060 
  210.0000   -12.2900    65.9840    17.3560    14.1740    23.8400    20.8550     2.5000 
  210.1250   -11.4770    65.5670    13.6790    11.2310    14.1700    21.3310     2.4960 
  210.2500   -10.8130    69.4700    10.9170     8.8740     8.1740    21.6790     2.4980 
  210.3750   -10.3420    72.6110     9.1130     7.2150     6.0600    21.8480     2.5050 
  210.5000    -9.9290    73.9670     8.1540     6.2360     5.5010    21.8810     2.5080 
  210.6250    -9.6950    77.2670     7.9480     5.9080     5.4780    21.8580     2.4990 
  210.7500    -9.5530    81.0350     8.1830     5.9770     5.6050    21.8610     2.4750 
  210.8750    -9.4890    81.6880     8.6510     6.2910     5.8720    21.8870     2.4450 
  211.0000    -9.5570    81.3420     9.1140     6.6860     6.2830    21.9000     2.4200 
  211.1250    -9.5320    86.4010     9.3490     6.9800     7.1300    21.9390     2.4110 
  211.2500    -9.6120    92.0640     9.3490     7.0940     7.9820    22.0050     2.4160 
  211.3750    -9.6370    92.5640     9.1560     7.0310     7.6810    22.0450     2.4260 
  211.5000    -9.6980    88.8870     8.8470     6.8450     6.5840    22.0300     2.4360 
  211.6250    -9.8020    86.5230     8.5290     6.6200     5.8150    22.0390     2.4380 
  211.7500    -9.8410    84.7100     8.3130     6.4490     5.7390    22.0580     2.4360 
  211.8750    -9.9270    82.0030     8.2620     6.3810     5.9580    22.0480     2.4330 
  212.0000    -9.9610    80.5940     8.3880     6.4340     6.2350    22.0400     2.4280 
  212.1250   -10.1300    83.6900     8.6950     6.6200     6.4500    22.0940     2.4220 
  212.2500   -10.2170    88.5200     9.0950     6.8920     6.6400    22.1400     2.4140 
  212.3750   -10.3730    90.6100     9.5480     7.2080     6.9490    22.1390     2.4040 
