~V
VERS. 2.00: Ver 2.00
~W
STRT.M 55.0000:
STOP.M 274.0000:
STEP.M 0.1250:
NULL. -999.2500:
UWI. DF5018:
~C
DEPT.M :
SP.MV :
GR.API :
CALI.CM :
RXO.OHMM :
RI. :
RML.OHMM :
DEN.GM/CC :
~A
# ...
  133.7500   -24.4130    64.3440    24.1630    11.3300     9.1530    11.3310     2.1580 
  133.8750   -24.2380    66.1290    24.1640    11.3800     9.3450    11.5430     2.1730 
  134.0000   -24.0620    68.3970    24.1720    11.3020     9.3940    11.5830     2.1880 
  134.1250   -23.8720    69.9890    24.1940    11.2190     9.2830    11.4150     2.2040 
  134.2500   -23.7030    69.8920    24.2170    10.9950     9.0790    11.0970     2.2160 
  134.3750   -23.4690    67.8240    24.2260    10.6550     8.8260    10.6830     2.2170 
  134.5000   -23.3120    65.0920    24.2270    10.4390     8.5560    10.2590     2.2090 
  134.6250   -23.0800    65.0160    24.2360    10.2010     8.3060     9.9370     2.2060 
  134.7500   -22.8970    67.7140    24.2560     9.7560     8.0860     9.7310     2.2110 
  134.8750   -22.7100    71.1550    24.2760     9.2140     7.8780     9.6020     2.2210 
  135.0000   -22.5440    72.2630    24.2840     9.0890     7.6420     9.4630     2.2330 
  135.1250   -22.4180    72.5450    24.2840     9.2360     7.3220     9.1580     2.2510 
  135.2500   -22.2690    75.2390    24.2840     8.8370     6.9060     8.6440     2.2740 
  135.3750   -22.2480    78.6720    24.2820     7.9130     6.4260     7.9850     2.2990 
  135.5000   -22.2200    80.0990    24.2670     7.1310     5.9650     7.3360     2.3160 
  135.6250   -22.3270    79.7440    24.2330     6.8040     5.6600     6.9110     2.3120 
  135.7500   -22.4460    80.2530    24.2000     6.8350     5.5840     6.8170     2.2870 
  135.8750   -22.6060    79.6270    24.1850     7.2860     5.7780     7.1130     2.2490 
  136.0000   -22.7940    76.6580    24.1800     8.0970     6.2430     7.7850     2.2180 
  136.1250   -22.9800    73.7980    24.1790     9.0140     6.9470     8.7570     2.2060 
  136.2500   -23.2050    72.8080    24.1780     9.8530     7.7210     9.7780     2.2040 
  136.3750   -23.3810    73.1570    24.1750    10.4930     8.4080    10.6210     2.2020 
  136.5000   -23.5740    72.0470    24.1740    10.8760     8.8750    11.1090     2.1950 
  136.6250   -23.6800    68.1680    24.1700    10.9260     9.0220    11.1460     2.1870 
  136.7500   -23.7970    65.4110    24.1670    10.8080     8.9400    10.9230     2.1830 
  136.8750   -23.8690    66.6050    24.1660    10.6350     8.7160    10.5850     2.1860 
  137.0000   -23.9530    69.6160    24.1730    10.4840     8.4440    10.2440     2.1920 
  137.1250   -23.9330    70.0680    24.1730    10.3620     8.2010     9.9750     2.1930 
  137.2500   -23.9340    70.0030    24.1670    10.1670     8.0260     9.7880     2.1870 
  137.3750   -23.9310    70.6760    24.1650     9.9650     7.9430     9.6870     2.1770 
  137.5000   -23.8610    70.1620    24.1670     9.8670     7.9590     9.6750     2.1660 
  137.6250   -23.8080    68.8600    24.1730     9.9610     8.0730     9.7640     2.1580 
  137.7500   -23.6660    69.5030    24.1730    10.0910     8.2320     9.9140     2.1520 
  137.8750   -23.5010    70.9190    24.1750    10.1400     8.3970    10.0690     2.1500 
  138.0000   -23.2330    70.5270    24.1770    10.1390     8.5260    10.1600     2.1540 
  138.1250   -23.0220    69.0180    24.1790    10.0310     8.5610    10.1170     2.1640 
  138.2500   -22.6930    68.2030    24.1790     9.7360     8.4740     9.9330     2.1760 
  138.3750   -22.2900    68.9560    24.1780     9.1960     8.2280     9.5810     2.1830 
  138.5000   -21.9090    71.9370    24.1830     8.5850     7.8100     9.0460     2.1860 
  138.6250   -21.4210    76.2900    24.2220     8.3530     7.2390     8.3300     2.1960 
  138.7500   -20.9970    80.3540    24.3330     8.0740     6.6280     7.5530     2.2200 
  138.8750   -20.5780    84.2110    24.5080     7.3990     6.0600     6.8250     2.2510 
  139.0000   -20.2800    88.2190    24.7120     6.5020     5.5900     6.2450     2.2770 
  139.1250   -20.0010    89.8550    24.8210     6.1660     5.2730     5.9040     2.2900 
  139.2500   -19.8440    88.8920    24.8540     6.1310     5.1020     5.7720     2.2970 
  139.3750   -19.8110    87.3590    24.8460     6.1630     5.0800     5.8320     2.3030 
  139.5000   -19.8350    86.3430    24.8010     6.2590     5.1830     6.0400     2.3050 
  139.6250   -20.0390    84.7900    24.6730     6.5120     5.3630     6.3320     2.2950 
  139.7500   -20.2650    82.5150    24.4700     6.8350     5.5430     6.6100     2.2780 
  139.8750   -20.5500    81.7100    24.2450     7.0550     5.6810     6.8100     2.2650 
  140.0000   -20.8050    81.6960    24.1190     7.0780     5.7570     6.8960     2.2590 
  140.1250   -21.1100    79.9230    24.0900     7.0360     5.7840     6.8790     2.2600 
  140.2500   -21.3660    77.7650    24.0900     7.2080     5.8380     6.8830     2.2620 
  140.3750   -21.6450    78.6330    24.0900     7.6970     5.9970     7.0420     2.2610 
  140.5000   -21.8970    81.3840    24.0890     8.4380     6.3240     7.4720     2.2580 
  140.6250   -22.0810    78.8350    24.0880     9.5050     6.9050     8.2860     2.2600 
  140.7500   -22.3030    72.9090    24.0870    10.6920     7.6790     9.3610     2.2710 
  140.8750   -22.4870    68.5430    24.0890    11.7000     8.5410    10.5060     2.2820 
  141.0000   -22.7200    66.4160    24.0900    12.2550     9.3270    11.4740     2.2750 
  141.1250   -22.8740    65.5890    24.0900    12.3970     9.8420    12.0090     2.2400 
  141.2500   -23.0710    67.8590    24.0900    12.1880    10.0820    12.1890     2.1980 
  141.3750   -23.2080    72.7100    24.0890    11.8350    10.1140    12.1640     2.1720 
  141.5000   -23.3610    74.7960    24.0870    11.4860    10.0290    12.0630     2.1710 
  141.6250   -23.5410    71.8530    24.0850    11.3440     9.8590    11.8850     2.1870 
  141.7500   -23.6410    69.8680    24.0860    11.3140     9.5910    11.5690     2.1990 
  141.8750   -23.7830    71.2810    24.0860    11.0910     9.2140    11.0870     2.2000 
  142.0000   -23.8610    74.1650    24.0840    10.3600     8.7770    10.5110     2.1960 
  142.1250   -24.0240    75.2990    24.0800     9.4520     8.4040    10.0190     2.1950 
  142.2500   -24.1360    73.4910    24.0670     9.2760     8.1970     9.7530     2.1960 
  142.3750   -24.2650    69.3050    24.0400     9.9110     8.2020     9.7660     2.1950 
  142.5000   -24.4040    65.9630    24.0220    10.7270     8.3950    10.0260     2.1890 
  142.6250   -24.4820    66.1010    24.0160    11.2480     8.7100    10.4380     2.1760 
  142.7500   -24.5960    68.0190    24.0170    11.5990     9.0340    10.8360     2.1620 
  142.8750   -24.6650    68.9570    24.0170    11.7990     9.3090    11.1310     2.1520 
  143.0000   -24.7640    68.4820    24.0170    11.9200     9.5100    11.2960     2.1540 
  143.1250   -24.7620    68.1650    24.0280    12.3160     9.6350    11.3380     2.1660 
  143.2500   -24.7820    68.2740    24.0640    12.9040     9.6990    11.2940     2.1760 
  143.3750   -24.7330    68.5940    24.1160    13.1230     9.6980    11.1760     2.1810 
  143.5000   -24.6240    68.8540    24.1470    12.6770     9.6520    11.0330     2.1830 
  143.6250   -24.4450    69.3420    24.1550    11.9900     9.6240    10.9860     2.1870 
  143.7500   -24.2520    68.8240    24.1550    11.4180     9.6620    11.1190     2.1890 
  143.8750   -23.9800    66.5090    24.1550    11.2350     9.7420    11.4010     2.1850 
  144.0000   -23.6540    66.4820    24.1550    11.3830     9.7310    11.6170     2.1740 
  144.1250   -23.3500    71.0410    24.1550    11.3630     9.3470    11.2810     2.1670 
  144.2500   -22.9740    77.5100    24.1540    10.9150     8.5230    10.2480     2.1720 
  144.3750   -22.6610    83.1320    24.1550     9.7510     7.4120     8.7490     2.1930 
  144.5000   -22.3790    87.4260    24.1700     7.9670     6.3170     7.2620     2.2270 
  144.6250   -22.2720    88.5180    24.2170     6.4950     5.5820     6.3150     2.2520 
  144.7500   -22.2630    83.4960    24.2680     6.0810     5.2940     6.0320     2.2410 
  144.8750   -22.4410    73.3020    24.2890     6.9160     5.4750     6.4250     2.2000 
