~V
VERS. 2.00: Ver 2.00
~W
STRT.M 60.0000:
STOP.M 248.0000:
STEP.M 0.1250:
NULL. -999.2500:
UWI. DF5054:
~C
DEPT.M :
SP.MV :
GR.API :
CALI.CM :
RXO.OHMM :
RI. :
RML.OHMM :
DEN.GM/CC :
~A
# ...
   71.2500   -23.0850   101.7470    23.1420     5.7140     5.1920     5.7280     2.2110 
   71.3750   -23.3460    97.0320    23.1730     5.9610     5.2900     5.8450     2.2000 
   71.5000   -23.6280    94.5150    23.2100     6.1440     5.4030     5.9730     2.1830 
   71.6250   -23.8600    92.4730    23.3020     6.3510     5.5120     6.0930     2.1610 
   71.7500   -23.9800    89.1270    23.4610     6.6280     5.5980     6.1850     2.1450 
   71.8750   -23.9460    85.6600    23.6140     6.9160     5.6420     6.2280     2.1440 
   72.0000   -23.7480    84.6900    23.6780     7.1480     5.6330     6.2090     2.1550 
   72.1250   -23.3750    87.8870    23.6700     7.2300     5.5570     6.1290     2.1650 
   72.2500   -22.8740    92.3750    23.6530     7.1460     5.4340     6.0000     2.1700 
   72.3750   -22.2730    95.6550    23.6880     6.8900     5.2760     5.8330     2.1720 
   72.5000   -21.6170    98.0660    23.7540     6.4800     5.1030     5.6470     2.1750 
   72.6250   -20.9720   102.8020    23.8170     6.0470     4.9460     5.4820     2.1830 
   72.7500   -20.4000   109.0550    23.8820     5.5910     4.8300     5.3700     2.2040 
   72.8750   -19.9370   113.4390    23.9840     5.1620     4.7660     5.3300     2.2350 
   73.0000   -19.6080   114.5740    24.0690     4.8840     4.7540     5.3620     2.2650 
   73.1250   -19.4510   114.5780    24.1030     4.8760     4.7860     5.4510     2.2830 
   73.2500   -19.4320   114.9320    24.0860     5.0940     4.8390     5.5540     2.2890 
   73.3750   -19.5040   113.6770    24.0260     5.4980     4.9110     5.6630     2.2800 
   73.5000   -19.5960   109.3690    23.9220     5.9800     5.0360     5.8150     2.2600 
   73.6250   -19.6190   102.9190    23.8090     6.4690     5.3080     6.1320     2.2440 
   73.7500   -19.5350    95.6770    23.7370     6.8150     5.7790     6.6950     2.2380 
   73.8750   -19.3190    88.0970    23.7250     7.1560     6.4840     7.5380     2.2320 
   74.0000   -18.9530    81.4420    23.8360     7.7690     7.4040     8.6040     2.2240 
   74.1250   -18.4170    78.8690    23.9970    10.1590     8.4160     9.6970     2.2390 
   74.2500   -17.7700    81.2400    24.0840    15.6910     9.2480    10.5170     2.2930 
   74.3750   -17.0580    88.9820    24.1030    23.2190     9.6450    10.8080     2.3710 
   74.5000   -16.3250   100.4950    24.1010    27.2420     9.4480    10.4300     2.4360 
   74.6250   -15.6270   110.7300    24.1010    22.5470     8.6380     9.3820     2.4510 
   74.7500   -15.0040   116.3460    24.1030    14.7360     7.5800     8.0860     2.4260 
   74.8750   -14.4880   118.4880    24.1290     8.9260     6.5440     6.8600     2.3890 
   75.0000   -14.1010   119.0850    24.2070     6.0540     5.7030     5.9170     2.3580 
   75.1250   -13.8650   117.9710    24.3330     5.1130     5.1590     5.3770     2.3450 
   75.2500   -13.7480   116.3700    24.4030     4.7810     4.8360     5.1080     2.3460 
   75.3750   -13.7480   116.5250    24.4290     4.6970     4.6670     4.9970     2.3580 
   75.5000   -13.8660   118.6350    24.4230     4.6880     4.5840     4.9470     2.3710 
   75.6250   -14.1020   121.1360    24.4110     4.7040     4.5590     4.9190     2.3760 
   75.7500   -14.4130   122.6110    24.3960     4.7350     4.5940     4.9370     2.3760 
   75.8750   -14.7860   123.1230    24.3830     4.7650     4.7260     5.0520     2.3730 
   76.0000   -15.2220   123.8590    24.3500     4.8070     5.0060     5.3290     2.3670 
   76.1250   -15.7480   125.2160    24.3450     5.0050     5.4990     5.8480     2.3650 
   76.2500   -16.3570   122.9730    24.3490     5.8090     6.1650     6.5510     2.3780 
   76.3750   -17.0440   113.6640    24.2520     7.7750     6.9450     7.3570     2.4080 
   76.5000   -17.7950   100.0630    24.0270    10.6260     7.7390     8.1570     2.4360 
   76.6250   -18.6060    89.0660    23.7990    12.1060     8.3860     8.7890     2.4250 
   76.7500   -19.4470    81.8000    23.7010    11.3540     8.7940     9.1700     2.3640 
   76.8750   -20.2860    76.4490    23.5760     9.7880     8.9360     9.2830     2.2710 
   77.0000   -21.0860    72.7990    23.3440     9.0950     8.8540     9.1870     2.1830 
   77.1250   -21.7920    71.6710    23.2010     9.4100     8.6290     8.9740     2.1360 
   77.2500   -22.3840    71.9020    23.2600     9.8230     8.3910     8.7800     2.1210 
   77.3750   -22.8360    72.1860    23.5220     9.9050     8.2030     8.6630     2.1190 
   77.5000   -23.1430    71.8650    23.8920     9.6060     8.0760     8.6180     2.1200 
   77.6250   -23.3060    71.6770    24.0950     9.2390     7.9970     8.6080     2.1290 
   77.7500   -23.3880    72.2380    24.0920     9.1760     7.9420     8.6030     2.1480 
   77.8750   -23.4220    73.2000    23.8750     9.3260     7.9090     8.6000     2.1640 
   78.0000   -23.4320    73.9520    23.6090     9.3520     7.9000     8.6070     2.1580 
   78.1250   -23.4490    74.3690    23.5090     9.0800     7.9290     8.6430     2.1240 
   78.2500   -23.4970    74.6270    23.5550     8.7480     7.9970     8.7160     2.0930 
   78.3750   -23.5900    74.7980    23.5390     8.7950     8.1060     8.8210     2.0910 
   78.5000   -23.7330    74.9280    23.3460     9.9820     8.2450     8.9460     2.1180 
   78.6250   -23.9200    74.3880    23.2420    12.4580     8.3860     9.0670     2.1530 
   78.7500   -24.1240    73.0220    23.3130    14.4290     8.4960     9.1520     2.1830 
   78.8750   -24.3260    71.3910    23.4890    14.0030     8.5490     9.1800     2.2050 
   79.0000   -24.5080    70.0480    23.5420    11.8030     8.5330     9.1470     2.2190 
   79.1250   -24.6390    69.3300    23.5030    10.6150     8.4500     9.0640     2.2200 
   79.2500   -24.7070    69.6040    23.4290    10.2220     8.3330     8.9660     2.2120 
   79.3750   -24.7080    70.9530    23.3260    10.0090     8.2060     8.8730     2.1990 
   79.5000   -24.6550    72.0280    23.2250     9.7130     8.0940     8.7950     2.1820 
   79.6250   -24.5510    70.4590    23.1380     9.4860     8.0130     8.7360     2.1650 
   79.7500   -24.4070    66.8050    22.9910     9.2160     7.9580     8.6920     2.1520 
   79.8750   -24.2320    63.0200    22.7570     8.7910     7.9240     8.6640     2.1450 
   80.0000   -24.0430    61.0890    22.4330     8.2410     7.9060     8.6490     2.1470 
   80.1250   -23.8530    63.5010    22.1620     7.7630     7.8920     8.6380     2.1580 
   80.2500   -23.6560    70.7490    21.9220     7.6000     7.8710     8.6220     2.1670 
   80.3750   -23.4540    79.9120    21.8050     7.7950     7.8390     8.6050     2.1660 
   80.5000   -23.2630    85.2780    21.8390     8.1770     7.7950     8.5880     2.1590 
   80.6250   -23.0950    82.2400    22.0100     8.4990     7.7360     8.5560     2.1610 
   80.7500   -22.9480    75.3530    22.2370     8.6380     7.6630     8.4970     2.1740 
   80.8750   -22.8160    69.7440    22.5440     8.5880     7.5710     8.4000     2.1890 
   81.0000   -22.6900    67.9070    22.9060     8.5000     7.4560     8.2600     2.1950 
   81.1250   -22.5570    68.9490    23.1120     8.5670     7.3100     8.0760     2.1940 
   81.2500   -22.4230    70.6560    23.2310     8.6220     7.1400     7.8670     2.1910 
   81.3750   -22.2970    72.9130    23.3190     8.3890     6.9570     7.6480     2.1940 
   81.5000   -22.1820    76.0740    23.3510     7.8680     6.7860     7.4500     2.2070 
   81.6250   -22.0830    79.5330    23.3570     7.3240     6.6710     7.3300     2.2320 
   81.7500   -22.0200    82.9380    23.3510     7.0530     6.6300     7.3110     2.2520 
   81.8750   -22.0120    86.4080    23.3380     7.0540     6.6800     7.3990     2.2600 
   82.0000   -22.0680    89.2010    23.3190     7.3250     6.8290     7.5900     2.2620 
   82.1250   -22.1990    89.2660    23.3420     7.8860     7.0760     7.8710     2.2610 
   82.2500   -22.3830    85.9950    23.4060     8.6350     7.3760     8.1890     2.2480 
   82.3750   -22.5950    80.4080    23.4680     9.2480     7.6880     8.5070     2.2200 
