~V
VERS. 2.00: Ver 2.00
~W
STRT.M 59.0000:
STOP.M 260.0000:
STEP.M 0.1250:
NULL. -999.2500:
UWI. DF5044:
~C
DEPT.M :
GR.API :
CALI.CM :
RXO.OHMM :
RI. :
RML.OHMM :
DEN.GM/CC :
SP.MV :
~A
# ...
  160.2500    80.8190    24.1880    76.1270    70.7120    72.1390     2.2390   -34.0430 
  160.3750    81.7640    24.1870    79.2920    70.5150    71.8060     2.2340   -34.0390 
  160.5000    83.9720    24.1820    79.5130    70.5200    71.7670     2.2450   -34.0260 
  160.6250    87.9510    24.1710    75.5690    71.0690    72.3780     2.2730   -34.0140 
  160.7500    90.8520    24.1650    70.2950    72.2220    73.6870     2.2990   -34.0170 
  160.8750    89.6710    24.1520    69.2630    73.9220    75.6710     2.3040   -34.0160 
  161.0000    84.9820    24.1290    76.9910    76.0980    78.2750     2.2790   -34.0090 
  161.1250    81.0630    24.0970    89.9400    78.8550    81.6070     2.2400   -34.0030 
  161.2500    79.5400    24.1010    96.0520    82.2750    85.7040     2.2170   -34.0030 
  161.3750    78.9100    24.1830    92.6150    86.7360    90.9030     2.2200   -33.9940 
  161.5000    77.8990    24.2940    85.9530    92.7330    97.6470     2.2390   -33.9910 
  161.6250    77.0710    24.3520    87.0690   100.9270   106.6160     2.2540   -34.0000 
  161.7500    76.9280    24.4000   100.4070   110.9080   117.4840     2.2580   -34.0200 
  161.8750    77.7790    24.4560   127.4170   122.0010   129.6740     2.2480   -34.0410 
  162.0000    79.3330    24.5320   164.3840   132.8920   141.8030     2.2280   -34.0670 
  162.1250    79.9400    24.5770   194.6930   141.0840   150.8530     2.2070   -34.1140 
  162.2500    78.6550    24.5630   205.4880   144.9390   154.6250     2.1970   -34.1510 
  162.3750    76.2650    24.4970   198.3150   143.5310   151.9980     2.1960   -34.2000 
  162.5000    74.4390    24.4250   182.9910   136.9150   143.3690     2.1930   -34.2520 
  162.6250    74.4850    24.3770   164.4570   125.7970   130.1100     2.1850   -34.3000 
  162.7500    75.8570    24.3470   145.3910   112.8240   115.4250     2.1850   -34.3330 
  162.8750    77.5010    24.2930   126.5410    99.7860   101.2760     2.1970   -34.3840 
  163.0000    77.9490    24.2130   108.6430    88.2040    89.1530     2.2120   -34.4380 
  163.1250    77.1040    24.1640    91.4360    79.8420    80.7300     2.2220   -34.4980 
  163.2500    76.6050    24.1470    75.6580    75.1860    76.1990     2.2280   -34.6030 
  163.3750    77.6220    24.1430    63.1060    74.8350    75.9780     2.2330   -34.6940 
  163.5000    80.0970    24.1430    56.9110    79.1590    80.2880     2.2370   -34.8030 
  163.6250    82.2770    24.1400    61.3830    88.6760    89.6590     2.2380   -34.9490 
  163.7500    81.8400    24.1270    78.2470   101.3280   102.2490     2.2310   -35.0690 
  163.8750    78.4520    24.1050   107.3250   114.9570   115.9970     2.2120   -35.1980 
  164.0000    74.3410    24.0920   143.5930   126.6230   127.8350     2.1890   -35.3300 
  164.1250    71.7520    24.0950   174.0480   132.1080   133.1160     2.1820   -35.4460 
  164.2500    69.8120    24.0820   194.7890   130.5800   130.8720     2.1960   -35.5590 
  164.3750    68.8980    24.0640   195.1100   122.9280   122.2980     2.2210   -35.6590 
  164.5000    70.7420    24.0060   166.3650   111.7190   110.5200     2.2420   -35.7700 
  164.6250    74.5300    23.9490   126.5350   100.3690    99.3180     2.2450   -35.8690 
  164.7500    76.4280    23.9300    97.7400    91.2420    90.7480     2.2360   -35.9380 
  164.8750    76.4040    23.9800    82.5420    84.8390    85.0210     2.2290   -36.0470 
  165.0000    77.0640    24.0390    73.4250    80.7340    81.5470     2.2330   -36.1300 
  165.1250    78.8160    24.0410    68.2840    78.5590    79.8840     2.2470   -36.2240 
  165.2500    79.1690    24.0340    67.3550    77.6060    79.3580     2.2570   -36.3380 
  165.3750    77.6080    24.0140    73.4010    77.7120    79.8180     2.2620   -36.4400 
  165.5000    75.6530    24.0000    83.5820    78.9840    81.3590     2.2670   -36.5470 
  165.6250    75.4350    23.9930    87.4380    82.2420    84.7890     2.2800   -36.6640 
  165.7500    76.7430    23.9390    82.1380    87.6790    90.3730     2.2940   -36.7840 
  165.8750    78.0260    23.8920    79.5720    95.3670    98.2130     2.3020   -36.8920 
  166.0000    77.4420    23.8780    91.1120   104.7110   107.8030     2.3010   -36.9820 
  166.1250    74.2590    23.9130   111.6170   113.8280   117.4180     2.2930   -37.0630 
  166.2500    70.5970    23.9550   131.8470   120.2270   124.3600     2.2720   -37.1260 
  166.3750    67.9980    23.9790   147.6190   122.1250   126.5050     2.2430   -37.1510 
  166.5000    67.1280    24.0000   155.2200   118.9490   123.0440     2.2220   -37.2080 
  166.6250    68.3210    24.0560   149.4780   111.0020   114.3740     2.2210   -37.2190 
  166.7500    71.5490    24.0500   133.2370   101.1410   103.8180     2.2260   -37.2020 
  166.8750    76.2470    23.9730   111.9240    91.4960    93.8320     2.2220   -37.2020 
  167.0000    79.9720    23.9010    90.7060    83.5400    85.9470     2.2150   -37.1670 
  167.1250    80.0150    23.8590    74.4940    78.2830    80.9970     2.2180   -37.1120 
  167.2500    77.8250    23.8460    71.7730    75.2120    78.2590     2.2290   -37.0420 
  167.3750    75.7490    23.8390    79.3440    73.8940    77.3270     2.2420   -36.9680 
  167.5000    74.9280    23.8560    84.7430    74.0150    77.9240     2.2520   -36.8540 
  167.6250    74.7710    23.9230    77.5770    75.8250    80.3600     2.2560   -36.7670 
  167.7500    74.6860    24.0230    66.9760    79.2570    84.5690     2.2560   -36.6830 
  167.8750    74.6420    24.0730    64.3460    84.3750    90.6490     2.2560   -36.5560 
  168.0000    74.0130    24.0830    75.8220    91.1110    98.5860     2.2610   -36.5010 
  168.1250    71.2020    24.0890    98.5090    99.4320   108.5500     2.2670   -36.4150 
  168.2500    66.9680    24.0880   122.7390   108.6640   119.8560     2.2640   -36.3090 
  168.3750    63.4450    24.0960   142.8670   118.3100   131.8470     2.2450   -36.2900 
  168.5000    61.6200    24.1070   154.6490   127.8290   143.7210     2.2150   -36.2170 
  168.6250    61.6260    24.1530   157.4810   136.7370   154.6460     2.1910   -36.0500 
  168.7500    63.2160    24.2500   159.4080   144.9260   164.4120     2.1850   -35.9930 
  168.8750    65.5970    24.3140   165.6020   151.8890   172.5290     2.1930   -35.8760 
  169.0000    66.7260    24.3150   172.3320   156.3590   177.6000     2.2050   -35.6720 
  169.1250    65.8230    24.2420   179.5840   155.7750   176.4540     2.2100   -35.5820 
  169.2500    65.3240    24.2440   184.9190   149.6230   168.4250     2.2080   -35.3940 
  169.3750    66.6870    24.3120   188.3490   138.0970   153.9790     2.2050   -35.1620 
  169.5000    69.6580    24.3790   186.8830   122.8080   135.4350     2.2040   -35.0580 
  169.6250    72.8100    24.4190   172.6260   106.5660   116.5880     2.2070   -34.9040 
  169.7500    74.9690    24.4260   144.5330    92.2720   100.6850     2.2130   -34.7210 
  169.8750    76.0940    24.4270   109.4190    81.4680    89.1410     2.2260   -34.6390 
  170.0000    76.9640    24.4260    80.9400    74.7840    82.2410     2.2450   -34.5300 
  170.1250    77.8320    24.4190    69.9140    72.6220    80.1690     2.2620   -34.4490 
  170.2500    77.9760    24.4110    71.3740    73.3510    81.2090     2.2690   -34.4460 
  170.3750    77.4330    24.3860    79.4840    75.8890    84.2700     2.2610   -34.4000 
  170.5000    77.1580    24.3510    88.9380    79.1430    88.1960     2.2410   -34.3620 
  170.6250    78.0980    24.2680    96.3950    81.9170    91.6490     2.2190   -34.4140 
  170.7500    79.6890    24.0900   101.3550    83.4780    93.7110     2.2060   -34.3620 
  170.8750    80.6860    23.8960   104.3510    83.6740    94.1560     2.1990   -34.2800 
  171.0000    79.8860    23.7630   104.8860    82.7820    93.3160     2.1930   -34.2980 
  171.1250    76.8400    23.7620    99.0090    81.1180    91.6180     2.1920   -34.1540 
  171.2500    73.6180    23.8760    90.7010    79.1190    89.5400     2.2050   -34.0060 
  171.3750    72.4440    24.0650    84.3580    76.9030    87.1570     2.2260   -33.9450 
