~V
VERS. 2.00: Ver 2.00
~W
STRT.M 57.0000:
STOP.M 276.0000:
STEP.M 0.1250:
NULL. -999.2500:
UWI. DF5005:
~C
DEPT.M :
GR.API :
RML.OHMM :
RI. :
RXO.OHMM :
CALI.CM :
DEN.GM/CC :
SP.MV :
~A
# ...
  180.7500    71.9740   122.0240   112.0600    81.2080    23.6860     2.2450   -20.8230 
  180.8750    62.3100   164.5830   151.1560   105.2040    23.6630     2.2270   -20.8740 
  181.0000    58.6090   220.2550   202.7550   134.8820    23.6740     2.2080   -20.8800 
  181.1250    59.1690   279.2640   257.7210   158.0630    23.6930     2.1920   -20.8720 
  181.2500    59.4260   326.5120   302.4020   166.3530    23.7010     2.1820   -20.8830 
  181.3750    59.6630   341.4120   318.7880   163.2200    23.7040     2.1810   -20.8310 
  181.5000    61.6830   326.2460   308.2190   156.8020    23.7050     2.1870   -20.6750 
  181.6250    64.2220   293.7150   280.2560   148.8140    23.7040     2.1960   -20.5280 
  181.7500    64.4130   258.2880   247.1830   139.7730    23.7000     2.2050   -20.4600 
  181.8750    64.0700   227.7680   217.1420   130.4810    23.6990     2.2120   -20.3410 
  182.0000    65.2000   201.8060   191.2720   122.9940    23.7090     2.2180   -20.2280 
  182.1250    66.4940   179.6070   169.2300   117.4940    23.7450     2.2260   -20.1830 
  182.2500    66.6430   161.0870   150.9510   111.9060    23.8210     2.2370   -20.1540 
  182.3750    68.1130   147.9180   137.8710   103.9180    23.8730     2.2490   -20.0480 
  182.5000    71.2680   140.8170   130.4820    96.5600    23.8980     2.2580   -19.9640 
  182.6250    74.0800   141.1650   130.0200    94.3280    23.9590     2.2600   -19.9030 
  182.7500    73.7770   149.8760   137.4000   100.0360    24.1190     2.2570   -19.8480 
  182.8750    70.5920   167.5210   153.4450   113.6130    24.3840     2.2480   -19.7620 
  183.0000    67.6110   189.2240   173.9270   130.4930    24.5380     2.2390   -19.6300 
  183.1250    65.5390   209.0540   193.6040   148.4080    24.6360     2.2290   -19.4760 
  183.2500    63.5410   219.9070   205.8840   163.0830    24.6820     2.2170   -19.3460 
  183.3750    61.5240   213.8310   202.8500   165.6740    24.6840     2.2060   -19.2760 
  183.5000    60.4920   194.6420   186.7960   156.1250    24.6760     2.1980   -19.2420 
  183.6250    62.1030   169.8370   163.7540   137.0040    24.7080     2.1950   -19.1990 
  183.7500    66.5180   148.1880   141.9020   111.0980    24.7780     2.1980   -19.0890 
  183.8750    71.3940   137.9060   129.7550    90.9860    24.8140     2.2040   -18.9940 
  184.0000    73.2590   139.9640   129.2090    87.3180    24.8230     2.2090   -19.0210 
  184.1250    71.6490   153.9550   140.1840   100.4500    24.8230     2.2130   -19.1170 
  184.2500    68.4960   177.0470   160.1530   124.4800    24.8230     2.2160   -19.1850 
  184.3750    64.6400   202.8630   183.4850   147.7510    24.8190     2.2230   -19.2440 
  184.5000    61.7880   221.8690   201.4490   160.3240    24.8040     2.2330   -19.3860 
  184.6250    60.6180   227.2690   207.7740   158.9750    24.7780     2.2430   -19.5270 
  184.7500    60.3310   217.5160   200.4940   146.3220    24.7600     2.2500   -19.6050 
  184.8750    59.5530   197.8390   183.0730   127.3520    24.7540     2.2500   -19.6700 
  185.0000    59.6320   179.5810   165.4430   110.0390    24.7580     2.2440   -19.7170 
  185.1250    60.7920   168.9100   153.6270    97.5580    24.7770     2.2310   -19.6910 
  185.2500    60.7780   168.6020   150.7220    92.8760    24.8190     2.2130   -19.5980 
  185.3750    59.2380   180.2670   158.5380   102.8270    24.8260     2.1920   -19.5410 
  185.5000    57.4990   199.4610   173.2960   115.1070    24.7600     2.1740   -19.4630 
  185.6250    55.1540   221.9050   191.4030   127.1050    24.6810     2.1650   -19.3480 
  185.7500    53.7030   242.6200   208.7300   139.6700    24.6600     2.1670   -19.2550 
  185.8750    56.0530   256.3610   221.0200   140.1500    24.7040     2.1790   -19.2270 
  186.0000    60.0690   263.3270   228.1340   134.3460    24.7370     2.1920   -19.1780 
  186.1250    60.8370   265.4970   231.4010   129.2320    24.7360     2.2000   -19.1290 
  186.2500    57.5780   264.8810   232.3240   130.8310    24.7060     2.2010   -19.1500 
  186.3750    56.0040   260.9670   230.5670   138.4760    24.6880     2.1980   -19.2200 
  186.5000    57.6890   252.5430   225.1050   145.0970    24.6660     2.1980   -19.2350 
  186.6250    59.5170   238.9830   215.1110   146.0980    24.6230     2.2040   -19.2730 
  186.7500    58.2460   221.8520   201.4420   139.8480    24.5870     2.2160   -19.3680 
  186.8750    55.0710   204.6100   186.6060   127.5330    24.5860     2.2300   -19.4550 
  187.0000    53.8820   189.6310   173.0500   114.8000    24.6040     2.2400   -19.4870 
  187.1250    55.3280   176.5900   160.9750   103.9370    24.6150     2.2440   -19.5140 
  187.2500    57.4740   163.7850   149.2130    99.9380    24.6170     2.2430   -19.5560 
  187.3750    58.6520   149.7300   136.4600   101.5570    24.6050     2.2410   -19.5260 
  187.5000    59.7160   135.5110   123.4250   100.6840    24.5630     2.2450   -19.4770 
  187.6250    61.1230   123.5880   112.1160    90.7790    24.4930     2.2530   -19.4640 
  187.7500    62.3090   116.6320   104.8760    76.6190    24.4370     2.2650   -19.4520 
  187.8750    63.0040   117.7210   104.5380    71.2310    24.4820     2.2740   -19.3600 
  188.0000    62.5270   125.9940   110.6100    77.2980    24.5610     2.2760   -19.3290 
  188.1250    60.2240   140.3750   122.3740    88.8640    24.5780     2.2700   -19.3300 
  188.2500    57.4100   158.9940   138.3830    95.9720    24.5170     2.2610   -19.2610 
  188.3750    57.1610   179.5340   156.8510    94.1850    24.4170     2.2500   -19.1460 
  188.5000    57.7760   199.0820   175.1600    92.0290    24.3470     2.2400   -19.1170 
  188.6250    57.2500   215.3220   191.2430    94.0910    24.2820     2.2310   -19.0920 
  188.7500    55.8830   225.5500   202.6310   104.1400    24.2540     2.2250   -19.0160 
  188.8750    55.4990   224.3590   204.4110   119.5180    24.2860     2.2230   -18.9130 
  189.0000    57.5770   210.4370   194.8740   134.9950    24.3950     2.2260   -18.8050 
  189.1250    61.7750   184.6290   173.9740   144.9460    24.5580     2.2300   -18.7010 
  189.2500    64.8850   152.0700   145.4250   144.5120    24.6910     2.2320   -18.6120 
  189.3750    64.8150   120.9990   116.2090   131.4010    24.7380     2.2310   -18.5350 
  189.5000    63.8350    96.7780    92.2660   111.1510    24.7290     2.2320   -18.4710 
  189.6250    64.1010    80.7690    75.6620    87.9630    24.6810     2.2390   -18.4110 
  189.7500    64.7730    72.3700    66.3440    67.4660    24.5910     2.2510   -18.3670 
  189.8750    64.9450    71.3590    64.2580    59.9820    24.4710     2.2650   -18.4120 
  190.0000    65.7690    74.6450    67.0870    58.6620    24.3760     2.2740   -18.4910 
  190.1250    66.4360    80.5110    73.4820    63.3010    24.3640     2.2760   -18.5470 
  190.2500    66.4470    87.0460    81.6480    73.2320    24.4000     2.2730   -18.6090 
  190.3750    64.3280    91.9960    89.0070    85.9250    24.4080     2.2680   -18.7470 
  190.5000    61.2430    96.2630    93.6100    92.8970    24.3880     2.2670   -18.8230 
  190.6250    61.2320    97.7260    94.8650    90.9200    24.3660     2.2710   -18.8250 
  190.7500    65.7070    97.4230    93.5080    81.1520    24.3500     2.2760   -18.8590 
  190.8750    70.5220    96.2130    91.0780    73.9780    24.3280     2.2780   -18.9180 
  191.0000    71.0580    94.6080    89.0600    73.3460    24.3040     2.2770   -18.8920 
  191.1250    68.6080    92.9180    87.7500    76.2980    24.2930     2.2720   -18.8380 
  191.2500    65.9740    91.3580    86.8640    78.7850    24.2900     2.2670   -18.8330 
  191.3750    64.6120    90.3520    86.0550    78.7960    24.2900     2.2670   -18.8050 
  191.5000    66.2260    90.2090    85.4760    76.2370    24.2900     2.2700   -18.7470 
  191.6250    69.7890    91.3520    85.7940    73.7820    24.2900     2.2770   -18.7250 
  191.7500    70.9470    94.2640    87.8040    74.9770    24.2900     2.2820   -18.7160 
  191.8750    66.9930    99.7080    92.3490    80.0990    24.2900     2.2810   -18.6820 
