~V
VERS. 2.00: Ver 2.00
~W
STRT.M 59.0000:
STOP.M 277.0000:
STEP.M 0.1250:
NULL. -999.2500:
UWI. DF5027:
~C
DEPT.M :
GR.API :
RML.OHMM :
RI. :
RXO.OHMM :
CALI.CM :
DEN.GM/CC :
SP.MV :
~A
# ...
  194.0000    49.9820     7.3410     6.3410     5.9910    23.3070     2.4790   -10.2330 
  194.1250    52.8300     6.9370     5.9370     5.8140    23.1980     2.4780   -10.1030 
  194.2500    55.6000     6.4670     5.4670     5.4380    23.2000     2.4640    -9.9650 
  194.3750    54.7440     5.9680     4.9680     5.1240    23.3820     2.4420    -9.8300 
  194.5000    51.9140     5.4830     4.4830     4.8780    23.5140     2.4210    -9.7570 
  194.6250    50.5760     5.0650     4.0650     4.7620    23.4650     2.4080    -9.6460 
  194.7500    49.5210     4.7360     3.7360     4.6940    23.4160     2.4020    -9.6620 
  194.8750    47.3810     4.5140     3.5140     4.5630    23.4880     2.3990    -9.7250 
  195.0000    44.7410     4.4070     3.4070     4.1120    23.5960     2.3990    -9.8360 
  195.1250    44.0810     4.4260     3.4260     3.9190    23.6360     2.4020    -9.9040 
  195.2500    46.3540     4.5250     3.5250     4.0150    23.6640     2.4040   -10.0680 
  195.3750    51.3640     4.6790     3.6790     4.1750    23.7120     2.3990   -10.2930 
  195.5000    55.7080     4.8590     3.8590     4.0840    23.7380     2.3850   -10.6120 
  195.6250    54.5950     5.0500     4.0500     4.1670    23.7790     2.3630   -10.9240 
  195.7500    52.6700     5.2560     4.2560     4.6520    23.8090     2.3440   -11.2460 
  195.8750    56.6200     5.5040     4.5020     5.0160    23.8550     2.3310   -11.6870 
  196.0000    66.1810     5.8180     4.8170     5.1770    23.8540     2.3290   -12.1500 
  196.1250    73.8740     6.2360     5.2410     5.4950    23.6780     2.3400   -12.7940 
  196.2500    77.1650     6.7420     5.7560     5.9220    23.4300     2.3570   -13.4070 
  196.3750    79.5210     7.3100     6.3210     6.5210    23.5030     2.3760   -14.1120 
  196.5000    83.5260     7.9020     6.8830     7.3690    24.0380     2.3930   -14.7740 
  196.6250    89.4680     8.4900     7.3810     8.2720    24.4600     2.4010   -15.5220 
  196.7500    93.8770     9.0690     7.8000     9.1480    24.6470     2.4020   -16.3550 
  196.8750    94.5530     9.6440     8.1620     9.3730    24.7230     2.3980   -17.1190 
  197.0000    92.4500    10.2380     8.5300     9.4350    24.8290     2.3900   -17.9170 
  197.1250    91.1850    10.9760     8.9900     9.2440    24.8760     2.3840   -18.5640 
  197.2500    89.6270    11.8900     9.5500     9.3790    24.8120     2.3830   -19.1870 
  197.3750    87.0220    12.9040    10.1630    10.4300    24.6910     2.3950   -19.6630 
  197.5000    84.6850    13.8380    10.7290    12.0660    24.6420     2.4210   -20.0900 
  197.6250    85.2850    14.3760    11.0580    14.0270    24.6530     2.4540   -20.4630 
  197.7500    86.3650    14.4210    11.0780    15.5130    24.7250     2.4740   -20.6610 
  197.8750    86.4370    14.0110    10.7990    15.5570    24.8760     2.4660   -20.7910 
  198.0000    87.1100    13.3040    10.3200    12.6440    25.0250     2.4240   -20.8230 
  198.1250    88.1780    12.6140     9.8160    10.9740    25.0160     2.3580   -20.8790 
  198.2500    86.3540    12.2120     9.4820    10.2340    24.8610     2.2980   -20.8500 
  198.3750    82.3870    12.2300     9.4200     9.8860    24.7360     2.2580   -20.8300 
  198.5000    81.5730    12.6820     9.6550     9.9640    24.7320     2.2470   -20.7370 
  198.6250    85.0240    13.5190    10.1670    10.2440    24.7230     2.2640   -20.6150 
  198.7500    85.8250    14.4680    10.7780    10.8680    24.6600     2.2960   -20.4350 
  198.8750    84.0130    15.2920    11.3300    11.5590    24.5460     2.3340   -20.2500 
  199.0000    86.0020    15.7620    11.6730    12.4160    24.4050     2.3720   -19.9930 
  199.1250    91.8720    15.6060    11.6380    13.5870    24.2920     2.4020   -19.5880 
  199.2500    93.8570    14.8900    11.2560    14.1960    24.1950     2.4210   -19.1900 
  199.3750    93.0720    13.7470    10.5870    12.5700    24.1970     2.4270   -18.6680 
  199.5000    98.3300    12.4080     9.7580    10.8110    24.2870     2.4200   -18.1550 
  199.6250   109.1610    11.1820     8.9480     9.9860    24.3750     2.4050   -17.4750 
  199.7500   112.2860    10.2700     8.3000     9.3700    24.3960     2.3840   -16.7850 
  199.8750   104.2190     9.7560     7.8900     8.6580    24.3550     2.3590   -16.1050 
  200.0000    93.3490     9.6710     7.7530     7.7720    24.3440     2.3380   -15.4210 
  200.1250    87.2390     9.9850     7.8990     7.1930    24.3620     2.3350   -14.8280 
  200.2500    83.5500    10.4490     8.1840     7.6460    24.4740     2.3530   -14.2030 
  200.3750    82.0940    10.8590     8.4820     8.6740    24.5650     2.3880   -13.6660 
  200.5000    83.0160    11.0150     8.6600     9.6140    24.5110     2.4260   -13.0900 
  200.6250    84.4210    10.7310     8.5730     9.3070    24.3920     2.4430   -12.6350 
  200.7500    83.3400    10.1210     8.2430     8.4790    24.3280     2.4270   -12.2260 
  200.8750    78.8980     9.3640     7.7430     7.6930    24.4070     2.3730   -11.8120 
  201.0000    71.3330     8.6440     7.1830     6.5260    24.4980     2.2930   -11.4660 
  201.1250    62.7360     8.1260     6.6950     5.6760    24.7020     2.2100   -11.1760 
  201.2500    56.6750     7.8360     6.3490     5.2180    24.8290     2.1510   -10.9500 
  201.3750    52.4910     7.7380     6.1580     5.2440    24.6710     2.1320   -10.7840 
  201.5000    50.3910     7.7520     6.0940     5.2860    24.2550     2.1540   -10.7460 
  201.6250    51.2520     7.7690     6.1110     5.3280    23.9620     2.2030   -10.7950 
  201.7500    52.9590     7.7300     6.1400     5.1990    23.8860     2.2470   -10.9590 
  201.8750    55.1670     7.6320     6.1560     5.2190    23.9350     2.2730   -11.1650 
  202.0000    59.0820     7.5290     6.1650     5.3110    24.0080     2.2820   -11.4540 
  202.1250    65.8050     7.5280     6.2110     5.3060    23.9590     2.2900   -11.7300 
  202.2500    73.7750     7.6790     6.3300     5.3050    23.6530     2.3100   -12.0980 
  202.3750    80.6570     7.9840     6.5380     5.3860    23.2250     2.3390   -12.4790 
  202.5000    85.1780     8.3880     6.8220     5.6720    22.9890     2.3640   -12.9190 
  202.6250    87.0830     8.7900     7.1350     6.2090    23.2120     2.3750   -13.2960 
  202.7500    88.5510     9.0540     7.3970     7.0080    23.8470     2.3710   -13.6020 
  202.8750    88.9540     9.0840     7.5430     7.7450    24.5230     2.3560   -13.8080 
  203.0000    88.0090     8.8510     7.5320     8.1990    24.8390     2.3390   -13.8770 
  203.1250    87.0720     8.3980     7.3500     8.0190    24.7980     2.3270   -13.9290 
  203.2500    85.4370     7.9030     7.0920     7.2560    24.6550     2.3240   -13.8620 
  203.3750    82.9860     7.4940     6.8370     6.3190    24.5810     2.3300   -13.8310 
  203.5000    81.2990     7.2750     6.6560     5.9860    24.5680     2.3390   -13.7120 
  203.6250    81.0970     7.3180     6.6130     6.3730    24.5690     2.3500   -13.6560 
  203.7500    81.6930     7.5480     6.6960     6.7660    24.5100     2.3580   -13.6050 
  203.8750    82.7280     7.8970     6.8820     7.0170    24.4330     2.3620   -13.6330 
  204.0000    85.1770     8.2790     7.1350     7.1140    24.4040     2.3620   -13.6880 
  204.1250    89.4940     8.5900     7.4080     7.4980    24.4800     2.3580   -13.7200 
  204.2500    92.4150     8.7800     7.6550     7.8630    24.5170     2.3520   -13.7760 
  204.3750    91.9410     8.8460     7.8560     8.1100    24.4910     2.3490   -13.7230 
  204.5000    89.6590     8.8060     8.0080     8.2370    24.3990     2.3500   -13.6330 
  204.6250    89.5410     8.6950     8.1150     8.2520    24.3110     2.3580   -13.5060 
  204.7500    91.7970     8.5950     8.2010     8.3010    24.2610     2.3690   -13.3830 
  204.8750    93.3740     8.5520     8.2830     8.3690    24.2200     2.3810   -13.2540 
  205.0000    94.3390     8.5900     8.3780     8.4010    24.1860     2.3950   -13.1810 
  205.1250    93.2240     8.7390     8.5100     8.5090    24.1540     2.4090   -13.1310 
