~V
VERS. 2.00: Ver 2.00
~W
STRT.M 55.0000:
STOP.M 278.0000:
STEP.M 0.1250:
NULL. -999.2500:
UWI. DF5019:
~C
DEPT.M :
DEN.GM/CC :
GR.API :
CALI.CM :
RXO.OHMM :
RI. :
RML.OHMM :
SP.MV :
~A
# ...
  167.5000     2.5490    55.2980    24.0700    12.2560    13.7820    15.4570   -17.3240 
  167.6250     2.5220    54.9880    24.0650    12.8060    13.6300    15.4480   -17.5180 
  167.7500     2.4910    55.8180    24.0850    13.1480    13.1840    15.0330   -17.8120 
  167.8750     2.4660    57.4030    24.1050    12.6590    12.4900    14.2220   -18.2480 
  168.0000     2.4560    60.2170    24.0800    11.3890    11.8010    13.3360   -18.8310 
  168.1250     2.4580    67.3000    23.9690    10.3570    11.5830    13.0090   -19.5290 
  168.2500     2.4450    75.9750    23.8290    10.7030    12.1550    13.6850   -20.2920 
  168.3750     2.3990    81.9350    23.7350    13.4400    13.8960    15.7970   -21.1320 
  168.5000     2.3290    82.7500    23.5750    18.8550    17.2750    19.7840   -22.0700 
  168.6250     2.2730    78.2060    23.4640    24.7600    23.2080    26.4480   -23.1010 
  168.7500     2.2510    74.5030    23.3830    28.9850    31.5020    35.3670   -24.1160 
  168.8750     2.2530    75.2300    23.3690    32.3220    41.4520    45.6460   -25.0360 
  169.0000     2.2560    78.4280    23.3930    35.5720    51.5620    55.7010   -25.8090 
  169.1250     2.2460    79.3560    23.4530    38.3140    60.1380    63.9170   -26.4820 
  169.2500     2.2380    78.4870    23.4270    40.1090    66.9740    70.4250   -27.0720 
  169.3750     2.2380    77.2300    23.3730    40.4620    71.8810    75.1680   -27.5840 
  169.5000     2.2440    74.7810    23.2860    38.9570    74.1190    77.2290   -27.9560 
  169.6250     2.2550    71.8440    23.2250    36.7520    72.3270    74.9180   -28.1930 
  169.7500     2.2710    72.6020    23.1860    35.1800    67.5660    69.4350   -28.3890 
  169.8750     2.2820    77.1120    23.1650    33.4450    61.3670    62.6130   -28.5950 
  170.0000     2.2830    81.5120    23.1290    30.6220    55.4510    56.3310   -28.8470 
  170.1250     2.2770    83.0510    23.2080    27.4560    51.4680    52.2190   -29.0570 
  170.2500     2.2740    82.6880    23.3950    25.6180    49.8410    50.5530   -29.2490 
  170.3750     2.2700    80.8740    23.5550    25.9420    50.7690    51.4640   -29.4140 
  170.5000     2.2610    78.9850    23.5650    28.2410    54.0860    54.7470   -29.5970 
  170.6250     2.2510    77.8020    23.6180    31.7260    59.6350    59.1660   -29.8350 
  170.7500     2.2490    76.2060    23.8040    36.1830    63.9550    64.0640   -30.0520 
  170.8750     2.2550    73.8810    24.0150    41.0370    65.8150    66.9370   -30.2410 
  171.0000     2.2610    72.9230    24.1160    43.8930    64.3960    66.6120   -30.3600 
  171.1250     2.2620    74.9560    24.1240    42.5520    60.3280    63.0800   -30.5490 
  171.2500     2.2630    77.4400    24.1650    40.7090    55.8970    58.6070   -30.7590 
  171.3750     2.2650    80.0480    24.3030    43.6280    52.4960    54.8860   -31.0110 
  171.5000     2.2690    81.8050    24.4850    49.3050    50.9560    53.0380   -31.2620 
  171.6250     2.2740    80.3880    24.6810    50.6400    51.9790    53.9270   -31.5540 
  171.7500     2.2750    76.0490    24.8290    51.4370    54.9430    56.8940   -31.8450 
  171.8750     2.2670    72.2370    24.7600    63.5470    58.9920    61.0670   -32.2100 
  172.0000     2.2470    70.7760    24.6790    85.4280    62.8080    65.1900   -32.6590 
  172.1250     2.2240    70.7200    24.7180    91.4840    64.8090    67.7520   -33.1490 
  172.2500     2.2140    71.6060    24.7880    78.6650    64.8400    68.4510   -33.6020 
  172.3750     2.2230    73.5380    24.8360    62.1580    63.2910    67.5010   -34.0320 
  172.5000     2.2450    73.8030    24.9100    57.5680    60.8830    65.4780   -34.4770 
  172.6250     2.2630    72.0110    24.8350    64.5970    58.3790    63.0690   -34.9700 
  172.7500     2.2690    72.8450    24.7690    70.4010    56.1350    60.7670   -35.5140 
  172.8750     2.2670    78.8310    24.7820    64.7190    54.1360    58.6580   -36.0630 
  173.0000     2.2620    86.1420    24.7290    51.8560    52.3720    56.7820   -36.6060 
  173.1250     2.2570    89.0100    24.6900    46.5170    51.1450    55.4420   -37.1570 
  173.2500     2.2560    87.9520    24.6860    48.2850    50.7950    54.9780   -37.8080 
  173.3750     2.2620    83.2640    24.6880    52.5400    51.6660    55.7740   -38.5600 
  173.5000     2.2720    77.8480    24.6110    57.8010    53.9360    58.0780   -39.3270 
  173.6250     2.2770    76.7060    24.6230    68.0330    57.8720    62.2670   -40.0460 
  173.7500     2.2720    78.0440    24.7200    81.2720    63.3710    68.2400   -40.7850 
  173.8750     2.2580    76.9730    24.7870    90.3160    70.6780    76.1620   -41.5410 
  174.0000     2.2340    72.8110    24.7950    92.8370    79.7910    85.7800   -42.3280 
  174.1250     2.2080    70.1310    24.5440    93.3800    89.7410    95.7910   -43.1190 
  174.2500     2.1930    69.9260    24.3940    97.0600    98.0790   103.9540   -43.8500 
  174.3750     2.1920    70.5570    24.3780   100.4970   102.7720   108.6680   -44.4710 
  174.5000     2.2010    72.6160    24.5070   101.0850   103.4240   109.6770   -45.0420 
  174.6250     2.2100    76.7450    24.6120    96.8970   101.6720   108.2440   -45.6130 
  174.7500     2.2150    77.8820    24.7730    89.3480   100.5780   107.1950   -46.1310 
  174.8750     2.2160    74.7110    24.8020    83.3850   101.8690   108.4210   -46.5720 
  175.0000     2.2090    70.3810    24.6880    87.4310   106.4400   113.0590   -46.9150 
  175.1250     2.1970    68.4840    24.5800   104.3710   114.8370   121.7570   -47.1440 
  175.2500     2.1890    67.1100    24.5220   127.2950   125.3620   132.6890   -47.3300 
  175.3750     2.1900    64.6010    24.4650   140.9830   136.1510   144.0030   -47.4750 
  175.5000     2.1960    63.0650    24.4580   139.5080   145.3570   153.9690   -47.6100 
  175.6250     2.1990    64.2270    24.5220   130.6280   151.8190   161.4580   -47.6750 
  175.7500     2.1960    66.4640    24.6490   134.7120   156.5400   167.2750   -47.6320 
  175.8750     2.1890    67.6850    24.7010   148.6230   160.4480   172.3120   -47.5210 
  176.0000     2.1850    66.4240    24.7020   153.7840   164.0110   177.1170   -47.3730 
  176.1250     2.1880    64.8980    24.6470   148.8580   165.7870   180.3990   -47.1910 
  176.2500     2.1980    65.6560    24.5740   148.2840   163.5500   179.8320   -46.9330 
  176.3750     2.2140    67.5050    24.5630   162.7890   156.4490   174.0440   -46.6070 
  176.5000     2.2390    66.5760    24.6530   178.5990   146.3140   164.1930   -46.2010 
  176.6250     2.2670    62.4010    24.5820   165.5860   136.6850   153.7380   -45.7960 
  176.7500     2.2790    60.9030    24.4150   140.2930   129.7740   145.8980   -45.4240 
  176.8750     2.2710    63.2310    24.3220   128.8820   126.1010   141.8330   -45.0610 
  177.0000     2.2540    66.9910    24.3510   148.9020   124.9470   141.0390   -44.7010 
  177.1250     2.2490    69.8860    24.4110   176.7310   124.8120   141.8660   -44.3180 
  177.2500     2.2520    71.0820    24.3740   162.7520   124.3340   142.4340   -43.9630 
  177.3750     2.2540    71.0740    24.2440   119.1420   123.5300   142.3890   -43.6440 
  177.5000     2.2510    70.1880    24.1420    92.8960   123.3920   142.5850   -43.4020 
  177.6250     2.2470    68.0900    24.1570    98.7860   126.0500   145.4100   -43.0900 
  177.7500     2.2400    66.0180    24.2080   120.8200   131.9390   151.5780   -42.7950 
  177.8750     2.2280    64.9270    24.1860   144.5250   138.8450   158.7550   -42.4390 
  178.0000     2.2110    65.7540    24.1040   165.8650   141.0260   161.2910   -42.0600 
  178.1250     2.1950    66.3390    24.0670   175.0920   130.9200   151.6310   -41.6680 
  178.2500     2.1980    66.2760    24.2120   171.2050   112.2950   132.2450   -41.3090 
  178.3750     2.2270    66.8240    24.5100   143.8910    91.9190   109.2120   -40.9100 
  178.5000     2.2720    68.3380    24.7340    99.0780    74.8950    88.7160   -40.4800 
  178.6250     2.3070    71.8340    24.8100    65.9260    63.7440    74.9290   -40.0620 
