~V
VERS. 2.00: Ver 2.00
~W
STRT.M 55.0000:
STOP.M 268.0000:
STEP.M 0.1250:
NULL. -999.2500:
UWI. DF5007:
~C
DEPT.M :
SP.MV :
GR.API :
RML.OHMM :
RI. :
RXO.OHMM :
CALI.CM :
DEN.GM/CC :
~A
   55.0000    80.2940  -999.2500  -999.2500  -999.2500  -999.2500  -999.2500  -999.2500 
   55.1250    80.0940  -999.2500  -999.2500  -999.2500  -999.2500  -999.2500  -999.2500 
   55.2500    79.8150  -999.2500  -999.2500  -999.2500  -999.2500  -999.2500  -999.2500 
   55.3750    79.4940  -999.2500  -999.2500  -999.2500  -999.2500  -999.2500  -999.2500 
   55.5000    79.1030  -999.2500  -999.2500  -999.2500  -999.2500  -999.2500  -999.2500 
   55.6250    78.5640  -999.2500  -999.2500  -999.2500  -999.2500  -999.2500  -999.2500 
   55.7500    77.9860  -999.2500  -999.2500  -999.2500  -999.2500  -999.2500  -999.2500 
   55.8750    77.3660  -999.2500  -999.2500  -999.2500  -999.2500  -999.2500  -999.2500 
   56.0000    76.6730  -999.2500  -999.2500  -999.2500  -999.2500  -999.2500     0.0000 
   56.1250    75.8160  -999.2500  -999.2500  -999.2500  -999.2500  -999.2500     0.0000 
   56.2500    74.9550  -999.2500  -999.2500  -999.2500  -999.2500  -999.2500     0.0000 
   56.3750    74.0990  -999.2500  -999.2500  -999.2500  -999.2500  -999.2500     0.0000 
   56.5000    73.3220     0.0000     0.0000     0.0000     0.0000     0.0000     0.0000 
   56.6250    72.7120     0.0000     0.0000     0.0000     0.0000     0.0000     0.0000 
   56.7500    72.1040     0.0000     0.0000     0.0000     0.0000     0.0000     1.0470 
   56.8750    71.5380     0.0000     0.0000     0.0000     0.0000     0.0000     2.0870 
   57.0000    71.0450    44.6120    23.1570     0.6200    -0.0490    25.6530     2.0790 
   57.1250    70.6360    45.1370    22.3250     0.6310    -0.0570    25.6350     2.0770 
   57.2500    70.2050    47.3540    21.4440     0.6430    -0.0680    25.5800     2.0760 
   57.3750    69.8020    50.6020    20.6180     0.6550    -0.0730    25.5570     2.0760 
   57.5000    69.3840    52.1360    19.8610     0.6670    -0.0750    25.5630     2.0750 
   57.6250    68.8910    49.0210    19.1930     0.6790    -0.0800    25.5360     2.0730 
   57.7500    68.4680    46.1950    18.5950     0.6890    -0.0920    25.5330     2.0720 
   57.8750    67.9630    45.4050    18.0980     0.6990    -0.1030    25.5630     2.0710 
   58.0000    67.4610    45.4880    17.7320     0.7080    -0.1100    25.5700     2.0700 
   58.1250    66.8730    44.8810    17.6260     0.7150    -0.1170    25.5280     2.0670 
   58.2500    66.1850    44.4000    17.7080     0.7210    -0.1260    25.5120     2.0610 
   58.3750    65.5060    44.9780    17.7630     0.7260    -0.1340    25.4990     2.0570 
   58.5000    64.6710    45.5530    17.6160     0.7300    -0.1430    25.4590     2.0560 
   58.6250    63.8410    45.9530    17.3220     0.7330    -0.1480    25.4220     2.0600 
   58.7500    62.9010    46.4930    17.0520     0.7370    -0.1490    25.4100     2.0630 
   58.8750    61.8010    46.0660    16.8410     0.7400    -0.1470    25.3910     2.0620 
   59.0000    60.6610    45.7940    16.6140     0.7380    -0.1410    25.3420     2.0550 
   59.1250    59.4210    46.5840    15.6750     0.7180    -0.1370    25.3130     2.0450 
   59.2500    57.9930    48.3510    13.4410     0.6700    -0.1320    25.2950     2.0430 
   59.3750    56.2760    49.9450     9.8830     0.5850    -0.1260    25.2690     2.0650 
   59.5000    54.1840    51.3560     5.8240     0.4670    -0.1170    25.2550     2.1270 
   59.6250    51.5140    51.9330     3.0730     0.3390    -0.1080    25.2740     2.2450 
   59.7500    48.3950    50.9370     1.7130     0.2290    -0.1010    25.2790     2.3940 
   59.8750    44.6940    48.8330     1.0730     0.1490    -0.0690    25.2530     2.5280 
   60.0000    40.1580    47.2250     0.7720     0.1090     0.0460    25.1980     2.5990 
   60.1250    34.5620    48.5130     0.6980     0.1400     0.5420    24.9510     2.5760 
   60.2500    28.2860    52.9340     0.8020     0.2750     1.4980    24.4370     2.4980 
   60.3750    21.5520    57.2920     1.1230     0.5650     3.0840    23.9380     2.4060 
   60.5000    14.7540    57.8760     1.7070     1.0610     6.5790    23.8750     2.3250 
   60.6250     8.2830    56.0760     2.5880     1.8200     9.0020    24.3040     2.2660 
   60.7500     2.0950    56.7350     3.5970     2.7470    10.2210    24.9020     2.2170 
   60.8750    -3.4560    59.1200     4.5390     3.7300    10.1980    25.5200     2.1620 
   61.0000    -8.1590    60.6190     5.2440     4.6370     9.9240    26.2110     2.0950 
   61.1250   -11.6590    61.2630     5.6160     5.3410     9.5200    26.9130     2.0260 
   61.2500   -14.0790    62.7970     5.8060     5.8550     9.0280    26.8680     1.9780 
   61.3750   -15.7720    65.6640     5.9530     6.2240     8.4530    25.7330     1.9650 
   61.5000   -16.9300    68.5580     6.1240     6.4980     8.0530    24.0720     1.9910 
   61.6250   -17.8170    69.0120     6.3040     6.6900     8.1190    22.8230     2.0460 
   61.7500   -18.5780    68.0170     6.4710     6.8220     8.3100    22.2960     2.1040 
   61.8750   -19.2020    67.0520     6.6140     6.9110     8.3500    22.1160     2.1490 
   62.0000   -19.8660    66.3750     6.7340     6.9700     8.2190    22.0560     2.1720 
   62.1250   -20.6310    65.9660     6.8350     7.0050     8.0210    22.0660     2.1720 
   62.2500   -21.4320    64.9080     6.9060     7.0110     7.9080    22.0880     2.1580 
   62.3750   -22.2560    61.9390     6.9230     6.9750     7.9200    22.0760     2.1360 
   62.5000   -23.1260    56.9270     6.8700     6.8910     7.9650    22.0920     2.1140 
   62.6250   -23.9210    54.8990     6.7570     6.7760     8.0440    22.1950     2.0980 
   62.7500   -24.7010    57.3530     6.6680     6.6850     8.1180    22.2360     2.0930 
   62.8750   -25.5500    60.1400     6.6740     6.6730     7.9140    22.0440     2.1010 
   63.0000   -26.2460    61.6790     6.8160     6.7810     7.3470    21.6350     2.1280 
   63.1250   -26.8990    62.9360     7.1100     7.0360     6.9080    21.2400     2.1840 
   63.2500   -27.6500    63.7340     7.4770     7.3810     7.0880    20.9810     2.2620 
   63.3750   -28.3370    62.5940     7.8250     7.7450     7.9110    20.9880     2.3430 
   63.5000   -28.9930    60.7190     8.0550     8.0370     9.3440    21.3210     2.3970 
   63.6250   -29.6260    60.7270     8.0700     8.1460    10.5540    21.6090     2.3870 
   63.7500   -30.2050    60.9210     7.9180     8.0800    10.1830    21.9650     2.3240 
   63.8750   -30.7100    60.4580     7.6870     7.8850     9.2580    22.8200     2.2380 
   64.0000   -31.1420    60.4150     7.4760     7.6410     9.2650    24.3880     2.1610 
   64.1250   -31.4500    60.8340     7.3970     7.4480     9.8360    26.1620     2.1150 
   64.2500   -31.6000    62.1710     7.4470     7.3440    10.3450    27.3420     2.1000 
   64.3750   -31.7040    64.5920     7.5880     7.3280    10.4940    27.9010     2.1060 
   64.5000   -31.6860    66.3090     7.7430     7.3690    10.4290    28.0960     2.1230 
   64.6250   -31.5930    64.3210     7.8050     7.4030    10.4400    28.1210     2.1350 
   64.7500   -31.4260    59.7090     7.7360     7.3780    10.6060    28.1760     2.1340 
   64.8750   -31.1410    56.1380     7.5550     7.2850    10.5470    28.2840     2.1110 
   65.0000   -30.8260    56.5560     7.3310     7.1510    10.0500    28.3600     2.0600 
   65.1250   -30.4290    60.4950     7.1510     7.0360     9.5900    28.4420     1.9790 
   65.2500   -29.8460    64.1860     7.0780     6.9890     9.3360    28.7180     1.8890 
   65.3750   -29.0940    65.6520     7.1320     7.0300     9.1830    29.2540     1.8180 
   65.5000   -28.2690    64.9070     7.2930     7.1480     8.9460    29.6940     1.7960 
   65.6250   -27.2430    62.8560     7.5030     7.2990     8.3910    29.3080     1.8560 
   65.7500   -25.9830    62.3510     7.6640     7.4070     7.7270    28.1470     1.9800 
   65.8750   -24.7000    66.2850     7.7090     7.4120     7.4470    26.8440     2.1320 
   66.0000   -23.3620    73.9360     7.6210     7.2880     7.5530    25.7810     2.2590 
   66.1250   -21.9890    81.6780     7.4170     7.0400     7.2080    24.6510     2.3140 
