~V
VERS. 2.00: Ver 2.00
~W
STRT.M 61.0000:
STOP.M 247.0000:
STEP.M 0.1250:
NULL. -999.2500:
UWI. DF5042:
~C
DEPT.M :
SP.MV :
GR.API :
CALI.CM :
RXO.OHMM :
RI. :
RML.OHMM :
DEN.GM/CC :
~A
# ...
  117.2500   -28.4290    68.2650    24.9710     7.9470     8.5860     9.9190     2.1950 
  117.3750   -28.3960    64.8540    24.9730     8.2360     8.6700    10.0730     2.1700 
  117.5000   -28.3100    67.1390    24.9740     8.5630     8.8280    10.2160     2.1550 
  117.6250   -28.2950    70.5690    24.9740     8.4980     8.9710    10.2940     2.1490 
  117.7500   -28.3120    70.6960    24.9740     8.2640     9.0790    10.3340     2.1520 
  117.8750   -28.2920    67.5880    24.9740     8.1320     9.1570    10.3530     2.1590 
  118.0000   -28.2460    64.3110    24.9740     8.1470     9.2100    10.3650     2.1690 
  118.1250   -28.1790    62.4310    24.9740     8.1200     9.2390    10.3700     2.1780 
  118.2500   -28.1300    61.8430    24.9740     8.0590     9.2390    10.3570     2.1880 
  118.3750   -28.0970    63.5200    24.9730     8.1370     9.1970    10.3100     2.1970 
  118.5000   -28.1070    67.2090    24.9780     8.1550     9.0970    10.2160     2.2010 
  118.6250   -28.1150    69.5850    24.9960     8.0310     8.9280    10.0650     2.1990 
  118.7500   -28.1550    69.3130    25.0170     7.7880     8.7200     9.8880     2.1890 
  118.8750   -28.1820    68.0290    25.0280     7.5860     8.5070     9.7220     2.1720 
  119.0000   -28.2030    66.2950    25.0290     7.3820     8.3260     9.6050     2.1550 
  119.1250   -28.1820    63.4520    25.0280     7.3470     8.2130     9.5690     2.1410 
  119.2500   -28.1930    62.4040    25.0270     7.3420     8.1640     9.6020     2.1310 
  119.3750   -28.2060    65.5230    25.0270     7.4120     8.1740     9.6930     2.1280 
  119.5000   -28.3160    70.2600    25.0330     7.5360     8.2350     9.8290     2.1300 
  119.6250   -28.4380    71.6220    25.0540     7.5790     8.3430    10.0020     2.1370 
  119.7500   -28.5330    70.4630    25.0770     7.6570     8.4790    10.1880     2.1440 
  119.8750   -28.6210    68.1120    25.0890     7.8780     8.6190    10.3520     2.1510 
  120.0000   -28.7710    64.9650    25.0900     8.1630     8.7290    10.4490     2.1530 
  120.1250   -28.9540    62.8560    25.0890     8.2550     8.7470    10.4180     2.1510 
  120.2500   -29.1050    63.7410    25.0890     8.1590     8.6650    10.2770     2.1460 
  120.3750   -29.2190    66.6950    25.0890     7.9480     8.5030    10.0670     2.1380 
  120.5000   -29.2010    67.5860    25.0890     7.6940     8.3090     9.8510     2.1300 
  120.6250   -29.1640    65.1310    25.0890     7.5190     8.1450     9.6980     2.1250 
  120.7500   -29.1370    64.5260    25.0890     7.4240     8.0430     9.6170     2.1230 
  120.8750   -29.0790    66.2650    25.0890     7.4600     8.0080     9.5970     2.1250 
  121.0000   -28.9160    68.4370    25.0890     7.5700     8.0230     9.6130     2.1290 
  121.1250   -28.7520    68.0420    25.0890     7.6490     8.0700     9.6400     2.1320 
  121.2500   -28.5850    66.4060    25.0890     7.6970     8.1220     9.6620     2.1320 
  121.3750   -28.4200    65.2980    25.0890     7.7510     8.1660     9.6750     2.1280 
  121.5000   -28.2720    64.6820    25.0890     7.8010     8.1940     9.6810     2.1250 
  121.6250   -28.0630    64.1110    25.0890     7.7920     8.2060     9.6830     2.1250 
  121.7500   -27.8540    62.8460    25.0890     7.7250     8.2100     9.6860     2.1270 
  121.8750   -27.7000    63.3500    25.0890     7.7090     8.2160     9.6900     2.1300 
  122.0000   -27.6350    66.3920    25.0890     7.7850     8.2270     9.6900     2.1310 
  122.1250   -27.6150    66.9710    25.0900     7.9350     8.2430     9.6720     2.1290 
  122.2500   -27.6270    65.0470    25.0900     8.0580     8.2550     9.6310     2.1270 
  122.3750   -27.6570    64.0260    25.0840     8.1260     8.2570     9.5720     2.1280 
  122.5000   -27.6820    65.5670    25.0660     8.1550     8.2530     9.5120     2.1340 
  122.6250   -27.7250    67.2820    25.0430     8.1340     8.2600     9.4820     2.1400 
  122.7500   -27.7400    67.9720    25.0290     8.1160     8.2970     9.4920     2.1450 
  122.8750   -27.7370    68.0230    25.0270     8.1830     8.3720     9.5410     2.1440 
  123.0000   -27.6270    66.7840    25.0280     8.5360     8.4800     9.6090     2.1400 
  123.1250   -27.4440    66.5950    25.0280     8.8820     8.5860     9.6430     2.1350 
  123.2500   -27.2060    67.1970    25.0280     8.7530     8.6380     9.5940     2.1310 
  123.3750   -26.9620    66.3070    25.0270     8.3050     8.5820     9.4110     2.1300 
  123.5000   -26.6680    65.2760    25.0250     8.0810     8.3620     9.0480     2.1350 
  123.6250   -26.3490    67.0120    25.0360     7.8590     7.9040     8.4510     2.1490 
  123.7500   -26.0210    71.1740    25.0820     7.3270     7.2710     7.7010     2.1750 
  123.8750   -25.7050    75.3830    25.1600     6.8640     6.5480     6.8970     2.2120 
  124.0000   -25.4780    80.0100    25.2330     6.2920     5.8420     6.1510     2.2510 
  124.1250   -25.3360    84.3580    25.2640     5.6100     5.2780     5.5940     2.2800 
  124.2500   -25.2450    86.2850    25.2770     4.9570     4.8910     5.2420     2.2940 
  124.3750   -25.1750    87.7410    25.2950     4.8550     4.6790     5.0700     2.2920 
  124.5000   -25.1430    89.8050    25.3140     4.8440     4.6100     5.0280     2.2830 
  124.6250   -25.0890    89.0200    25.3150     4.9910     4.6440     5.0580     2.2730 
  124.7500   -25.0270    87.1130    25.3130     5.0960     4.7120     5.1010     2.2670 
  124.8750   -24.9730    87.1540    25.3680     4.9220     4.7800     5.1430     2.2660 
  125.0000   -24.9800    88.8840    25.5230     4.6530     4.8360     5.1900     2.2700 
  125.1250   -25.0040    85.8680    25.7160     4.6930     4.8770     5.2450     2.2740 
  125.2500   -25.0600    80.6730    25.8280     4.8510     4.8970     5.2850     2.2760 
  125.3750   -25.1200    79.9530    25.8380     4.9980     4.8710     5.2720     2.2780 
  125.5000   -25.2330    84.5830    25.8100     5.0540     4.7810     5.1840     2.2820 
  125.6250   -25.3880    89.2910    25.8090     4.9800     4.6200     5.0290     2.2910 
  125.7500   -25.6170    92.3410    25.8340     4.7560     4.4380     4.8720     2.3020 
  125.8750   -25.8700    93.2230    25.8540     4.5000     4.2810     4.7730     2.3140 
  126.0000   -26.1460    91.5240    25.8490     4.4910     4.1990     4.7930     2.3220 
  126.1250   -26.3790    89.4390    25.8190     4.7920     4.2850     5.0430     2.3210 
  126.2500   -26.5720    89.6070    25.7510     5.2240     4.5950     5.5710     2.3110 
  126.3750   -26.7550    88.9800    25.6400     5.6380     5.1890     6.4220     2.3030 
  126.5000   -26.9190    83.2280    25.5320     6.3640     6.0930     7.5830     2.3030 
  126.6250   -27.1390    75.2260    25.5030     9.6360     7.2840     8.9300     2.3150 
  126.7500   -27.3720    70.3880    25.4970    14.6900     8.5000    10.1350     2.3340 
  126.8750   -27.6090    68.3310    25.4270    16.5650     9.4350    10.8970     2.3420 
  127.0000   -27.7210    67.6460    25.3040    13.7980     9.8480    11.0600     2.3220 
  127.1250   -27.8190    67.4280    25.2180     9.6330     9.6660    10.6770     2.2810 
  127.2500   -27.9120    67.8400    25.2010     8.3240     9.2190    10.1240     2.2340 
  127.3750   -28.0290    69.2630    25.2260     7.8870     8.7360     9.6200     2.1940 
  127.5000   -28.1270    69.6700    25.2640     7.8210     8.3410     9.2540     2.1640 
  127.6250   -28.1880    68.2810    25.3000     7.7610     8.0570     9.0290     2.1460 
  127.7500   -28.1940    66.1950    25.2970     7.6480     7.8500     8.9200     2.1380 
  127.8750   -28.1760    66.4990    25.2480     7.4610     7.7610     8.9690     2.1420 
  128.0000   -28.1730    68.3830    25.1850     7.2010     7.8160     9.1550     2.1550 
  128.1250   -28.1850    68.8070    25.1470     7.0440     7.9190     9.2870     2.1810 
  128.2500   -28.2020    68.5260    25.1460     7.7040     7.8600     9.1320     2.2190 
  128.3750   -28.1820    69.2920    25.1880    11.8250     7.5150     8.5960     2.2710 
