~V
VERS. 2.00: Ver 2.00
~W
STRT.M 55.0000:
STOP.M 278.0000:
STEP.M 0.1250:
NULL. -999.2500:
UWI. DF5019:
~C
DEPT.M :
DEN.GM/CC :
GR.API :
CALI.CM :
RXO.OHMM :
RI. :
RML.OHMM :
SP.MV :
~A
# ...
  111.2500     2.1400    67.6710    23.7690    10.7630     7.8800    10.6940   -26.2150 
  111.3750     2.1350    67.9700    23.5580    10.4100     7.8760    10.7540   -26.0960 
  111.5000     2.1330    68.1420    23.3190    10.3500     7.8750    10.8430   -25.9430 
  111.6250     2.1380    68.1420    23.2960    10.6010     7.8450    10.8780   -25.7130 
  111.7500     2.1460    68.8940    23.4920    10.7760     7.7460    10.7760   -25.4310 
  111.8750     2.1500    71.3910    23.6240    10.6580     7.5670    10.5240   -25.1260 
  112.0000     2.1540    77.2270    23.6480    10.2620     7.3510    10.2140   -24.8700 
  112.1250     2.1710    84.4640    23.6640     9.7120     7.2060    10.0410   -24.6090 
  112.2500     2.2110    89.1200    23.6180     9.5930     7.2160    10.1270   -24.4270 
  112.3750     2.2720    89.5180    23.6110    10.4250     7.4050    10.4910   -24.2780 
  112.5000     2.3340    89.0070    23.6120    12.3490     7.7200    11.0350   -24.2410 
  112.6250     2.3590    90.4540    23.7130    14.2230     8.0280    11.5230   -24.2630 
  112.7500     2.3350    90.5020    23.6260    13.6960     8.2060    11.7400   -24.3540 
  112.8750     2.2740    86.4630    23.5690    11.7420     8.2160    11.6320   -24.4780 
  113.0000     2.2080    81.5980    23.5400    10.5720     8.0980    11.3060   -24.6130 
  113.1250     2.1700    78.1350    23.4900    10.1730     7.9300    10.9670   -24.8160 
  113.2500     2.1590    74.6640    23.4090    10.0170     7.7890    10.7550   -24.9520 
  113.3750     2.1630    71.2150    23.3650     9.8900     7.6970    10.6830   -25.0830 
  113.5000     2.1660    70.4670    23.4890     9.8090     7.6500    10.6980   -25.1320 
  113.6250     2.1620    73.0190    23.6130     9.7060     7.6360    10.7270   -25.2310 
  113.7500     2.1530    74.8570    23.6700     9.6170     7.6260    10.7270   -25.2750 
  113.8750     2.1410    75.2960    23.6920     9.5750     7.5950    10.6940   -25.2880 
  114.0000     2.1280    73.2800    23.7030     9.5840     7.5270    10.6360   -25.2540 
  114.1250     2.1190    70.4890    23.7060     9.6100     7.4220    10.5580   -25.2160 
  114.2500     2.1160    69.5020    23.7130     9.6270     7.3010    10.4440   -25.1140 
  114.3750     2.1180    70.4120    23.7180     9.6120     7.1630    10.2610   -24.9380 
  114.5000     2.1220    71.7350    23.7190     9.6170     7.0020    10.0020   -24.7110 
  114.6250     2.1270    72.5630    23.7090     9.6230     6.8260     9.7120   -24.4310 
  114.7500     2.1370    74.6140    23.7090     9.4070     6.6760     9.4810   -24.1160 
  114.8750     2.1560    76.9620    23.7090     9.0640     6.6020     9.3770   -23.7880 
  115.0000     2.1770    77.8060    23.7090     9.0440     6.6400     9.4320   -23.4000 
  115.1250     2.1900    75.5440    23.6950     9.4660     6.7950     9.6370   -22.9740 
  115.2500     2.1920    71.8260    23.6110     9.8180     6.9960     9.8910   -22.5850 
  115.3750     2.1870    69.3370    23.4120     9.8160     7.1920    10.1280   -22.2190 
  115.5000     2.1770    70.0940    23.2290     9.5170     7.3510    10.2920   -21.8200 
  115.6250     2.1650    73.7390    23.1370     9.0680     7.4110    10.2820   -21.3240 
  115.7500     2.1610    78.3280    23.1150     8.9110     7.3200    10.0470   -20.7920 
  115.8750     2.1720    82.7900    23.1110     8.9410     7.0310     9.5610   -20.1860 
  116.0000     2.2000    88.0350    23.1100     8.6260     6.5520     8.8560   -19.5630 
  116.1250     2.2360    93.3890    23.1150     7.5250     5.9530     8.0400   -18.8260 
  116.2500     2.2650    98.2180    23.1270     6.2310     5.3830     7.3080   -18.1480 
  116.3750     2.2770   102.4460    23.1340     5.4620     4.9230     6.7730   -17.4830 
  116.5000     2.2720   106.4900    23.2090     5.3630     4.5970     6.4570   -16.9280 
  116.6250     2.2640   108.4760    23.5240     5.6310     4.4040     6.3190   -16.4000 
  116.7500     2.2630   106.2570    23.9680     5.8040     4.2910     6.2440   -15.9670 
  116.8750     2.2750   105.0880    24.1860     5.7300     4.2360     6.1820   -15.6430 
  117.0000     2.2920   107.0720    24.2640     5.4320     4.2280     6.1300   -15.4030 
  117.1250     2.2990   107.3800    24.5040     5.2710     4.2890     6.1660   -15.2910 
  117.2500     2.2920   103.6330    24.6130     5.5580     4.4340     6.3440   -15.1740 
  117.3750     2.2850   100.5440    24.5670     6.1190     4.6610     6.6590   -15.0610 
  117.5000     2.2970   101.3620    24.5120     6.4920     4.9310     7.0380   -14.9390 
  117.6250     2.3280   101.1360    24.5480     6.4230     5.1650     7.3460   -14.8920 
  117.7500     2.3440   100.6530    24.5320     6.3360     5.3040     7.4880   -14.8720 
  117.8750     2.3300   104.1010    24.5040     6.2960     5.3300     7.4470   -14.8790 
  118.0000     2.2920   108.7900    24.4680     6.1750     5.2710     7.2950   -14.9630 
  118.1250     2.2530   106.4860    24.4550     6.0320     5.1950     7.1670   -15.1480 
  118.2500     2.2280    99.4120    24.4930     6.0160     5.1590     7.1370   -15.3600 
  118.3750     2.2130    95.1210    24.4530     6.1120     5.1760     7.2020   -15.6400 
  118.5000     2.2050    95.8130    24.2590     6.2270     5.2340     7.3170   -15.9330 
  118.6250     2.2090    96.9760    24.0620     6.3500     5.3000     7.4210   -16.2610 
  118.7500     2.2260    97.2570    23.9670     6.4160     5.3280     7.4610   -16.4880 
  118.8750     2.2480    98.5900    24.0000     6.3560     5.2920     7.4070   -16.6610 
  119.0000     2.2630   102.2630    24.0660     6.2050     5.1950     7.2610   -16.7380 
  119.1250     2.2620   107.0230    24.0900     6.1300     5.0550     7.0500   -16.7380 
  119.2500     2.2580   110.9030    24.1340     6.0250     4.9030     6.8400   -16.6870 
  119.3750     2.2590   112.2150    24.2770     5.7450     4.7670     6.6810   -16.5710 
  119.5000     2.2650   111.3440    24.3860     5.4050     4.6700     6.6020   -16.4520 
  119.6250     2.2610   110.2160    24.4410     5.4000     4.6280     6.6060   -16.2980 
  119.7500     2.2500   110.3650    24.3740     5.5850     4.6140     6.6310   -16.2660 
  119.8750     2.2420   111.2910    24.3050     5.7100     4.6030     6.6370   -16.2020 
  120.0000     2.2420   110.6850    24.2380     5.6020     4.5840     6.6150   -16.1830 
  120.1250     2.2400   108.8550    24.2400     5.4160     4.5730     6.5870   -16.1820 
  120.2500     2.2280   106.7780    24.2220     5.3570     4.5940     6.5960   -16.2200 
  120.3750     2.2140   103.8180    24.1780     5.5180     4.6600     6.6690   -16.2950 
  120.5000     2.2060   100.7200    24.0730     5.8560     4.7690     6.8180   -16.3600 
  120.6250     2.2100    99.2670    23.9660     6.1510     4.9140     7.0450   -16.4380 
  120.7500     2.2220    99.7820    23.9950     6.2590     5.0840     7.3190   -16.4610 
  120.8750     2.2420   100.6500    24.1180     6.3240     5.2720     7.6140   -16.5570 
  121.0000     2.2610   101.0990    24.1720     6.6170     5.4530     7.8800   -16.6410 
  121.1250     2.2640   101.9790    24.3500     7.2220     5.5600     8.0100   -16.7730 
  121.2500     2.2500   102.4970    24.4950     7.7530     5.5640     7.9710   -16.9270 
  121.3750     2.2370   101.6810    24.5470     7.7660     5.4890     7.8060   -17.1360 
  121.5000     2.2360    98.1190    24.5850     7.2550     5.4140     7.6380   -17.4030 
  121.6250     2.2360    91.3200    24.5840     6.6170     5.4700     7.6650   -17.8210 
  121.7500     2.2180    85.5520    24.4340     6.7970     5.7160     7.9740   -18.3430 
  121.8750     2.1880    80.3250    24.2090     7.5130     6.1530     8.5660   -18.9560 
  122.0000     2.1610    74.6220    24.0880     8.3110     6.7170     9.3420   -19.5690 
  122.1250     2.1470    71.9050    24.1610     8.8690     7.2810    10.1020   -20.0840 
  122.2500     2.1410    74.3150    24.2140     9.1960     7.7240    10.6520   -20.5260 
  122.3750     2.1420    77.7110    24.2190     9.1940     7.9850    10.9100   -20.8410 
