~V
VERS. 2.00: Ver 2.00
~W
STRT.M 59.0000:
STOP.M 277.0000:
STEP.M 0.1250:
NULL. -999.2500:
UWI. DF5027:
~C
DEPT.M :
GR.API :
RML.OHMM :
RI. :
RXO.OHMM :
CALI.CM :
DEN.GM/CC :
SP.MV :
~A
# ...
  137.7500    70.9930     7.1360     6.6460     6.6800    23.2210     2.2370   -30.6770 
  137.8750    70.6250     6.9720     6.4580     7.4560    23.4110     2.2370   -30.7010 
  138.0000    73.8240     6.8860     6.3380     7.7040    23.7390     2.2410   -30.8690 
  138.1250    80.5860     6.9610     6.3470     7.1900    23.9960     2.2510   -31.0860 
  138.2500    85.9470     7.2410     6.5140     6.6170    24.1330     2.2640   -31.4120 
  138.3750    85.6390     7.7590     6.8670     6.7650    24.1660     2.2710   -31.7940 
  138.5000    76.9180     8.4920     7.3970     7.8030    24.1150     2.2660   -32.1930 
  138.6250    63.5940     9.3470     8.0510     8.8280    24.0050     2.2450   -32.7320 
  138.7500    54.4140    10.1520     8.7040     9.9940    23.9930     2.2190   -33.1490 
  138.8750    52.0170    10.7890     9.2560    10.3910    24.0770     2.1960   -33.5880 
  139.0000    54.5100    11.1860     9.6340    10.2360    24.1860     2.1790   -33.9390 
  139.1250    59.1620    11.3030     9.7730    10.1080    24.3350     2.1720   -34.1470 
  139.2500    64.1240    11.2340     9.7260    10.1210    24.4250     2.1670   -34.2560 
  139.3750    67.6160    11.0360     9.5370    10.0980    24.3460     2.1600   -34.1790 
  139.5000    67.4990    10.7570     9.2510     9.8670    24.1540     2.1470   -34.0060 
  139.6250    64.4920    10.4290     8.9050     9.7150    24.1140     2.1300   -33.7070 
  139.7500    62.6980    10.0960     8.5490     9.6200    24.1130     2.1200   -33.4050 
  139.8750    64.3100     9.8090     8.2280     9.4030    24.0780     2.1220   -33.1260 
  140.0000    67.9590     9.6230     7.9900     8.8790    23.9890     2.1380   -32.8100 
  140.1250    68.3310     9.6220     7.9070     8.1460    23.9400     2.1630   -32.5860 
  140.2500    66.1570     9.7960     7.9760     7.9060    23.9400     2.1860   -32.3090 
  140.3750    64.1170    10.1110     8.1760     8.2140    24.0030     2.1980   -32.1070 
  140.5000    64.6840    10.4900     8.4560     8.9330    24.1280     2.1980   -31.9130 
  140.6250    66.0590    10.8220     8.7380     9.8340    24.2290     2.1930   -31.6910 
  140.7500    65.4780    11.0230     8.9410     9.7120    24.1950     2.1900   -31.5040 
  140.8750    63.9960    11.0330     9.0090     8.8170    24.0480     2.1910   -31.2020 
  141.0000    66.5400    10.8270     8.9060     7.9200    23.9130     2.1950   -30.9300 
  141.1250    72.3560    10.3840     8.6070     7.8570    23.8640     2.1960   -30.4910 
  141.2500    76.0390     9.7800     8.1780     7.8970    23.8560     2.1930   -30.0510 
  141.3750    76.1010     9.0870     7.6750     7.9520    23.8590     2.1890   -29.5480 
  141.5000    75.2430     8.4140     7.1680     7.7840    23.8730     2.1910   -29.0320 
  141.6250    77.5850     7.8900     6.7470     7.2050    23.9050     2.2060   -28.5540 
  141.7500    81.5660     7.5550     6.4470     6.4140    23.9260     2.2310   -27.9970 
  141.8750    85.0820     7.4230     6.2850     6.0280    23.9630     2.2650   -27.5500 
  142.0000    86.1040     7.4780     6.2570     6.0520    24.0380     2.3020   -27.1210 
  142.1250    82.9530     7.6650     6.3350     6.2950    24.1250     2.3390   -26.8150 
  142.2500    80.4310     7.8600     6.4330     7.1040    24.1640     2.3660   -26.5810 
  142.3750    82.0110     7.9780     6.4900     8.2100    24.1400     2.3720   -26.3800 
  142.5000    87.6530     7.9410     6.4600     7.8740    24.0940     2.3570   -26.2730 
  142.6250    91.5290     7.6900     6.3000     6.8400    24.0450     2.3250   -26.1460 
  142.7500    92.5730     7.3200     6.0570     6.2510    24.0260     2.2950   -26.1080 
  142.8750    94.8730     6.9140     5.7790     5.9410    24.0220     2.2770   -26.0880 
  143.0000   100.3480     6.5430     5.5100     5.7470    24.0210     2.2720   -26.0470 
  143.1250   106.1620     6.2850     5.3050     5.6150    24.0270     2.2780   -26.0730 
  143.2500   107.5780     6.1510     5.1810     5.3430    24.0620     2.2850   -26.0530 
  143.3750   103.0280     6.1260     5.1400     4.9720    24.1280     2.2890   -26.1530 
  143.5000    94.1940     6.1920     5.1690     4.9920    24.1610     2.2880   -26.2060 
  143.6250    86.2120     6.3420     5.2690     5.3560    24.1380     2.2800   -26.3370 
  143.7500    84.3870     6.5330     5.4120     5.5530    24.1140     2.2700   -26.5510 
  143.8750    87.0910     6.7380     5.5780     5.7620    24.0810     2.2610   -26.7280 
  144.0000    89.6060     6.9420     5.7500     6.0320    24.0200     2.2580   -26.9630 
  144.1250    87.4110     7.1060     5.8950     6.0700    23.9670     2.2600   -27.1020 
  144.2500    84.4810     7.1970     5.9840     5.9220    23.9430     2.2650   -27.2800 
  144.3750    82.3480     7.1830     5.9910     5.8100    23.8880     2.2700   -27.3210 
  144.5000    81.3420     7.0380     5.9010     5.8450    23.7460     2.2750   -27.3780 
  144.6250    84.7270     6.7250     5.6920     5.9740    23.5820     2.2810   -27.3840 
  144.7500    91.8000     6.3040     5.4000     5.8450    23.7400     2.2900   -27.2980 
  144.8750    98.3920     5.8310     5.0650     5.5030    24.2110     2.2980   -27.2360 
  145.0000   100.1240     5.3810     4.7380     5.0350    24.8980     2.2990   -27.0790 
  145.1250    98.0910     5.0650     4.4920     4.7440    25.4330     2.2830   -27.0120 
  145.2500    96.0520     4.9290     4.3660     4.4990    25.6960     2.2530   -26.8770 
  145.3750    96.6550     4.9950     4.3850     4.3370    25.6830     2.2200   -26.8250 
  145.5000    99.7750     5.2570     4.5500     4.2560    25.4990     2.2030   -26.8410 
  145.6250   100.8630     5.6880     4.8580     4.4140    24.9580     2.2230   -26.8210 
  145.7500    97.2240     6.1870     5.2420     4.9650    24.5040     2.2730   -26.8930 
  145.8750    92.0970     6.6720     5.6430     5.7160    24.2280     2.3360   -26.9830 
  146.0000    90.0080     7.0690     6.0040     6.1520    24.1230     2.3840   -27.1280 
  146.1250    90.0290     7.3140     6.2670     6.4990    24.0570     2.3890   -27.2740 
  146.2500    87.3510     7.4320     6.4340     6.3970    23.9270     2.3590   -27.4390 
  146.3750    82.4590     7.4550     6.5200     6.2210    23.7180     2.3120   -27.6130 
  146.5000    78.9450     7.4290     6.5510     6.1210    23.4970     2.2700   -27.6590 
  146.6250    79.0770     7.4090     6.5700     6.2660    23.3750     2.2480   -27.7820 
  146.7500    81.1720     7.4330     6.6130     6.1940    23.3640     2.2420   -27.7990 
  146.8750    81.7650     7.5270     6.7000     6.2180    23.3540     2.2460   -27.7750 
  147.0000    78.8810     7.7110     6.8510     6.4840    23.3280     2.2520   -27.7070 
  147.1250    74.3050     8.0230     7.0950     6.7090    23.4220     2.2600   -27.5960 
  147.2500    71.6850     8.4620     7.4320     7.0190    23.6940     2.2700   -27.4880 
  147.3750    71.0060     9.0230     7.8570     7.2240    23.9480     2.2780   -27.3520 
  147.5000    72.2230     9.6450     8.3370     7.3300    24.0850     2.2770   -27.2440 
  147.6250    74.9310    10.1580     8.7650     7.6270    24.1490     2.2610   -27.0010 
  147.7500    77.1410    10.4000     9.0230     7.9200    24.2360     2.2400   -26.8250 
  147.8750    75.9820    10.2440     9.0200     8.4820    24.3400     2.2260   -26.5860 
  148.0000    73.6470     9.6450     8.7100     8.8800    24.4220     2.2300   -26.3830 
  148.1250    77.2290     8.6750     8.0990     9.2960    24.4970     2.2530   -26.1590 
  148.2500    87.2940     7.6710     7.3980     9.1460    24.5350     2.2810   -26.0080 
  148.3750    96.2400     6.9000     6.7950     7.3970    24.4900     2.3000   -25.8700 
  148.5000    96.9160     6.5630     6.4550     5.9840    24.3490     2.3050   -25.6930 
  148.6250    89.6920     6.8330     6.5550     5.5820    24.2030     2.3050   -25.6660 
  148.7500    81.4970     7.5470     7.0200     5.8970    24.1730     2.3180   -25.5960 
  148.8750    73.5680     8.5220     7.7440     6.9410    24.2290     2.3580   -25.6260 
