~V
VERS. 2.00: Ver 2.00
~W
STRT.M 61.0000:
STOP.M 267.0000:
STEP.M 0.1250:
NULL. -999.2500:
UWI. DF5036:
~C
DEPT.M :
SP.MV :
GR.API :
RML.OHMM :
RI. :
RXO.OHMM :
CALI.CM :
DEN.GM/CC :
~A
# ...
  162.2500   -22.1160    60.3020   195.1170   187.1470   160.7050    24.5950     2.2580 
  162.3750   -22.0250    64.8740   160.7460   156.4930   123.9890    24.5920     2.2710 
  162.5000   -21.9170    66.6950   130.2490   127.9520   102.7060    24.5740     2.2870 
  162.6250   -21.8220    65.9930   108.0720   106.0300    87.2810    24.5300     2.3010 
  162.7500   -21.7210    65.5850    94.2100    91.5080    73.6620    24.4880     2.3100 
  162.8750   -21.6110    66.2740    88.4730    84.6700    65.6910    24.4690     2.3090 
  163.0000   -21.5250    67.3760    90.2390    85.2150    69.4170    24.4660     2.2990 
  163.1250   -21.4530    66.5670    99.8550    93.6530    88.4830    24.4660     2.2860 
  163.2500   -21.3780    63.1000   115.2960   107.9400   116.8610    24.4640     2.2740 
  163.3750   -21.3120    59.6580   135.3700   126.7590   149.8870    24.4300     2.2610 
  163.5000   -21.2670    59.4370   158.3340   148.1710   177.6490    24.3450     2.2430 
  163.6250   -21.2360    61.1450   181.6100   169.3250   198.2170    24.2140     2.2200 
  163.7500   -21.2210    59.9150   202.3720   187.4660   210.2200    24.2040     2.1960 
  163.8750   -21.2100    56.1180   218.5420   200.7500   214.3600    24.2760     2.1820 
  164.0000   -21.1800    53.0400   228.6020   208.0700   213.4020    24.3580     2.1830 
  164.1250   -21.1560    53.5580   230.4380   207.9420   209.7400    24.4340     2.1980 
  164.2500   -21.1430    55.7650   225.4430   201.9570   210.0550    24.4600     2.2180 
  164.3750   -21.1400    57.4140   215.3520   191.7370   210.5840    24.4660     2.2350 
  164.5000   -21.1360    57.6450   203.2380   179.9160   197.0540    24.4660     2.2460 
  164.6250   -21.1220    58.8110   193.1130   170.0020   168.0850    24.4660     2.2520 
  164.7500   -21.0870    61.7020   186.7190   163.6860   148.9550    24.4660     2.2540 
  164.8750   -21.0240    62.4440   183.6250   160.8620   146.3700    24.4610     2.2510 
  165.0000   -20.9400    58.1170   182.0880   160.1590   153.3760    24.4460     2.2450 
  165.1250   -20.8160    53.1470   180.1840   159.8710   163.0100    24.3520     2.2370 
  165.2500   -20.6580    53.1210   177.6780   159.3200   166.5940    24.1230     2.2290 
  165.3750   -20.4780    56.0690   175.6350   159.1480   159.4020    23.7950     2.2240 
  165.5000   -20.2670    58.3400   174.8820   160.0370   144.2700    23.6540     2.2230 
  165.6250   -20.0380    59.2430   174.3360   161.2270   136.6130    23.7470     2.2250 
  165.7500   -19.8330    59.7230   170.9430   160.0560   140.9660    23.8820     2.2260 
  165.8750   -19.6560    60.7820   162.0980   153.9550   149.3390    23.9600     2.2250 
  166.0000   -19.5030    62.6570   147.1120   141.8400   147.4030    24.0590     2.2230 
  166.1250   -19.3930    62.6730   127.8220   124.7160   120.6720    24.2310     2.2210 
  166.2500   -19.3250    59.5650   108.8820   106.8980    88.3590    24.3260     2.2230 
  166.3750   -19.2810    57.7730    93.0430    91.2380    67.4740    24.2480     2.2310 
  166.5000   -19.2570    61.2650    81.5630    79.2920    57.4100    24.0640     2.2440 
  166.6250   -19.2630    66.9250    75.3830    72.2140    54.4400    23.9390     2.2570 
  166.7500   -19.2810    69.2060    73.4860    69.1980    56.1270    23.9190     2.2640 
  166.8750   -19.3220    68.0570    75.6580    70.0800    61.3850    23.9630     2.2610 
  167.0000   -19.3840    66.4800    81.8170    74.7700    69.9710    24.0080     2.2490 
  167.1250   -19.4570    65.0080    92.6410    83.8480    83.9120    23.9020     2.2340 
  167.2500   -19.5240    60.6350   107.4410    96.5730   107.0950    23.7700     2.2200 
  167.3750   -19.5680    54.8650   126.1900   112.8230   135.3120    23.7100     2.2110 
  167.5000   -19.5780    50.1580   148.9800   132.6240   162.5420    23.7590     2.2040 
  167.6250   -19.5400    47.1010   176.3720   156.6950   177.9360    23.9850     2.1960 
  167.7500   -19.4740    45.2480   206.1560   183.6340   182.7560    24.2990     2.1830 
  167.8750   -19.3800    45.6610   234.3540   210.5820   175.7820    24.5200     2.1660 
  168.0000   -19.2530    48.2650   254.2660   231.9610   172.4070    24.5980     2.1450 
  168.1250   -19.0870    48.4850   254.3280   237.1610   179.6090    24.6310     2.1270 
  168.2500   -18.9110    46.3460   232.9150   222.8780   182.5110    24.7390     2.1210 
  168.3750   -18.7490    46.5680   194.5320   191.1100   172.8810    24.9000     2.1310 
  168.5000   -18.6110    51.9360   150.4660   150.6820   141.6700    24.9180     2.1590 
  168.6250   -18.5300    59.3490   114.1060   114.2290    92.9320    24.5540     2.2010 
  168.7500   -18.4790    64.3840    89.1340    87.7900    61.0260    24.1530     2.2450 
  168.8750   -18.4470    66.7530    74.4210    71.5530    51.4090    23.9730     2.2790 
  169.0000   -18.4570    67.4280    67.4380    63.4650    52.0120    23.9420     2.2990 
  169.1250   -18.5270    67.0100    66.4230    61.8540    56.1890    23.9420     2.3030 
  169.2500   -18.6280    66.9330    68.5890    63.7260    61.6340    23.9430     2.2990 
  169.3750   -18.7560    66.4470    72.7730    67.7520    68.7810    23.9500     2.2900 
  169.5000   -18.8890    63.9740    78.2250    72.9990    76.0050    23.9610     2.2760 
  169.6250   -19.0080    62.9550    84.7100    79.0270    83.3720    23.9520     2.2590 
  169.7500   -19.1330    65.8820    92.0680    85.6150    88.6600    23.9120     2.2400 
  169.8750   -19.2670    68.3610   100.4150    92.8860    93.1190    23.9430     2.2250 
  170.0000   -19.3830    65.8820   109.6420   100.8230   100.6780    24.0870     2.2170 
  170.1250   -19.4680    59.4100   118.9210   108.7770   108.2970    24.1220     2.2160 
  170.2500   -19.5250    55.0920   126.6750   115.4120   118.8600    24.0280     2.2200 
  170.3750   -19.5420    53.8630   131.4500   119.3650   123.6920    23.9310     2.2270 
  170.5000   -19.5340    54.1980   132.0800   119.6510   121.1310    23.8980     2.2330 
  170.6250   -19.5110    56.3730   127.4960   115.4240   112.1110    23.8950     2.2370 
  170.7500   -19.4600    58.5260   119.1260   108.0510   101.4880    23.8920     2.2410 
  170.8750   -19.3960    58.0570   108.3700    98.7710    92.3030    23.9340     2.2450 
  171.0000   -19.3370    55.2190    96.5950    89.0630    82.6130    24.0790     2.2510 
  171.1250   -19.3000    55.5130    86.3270    80.6560    72.3570    24.2810     2.2580 
  171.2500   -19.2940    59.4650    79.1660    74.4250    65.4220    24.4200     2.2630 
  171.3750   -19.3330    61.0960    76.2950    70.8270    62.3260    24.5070     2.2630 
  171.5000   -19.4150    58.2430    76.4210    70.0660    64.5030    24.6130     2.2570 
  171.6250   -19.5250    54.4780    80.2210    72.8100    71.2230    24.7270     2.2470 
  171.7500   -19.6680    53.4700    87.2460    78.6950    80.7530    24.7750     2.2360 
  171.8750   -19.8390    54.6530    97.2040    87.5580    94.3940    24.7900     2.2260 
  172.0000   -20.0120    55.4660   109.1790    98.6520   111.3630    24.8050     2.2160 
  172.1250   -20.1380    53.3230   121.4920   110.4750   127.7630    24.8360     2.2060 
  172.2500   -20.2250    50.9850   132.5290   121.2650   138.0870    24.8620     2.1990 
  172.3750   -20.3070    50.9350   141.9800   130.4220   143.2900    24.8680     2.1980 
  172.5000   -20.3950    52.6330   150.6100   138.4130   140.0010    24.8080     2.2020 
  172.6250   -20.4410    53.9010   159.2370   146.0770   128.7410    24.6470     2.2050 
  172.7500   -20.4710    54.4280   166.5250   152.8120   123.5970    24.5240     2.2010 
  172.8750   -20.5010    55.4660   168.7890   155.7520   127.4900    24.5780     2.1900 
  173.0000   -20.4980    56.6870   161.8970   151.1590   132.6510    24.7860     2.1780 
  173.1250   -20.4610    55.8840   143.4480   136.0230   127.1940    24.8410     2.1770 
  173.2500   -20.4510    54.9890   120.6000   115.6460   111.1830    24.7630     2.1900 
  173.3750   -20.4050    58.5880   100.4100    96.1250    87.1910    24.5900     2.2120 
