~V
VERS. 2.00: Ver 2.00
~W
STRT.M 55.0000:
STOP.M 277.0000:
STEP.M 0.1250:
NULL. -999.2500:
UWI. DF5040:
~C
DEPT.M :
GR.API :
CALI.CM :
RXO.OHMM :
RI. :
RML.OHMM :
DEN.GM/CC :
SP.MV :
~A
# ...
  145.0000   100.4280    23.9180     5.6380     5.1890     6.0220     2.2870   -20.5180 
  145.1250   100.1370    23.8280     6.0500     5.6090     6.5470     2.3450   -20.6750 
  145.2500    98.8410    23.8300     6.8100     6.1310     7.1370     2.4100   -20.8780 
  145.3750    94.5590    23.9040     8.1250     6.7050     7.7230     2.4430   -21.1040 
  145.5000    88.6790    24.0090     9.4290     7.2600     8.2310     2.4240   -21.3230 
  145.6250    85.9240    24.0100     9.5760     7.6820     8.5490     2.3720   -21.4940 
  145.7500    86.9070    23.8770     8.8450     7.9290     8.6640     2.3220   -21.6100 
  145.8750    89.5290    23.6900     8.1740     8.0000     8.6000     2.2870   -21.6750 
  146.0000    91.4520    23.5270     7.9090     7.9210     8.4020     2.2640   -21.7020 
  146.1250    91.0700    23.4940     7.9270     7.7170     8.1230     2.2550   -21.7000 
  146.2500    89.7270    23.5310     7.9130     7.4440     7.8200     2.2580   -21.6790 
  146.3750    89.7360    23.5910     7.7710     7.1140     7.4940     2.2730   -21.6380 
  146.5000    92.0040    23.6520     7.5740     6.7270     7.1250     2.3040   -21.5760 
  146.6250    94.8920    23.6930     7.3700     6.2830     6.7030     2.3480   -21.4990 
  146.7500    97.8860    23.6890     7.0130     5.8240     6.2690     2.3870   -21.4220 
  146.8750   102.4750    23.6900     6.2960     5.3960     5.8750     2.4040   -21.3560 
  147.0000   108.8210    23.7690     5.3930     5.0520     5.5800     2.3950   -21.3050 
  147.1250   113.3050    23.9510     4.8180     4.8660     5.4520     2.3670   -21.2720 
  147.2500   112.9320    24.0910     4.6910     4.8430     5.4840     2.3350   -21.2480 
  147.3750   108.5500    24.1410     4.9870     4.9900     5.6820     2.3060   -21.2300 
  147.5000   103.7360    24.1030     5.5770     5.3030     6.0470     2.2930   -21.2160 
  147.6250   100.8940    24.0050     6.2860     5.8070     6.6220     2.3110   -21.2060 
  147.7500    97.9020    23.9530     7.1050     6.4900     7.4010     2.3570   -21.1940 
  147.8750    93.2100    23.9510     8.2000     7.3770     8.4180     2.4140   -21.1690 
  148.0000    87.8000    23.9770     9.7410     8.5000     9.7010     2.4660   -21.1220 
  148.1250    82.7670    24.0040    11.6190     9.9090    11.2990     2.5110   -21.0380 
  148.2500    76.8190    23.9790    13.8590    11.5220    13.0940     2.5610   -20.9260 
  148.3750    69.3740    23.9450    16.8140    13.2340    14.9400     2.6080   -20.8000 
  148.5000    62.0220    23.9300    20.1640    14.8730    16.6360     2.6310   -20.6820 
  148.6250    58.0430    23.9280    22.3060    16.1540    17.8730     2.6230   -20.6000 
  148.7500    57.4850    23.9110    22.3130    16.9650    18.5750     2.6070   -20.5550 
  148.8750    58.5950    23.8780    20.6680    17.2920    18.7740     2.5960   -20.5380 
  149.0000    59.5380    23.8380    18.8740    17.2470    18.6290     2.5880   -20.5330 
  149.1250    59.8060    23.8940    18.4370    16.9900    18.3500     2.5820   -20.5170 
  149.2500    60.1360    23.9370    18.3790    16.7340    18.1470     2.5840   -20.4790 
  149.3750    60.6520    23.9340    18.0790    16.5920    18.1110     2.5970   -20.4160 
  149.5000    61.0260    23.8550    17.6400    16.6340    18.2730     2.6170   -20.3340 
  149.6250    61.4090    23.7400    17.5910    16.9160    18.6490     2.6360   -20.2490 
  149.7500    61.5830    23.7310    18.2190    17.3910    19.1720     2.6480   -20.1880 
  149.8750    60.5730    23.8270    19.0820    18.0200    19.7950     2.6470   -20.1730 
  150.0000    58.0200    23.9280    19.8800    18.7370    20.4400     2.6280   -20.2180 
  150.1250    55.1750    23.9620    20.9970    19.4340    20.9920     2.5960   -20.3320 
  150.2500    53.1110    23.9680    22.7820    19.9980    21.3660     2.5710   -20.4810 
  150.3750    51.7170    23.9460    24.4530    20.3320    21.4920     2.5680   -20.6410 
  150.5000    51.3980    23.8750    24.7330    20.3690    21.3170     2.5830   -20.7890 
  150.6250    53.3800    23.7810    23.2290    20.0310    20.7840     2.5900   -20.9080 
  150.7500    56.8020    23.7420    21.5250    19.3900    19.9760     2.5810   -21.0080 
  150.8750    59.9810    23.7600    20.2280    18.5110    18.9670     2.5640   -21.0980 
  151.0000    61.9360    23.8120    19.1980    17.5110    17.8850     2.5560   -21.1910 
  151.1250    63.7360    23.8250    18.1370    16.5690    16.9220     2.5510   -21.3010 
  151.2500    66.5370    23.8120    17.0690    15.8330    16.2090     2.5340   -21.4300 
  151.3750    69.7580    23.7990    16.0280    15.3960    15.8320     2.5100   -21.5720 
  151.5000    72.0250    23.7870    15.0480    15.3070    15.8370     2.4970   -21.7210 
  151.6250    72.2690    23.7640    14.5940    15.6410    16.2800     2.5050   -21.8640 
  151.7500    71.2240    23.7500    15.3820    16.2960    17.0160     2.5150   -21.9960 
  151.8750    69.2360    23.7480    17.2340    17.1560    17.9050     2.5180   -22.1170 
  152.0000    66.6030    23.7610    19.1300    18.0500    18.7570     2.5150   -22.2340 
  152.1250    64.1770    23.8060    19.9250    18.7260    19.3080     2.5100   -22.3610 
  152.2500    63.0190    23.8320    20.1980    19.0360    19.4340     2.5100   -22.5130 
  152.3750    63.6330    23.8200    20.5980    18.9150    19.1070     2.5200   -22.6930 
  152.5000    65.6440    23.7620    20.9530    18.3860    18.3880     2.5340   -22.9000 
  152.6250    67.6990    23.7390    20.1580    17.5250    17.4010     2.5350   -23.1190 
  152.7500    68.4830    23.7600    18.3980    16.5590    16.3750     2.5240   -23.3300 
  152.8750    68.2600    23.8200    16.6000    15.6380    15.4530     2.5180   -23.5200 
  153.0000    67.9990    23.9100    15.6330    14.8680    14.7330     2.5230   -23.6800 
  153.1250    67.7160    23.9340    15.5200    14.3610    14.3250     2.5280   -23.8100 
  153.2500    66.4810    23.9450    15.2800    14.1210    14.2100     2.5250   -23.9260 
  153.3750    63.9930    23.9710    14.9990    14.1530    14.3690     2.5130   -24.0490 
  153.5000    60.9510    23.9960    14.9890    14.4210    14.7490     2.4960   -24.2020 
  153.6250    58.8430    24.0200    15.5610    14.8770    15.2810     2.4870   -24.4110 
  153.7500    57.9730    24.0300    16.6530    15.4000    15.8480     2.4870   -24.6650 
  153.8750    57.6650    24.0440    17.6500    15.9190    16.3820     2.4850   -24.9420 
  154.0000    57.8680    24.0550    18.1220    16.3730    16.8230     2.4740   -25.2150 
  154.1250    59.9330    24.0320    18.2290    16.6900    17.1150     2.4650   -25.4590 
  154.2500    63.4310    23.9570    18.2810    16.8680    17.2680     2.4740   -25.6730 
  154.3750    66.0650    23.8300    18.3510    16.9190    17.2940     2.4950   -25.8660 
  154.5000    66.2540    23.6790    18.3700    16.8600    17.2090     2.5130   -26.0440 
  154.6250    65.0430    23.5230    18.0460    16.6920    17.0110     2.5170   -26.2060 
  154.7500    65.4870    23.4460    17.4580    16.4510    16.7350     2.5180   -26.3530 
  154.8750    67.6270    23.4360    16.9240    16.1550    16.4070     2.5230   -26.4840 
  155.0000    68.7030    23.4730    16.7730    15.8280    16.0580     2.5290   -26.5950 
  155.1250    66.3810    23.5370    16.8310    15.4930    15.7080     2.5330   -26.6740 
  155.2500    63.6550    23.5930    16.4580    15.1690    15.3730     2.5340   -26.7140 
  155.3750    63.0680    23.6430    15.6070    14.8730    15.0660     2.5280   -26.7090 
  155.5000    63.7210    23.7230    14.9250    14.6180    14.7990     2.5120   -26.6640 
  155.6250    62.8460    23.7890    15.0570    14.4310    14.6020     2.5010   -26.5930 
  155.7500    60.2900    23.8190    15.3950    14.3150    14.4790     2.5050   -26.5260 
  155.8750    57.7090    23.8010    15.0870    14.2830    14.4520     2.5160   -26.4870 
  156.0000    56.5140    23.7880    14.1150    14.3450    14.5380     2.5140   -26.4940 
  156.1250    56.9230    23.7540    13.4280    14.5180    14.7400     2.4960   -26.5650 
