~V
VERS. 2.00: Ver 2.00
~W
STRT.M 60.0000:
STOP.M 248.0000:
STEP.M 0.1250:
NULL. -999.2500:
UWI. DF5054:
~C
DEPT.M :
SP.MV :
GR.API :
CALI.CM :
RXO.OHMM :
RI. :
RML.OHMM :
DEN.GM/CC :
~A
# ...
  217.5000   -22.2320    69.9790    24.1880   106.3140    84.9470    92.2750     2.2290 
  217.6250   -22.3140    75.3980    24.2010   104.4980    83.9390    91.0370     2.2470 
  217.7500   -22.4090    76.3940    24.2500   103.3540    82.2590    89.0220     2.2710 
  217.8750   -22.5080    73.4180    24.2280   103.9430    80.0560    86.4270     2.3040 
  218.0000   -22.6010    71.2960    24.1480   103.8770    77.4940    83.4810     2.3390 
  218.1250   -22.6670    72.8390    24.0830    97.9710    74.7580    80.4260     2.3630 
  218.2500   -22.6920    74.6200    24.0620    87.9890    72.0030    77.4100     2.3830 
  218.3750   -22.6670    75.0230    24.0090    79.9540    69.2050    74.3700     2.4160 
  218.5000   -22.5890    74.5230    23.8740    77.9510    66.2690    71.1590     2.4710 
  218.6250   -22.4540    73.7610    23.7260    77.6050    63.1770    67.6940     2.5240 
  218.7500   -22.2800    73.0350    23.5910    69.8330    60.2180    64.2570     2.5350 
  218.8750   -22.0730    72.5550    23.4930    58.6100    57.7880    61.2860     2.4970 
  219.0000   -21.8370    72.2100    23.4830    52.5950    56.3340    59.3190     2.4350 
  219.1250   -21.5800    71.8050    23.6220    52.6000    56.5500    59.1970     2.3930 
  219.2500   -21.3240    71.6030    23.8780    53.5750    58.2550    60.7850     2.3830 
  219.3750   -21.0830    71.8060    24.1240    57.1310    60.5630    63.2350     2.3930 
  219.5000   -20.8680    72.2630    24.2630    70.6240    61.6680    64.8200     2.4110 
  219.6250   -20.6940    73.5150    24.2600    96.7500    58.8530    62.9040     2.4370 
  219.7500   -20.5690    75.8120    24.2190   116.7190    52.0930    56.9790     2.4800 
  219.8750   -20.5040    79.0280    24.1000   121.1240    42.6880    47.7240     2.5360 
  220.0000   -20.5140    83.8220    23.9590   112.1500    32.7040    36.9260     2.5870 
  220.1250   -20.6350    91.1160    23.8250    91.3230    24.2800    27.0430     2.5960 
  220.2500   -20.8550    97.5420    23.7780    61.9510    18.0170    19.4380     2.5690 
  220.3750   -21.1610    99.2710    23.8130    33.9450    13.8700    14.4000     2.5310 
  220.5000   -21.5290    95.8840    23.9250    16.3400    11.4530    11.5780     2.5040 
  220.6250   -21.9400    90.5910    24.0650    10.4460    10.3840    10.4680     2.4880 
  220.7500   -22.3610    86.1710    24.1670     9.1110     9.9890    10.1340     2.4620 
  220.8750   -22.7740    83.1920    24.2530     8.8380     9.9760    10.1760     2.4260 
  221.0000   -23.1560    81.9810    24.3130     8.6740    10.1270    10.3390     2.3980 
  221.1250   -23.4710    83.2860    24.3370     8.6080    10.2650    10.4410     2.3920 
  221.2500   -23.7210    89.0060    24.3400     8.7260    10.3270    10.4470     2.4000 
  221.3750   -23.9220   101.1950    24.3390     9.0270    10.3690    10.4440     2.4080 
  221.5000   -24.1010   116.8890    24.3340     9.3930    10.4760    10.5600     2.4140 
  221.6250   -24.2810   127.4300    24.3300     9.6330    10.7620    10.9460     2.4230 
  221.7500   -24.4780   129.5130    24.3390     9.7400    11.2730    11.6360     2.4330 
  221.8750   -24.6960   126.3410    24.3410    10.1350    12.0540    12.6780     2.4350 
  222.0000   -24.9340   122.0060    24.3100    11.4950    13.1240    14.0910     2.4220 
  222.1250   -25.1990   117.5220    24.2460    14.3620    14.5150    15.9150     2.3950 
  222.2500   -25.4860   112.7160    24.1790    17.4650    16.1230    18.0110     2.3680 
  222.3750   -25.7920   107.9280    24.1430    19.7740    17.8660    20.2660     2.3540 
  222.5000   -26.1060   103.5720    24.1100    21.6040    19.6480    22.5460     2.3600 
  222.6250   -26.4080   101.2770    24.0580    24.3770    21.3640    24.7260     2.3730 
  222.7500   -26.6840   101.3410    24.0260    27.9730    22.9760    26.7770     2.3710 
  222.8750   -26.9330   100.6010    24.0010    31.2650    24.5070    28.7420     2.3540 
  223.0000   -27.1610    94.9830    23.9720    33.2460    26.0240    30.7100     2.3340 
  223.1250   -27.3660    86.2350    23.9100    33.8190    27.5980    32.7660     2.3280 
  223.2500   -27.5480    82.0500    23.8260    34.2030    29.2070    34.8590     2.3320 
  223.3750   -27.7030    84.6340    23.7670    35.6930    30.7730    36.8500     2.3360 
  223.5000   -27.8290    89.5450    23.7720    39.1660    32.1620    38.5410     2.3350 
  223.6250   -27.9230    90.6000    23.8600    44.7550    33.1590    39.6340     2.3320 
  223.7500   -27.9920    87.5660    23.9470    49.5740    33.7230    40.1190     2.3350 
  223.8750   -28.0380    83.3850    23.9960    51.2680    33.9020    40.0850     2.3460 
  224.0000   -28.0550    80.3700    23.9870    49.1270    33.8730    39.7800     2.3590 
  224.1250   -28.0270    79.1990    23.9860    44.2550    33.9290    39.6000     2.3640 
  224.2500   -27.9550    79.0600    23.9990    39.9820    34.2800    39.8200     2.3640 
  224.3750   -27.8410    79.3730    24.0040    39.1290    34.9770    40.4920     2.3640 
  224.5000   -27.6930    80.2320    24.0040    42.3850    35.9150    41.4560     2.3680 
  224.6250   -27.5110    83.1730    24.0110    47.9540    36.8340    42.3650     2.3750 
  224.7500   -27.3130    87.3850    24.0260    51.8870    37.4530    42.8830     2.3720 
  224.8750   -27.1060    90.0860    24.0340    52.7210    37.5950    42.8240     2.3510 
  225.0000   -26.8950    89.3370    24.0260    50.5430    37.2040    42.1520     2.3180 
  225.1250   -26.6890    86.7060    23.9840    46.4340    36.3480    40.9780     2.2910 
  225.2500   -26.5000    85.4420    23.9140    42.2510    35.3520    39.6910     2.2820 
  225.3750   -26.3340    85.3510    23.8300    39.4470    34.4520    38.5820     2.2880 
  225.5000   -26.1980    85.1770    23.7670    38.8950    33.8380    37.8710     2.2910 
  225.6250   -26.0960    86.1400    23.7910    38.8310    33.7240    37.7920     2.2820 
  225.7500   -26.0130    89.4560    23.8880    37.9110    34.1270    38.3370     2.2730 
  225.8750   -25.9410    92.0720    24.0010    36.7620    35.1070    39.5610     2.2790 
  226.0000   -25.8770    90.0940    24.0680    37.0690    36.7070    41.4920     2.2950 
  226.1250   -25.8210    85.1720    24.0620    40.1210    39.0050    44.1870     2.3050 
  226.2500   -25.7650    82.8940    24.0700    45.0760    41.8110    47.4080     2.3030 
  226.3750   -25.7000    83.1410    24.1160    51.0880    45.0080    51.0110     2.2970 
  226.5000   -25.6150    82.1330    24.1570    57.0130    48.4330    54.8180     2.2950 
  226.6250   -25.4950    78.1460    24.1130    62.2680    51.8540    58.5820     2.2970 
  226.7500   -25.3380    74.2220    23.9750    69.0630    55.0590    62.0860     2.2990 
  226.8750   -25.1350    72.3030    23.8430    76.2780    57.8910    65.1670     2.3000 
  227.0000   -24.8830    72.2240    23.8800    80.5050    60.1850    67.6460     2.2990 
  227.1250   -24.5750    72.1970    24.0440    81.7800    61.6750    69.2100     2.3000 
  227.2500   -24.2140    71.3240    24.1390    84.3030    62.3990    69.8870     2.3040 
  227.3750   -23.7960    70.6490    24.1660    89.4180    62.3170    69.6360     2.3100 
  227.5000   -23.3200    71.6270    24.1780    94.6610    61.4240    68.4580     2.3100 
  227.6250   -22.7820    74.0520    24.1880    95.8230    59.7380    66.3850     2.3020 
  227.7500   -22.2060    75.3510    24.1690    91.6550    57.5550    63.7730     2.2990 
  227.8750   -21.6020    74.7480    24.1020    84.7130    54.9840    60.7610     2.3150 
  228.0000   -20.9770    74.5570    24.0010    80.6710    52.1110    57.4470     2.3530 
  228.1250   -20.3280    77.2410    23.9160    80.1950    49.0310    53.9300     2.3910 
  228.2500   -19.6720    79.2480    23.8750    77.6770    45.9220    50.3770     2.4080 
  228.3750   -19.0260    76.8950    23.8580    70.6930    42.9430    46.9380     2.4070 
  228.5000   -18.4050    71.7210    23.8580    61.9810    40.2480    43.7760     2.4020 
  228.6250   -17.8280    70.5040    23.9090    55.1740    38.0040    41.1010     2.4060 
