~V
VERS. 2.00: Ver 2.00
~W
STRT.M 62.0000:
STOP.M 250.0000:
STEP.M 0.1250:
NULL. -999.2500:
UWI. DF5059:
~C
DEPT.M :
SP.MV :
GR.API :
RML.OHMM :
RI. :
RXO.OHMM :
CALI.CM :
DEN.GM/CC :
~A
# ...
  230.7500    -7.2940    75.1510    10.5880     9.8730    10.2120    24.0860     2.4030 
  230.8750    -7.2650    82.3580    10.5030     9.8020     9.9440    24.0590     2.4130 
  231.0000    -7.2290    83.0200    10.4830     9.7540     9.8060    24.0570     2.4080 
  231.1250    -7.2670    79.6860    10.4910     9.7380     9.7370    24.0470     2.3930 
  231.2500    -7.3140    81.6830    10.4950     9.7540     9.5760    24.0610     2.3760 
  231.3750    -7.3600    87.1530    10.4970     9.8100     9.2250    24.1120     2.3620 
  231.5000    -7.4040    85.6850    10.4950     9.9000     8.9250    24.0760     2.3540 
  231.6250    -7.4450    79.0060    10.4930    10.0010     8.9340    23.8590     2.3580 
  231.7500    -7.4760    79.1480    10.4920    10.0700     9.2010    23.6630     2.3710 
  231.8750    -7.5080    85.1080    10.4990    10.0780     9.5440    23.5120     2.3880 
  232.0000    -7.5430    89.4230    10.5150    10.0190     9.8290    23.3980     2.4010 
  232.1250    -7.5630    88.6360    10.5680     9.9310     9.9340    23.4510     2.3980 
  232.2500    -7.5900    85.8920    10.6580     9.8830    10.0040    23.6240     2.3830 
  232.3750    -7.5990    81.9240    10.7700     9.9120    10.2630    23.7190     2.3620 
  232.5000    -7.5830    78.3650    10.8970    10.0090    10.9010    23.7600     2.3470 
  232.6250    -7.5710    76.9320    10.9860    10.0980    11.7480    23.7310     2.3480 
  232.7500    -7.5910    74.6900    10.9310    10.0850    12.0090    23.7160     2.3630 
  232.8750    -7.6080    71.3380    10.6990     9.9200    11.1820    23.6380     2.3800 
  233.0000    -7.5870    71.7300    10.3300     9.6130     9.5540    23.5670     2.3890 
  233.1250    -7.5500    78.3310     9.9250     9.2360     8.3420    23.5400     2.3860 
  233.2500    -7.5440    84.6770     9.6030     8.9060     8.0680    23.5400     2.3800 
  233.3750    -7.5420    87.0130     9.4230     8.6890     8.3300    23.5620     2.3810 
  233.5000    -7.5000    87.0840     9.4060     8.6180     8.8170    23.6140     2.3910 
  233.6250    -7.4400    87.1630     9.5730     8.7190     9.2360    23.6940     2.4000 
  233.7500    -7.4110    87.6250     9.8690     8.9420     9.1850    23.7310     2.3980 
  233.8750    -7.4090    87.1500    10.2460     9.2470     8.7200    23.7160     2.3820 
  234.0000    -7.4190    85.3540    10.6280     9.5700     8.0430    23.6560     2.3580 
  234.1250    -7.4040    81.1290    10.8920     9.8100     7.3860    23.6120     2.3390 
  234.2500    -7.3930    76.7360    10.9690     9.8950     7.0100    23.5740     2.3350 
  234.3750    -7.4320    77.5810    10.8590     9.8040     6.7800    23.5480     2.3450 
  234.5000    -7.4900    86.5400    10.6550     9.5860     6.6270    23.5440     2.3650 
  234.6250    -7.5120    97.6290    10.5220     9.3790     6.6670    23.5620     2.3830 
  234.7500    -7.5200    99.5070    10.6050     9.3390     7.2040    23.5780     2.3920 
  234.8750    -7.5590    93.7730    10.9390     9.5610     8.7860    23.6130     2.3890 
  235.0000    -7.6220    87.6420    11.5080    10.0660    11.8930    23.6240     2.3770 
  235.1250    -7.6710    85.6070    12.1370    10.7950    16.3930    23.6420     2.3670 
  235.2500    -7.7070    81.8960    12.6880    11.5370    20.5160    23.6710     2.3670 
  235.3750    -7.7470    76.0240    13.1290    12.1100    22.6870    23.6630     2.3810 
  235.5000    -7.8220    72.8660    13.2940    12.3730    21.7000    23.5770     2.4070 
  235.6250    -7.9050    73.9620    13.0190    12.2270    16.6830    23.4880     2.4310 
  235.7500    -7.9550    75.8110    12.4890    11.8130    13.1840    23.4150     2.4400 
  235.8750    -7.9770    76.2390    11.8490    11.2560    11.2040    23.3460     2.4310 
  236.0000    -8.0150    74.9220    11.2150    10.6660     9.6560    23.2660     2.4130 
  236.1250    -8.0510    73.6260    10.6650    10.1270     7.8840    23.1760     2.3970 
  236.2500    -8.0420    74.7840    10.2080     9.6610     7.1700    23.0150     2.3880 
  236.3750    -7.9680    79.2750     9.8560     9.2820     7.5750    22.7720     2.3820 
  236.5000    -7.8850    86.4520     9.6380     9.0120     8.4890    22.5850     2.3750 
  236.6250    -7.8550    89.6290     9.6310     8.9210     9.6550    22.5930     2.3640 
  236.7500    -7.8440    86.4280     9.8410     9.0250    10.8450    22.7310     2.3520 
  236.8750    -7.8010    82.7650    10.2660     9.3410    12.4630    22.9580     2.3490 
  237.0000    -7.7240    83.8190    10.8600     9.8440    14.0470    23.1110     2.3610 
  237.1250    -7.6990    85.2780    11.5300    10.4710    14.2990    23.1240     2.3890 
  237.2500    -7.6840    82.3870    12.1350    11.0840    13.9390    23.1220     2.4200 
  237.3750    -7.6820    80.6000    12.5770    11.5770    13.7450    23.1690     2.4410 
  237.5000    -7.6860    82.2960    12.7990    11.8760    13.6340    23.2910     2.4430 
  237.6250    -7.6880    81.9610    12.7800    11.9300    13.1210    23.4670     2.4300 
  237.7500    -7.6390    80.8110    12.6200    11.8180    12.5350    23.5300     2.4160 
  237.8750    -7.6030    81.5440    12.3920    11.6080    11.8280    23.4780     2.4100 
  238.0000    -7.6230    82.7240    12.1570    11.3680    10.9920    23.3640     2.4150 
  238.1250    -7.6370    83.3780    11.9530    11.1570    10.2910    23.4140     2.4220 
  238.2500    -7.6700    87.2180    11.7810    10.9920     9.8480    23.5460     2.4250 
  238.3750    -7.7220    91.1170    11.6330    10.8710     9.8030    23.6520     2.4210 
  238.5000    -7.7920    90.0440    11.5050    10.7830    10.4590    23.6540     2.4110 
  238.6250    -7.8730    85.5880    11.4040    10.7250    11.5040    23.6400     2.3960 
  238.7500    -8.0100    82.1180    11.3440    10.7010    12.5980    23.6300     2.3830 
  238.8750    -8.1430    82.1200    11.3320    10.7180    13.3120    23.5850     2.3730 
  239.0000    -8.2050    85.3570    11.3550    10.7700    13.5330    23.5530     2.3710 
  239.1250    -8.2290    88.5840    11.3640    10.8220    13.5550    23.5560     2.3790 
  239.2500    -8.2400    88.4280    11.2910    10.8180    12.8890    23.5890     2.3940 
  239.3750    -8.2470    85.9920    11.0850    10.7120    12.1970    23.6140     2.4100 
  239.5000    -8.2270    82.6500    10.7380    10.4810    11.3440    23.6690     2.4220 
  239.6250    -8.1780    77.6080    10.2910    10.1390    10.7810    23.6600     2.4280 
  239.7500    -8.1340    73.7810     9.8620     9.7750    10.3210    23.5970     2.4280 
  239.8750    -8.1320    74.1080     9.5440     9.4720     9.8280    23.5440     2.4230 
  240.0000    -8.2010    74.4040     9.3990     9.2970     9.4190    23.5180     2.4130 
  240.1250    -8.3220    74.4040     9.4540     9.3020     9.4360    23.5240     2.3900 
  240.2500    -8.4620    74.4040     9.6120     9.4250     9.6210    23.5520     2.3570 
  240.3750    -8.6070    74.4040     9.7760     9.5840     9.4630    23.5530     2.3240 
  240.5000    -8.7360    74.4040     9.8480     9.6830     8.8450    23.4960     2.2990 
  240.6250    -8.8390    74.4040     9.7420     9.6220     8.1550    23.3740     2.2980 
  240.7500    -8.9480    74.4040     9.5090     9.4200     7.7510    23.3070     2.3180 
  240.8750    -9.0440    74.4040     9.2400     9.1490     7.8380    23.2420     2.3520 
  241.0000    -9.0880    74.4040     9.0510     8.9170     8.4810    23.2700     2.3890 
  241.1250    -9.1220    74.4040     9.0830     8.8590     9.8340    23.3560     2.4180 
  241.2500    -9.1910    74.4040     9.3470     9.0080    10.9590    23.3660     2.4330 
  241.3750    -9.2590    74.4040     9.8170     9.3510    11.2400    23.3320     2.4330 
  241.5000    -9.3120    74.4040    10.4280     9.8390    11.6400    23.3610     2.4210 
  241.6250    -9.4090    74.4040    11.0830    10.3940    12.0140    23.4390     2.4020 
  241.7500    -9.5330    74.4040    11.6790    10.9200    12.7650    23.4980     2.3860 
  241.8750    -9.6210    74.4040    12.1580    11.3590    13.4590    23.5590     2.3810 
