~V
VERS. 2.00: Ver 2.00
~W
STRT.M 57.0000:
STOP.M 276.0000:
STEP.M 0.1250:
NULL. -999.2500:
UWI. DF5005:
~C
DEPT.M :
GR.API :
RML.OHMM :
RI. :
RXO.OHMM :
CALI.CM :
DEN.GM/CC :
SP.MV :
~A
# ...
  147.0000    64.6510    11.6780    10.5360    11.1380    23.6830     2.1820   -22.8760 
  147.1250    62.6980    12.0410    10.8720    11.4490    23.6810     2.1930   -22.5510 
  147.2500    61.6780    12.6590    11.4440    12.6910    23.6800     2.2080   -22.0850 
  147.3750    60.4670    13.4040    12.1370    16.2230    23.6860     2.2270   -21.4930 
  147.5000    61.6430    13.9370    12.6230    21.9300    23.7130     2.2430   -20.7910 
  147.6250    67.6180    13.9240    12.5980    28.1340    23.7380     2.2530   -20.0110 
  147.7500    76.4580    13.1800    11.9080    32.3280    23.7410     2.2520   -19.2340 
  147.8750    81.7530    11.7840    10.6400    29.2770    23.6530     2.2410   -18.4710 
  148.0000    83.8490    10.2150     9.2780    18.9540    23.4460     2.2300   -17.7470 
  148.1250    85.5410     8.8240     8.1400    10.6210    23.2110     2.2230   -17.1240 
  148.2500    86.9550     7.8530     7.3550     7.6050    23.0790     2.2240   -16.5780 
  148.3750    85.4860     7.2970     6.9380     7.0220    23.0610     2.2320   -16.0310 
  148.5000    84.2390     7.1650     6.6590     6.8520    23.0830     2.2420   -15.5450 
  148.6250    86.5150     6.9140     6.3920     6.6300    23.1340     2.2530   -15.1520 
  148.7500    92.5150     6.6970     6.2170     6.3540    23.2070     2.2640   -14.7700 
  148.8750   100.8710     6.4760     6.0740     6.0700    23.3110     2.2750   -14.3670 
  149.0000   107.6470     6.3460     5.9280     5.8260    23.3850     2.2840   -13.9970 
  149.1250   110.5360     6.2760     5.7940     5.7110    23.4110     2.2940   -13.6780 
  149.2500   110.3780     6.2910     5.7190     5.6910    23.4040     2.3040   -13.3950 
  149.3750   110.0300     6.4050     5.7340     5.6780    23.3670     2.3140   -13.1970 
  149.5000   109.9470     6.5400     5.8140     5.6620    23.3130     2.3190   -13.0930 
  149.6250   107.4860     6.6460     5.9290     5.7620    23.2800     2.3180   -13.0430 
  149.7500   102.0080     6.7230     6.0480     5.9300    23.2520     2.3090   -13.0100 
  149.8750    96.2550     6.7320     6.1320     6.0260    23.1910     2.2960   -13.0110 
  150.0000    94.7990     6.7380     6.1730     6.0610    23.1160     2.2840   -13.0670 
  150.1250    97.9490     6.7440     6.1780     6.0500    23.0830     2.2770   -13.1230 
  150.2500   102.1440     6.7460     6.1700     6.0950    23.0720     2.2740   -13.1490 
  150.3750   103.8330     6.7990     6.1830     6.3120    23.0560     2.2740   -13.1990 
  150.5000   103.5920     6.8760     6.2250     6.7310    23.0730     2.2750   -13.2700 
  150.6250   102.4730     6.9310     6.2790     7.0800    23.2070     2.2760   -13.3010 
  150.7500   101.4540     6.9280     6.3080     7.0490    23.4710     2.2790   -13.2640 
  150.8750   101.4800     6.8440     6.2480     6.7640    23.8370     2.2870   -13.2160 
  151.0000   103.2560     6.7030     6.0840     6.3420    24.1240     2.2940   -13.1470 
  151.1250   106.5700     6.5230     5.8300     5.9960    24.2490     2.2960   -13.0230 
  151.2500   110.7350     6.3140     5.5280     5.7670    24.2790     2.2920   -12.8900 
  151.3750   112.2820     6.0860     5.2460     5.6080    24.3910     2.2850   -12.7540 
  151.5000   112.2080     5.8800     5.0410     5.5200    24.5640     2.2830   -12.5840 
  151.6250   112.3630     5.7510     4.9450     5.5310    24.5900     2.2900   -12.4100 
  151.7500   112.4030     5.7550     4.9780     5.5950    24.5310     2.3060   -12.3150 
  151.8750   109.7050     5.9720     5.1740     5.7190    24.4810     2.3240   -12.3150 
  152.0000   105.0480     6.3840     5.5120     6.0080    24.4660     2.3420   -12.3150 
  152.1250   100.8920     6.9490     5.9720     6.4970    24.4710     2.3600   -12.3190 
  152.2500    97.9850     7.5770     6.5070     7.1110    24.4390     2.3790   -12.3630 
  152.3750    96.6460     8.1180     7.0210     7.8040    24.4170     2.3970   -12.4450 
  152.5000    96.1300     8.4590     7.4190     8.3610    24.4350     2.4080   -12.5300 
  152.6250    94.9190     8.5490     7.6410     8.5510    24.4880     2.4090   -12.6240 
  152.7500    93.2980     8.4130     7.6770     8.2330    24.5270     2.4000   -12.7100 
  152.8750    92.6530     8.1230     7.5500     8.0690    24.5400     2.3860   -12.7640 
  153.0000    93.0790     7.7970     7.3490     7.9920    24.5370     2.3720   -12.8460 
  153.1250    93.4510     7.4950     7.1300     7.9450    24.5250     2.3580   -12.9420 
  153.2500    95.3880     7.2700     6.9410     7.8310    24.4980     2.3430   -12.9950 
  153.3750    99.4850     7.2070     6.8350     7.1530    24.4830     2.3290   -13.0390 
  153.5000   100.8200     7.3210     6.8200     6.8970    24.4750     2.3200   -13.1170 
  153.6250    99.1910     7.5830     6.8810     6.9590    24.4710     2.3170   -13.1850 
  153.7500    96.4670     7.8990     6.9730     7.1850    24.4610     2.3210   -13.2500 
  153.8750    94.2970     8.0900     7.0170     7.3390    24.4450     2.3270   -13.3400 
  154.0000    93.9780     8.0470     6.9630     7.3010    24.4220     2.3320   -13.3810 
  154.1250    96.2510     7.7180     6.8060     7.1050    24.4110     2.3320   -13.4130 
  154.2500    98.6670     7.2000     6.5930     6.8980    24.3950     2.3290   -13.4870 
  154.3750    96.5270     6.7490     6.4290     6.9020    24.3540     2.3250   -13.5510 
  154.5000    92.5440     6.6820     6.4320     7.2980    24.3080     2.3240   -13.5200 
  154.6250    91.1240     7.2650     6.7390     7.9970    24.3050     2.3290   -13.4940 
  154.7500    89.4600     8.7770     7.5130     8.9880    24.3520     2.3430   -13.5110 
  154.8750    82.2000    11.3150     8.9920    10.6190    24.3920     2.3740   -13.4770 
  155.0000    71.8050    14.3410    11.0130    12.8570    24.4030     2.4180   -13.4060 
  155.1250    63.3590    17.0920    13.2340    15.7150    24.3820     2.4700   -13.3450 
  155.2500    58.9250    19.0820    15.0660    18.5850    24.3060     2.5200   -13.2960 
  155.3750    55.0650    19.2440    15.6120    19.8120    24.1640     2.5460   -13.2800 
  155.5000    52.6290    17.7030    14.7920    18.9010    24.0970     2.5410   -13.3200 
  155.6250    55.2770    15.1970    13.0550    16.3650    24.1270     2.5080   -13.4090 
  155.7500    61.9240    12.8660    11.2290    12.9190    24.1480     2.4600   -13.5270 
  155.8750    65.9680    11.8580    10.1800    10.7870    24.0830     2.4220   -13.6510 
  156.0000    64.5040    12.2910    10.1460    11.3580    23.9910     2.4080   -13.8040 
  156.1250    60.0060    14.0210    11.1880    14.1550    23.9050     2.4220   -13.9830 
  156.2500    55.8050    16.6840    13.2170    17.8800    23.8530     2.4560   -14.1540 
  156.3750    52.1020    19.7130    15.9930    21.2860    23.8260     2.4940   -14.2530 
  156.5000    48.8280    22.3710    18.8220    22.9780    23.8450     2.5250   -14.3300 
  156.6250    47.0670    24.1890    21.1140    22.9180    23.9270     2.5450   -14.3940 
  156.7500    47.5520    24.9320    22.4250    22.3130    24.0510     2.5570   -14.3970 
  156.8750    49.9950    24.3730    22.3730    22.1100    24.1720     2.5590   -14.3540 
  157.0000    52.3340    22.7480    21.2310    21.9770    24.2880     2.5500   -14.3050 
  157.1250    54.3200    20.2200    19.2430    21.3360    24.3910     2.5230   -14.2740 
  157.2500    55.8480    17.1900    16.8080    19.0380    24.5000     2.4780   -14.2310 
  157.3750    57.8490    14.3890    14.4760    15.0870    24.5230     2.4200   -14.1700 
  157.5000    62.3740    12.3560    12.6180    11.1800    24.5260     2.3670   -14.1480 
  157.6250    67.1950    11.1990    11.3050     9.7360    24.5230     2.3300   -14.0940 
  157.7500    69.0810    10.7000    10.4350    10.1550    24.5240     2.3160   -13.9920 
  157.8750    68.3580    10.5280     9.8800    10.8970    24.5070     2.3220   -13.9060 
  158.0000    70.7960    10.4420     9.5270    10.9480    24.4640     2.3340   -13.8940 
  158.1250    77.5380    10.5580     9.4640     9.9560    24.4200     2.3440   -13.8720 
