~V
VERS. 2.00: Ver 2.00
~W
STRT.M 59.0000:
STOP.M 264.0000:
STEP.M 0.1250:
NULL. -999.2500:
UWI. DF5022:
~C
DEPT.M :
GR.API :
CALI.CM :
RXO.OHMM :
RI. :
RML.OHMM :
SP.MV :
DEN.GM/CC :
~A
# ...
  115.2500    57.7070    23.1110     7.5120     6.9060     7.7620   -34.6690     2.1700 
  115.3750    57.5610    23.1070     7.5930     6.9530     7.7450   -34.6460     2.1590 
  115.5000    56.5960    23.1080     7.8940     6.9450     7.6770   -34.5500     2.1550 
  115.6250    57.0040    23.1080     7.9160     6.9060     7.5930   -34.3770     2.1540 
  115.7500    57.3430    23.1080     7.5910     6.8860     7.5430   -34.1330     2.1520 
  115.8750    56.8110    23.1080     7.2910     6.9220     7.5610   -33.8980     2.1500 
  116.0000    57.7120    23.1090     7.2860     7.0170     7.6400   -33.6170     2.1500 
  116.1250    62.3710    23.1050     7.3750     7.1020     7.6940   -33.3580     2.1520 
  116.2500    67.5540    23.1020     7.4330     7.0640     7.6060   -33.0190     2.1540 
  116.3750    69.2240    23.1950     7.3950     6.8260     7.3080   -32.7400     2.1590 
  116.5000    68.4020    23.4770     7.1860     6.4020     6.8290   -32.4460     2.1750 
  116.6250    71.1730    23.8910     6.1470     5.9080     6.3100   -32.1730     2.2140 
  116.7500    77.2780    24.2030     4.9150     5.4930     5.9140   -31.9150     2.2600 
  116.8750    82.2830    24.3330     4.3260     5.2330     5.7060   -31.6800     2.2860 
  117.0000    83.6630    24.3490     4.6000     5.1360     5.6650   -31.4820     2.2730 
  117.1250    84.2550    24.3490     5.4200     5.1590     5.6980   -31.2630     2.2380 
  117.2500    84.1480    24.3740     5.7830     5.1830     5.6700   -31.0640     2.2230 
  117.3750    81.9450    24.4210     5.4430     5.1380     5.5380   -30.9580     2.2380 
  117.5000    79.4910    24.4610     5.2650     5.0280     5.3620   -30.9090     2.2630 
  117.6250    80.6880    24.4680     5.3090     4.9700     5.3210   -30.8430     2.2740 
  117.7500    84.2190    24.4610     5.0760     5.0840     5.5160   -30.7960     2.2820 
  117.8750    86.9590    24.4580     5.1760     5.4160     5.9490   -30.6750     2.3040 
  118.0000    87.1500    24.4580     6.2560     5.9120     6.5080   -30.5730     2.3440 
  118.1250    83.9680    24.4590     9.1840     6.3580     6.9230   -30.4730     2.3800 
  118.2500    80.3160    24.4680    10.6850     6.5080     6.9660   -30.4910     2.3900 
  118.3750    78.9880    24.4690     9.0020     6.2890     6.6160   -30.5270     2.3730 
  118.5000    80.3330    24.4180     5.9550     5.8410     6.0730   -30.6280     2.3440 
  118.6250    80.9130    24.3030     5.0890     5.4290     5.6590   -30.7200     2.3230 
  118.7500    78.2660    24.2010     4.8980     5.2280     5.5380   -30.8480     2.3080 
  118.8750    74.7990    24.1330     5.2480     5.2850     5.7180   -31.0350     2.2930 
  119.0000    71.9040    24.0530     5.8240     5.5500     6.0990   -31.2500     2.2790 
  119.1250    70.8390    23.9370     6.4850     5.8740     6.4730   -31.4970     2.2740 
  119.2500    71.0260    23.8520     6.5560     6.0670     6.6480   -31.6860     2.2780 
  119.3750    72.1470    23.8230     6.0710     6.0550     6.5620   -31.7290     2.2820 
  119.5000    74.4480    23.8240     5.4570     5.8810     6.2840   -31.6890     2.2810 
  119.6250    77.3100    23.8360     5.2460     5.6720     5.9910   -31.7220     2.2790 
  119.7500    78.4610    23.8610     5.0300     5.5500     5.8370   -31.7350     2.2780 
  119.8750    76.6140    23.8850     5.0430     5.5530     5.8610   -31.7630     2.2780 
  120.0000    73.2990    23.9250     5.3360     5.6490     6.0070   -31.7380     2.2730 
  120.1250    72.5030    24.0060     5.7430     5.7410     6.1290   -31.6510     2.2610 
  120.2500    74.4320    24.0880     5.8760     5.7300     6.0990   -31.5490     2.2490 
  120.3750    78.7270    24.1600     5.7220     5.5790     5.8870   -31.4930     2.2430 
  120.5000    83.4430    24.2670     5.3960     5.3280     5.5650   -31.4760     2.2450 
  120.6250    85.1890    24.4340     4.9420     5.0870     5.2970   -31.4150     2.2570 
  120.7500    83.7960    24.5590     4.6970     4.9730     5.2200   -31.3720     2.2700 
  120.8750    81.1650    24.5720     4.7000     5.0510     5.3880   -31.2700     2.2780 
  121.0000    77.6990    24.5020     5.1140     5.3190     5.7670   -31.2080     2.2750 
  121.1250    75.0930    24.4250     6.0010     5.6930     6.2150   -31.1830     2.2680 
  121.2500    75.1690    24.3970     7.1170     5.9810     6.5080   -31.1770     2.2730 
  121.3750    77.1210    24.4390     8.2520     6.0380     6.5020   -31.0890     2.2960 
  121.5000    79.1790    24.5160     7.6650     5.8220     6.1920   -30.9640     2.3260 
  121.6250    80.5640    24.5720     5.9800     5.4300     5.7330   -30.8370     2.3370 
  121.7500    83.4020    24.5880     4.6180     5.0630     5.3520   -30.7070     2.3250 
  121.8750    87.4140    24.5760     4.4980     4.8190     5.1440   -30.5870     2.3050 
  122.0000    89.6320    24.5470     4.5410     4.7240     5.1070   -30.4450     2.2920 
  122.1250    87.4360    24.5070     4.6310     4.7490     5.1750   -30.2870     2.2880 
  122.2500    82.9420    24.4780     4.7300     4.8070     5.2410   -30.1370     2.2830 
  122.3750    80.8880    24.4660     4.7020     4.8560     5.2730   -30.1160     2.2820 
  122.5000    83.4140    24.4670     4.5600     4.8870     5.2860   -30.1400     2.2970 
  122.6250    87.6140    24.4860     4.4760     4.9200     5.3290   -30.2380     2.3310 
  122.7500    89.8370    24.5250     4.9960     4.9770     5.4100   -30.3290     2.3600 
  122.8750    88.4500    24.5730     5.6600     5.0520     5.5080   -30.4530     2.3650 
  123.0000    84.2660    24.5810     5.6590     5.1300     5.5900   -30.5550     2.3440 
  123.1250    80.7990    24.4950     4.9300     5.1940     5.6390   -30.7100     2.3100 
  123.2500    80.0920    24.3730     4.9610     5.2440     5.6830   -30.8600     2.2890 
  123.3750    80.6590    24.2990     5.1270     5.2980     5.7590   -31.0600     2.2840 
  123.5000    79.5440    24.2780     5.1450     5.3840     5.9000   -31.2320     2.2830 
  123.6250    77.6810    24.2350     5.1560     5.5330     6.1150   -31.3220     2.2750 
  123.7500    78.7660    24.1590     5.3240     5.7180     6.3490   -31.4090     2.2670 
  123.8750    80.7230    24.1020     5.5140     5.8910     6.5360   -31.5190     2.2660 
  124.0000    79.6410    24.0860     5.7120     5.9880     6.6130   -31.5980     2.2700 
  124.1250    74.7140    24.0970     5.7700     5.9440     6.5210   -31.6880     2.2730 
  124.2500    69.5180    24.1170     5.7010     5.7830     6.3070   -31.7110     2.2720 
  124.3750    67.6010    24.1420     5.2950     5.5580     6.0420   -31.6560     2.2700 
  124.5000    69.7200    24.1290     4.9990     5.3560     5.8380   -31.5070     2.2670 
  124.6250    74.1910    24.0390     5.2820     5.3140     5.8620   -31.4300     2.2690 
  124.7500    77.5110    23.9330     5.5010     5.4860     6.1520   -31.3630     2.2770 
  124.8750    78.0980    23.8720     5.4550     5.8740     6.6700   -31.3240     2.2970 
  125.0000    75.5720    23.8340     6.5520     6.4000     7.2790   -31.3300     2.3310 
  125.1250    71.3410    23.7460     9.0230     6.8610     7.6960   -31.3520     2.3750 
  125.2500    70.3570    23.6500    10.6850     7.0590     7.7320   -31.4060     2.4070 
  125.3750    72.8520    23.5800     9.4580     6.9300     7.3900   -31.5600     2.4070 
  125.5000    75.2970    23.4960     6.5800     6.5720     6.8550   -31.8480     2.3700 
  125.6250    76.4730    23.3640     4.8800     6.1760     6.3790   -32.0880     2.3180 
  125.7500    77.6050    23.2610     4.7710     5.8870     6.0800   -32.3240     2.2860 
  125.8750    77.2860    23.2390     4.7810     5.7330     5.9530   -32.4730     2.2840 
  126.0000    76.3190    23.2870     4.6370     5.6790     5.9230   -32.6350     2.3040 
  126.1250    77.4200    23.3970     4.7050     5.6510     5.8930   -32.7340     2.3210 
  126.2500    78.3150    23.5370     4.9320     5.5900     5.8170   -32.8940     2.3270 
  126.3750    76.8480    23.6540     5.0830     5.4980     5.7130   -32.9900     2.3300 
