~V
VERS. 2.00: Ver 2.00
~W
STRT.M 58.0000:
STOP.M 256.0000:
STEP.M 0.1250:
NULL. -999.2500:
UWI. DF5024:
~C
DEPT.M :
SP.MV :
GR.API :
CALI.CM :
RXO.OHMM :
RI. :
RML.OHMM :
DEN.GM/CC :
~A
# ...
  193.0000   -24.6650    59.0030    24.4280   241.6790   248.7630   259.8050     2.1800 
  193.1250   -24.5480    58.7250    24.4510   286.4310   281.1820   293.6330     2.1570 
  193.2500   -24.3850    58.0770    24.3530   303.8910   305.7900   319.3120     2.1530 
  193.3750   -24.1790    57.0680    24.0670   291.6610   320.2480   334.3990     2.1640 
  193.5000   -23.9490    56.0480    23.6290   260.1050   324.4000   338.7310     2.1780 
  193.6250   -23.7060    55.8060    23.2700   222.6510   318.0510   332.1060     2.1840 
  193.7500   -23.4430    56.8980    23.1250   200.6670   304.9880   318.4750     2.1900 
  193.8750   -23.1440    59.0360    23.2500   203.0500   288.0260   300.7750     2.2110 
  194.0000   -22.8020    60.7510    23.5090   220.1790   269.6840   281.6350     2.2500 
  194.1250   -22.4260    60.4670    23.6190   233.1100   251.2410   262.3900     2.2960 
  194.2500   -22.0410    58.8100    23.6630   261.7650   233.1730   243.5360     2.3340 
  194.3750   -21.6470    57.1230    23.7920   299.0430   215.6230   225.2230     2.3630 
  194.5000   -21.2290    56.4430    23.9640   312.9620   197.7270   206.5480     2.3780 
  194.6250   -20.7750    57.1270    24.1120   296.5100   177.0660   184.9890     2.3600 
  194.7500   -20.3000    58.2630    24.2400   267.8740   153.0590   159.9370     2.3140 
  194.8750   -19.8240    59.3000    24.3320   231.5280   126.7050   132.4360     2.2630 
  195.0000   -19.3570    60.1600    24.3150   184.3840   100.2960   104.8790     2.2420 
  195.1250   -18.8920    61.3650    24.1840   139.5980    76.8620    80.4260     2.2740 
  195.2500   -18.4230    63.6140    24.0320   103.7270    57.3910    60.1080     2.3370 
  195.3750   -17.9610    67.3600    23.8600    71.8250    42.1490    44.2030     2.4080 
  195.5000   -17.5330    72.0130    23.8120    42.5090    30.9020    32.4660     2.4680 
  195.6250   -17.1700    75.4140    23.8350    27.0830    23.5370    25.0040     2.4900 
  195.7500   -16.8650    75.7190    23.8620    21.3770    18.5650    20.2370     2.4740 
  195.8750   -16.6070    73.2290    23.8490    19.2670    15.2480    16.9400     2.4350 
  196.0000   -16.3940    69.5910    23.7880    15.9220    13.0930    14.3760     2.4000 
  196.1250   -16.2430    66.0240    23.5620    11.9640    11.9040    12.6420     2.3870 
  196.2500   -16.1500    62.3020    23.2600     9.9280    11.2820    11.6730     2.3870 
  196.3750   -16.1020    58.0140    22.9970     9.9910    11.0250    11.2410     2.3940 
  196.5000   -16.0780    54.0600    22.9340    10.9620    10.9420    11.1250     2.4140 
  196.6250   -16.0640    52.6930    23.0040    12.0710    10.8550    11.1140     2.4540 
  196.7500   -16.0610    53.8230    23.2120    12.8590    10.6450    11.0150     2.4960 
  196.8750   -16.0780    56.0920    23.5640    12.8050    10.2780    10.7380     2.5170 
  197.0000   -16.1120    58.3040    24.0080    11.6660     9.7900    10.2830     2.4990 
  197.1250   -16.1510    60.1740    24.4050    10.4160     9.2940     9.7410     2.4420 
  197.2500   -16.1890    60.8490    24.8010    10.0550     8.9090     9.2780     2.3870 
  197.3750   -16.2320    59.0170    25.0290    10.3720     8.7070     9.0040     2.3620 
  197.5000   -16.2880    55.1010    25.0360    10.8230     8.7220     8.9910     2.3770 
  197.6250   -16.3610    51.4740    24.7720    11.1940     8.9910     9.3140     2.4200 
  197.7500   -16.4340    49.7060    24.5830    11.2690     9.4280     9.8880     2.4670 
  197.8750   -16.5000    49.9080    24.4370    11.3800     9.9540    10.6260     2.5020 
  198.0000   -16.5650    51.4730    24.2950    12.2550    10.4680    11.4040     2.5180 
  198.1250   -16.6450    52.6900    24.2140    14.2320    10.8050    12.0270     2.5210 
  198.2500   -16.7410    51.8260    24.1360    16.1310    10.8690    12.3480     2.5310 
  198.3750   -16.8410    49.7970    24.0760    16.5720    10.6310    12.2760     2.5560 
  198.5000   -16.9310    49.0930    24.0770    15.0860    10.1530    11.8240     2.5800 
  198.6250   -17.0050    50.8790    24.0270    12.8820     9.5640    11.1000     2.5570 
  198.7500   -17.0730    53.1530    23.9630    10.5970     9.0240    10.3490     2.4800 
  198.8750   -17.1330    54.8390    24.0130     8.9500     8.6210     9.7290     2.3860 
  199.0000   -17.1700    55.8970    24.3020     8.2500     8.3890     9.3290     2.3290 
  199.1250   -17.1580    56.4790    24.7220     8.9360     8.3190     9.1810     2.3380 
  199.2500   -17.1010    57.7430    24.8860    10.5840     8.3110     9.1610     2.3810 
  199.3750   -17.0130    60.7240    24.6620    12.3670     8.2720     9.1580     2.4320 
  199.5000   -16.9090    64.3360    24.2480    13.2670     8.1100     9.0590     2.4690 
  199.6250   -16.7890    65.8030    24.0750    12.0280     7.7270     8.7470     2.4650 
  199.7500   -16.6510    65.3690    24.0960     9.9000     7.1620     8.2310     2.4320 
  199.8750   -16.5020    64.5430    24.1970     7.9810     6.4790     7.5560     2.3970 
  200.0000   -16.3580    63.6950    24.1750     6.7190     5.7630     6.8060     2.3810 
  200.1250   -16.2480    62.8400    23.9410     5.7470     5.1250     6.1010     2.3880 
  200.2500   -16.1710    63.8510    23.5310     4.7020     4.6300     5.5330     2.4030 
  200.3750   -16.1200    68.6170    23.1600     3.9890     4.3250     5.1600     2.4140 
  200.5000   -16.0890    76.8900    22.9730     4.0010     4.2310     5.0190     2.4110 
  200.6250   -16.0880    85.4690    22.9810     4.6020     4.3820     5.1610     2.3920 
  200.7500   -16.1280    91.1370    23.0730     5.2870     4.7180     5.5220     2.3740 
  200.8750   -16.2090    93.5290    23.2730     5.9340     5.1920     6.0490     2.3720 
  201.0000   -16.3200    94.2570    23.5210     6.7380     5.7410     6.6740     2.3880 
  201.1250   -16.4570    95.5470    23.7390     7.7580     6.2830     7.3150     2.4060 
  201.2500   -16.6210    97.9030    23.9370     8.6690     6.7480     7.8960     2.4160 
  201.3750   -16.8270   100.1250    24.0240     9.1180     7.1030     8.3780     2.4210 
  201.5000   -17.0810   100.5900    24.0030     9.1200     7.3400     8.7480     2.4280 
  201.6250   -17.3770    99.3920    23.9880     9.0110     7.4420     8.9880     2.4370 
  201.7500   -17.6970    99.3450    23.9860     9.2120     7.4420     9.1140     2.4480 
  201.8750   -18.0390   101.4660    23.9190     9.5770     7.3710     9.1340     2.4660 
  202.0000   -18.4070   104.4390    23.8080     9.6640     7.2800     9.0870     2.4860 
  202.1250   -18.8000   105.5870    23.6540     9.2140     7.2410     9.0500     2.4900 
  202.2500   -19.1880   104.0800    23.5450     8.6040     7.3030     9.1140     2.4700 
  202.3750   -19.5440   100.9110    23.5490     8.1720     7.4960     9.3380     2.4370 
  202.5000   -19.8490    97.5380    23.6400     8.2250     7.8230     9.7400     2.4090 
  202.6250   -20.0880    95.6040    23.7530     9.2450     8.2610    10.2980     2.3930 
  202.7500   -20.2630    95.6750    23.8570    10.9480     8.7170    10.9010     2.3800 
  202.8750   -20.3630    97.4670    23.9370    12.5570     9.1200    11.4580     2.3690 
  203.0000   -20.3750    99.6520    23.9520    13.2350     9.4200    11.8980     2.3680 
  203.1250   -20.2850   100.6180    23.9150    12.7680     9.5770    12.1660     2.3740 
  203.2500   -20.1250   100.4950    23.8850    12.0470     9.6040    12.2860     2.3800 
  203.3750   -19.9100   100.3020    23.8660    11.6750     9.5070    12.2630     2.3910 
  203.5000   -19.6470   100.7370    23.8320    11.7160     9.2980    12.1030     2.4120 
  203.6250   -19.3350   101.5510    23.7770    11.9570     8.9940    11.7970     2.4210 
  203.7500   -18.9970   101.4460    23.7110    12.1040     8.6570    11.3970     2.4000 
  203.8750   -18.6550   100.1460    23.6660    11.7570     8.3460    10.9590     2.3570 
  204.0000   -18.3220    98.8450    23.6510    10.6360     8.1260    10.5670     2.3170 
  204.1250   -17.9930    98.9370    23.6940     9.2170     8.1060    10.3740     2.3080 
