~V
VERS. 2.00: Ver 2.00
~W
STRT.M 55.0000:
STOP.M 268.0000:
STEP.M 0.1250:
NULL. -999.2500:
UWI. DF5007:
~C
DEPT.M :
SP.MV :
GR.API :
RML.OHMM :
RI. :
RXO.OHMM :
CALI.CM :
DEN.GM/CC :
~A
# ...
  190.0000   -27.6720    58.8980   229.0590   204.0830   117.5760    23.7450     2.2580 
  190.1250   -27.6020    59.3320   225.5590   203.8460   134.8950    23.7230     2.2620 
  190.2500   -27.5750    58.2540   209.4600   193.5330   153.6190    23.8350     2.2550 
  190.3750   -27.5290    56.9810   183.7040   174.5100   150.3690    24.0040     2.2410 
  190.5000   -27.4960    57.2580   153.8830   150.2800   138.0480    24.0120     2.2310 
  190.6250   -27.4670    58.7650   126.4490   125.6720   125.4240    23.9010     2.2340 
  190.7500   -27.4200    61.1250   104.3270   104.3300   110.1150    23.7680     2.2490 
  190.8750   -27.3410    65.6390    88.1990    87.7610    85.2950    23.6590     2.2670 
  191.0000   -27.3620    70.5470    77.8070    76.5150    61.7870    23.5680     2.2820 
  191.1250   -27.3970    70.9460    73.1100    71.1420    53.3350    23.5360     2.2850 
  191.2500   -27.3870    68.7320    72.1730    69.8200    54.9800    23.5650     2.2780 
  191.3750   -27.3810    67.4380    73.9560    71.4380    63.2470    23.6110     2.2680 
  191.5000   -27.4240    68.2600    77.3640    74.8290    70.8360    23.6590     2.2600 
  191.6250   -27.4450    67.7240    81.1790    78.7220    72.3960    23.7150     2.2570 
  191.7500   -27.5070    65.9310    84.2010    81.8530    73.5270    23.8480     2.2560 
  191.8750   -27.5590    64.5460    85.7600    83.4880    76.5200    24.1030     2.2550 
  192.0000   -27.4670    63.9690    85.7450    83.3970    77.8880    24.4500     2.2520 
  192.1250   -27.4950    63.8140    84.5160    81.8020    72.4440    24.6590     2.2480 
  192.2500   -27.4190    64.7760    83.1580    79.8040    68.6940    24.7080     2.2450 
  192.3750   -27.4110    66.6650    82.5010    78.2440    68.5590    24.6920     2.2450 
  192.5000   -27.4250    67.8820    83.3120    77.9120    67.6120    24.7090     2.2460 
  192.6250   -27.3790    69.0870    86.6170    79.8460    67.0100    24.6910     2.2460 
  192.7500   -27.4740    71.9060    92.4160    84.1240    69.9050    24.5620     2.2430 
  192.8750   -27.5280    75.5770   100.6250    90.6950    74.6130    24.3990     2.2380 
  193.0000   -27.6940    77.6400   110.6780    99.0390    80.9850    24.3420     2.2310 
  193.1250   -27.8290    74.2880   121.3340   108.0510    89.8800    24.3560     2.2230 
  193.2500   -28.0030    67.8730   130.7720   116.0850   101.3790    24.3300     2.2160 
  193.3750   -28.2040    62.3900   137.5370   121.9020   109.2740    24.2920     2.2130 
  193.5000   -28.3050    60.1640   140.7190   124.7570   106.7260    24.3320     2.2120 
  193.6250   -28.4170    60.7120   139.8740   124.2150   100.0380    24.3650     2.2140 
  193.7500   -28.4550    62.2450   136.9160   121.7600   101.1180    24.3800     2.2170 
  193.8750   -28.4570    63.4260   133.5420   118.7680   101.2290    24.4500     2.2190 
  194.0000   -28.4700    62.3030   131.1610   116.4970    99.1210    24.5650     2.2190 
  194.1250   -28.4230    60.3120   130.8450   116.0760    97.1570    24.6180     2.2150 
  194.2500   -28.3760    60.4700   132.1120   117.2750    98.7090    24.5970     2.2100 
  194.3750   -28.3060    62.8310   134.0220   119.3420    99.7450    24.5770     2.2040 
  194.5000   -28.2330    64.7970   135.2520   121.0970   100.4010    24.5550     2.2000 
  194.6250   -28.2100    64.5000   133.9960   120.9420   104.7000    24.4860     2.1990 
  194.7500   -28.1020    63.3620   129.7030   118.2790   107.1690    24.3840     2.2030 
  194.8750   -28.0620    63.4740   122.4420   112.9800   102.8140    24.3530     2.2100 
  195.0000   -27.9220    65.9340   113.1400   105.6180    92.2300    24.3600     2.2200 
  195.1250   -27.8140    67.9920   103.2990    97.2800    78.3940    24.3030     2.2300 
  195.2500   -27.7580    69.0140    94.4810    89.4200    67.7170    24.2060     2.2370 
  195.3750   -27.6370    68.9960    87.5360    82.9540    58.9050    24.1570     2.2430 
  195.5000   -27.6730    68.0230    82.8880    78.4410    52.9110    24.1070     2.2480 
  195.6250   -27.6270    66.2730    80.9580    76.3950    49.0040    24.0390     2.2550 
  195.7500   -27.6970    65.0530    81.1170    76.3010    47.9300    23.9900     2.2620 
  195.8750   -27.7860    66.5730    82.9790    77.8320    47.1130    23.9410     2.2660 
  196.0000   -27.9290    69.9980    86.0160    80.5330    46.0710    23.8590     2.2640 
  196.1250   -28.1040    72.2560    89.6350    83.8880    44.7500    23.7170     2.2540 
  196.2500   -28.2110    70.5150    93.0820    87.1890    42.6430    23.6100     2.2410 
  196.3750   -28.4690    67.1210    95.8710    89.9790    41.6420    23.4910     2.2300 
  196.5000   -28.6320    65.8240    97.7810    92.0160    41.9000    23.3410     2.2250 
  196.6250   -28.7910    66.1890    98.7420    93.1870    41.4080    23.2260     2.2250 
  196.7500   -28.9560    66.2280    99.1800    93.8320    40.3190    23.1930     2.2270 
  196.8750   -29.0570    64.9700    99.4170    94.2260    40.1170    23.1900     2.2290 
  197.0000   -29.2180    63.3960    99.7020    94.6000    42.4450    23.1740     2.2270 
  197.1250   -29.3640    63.4270    99.9750    94.9560    47.0810    23.1930     2.2230 
  197.2500   -29.5060    64.6440    99.8060    94.9360    50.3560    23.3520     2.2180 
  197.3750   -29.6060    65.5690    98.7520    94.1330    54.0630    23.6390     2.2140 
  197.5000   -29.6650    64.6710    96.6130    92.3260    59.4130    23.9680     2.2130 
  197.6250   -29.7870    64.0780    93.5650    89.5750    63.8240    24.1780     2.2180 
  197.7500   -29.9030    65.7750    90.5320    86.6690    65.6780    24.2490     2.2280 
  197.8750   -30.0460    68.4740    88.4670    84.5030    64.6830    24.2530     2.2400 
  198.0000   -30.1410    69.5690    88.4590    84.1840    61.6970    24.2590     2.2520 
  198.1250   -30.1860    67.2360    92.1800    87.4650    61.3230    24.3350     2.2590 
  198.2500   -30.3700    63.1550    99.7800    94.5330    68.3470    24.4290     2.2580 
  198.3750   -30.4680    58.7570   111.0810   105.1480    82.7610    24.5050     2.2510 
  198.5000   -30.6360    54.9820   124.7970   118.0170   102.4970    24.6100     2.2380 
  198.6250   -30.7810    51.7830   137.8840   130.4030   119.4570    24.6840     2.2190 
  198.7500   -30.8710    49.7450   146.7470   139.2030   128.5330    24.6800     2.1960 
  198.8750   -31.0440    49.6390   148.9380   142.3180   124.4580    24.5380     2.1740 
  199.0000   -31.1130    52.8440   144.0640   139.2120   101.1920    24.1830     2.1570 
  199.1250   -31.2690    58.8300   133.9530   130.8660    72.0920    23.6170     2.1550 
  199.2500   -31.2870    63.4360   123.3240   121.1700    51.9200    23.0800     2.1680 
  199.3750   -31.2870    64.4870   114.9170   112.8070    41.4230    22.7450     2.1910 
  199.5000   -31.3270    62.9330   110.1940   107.6070    36.4400    22.6630     2.2180 
  199.6250   -31.3060    61.3960   109.9310   106.8020    35.5480    22.6850     2.2420 
  199.7500   -31.3430    60.6910   112.4740   108.9020    37.2070    22.6740     2.2590 
  199.8750   -31.3240    59.4350   116.3390   112.3740    39.0900    22.6670     2.2660 
  200.0000   -31.3460    57.7170   119.9250   115.6040    40.0960    22.7070     2.2620 
  200.1250   -31.3950    56.7480   121.3870   116.8750    40.2730    22.8020     2.2420 
  200.2500   -31.3980    57.2010   120.3060   115.7970    43.6150    23.0350     2.2120 
  200.3750   -31.4290    57.5940   117.0330   112.6240    51.3940    23.5130     2.1810 
  200.5000   -31.4870    56.9990   112.5570   108.1890    63.4870    24.1340     2.1600 
  200.6250   -31.5430    57.3480   108.2690   103.7030    77.0150    24.5360     2.1550 
  200.7500   -31.6000    58.8840   105.2350   100.2220    86.0450    24.5530     2.1620 
  200.8750   -31.6380    60.7030   103.8410    98.1900    86.6800    24.4510     2.1730 
  201.0000   -31.7190    61.7530   103.9830    97.5480    84.2270    24.3910     2.1830 
  201.1250   -31.7240    61.9930   105.4710    98.1240    84.5190    24.3620     2.1880 
