~V
VERS. 2.00: Ver 2.00
~W
STRT.M 61.0000:
STOP.M 253.0000:
STEP.M 0.1250:
NULL. -999.2500:
UWI. DF5045:
~C
DEPT.M :
GR.API :
CALI.CM :
RXO.OHMM :
RI. :
RML.OHMM :
DEN.GM/CC :
SP.MV :
~A
# ...
  162.2500    80.1970    25.9470   127.9170   106.2690   112.0890     2.2380   -28.5970 
  162.3750    79.1680    25.9570   139.5080   111.9730   118.0830     2.2430   -28.7250 
  162.5000    75.7160    25.9690   135.7230   120.2130   126.7440     2.2440   -28.6790 
  162.6250    72.6460    25.9560   126.5090   132.1250   139.2630     2.2400   -28.7760 
  162.7500    71.2210    25.9190   125.9410   148.5370   156.5130     2.2370   -28.9440 
  162.8750    70.9670    25.8430   149.1560   169.4870   178.5310     2.2340   -28.9300 
  163.0000    71.0990    25.7160   206.6180   194.1040   204.4040     2.2250   -28.9260 
  163.1250    71.5410    25.6290   275.2610   218.8430   230.4040     2.2070   -29.0910 
  163.2500    71.8620    25.5530   325.3050   239.7390   252.3660     2.1830   -29.1130 
  163.3750    71.6870    25.4630   337.7740   252.3090   265.5770     2.1640   -29.0400 
  163.5000    71.2980    25.3670   321.3430   250.6830   263.8680     2.1620   -29.1700 
  163.6250    71.5230    25.2620   294.6100   236.2130   248.6600     2.1760   -29.2190 
  163.7500    72.5510    25.1130   261.4350   211.2650   222.4390     2.1990   -29.0650 
  163.8750    74.1670    24.9620   224.5140   179.8910   189.4660     2.2190   -28.9740 
  164.0000    75.5000    24.8630   187.3030   147.3510   155.2660     2.2270   -28.9850 
  164.1250    76.6350    24.7920   149.6460   118.2020   124.6300     2.2300   -28.7940 
  164.2500    79.2890    24.7420   110.9620    94.6490    99.8760     2.2360   -28.5990 
  164.3750    84.3600    24.7350    75.5840    77.6990    82.0610     2.2510   -28.5570 
  164.5000    88.6960    24.7750    51.5460    68.7660    72.6730     2.2790   -28.4030 
  164.6250    89.1770    24.8280    40.7300    66.4490    70.2380     2.3130   -28.1210 
  164.7500    86.0330    24.8430    43.0700    70.4000    74.3900     2.3410   -27.9600 
  164.8750    81.1750    24.8110    57.3500    80.3370    84.8340     2.3460   -27.8900 
  165.0000    75.9990    24.7470    81.5520    96.9460   102.2900     2.3180   -27.6470 
  165.1250    71.9300    24.7120   108.3540   119.0110   125.4800     2.2810   -27.4620 
  165.2500    69.7360    24.7140   132.6130   145.8750   153.7140     2.2540   -27.4480 
  165.3750    68.7890    24.7480   155.9190   175.8430   185.2110     2.2410   -27.3490 
  165.5000    68.5170    24.8090   185.6850   205.2830   216.1520     2.2320   -27.1690 
  165.6250    68.8590    24.8160   221.8620   229.6340   241.7460     2.2170   -27.2060 
  165.7500    69.6580    24.7690   260.3480   245.0060   257.9010     2.2020   -27.2320 
  165.8750    70.0850    24.7190   297.5060   248.7130   261.7970     2.1910   -27.0710 
  166.0000    69.7660    24.7250   335.4210   238.6170   251.1870     2.1860   -27.0390 
  166.1250    69.4330    24.7780   342.3220   219.5470   231.1440     2.1870   -27.0780 
  166.2500    69.3470    24.8200   299.7890   195.7110   206.0920     2.1950   -26.8750 
  166.3750    69.4210    24.8140   217.2760   171.3450   180.4840     2.2080   -26.6460 
  166.5000    69.6370    24.7610   148.4190   150.1430   158.2000     2.2140   -26.6110 
  166.6250    70.1340    24.7380   122.1490   132.9690   140.1500     2.2130   -26.4010 
  166.7500    71.1590    24.7500   128.9210   119.7520   126.2590     2.2140   -26.1300 
  166.8750    72.6300    24.7910   142.5260   109.9390   115.9460     2.2200   -26.0310 
  167.0000    73.8420    24.8090   142.6430   103.4920   109.1700     2.2300   -25.8940 
  167.1250    73.9960    24.7770   129.1990    99.7950   105.2850     2.2420   -25.6180 
  167.2500    73.4340    24.7310   109.2170    98.9500   104.3960     2.2580   -25.5000 
  167.3750    73.1270    24.7220    97.8260   101.2320   106.7950     2.2760   -25.4890 
  167.5000    73.3180    24.7540   106.7060   107.5940   113.4810     2.2780   -25.3080 
  167.6250    73.2080    24.7940   130.5480   117.5020   123.8950     2.2640   -25.2040 
  167.7500    73.1930    24.8060   160.6220   130.5530   137.6110     2.2450   -25.2920 
  167.8750    74.0680    24.7850   183.3120   145.6720   153.5010     2.2380   -25.3800 
  168.0000    75.0300    24.7310   187.9050   159.7500   168.2970     2.2470   -25.4030 
  168.1250    74.2640    24.7110   186.2630   168.5170   177.5120     2.2570   -25.6470 
  168.2500    72.2200    24.7390   191.7950   169.0780   178.1010     2.2600   -26.0000 
  168.3750    70.9730    24.8030   207.0150   161.1120   169.7290     2.2550   -26.2650 
  168.5000    72.4760    24.8370   221.5970   146.2130   154.0700     2.2470   -26.5250 
  168.6250    75.8770    24.8330   216.7330   129.4530   136.4550     2.2430   -26.8470 
  168.7500    79.7940    24.7970   185.8030   114.3400   120.5720     2.2520   -27.0870 
  168.8750    83.0650    24.7560   134.9150   103.3290   108.9990     2.2750   -27.1440 
  169.0000    84.1180    24.7460    91.3930    98.3690   103.7860     2.2930   -27.2660 
  169.1250    83.0880    24.7880    78.3540    98.3780   103.7960     2.2870   -27.3670 
  169.2500    81.0940    24.8840    93.3270   102.3120   107.9300     2.2560   -27.2480 
  169.3750    79.7370    24.9680   114.8960   108.8540   114.8060     2.2200   -27.0780 
  169.5000    79.1820    25.0070   122.5800   117.2240   123.6030     2.2050   -27.0870 
  169.6250    77.1720    25.0180   124.3420   126.6710   133.5310     2.2070   -27.0160 
  169.7500    72.9600    25.0180   129.6950   136.9820   144.3680     2.2120   -26.8070 
  169.8750    68.7660    25.0120   145.5790   148.3310   156.2960     2.2140   -26.7630 
  170.0000    68.0850    25.0080   168.5640   161.7600   170.4100     2.2160   -26.7670 
  170.1250    69.9100    25.0070   189.7330   177.3100   186.7530     2.2170   -26.5650 
  170.2500    71.1670    25.0100   209.4830   194.3040   204.6140     2.2150   -26.3750 
  170.3750    69.8440    25.0110   237.1330   211.7220   222.9200     2.2080   -26.3170 
  170.5000    66.7110    24.9760   275.8660   228.2440   240.2840     2.1980   -26.1520 
  170.6250    64.4410    24.9010   313.6020   243.2610   256.0670     2.1860   -25.8810 
  170.7500    63.7230    24.8260   336.6400   256.9700   270.4750     2.1790   -25.6380 
  170.8750    63.3250    24.7790   339.3900   270.2860   284.4700     2.1850   -25.4020 
  171.0000    62.2390    24.7530   330.1980   284.3030   299.2020     2.1980   -25.1580 
  171.1250    61.6830    24.7270   328.3300   299.7080   315.3930     2.1970   -24.9220 
  171.2500    62.5570    24.7140   331.0670   316.9110   333.4740     2.1780   -24.6700 
  171.3750    64.1510    24.7260   340.7990   335.3270   352.8290     2.1530   -24.4210 
  171.5000    64.7770    24.7690   369.0540   350.9230   369.2200     2.1390   -24.2300 
  171.6250    64.3020    24.8220   419.9090   356.3840   374.9590     2.1400   -24.0910 
  171.7500    63.4750    24.8380   462.8360   343.4550   361.3710     2.1490   -23.9470 
  171.8750    63.2330    24.8150   468.9490   307.7400   323.8350     2.1570   -23.7990 
  172.0000    64.1140    24.7650   443.6150   251.2430   264.4560     2.1570   -23.7250 
  172.1250    65.7480    24.7390   404.8210   189.2420   199.2930     2.1590   -23.6590 
  172.2500    68.6670    24.7320   341.6190   132.5290   139.6880     2.1770   -23.6370 
  172.3750    73.8780    24.7320   248.9410    87.6270    92.4960     2.2150   -23.6520 
  172.5000    81.1250    24.7230   155.0280    58.0900    61.4520     2.2650   -23.6720 
  172.6250    87.7300    24.7240    89.6720    39.4510    41.8630     2.3130   -23.7030 
  172.7500    91.9810    24.7310    50.8110    28.7870    30.6560     2.3500   -23.7780 
  172.8750    93.6880    24.7330    27.9390    23.5450    25.1460     2.3740   -23.8940 
  173.0000    92.8440    24.7230    18.1690    22.3510    23.8910     2.3870   -23.8880 
  173.1250    90.7710    24.7130    15.6010    23.5720    25.1740     2.3910   -23.9080 
  173.2500    88.9000    24.7080    18.4190    26.6900    28.4510     2.3830   -24.0270 
  173.3750    88.2670    24.7090    26.3760    31.2590    33.2530     2.3600   -24.1130 
