~V
VERS. 2.00: Ver 2.00
~W
STRT.M 60.0000:
STOP.M 273.0000:
STEP.M 0.1250:
NULL. -999.2500:
UWI. DF5008:
~C
DEPT.M :
GR.API :
CALI.CM :
RXO.OHMM :
RI. :
RML.OHMM :
DEN.GM/CC :
SP.MV :
~A
# ...
  251.2500    49.6290    23.8430     7.8360     5.8610     6.1250     2.3270   -33.4650 
  251.3750    47.7670    23.8390     7.6130     5.8240     6.1150     2.3310   -33.3300 
  251.5000    48.8410    23.8350     7.4970     5.7770     6.1030     2.3350   -33.2450 
  251.6250    49.9720    23.8610     7.4260     5.7410     6.1050     2.3390   -33.0470 
  251.7500    51.1030    23.9220     7.1190     5.7270     6.1290     2.3440   -32.9980 
  251.8750    51.5670    23.9960     6.9330     5.7410     6.1780     2.3520   -32.9170 
  252.0000    50.9100    24.0600     6.6560     5.7850     6.2540     2.3630   -32.8730 
  252.1250    49.5640    24.0940     6.4490     5.8570     6.3600     2.3760   -32.7680 
  252.2500    49.5440    24.0690     6.1870     5.9520     6.4930     2.3880   -32.6870 
  252.3750    50.4080    23.9760     6.2190     6.0670     6.6510     2.3980   -32.6660 
  252.5000    50.8690    23.8700     6.3910     6.1990     6.8280     2.4030   -32.5920 
  252.6250    51.3910    23.8200     6.5550     6.3320     6.9990     2.4040   -32.6270 
  252.7500    52.4590    23.8200     7.0470     6.4390     7.1260     2.3990   -32.5440 
  252.8750    53.9110    23.8340     7.8530     6.4990     7.1850     2.3910   -32.5190 
  253.0000    53.6790    23.8270     8.4970     6.5010     7.1680     2.3800   -32.4090 
  253.1250    50.7720    23.7710     8.8620     6.4430     7.0880     2.3740   -32.3500 
  253.2500    50.0480    23.7460     8.8950     6.3600     6.9910     2.3750   -32.2840 
  253.3750    53.4820    23.8230     8.6660     6.2750     6.9090     2.3810   -32.2190 
  253.5000    57.5700    23.9730     8.0910     6.2060     6.8510     2.3860   -32.1230 
  253.6250    57.3800    24.0810     7.3270     6.1530     6.8070     2.3860   -32.0420 
  253.7500    55.6730    24.1140     6.7890     6.1020     6.7520     2.3800   -31.9880 
  253.8750    55.3710    24.0910     6.6220     6.0390     6.6700     2.3750   -31.9620 
  254.0000    56.9090    24.0220     6.6180     5.9560     6.5600     2.3720   -31.9460 
  254.1250    59.4130    23.9510     6.6220     5.8590     6.4330     2.3720   -31.9090 
  254.2500    61.5820    23.9300     6.5060     5.7610     6.3110     2.3730   -31.8540 
  254.3750    62.0660    23.9320     6.5740     5.6730     6.2100     2.3750   -31.7860 
  254.5000    60.9250    23.9150     6.8860     5.6000     6.1370     2.3790   -31.8360 
  254.6250    58.8900    23.9240     6.8850     5.5460     6.0940     2.3890   -31.7430 
  254.7500    57.1120    24.0190     6.5370     5.5070     6.0720     2.4000   -31.7350 
  254.8750    56.6760    24.1660     6.3000     5.4810     6.0640     2.4070   -31.6910 
  255.0000    57.6770    24.2740     6.2860     5.4650     6.0670     2.4040   -31.6890 
  255.1250    58.9340    24.2880     6.1990     5.4550     6.0780     2.3890   -31.6760 
  255.2500    59.5810    24.2670     6.1330     5.4460     6.0880     2.3700   -31.6930 
  255.3750    59.7260    24.2400     6.0860     5.4360     6.0960     2.3530   -31.6910 
  255.5000    60.1780    24.2040     6.0250     5.4270     6.1010     2.3420   -31.6290 
  255.6250    61.9010    24.1520     6.1870     5.4190     6.1070     2.3370   -31.6700 
  255.7500    63.2650    24.0930     6.7040     5.4100     6.1080     2.3340   -31.5980 
  255.8750    62.5560    24.0440     7.4230     5.3980     6.0910     2.3350   -31.5490 
  256.0000    60.4860    24.0240     8.0720     5.3750     6.0460     2.3420   -31.4580 
  256.1250    59.6990    24.0290     8.0540     5.3380     5.9720     2.3630   -31.4650 
  256.2500    59.8740    24.0170     7.7650     5.3040     5.9050     2.3950   -31.4180 
  256.3750    60.4380    23.9700     7.3940     5.2940     5.8770     2.4290   -31.3200 
  256.5000    61.1510    23.9170     6.9010     5.3170     5.8930     2.4530   -31.2990 
  256.6250    59.4130    23.8980     6.2020     5.3560     5.9200     2.4510   -31.3480 
  256.7500    54.0300    23.8950     5.8760     5.3650     5.8990     2.4280   -31.4180 
  256.8750    47.3740    23.8700     5.6940     5.3100     5.7900     2.3950   -31.3780 
  257.0000    44.4340    23.7860     5.4830     5.1790     5.5890     2.3630   -31.4150 
  257.1250    47.3980    23.6660     5.1440     4.9930     5.3390     2.3390   -31.3400 
  257.2500    51.8190    23.5800     4.9710     4.8140     5.1220     2.3200   -31.2230 
  257.3750    54.8480    23.5830     5.0090     4.6780     4.9820     2.3060   -31.2380 
  257.5000    56.3310    23.6970     5.1040     4.6030     4.9270     2.2960   -31.2200 
  257.6250    56.5490    23.8830     5.1270     4.5880     4.9330     2.2910   -30.9640 
  257.7500    56.1380    24.0170     5.1400     4.6000     4.9430     2.2890   -30.7170 
  257.8750    55.6500    24.0310     5.0470     4.6140     4.9310     2.2870   -30.6250 
  258.0000    55.9580    23.9570     4.8150     4.6190     4.8950     2.2840   -30.4570 
  258.1250    56.3390    23.8710     4.7470     4.6110     4.8530     2.2800   -30.2990 
  258.2500    56.6180    23.8280     4.7850     4.5950     4.8160     2.2760   -30.2990 
  258.3750    55.9090    23.8530     4.8620     4.5680     4.7830     2.2710   -30.1980 
  258.5000    54.5420    23.9290     4.8980     4.5310     4.7520     2.2650   -30.0000 
  258.6250    54.8480    23.9920     4.9490     4.4970     4.7380     2.2620   -30.0100 
  258.7500    57.6980    24.0330     4.9630     4.4880     4.7640     2.2650   -29.9720 
  258.8750    60.2600    24.0860     4.9860     4.5240     4.8540     2.2730   -29.8560 
  259.0000    59.7830    24.1410     5.3060     4.6160     5.0180     2.2840   -29.7990 
  259.1250    56.9850    24.1510     5.8270     4.7670     5.2480     2.2910   -29.7790 
  259.2500    53.7770    24.1490     6.1900     4.9450     5.4910     2.2920   -29.6920 
  259.3750    52.1780    24.1560     6.1240     5.1180     5.7020     2.2870   -29.5360 
  259.5000    54.0080    24.1580     5.8750     5.2530     5.8480     2.2830   -29.4870 
  259.6250    57.1460    24.1440     5.6890     5.3270     5.9140     2.2850   -29.4310 
  259.7500    57.5290    24.1330     5.5300     5.3630     5.9420     2.2940   -29.3680 
  259.8750    55.4440    24.1260     5.5510     5.3910     5.9710     2.3110   -29.3560 
  260.0000    54.3160    24.1060     5.7970     5.4410     6.0370     2.3350   -29.3780 
  260.1250    55.2350    24.0690     5.5470     5.5460     6.1870     2.3610   -29.3440 
  260.2500    55.4090    24.0270     5.2740     5.7070     6.4180     2.3830   -29.3010 
  260.3750    55.2310    24.0030     5.1040     5.9190     6.7130     2.3980   -29.3820 
  260.5000    55.7730    24.0190     5.1510     6.1580     7.0280     2.4030   -29.3410 
  260.6250    57.1130    24.0690     5.7550     6.3720     7.2820     2.3970   -29.2360 
  260.7500    57.7560    24.0970     8.0620     6.5090     7.4220     2.3860   -29.3100 
  260.8750    58.1020    24.0700     9.7160     6.5440     7.4300     2.3750   -29.3350 
  261.0000    57.8890    23.9890     8.9750     6.4930     7.3400     2.3700   -29.1890 
  261.1250    56.8270    23.8810     7.2910     6.4130     7.2380     2.3730   -29.1260 
  261.2500    55.8270    23.7740     7.3230     6.3800     7.2170     2.3820   -29.0570 
  261.3750    56.0660    23.7080     8.1370     6.4370     7.3220     2.3920   -28.9570 
  261.5000    57.2050    23.7120     9.0200     6.5990     7.5460     2.3980   -28.8350 
  261.6250    59.5070    23.7750     9.1240     6.8470     7.8310     2.3980   -28.6910 
  261.7500    61.1460    23.8280     8.9790     7.1040     8.0780     2.3960   -28.5300 
  261.8750    61.2150    23.8450     9.3510     7.3120     8.2260     2.3930   -28.3630 
  262.0000    61.3630    23.8220    10.4440     7.4370     8.2590     2.3880   -28.3470 
  262.1250    62.0760    23.7700    10.4180     7.4670     8.1820     2.3790   -28.2350 
  262.2500    62.0090    23.7210     9.6650     7.4400     8.0500     2.3690   -28.1000 
  262.3750    62.0090    23.6910     9.5730     7.3750     7.8860     2.3570   -28.0190 
