~V
VERS. 2.00: Ver 2.00
~W
STRT.M 65.0000:
STOP.M 258.0000:
STEP.M 0.1250:
NULL. -999.2500:
UWI. DF5030:
~C
DEPT.M :
SP.MV :
GR.API :
RML.OHMM :
RI. :
RXO.OHMM :
CALI.CM :
DEN.GM/CC :
~A
# ...
  200.0000    -5.6270   113.8300     7.8940     6.8460     8.2360    23.7240     2.4390 
  200.1250    -5.8940   122.0870     8.1850     7.1210     8.8720    24.1570     2.4210 
  200.2500    -6.2260   125.1260     8.4860     7.4680     9.6660    24.3130     2.3940 
  200.3750    -6.6180   121.3390     8.8270     7.8560    10.6010    24.3360     2.3720 
  200.5000    -7.0010   115.5270     9.1670     8.2220    11.4860    24.3760     2.3620 
  200.6250    -7.3100   112.8540     9.4430     8.5190    12.0960    24.6380     2.3650 
  200.7500    -7.5870   113.9540     9.7210     8.7170    12.2140    25.1630     2.3770 
  200.8750    -7.9270   117.4240     9.8520     8.7900    12.1330    25.5250     2.3900 
  201.0000    -8.3340   121.3340     9.8640     8.7670    12.0500    25.3010     2.4000 
  201.1250    -8.7830   123.2000     9.8010     8.6650    11.8050    24.7100     2.4050 
  201.2500    -9.2350   121.3440     9.7000     8.5040    11.5350    24.2940     2.4040 
  201.3750    -9.7200   116.9760     9.6080     8.3200    11.0930    24.2270     2.3960 
  201.5000   -10.2970   115.9920     9.5810     8.1720    10.7060    24.3480     2.3830 
  201.6250   -11.0340   117.7670     9.6710     8.1140    10.6310    24.4930     2.3690 
  201.7500   -11.9510   116.4180     9.9230     8.1980    11.0960    24.4250     2.3580 
  201.8750   -12.9710   109.4770    10.3920     8.4920    11.9180    24.2670     2.3520 
  202.0000   -13.9740   104.7150    11.0350     8.9720    12.9100    24.1700     2.3510 
  202.1250   -14.9580   103.7020    11.8090     9.6110    13.8040    24.1200     2.3510 
  202.2500   -15.9550   101.1030    12.6400    10.3480    14.6310    24.0880     2.3500 
  202.3750   -16.9020    98.2510    13.4050    11.0750    15.4730    24.0760     2.3460 
  202.5000   -17.7030   102.7680    13.9950    11.6810    16.0890    24.0760     2.3410 
  202.6250   -18.2940   110.6180    14.3340    12.0880    16.3280    24.0820     2.3330 
  202.7500   -18.6160   112.1710    14.3980    12.2640    16.0770    24.0870     2.3250 
  202.8750   -18.6550   104.3980    14.1790    12.1870    15.4960    24.0860     2.3170 
  203.0000   -18.5090    95.8240    13.7800    11.9380    14.9720    24.0750     2.3110 
  203.1250   -18.0920    89.9160    13.2440    11.5540    14.6470    24.0630     2.3090 
  203.2500   -17.3340    87.1440    12.6090    11.0730    14.4070    24.0400     2.3080 
  203.3750   -16.2290    83.9690    11.9370    10.5450    13.9840    24.0200     2.3090 
  203.5000   -14.9350    81.9680    11.3530    10.0610    13.1770    24.0080     2.3150 
  203.6250   -13.5360    88.1840    10.9770     9.6960    12.0860    23.9750     2.3290 
  203.7500   -12.1090   100.2750    10.8880     9.5030    11.1780    23.8780     2.3530 
  203.8750   -10.7670   104.3960    11.1210     9.5130    10.9820    23.7210     2.3820 
  204.0000    -9.5890    99.7230    11.5060     9.6390    11.7270    23.6690     2.4070 
  204.1250    -8.6720    96.2170    11.8880     9.8060    12.3320    23.7410     2.4220 
  204.2500    -8.0630    98.2620    12.1510     9.9510    12.3510    23.8570     2.4240 
  204.3750    -7.7990   102.8140    12.2480    10.0490    12.2940    23.9380     2.4160 
  204.5000    -7.8190   104.7770    12.2890    10.1410    12.7280    24.0010     2.4040 
  204.6250    -8.0990    99.9590    12.3810    10.2730    13.7640    24.0830     2.3910 
  204.7500    -8.5690    93.3930    12.5720    10.4730    15.4210    24.1850     2.3740 
  204.8750    -9.0610    98.2170    12.8690    10.7510    17.1150    24.2410     2.3530 
  205.0000    -9.4790   106.9850    13.2250    11.0990    18.0080    24.2550     2.3320 
  205.1250    -9.8280   106.4560    13.7230    11.5690    18.0590    24.2440     2.3170 
  205.2500   -10.0710    96.6030    14.5000    12.2440    17.4300    24.2200     2.3160 
  205.3750   -10.0910    90.0340    15.5220    13.1910    17.3520    24.1280     2.3350 
  205.5000    -9.9030    85.7620    16.6010    14.1990    18.1790    24.0280     2.3660 
  205.6250    -9.4540    77.4270    17.1860    14.9230    21.0880    24.0200     2.3950 
  205.7500    -8.7460    64.4690    16.7450    14.9580    28.6720    24.0850     2.4080 
  205.8750    -7.8260    60.0770    14.9540    13.9180    49.2880    24.0870     2.3900 
  206.0000    -6.8020    71.2310    12.4950    12.1780    76.9350    24.0710     2.3500 
  206.1250    -5.7240    89.4700    10.0970    10.2510   103.1360    24.1030     2.3060 
  206.2500    -4.6750   101.4240     8.3400     8.6270   122.0560    24.1270     2.2770 
  206.3750    -3.8040   105.1160     7.5850     7.6950   102.7680    24.0960     2.2770 
  206.5000    -3.0580   108.0210     7.5810     7.3970    54.7960    24.0750     2.2960 
  206.6250    -2.4810   109.5480     8.1240     7.6460    41.2460    24.0700     2.3230 
  206.7500    -2.0870   107.2970     8.9950     8.2870    39.6700    24.0700     2.3450 
  206.8750    -1.9120   103.5600     9.9690     9.1270    36.0460    24.0610     2.3560 
  207.0000    -1.8650    98.3600    10.8590     9.9280    26.4610    24.0400     2.3600 
  207.1250    -1.9000    90.8820    11.6290    10.5950    18.3200    24.0120     2.3610 
  207.2500    -1.9900    85.5190    12.3780    11.1710    13.0900    23.9860     2.3600 
  207.3750    -2.1320    88.2230    13.3810    11.8750    10.7780    23.9780     2.3600 
  207.5000    -2.3040    92.8080    14.8400    12.9390    11.2260    24.0050     2.3600 
  207.6250    -2.4990    91.2310    16.8390    14.4950    13.9780    24.0460     2.3590 
  207.7500    -2.7340    82.0220    19.2880    16.5240    17.7620    24.0670     2.3540 
  207.8750    -2.9860    71.8710    21.9070    18.8240    22.0750    24.0700     2.3420 
  208.0000    -3.2750    66.4670    24.3040    20.9980    24.6570    24.0700     2.3260 
  208.1250    -3.5810    68.3220    26.2790    22.8070    25.4170    24.0700     2.3080 
  208.2500    -3.8760    73.7120    27.8660    24.2310    25.3020    24.0700     2.2920 
  208.3750    -4.1600    75.7910    29.3340    25.4890    25.6560    24.0700     2.2810 
  208.5000    -4.4520    72.9190    30.9840    26.8790    27.3220    24.0700     2.2740 
  208.6250    -4.7500    66.7870    32.8480    28.4600    29.5840    24.0700     2.2690 
  208.7500    -5.0290    62.0090    34.7120    30.0720    32.0850    24.0620     2.2630 
  208.8750    -5.3120    63.8920    36.1050    31.3280    34.0540    24.0190     2.2590 
  209.0000    -5.5910    73.7670    36.8220    32.0310    34.7360    23.9350     2.2580 
  209.1250    -5.8650    85.4430    36.9700    32.2370    33.3910    23.8450     2.2620 
  209.2500    -6.1650    88.5200    37.0020    32.2880    31.0000    23.7690     2.2710 
  209.3750    -6.4540    80.5610    37.7110    32.8310    29.1260    23.6930     2.2800 
  209.5000    -6.7320    71.0880    39.5140    34.2890    27.6390    23.6300     2.2840 
  209.6250    -6.9920    68.1960    42.4660    36.8220    26.6090    23.5850     2.2790 
  209.7500    -7.2450    72.4270    46.2110    40.2500    26.1320    23.5700     2.2660 
  209.8750    -7.4860    75.8070    49.9510    44.0070    26.5170    23.5990     2.2460 
  210.0000    -7.7090    71.7630    52.8050    47.2260    27.4480    23.6870     2.2270 
  210.1250    -7.9130    62.3220    54.2610    49.3100    28.6960    23.8140     2.2130 
  210.2500    -8.1120    59.0920    54.2370    50.0160    29.8120    23.9200     2.2070 
  210.3750    -8.3250    68.7850    52.9390    49.3560    30.4150    23.9720     2.2090 
  210.5000    -8.5540    78.9130    51.0880    47.9770    29.8680    23.9560     2.2150 
  210.6250    -8.7920    80.1180    49.0230    46.2260    28.3480    23.9150     2.2210 
  210.7500    -9.0580    73.5830    46.9200    44.3200    26.2760    23.8900     2.2270 
  210.8750    -9.3670    70.7230    44.9820    42.4680    24.2620    23.8830     2.2320 
  211.0000    -9.7050    71.2310    43.5140    40.9580    22.3430    23.8800     2.2370 
  211.1250   -10.0920    71.3460    42.9260    40.1430    20.8800    23.8780     2.2420 
