~V
VERS. 2.00: Ver 2.00
~W
STRT.M 59.0000:
STOP.M 264.0000:
STEP.M 0.1250:
NULL. -999.2500:
UWI. DF5022:
~C
DEPT.M :
GR.API :
CALI.CM :
RXO.OHMM :
RI. :
RML.OHMM :
SP.MV :
DEN.GM/CC :
~A
# ...
  171.5000    59.9600    23.8970   154.5260   137.3280   140.9350   -41.8640     2.2450 
  171.6250    59.7330    23.8940   142.5350   133.5240   137.8320   -41.6810     2.2510 
  171.7500    61.7080    23.8700   135.1260   131.0720   136.0990   -41.7030     2.2500 
  171.8750    62.5160    23.8140   134.7790   129.5600   135.0710   -41.8020     2.2430 
  172.0000    60.5700    23.7230   136.3630   127.6100   132.9940   -41.6940     2.2360 
  172.1250    59.4130    23.5370   133.5080   123.1980   127.5090   -41.6520     2.2350 
  172.2500    61.0660    23.2860   119.3840   116.3520   119.2350   -41.7180     2.2390 
  172.3750    63.5030    23.0610    90.4650   108.4280   110.2570   -41.5550     2.2430 
  172.5000    64.2050    22.9360    58.2050   101.5790   103.2340   -41.4620     2.2470 
  172.6250    62.6980    22.9070    43.3630    98.5030   101.0500   -41.6200     2.2500 
  172.7500    60.6320    22.9020    41.6850    99.6900   103.7370   -41.5680     2.2490 
  172.8750    58.4180    22.9030    45.5420   104.9440   110.7730   -41.4710     2.2470 
  173.0000    56.0370    22.8970    50.3640   113.2860   120.9440   -41.6200     2.2430 
  173.1250    53.8470    22.9230    59.9480   123.1150   132.5710   -41.7300     2.2360 
  173.2500    54.5900    23.0470    72.2550   132.3010   143.5520   -41.8060     2.2270 
  173.3750    57.7140    23.2620    82.6950   139.9890   153.0030   -42.0150     2.2160 
  173.5000    59.9190    23.4890    94.1470   146.4290   161.1240   -42.0050     2.2040 
  173.6250    59.9150    23.6520   112.7130   152.3530   168.5060   -42.0030     2.1940 
  173.7500    58.6130    23.7600   129.0030   158.0360   175.2630   -42.2270     2.1900 
  173.8750    57.1400    23.8220   138.0590   162.9160   180.6840   -42.2410     2.1930 
  174.0000    56.8690    23.8380   144.8410   166.1810   183.9420   -42.1390     2.1980 
  174.1250    58.5970    23.8310   149.4140   166.7400   184.0200   -42.2430     2.2030 
  174.2500    59.3330    23.8240   149.6560   164.6730   181.1920   -42.2180     2.2050 
  174.3750    57.2610    23.8270   149.6850   159.9090   175.2950   -42.3130     2.2000 
  174.5000    55.1180    23.9190   154.3850   152.4420   166.1100   -42.4990     2.1940 
  174.6250    55.1460    24.1800   157.7710   142.3400   153.5980   -42.4000     2.1990 
  174.7500    56.1570    24.4470   140.9270   131.1070   139.7580   -42.4100     2.2150 
  174.8750    57.3270    24.5110   109.5240   120.1700   126.5080   -42.5860     2.2350 
  175.0000    57.8000    24.3970    88.9540   110.9600   115.6270   -42.5960     2.2500 
  175.1250    58.0970    24.4090    79.2370   105.0780   108.9000   -42.6850     2.2610 
  175.2500    58.8940    24.6080    77.3730   102.3260   105.8140   -42.7920     2.2690 
  175.3750    60.4620    24.8120    74.7440   102.2410   105.6790   -42.7470     2.2690 
  175.5000    61.4880    24.8820    85.1110   103.9720   107.4570   -42.9500     2.2620 
  175.6250    59.3010    24.8690   101.0450   106.3100   109.7430   -43.1500     2.2620 
  175.7500    56.1630    24.8700   104.8280   107.8660   111.0810   -43.0840     2.2670 
  175.8750    54.8960    24.8890    95.1350   108.1110   111.0610   -43.1420     2.2650 
  176.0000    55.8980    24.9190    88.8570   107.4340   110.3280   -43.3950     2.2550 
  176.1250    55.3720    24.9410    97.6580   107.1590   110.5710   -43.3540     2.2530 
  176.2500    52.8200    24.9470    97.9640   108.6830   113.3170   -43.3890     2.2570 
  176.3750    51.7200    24.9450    94.5390   113.0980   119.7350   -43.5300     2.2550 
  176.5000    52.3730    24.9450   112.1640   120.9900   130.3280   -43.4260     2.2400 
  176.6250    53.6060    24.9450   133.4570   132.4930   145.0720   -43.4670     2.2190 
  176.7500    54.5350    24.9460   144.2100   145.6320   161.5720   -43.5420     2.2030 
  176.8750    54.4690    24.9430   150.2040   158.3410   177.3720   -43.4930     2.1930 
  177.0000    52.1770    24.9240   167.2230   168.3410   189.8170   -43.3830     2.1890 
  177.1250    48.8430    24.8850   181.4300   173.5040   196.4900   -43.3920     2.1940 
  177.2500    48.8100    24.8480   194.2350   175.0510   198.8400   -43.2700     2.1940 
  177.3750    51.0110    24.8180   187.9820   174.2090   198.1530   -43.1250     2.1790 
  177.5000    52.3230    24.7780   157.9660   171.6130   195.0590   -43.1390     2.1530 
  177.6250    52.6570    24.7010   131.9650   166.9780   189.3530   -42.9900     2.1400 
  177.7500    53.3790    24.5370   138.8600   160.7180   181.8710   -42.8650     2.1470 
  177.8750    54.2250    24.2680   155.2660   153.5520   173.6930   -42.9360     2.1610 
  178.0000    54.9140    23.9730   141.4610   146.7710   166.3170   -42.9440     2.1740 
  178.1250    55.7940    23.8120    99.6290   142.2590   161.6640   -42.8270     2.1830 
  178.2500    56.9910    23.7920    98.2260   140.4840   160.0690   -42.9590     2.1860 
  178.3750    57.5100    23.8190   118.7170   141.1850   161.2320   -42.9960     2.1810 
  178.5000    56.8090    23.8180   130.2950   143.3890   164.0890   -42.8890     2.1750 
  178.6250    55.7560    23.7800   121.4740   145.4620   166.7730   -42.9970     2.1780 
  178.7500    54.7760    23.7410   108.2300   145.9120   167.4980   -43.0570     2.1910 
  178.8750    54.1340    23.7240   102.0800   144.2110   165.5370   -42.9010     2.2080 
  179.0000    53.5740    23.7220   101.0900   140.8560   161.4320   -42.8460     2.2230 
  179.1250    54.8090    23.7190   102.9860   137.2570   156.9590   -42.8720     2.2270 
  179.2500    57.1410    23.7130    94.9860   135.0200   154.1970   -42.6270     2.2210 
  179.3750    58.4000    23.7060    81.5130   135.1880   154.4030   -42.4680     2.2140 
  179.5000    57.4530    23.7030    70.4770   138.0490   157.8400   -42.3950     2.2110 
  179.6250    55.6500    23.7290    68.1980   142.1530   162.6600   -42.0060     2.2160 
  179.7500    53.9480    23.8000    68.6170   143.4750   164.0350   -41.5990     2.2180 
  179.8750    53.1630    23.8940    71.9580   138.6010   157.8680   -41.3340     2.2060 
  180.0000    54.2800    23.9870    77.5210   126.8310   143.5520   -40.8760     2.1860 
  180.1250    56.4480    24.0860    67.2130   111.0710   125.0530   -40.4110     2.1810 
  180.2500    57.1780    24.1860    48.8220    96.8120   108.8960   -40.0590     2.2020 
  180.3750    57.0380    24.2540    36.0240    87.0300    98.3570   -39.4550     2.2350 
  180.5000    56.7470    24.2740    38.1290    82.9010    94.5970   -38.8390     2.2540 
  180.6250    56.2900    24.2710    53.6710    85.1420    98.4050   -38.4790     2.2490 
  180.7500    56.9040    24.2670    69.2110    91.8930   107.5390   -38.0580     2.2370 
  180.8750    59.3340    24.2700    83.2010   101.6950   120.1460   -37.5000     2.2320 
  181.0000    61.6420    24.3270    92.5880   112.1940   133.2890   -37.0700     2.2360 
  181.1250    62.6420    24.4900    81.0740   119.7460   142.3960   -36.6350     2.2410 
  181.2500    62.1520    24.7070    66.5070   122.8100   145.7680   -36.2680     2.2390 
  181.3750    59.5220    24.9070    62.1510   121.8590   144.3480   -35.9780     2.2320 
  181.5000    56.1290    25.0390    58.6220   118.7730   140.8130   -35.5200     2.2220 
  181.6250    54.7540    25.0890    44.6660   116.0480   138.4510   -35.1570     2.2120 
  181.7500    54.5030    25.0950    36.9160   115.4020   139.1430   -34.9620     2.2040 
  181.8750    53.2160    25.0880    30.1290   117.5160   143.5490   -34.5790     2.2020 
  182.0000    51.9650    25.0880    24.2730   122.4000   151.4690   -34.2150     2.2100 
  182.1250    52.5900    25.0790    22.5850   129.6240   162.0460   -33.9970     2.2190 
  182.2500    53.8450    25.0460    23.3290   137.0880   172.2500   -33.5560     2.2150 
  182.3750    55.0610    24.9950    26.4330   142.2530   178.4080   -33.2620     2.1970 
  182.5000    55.8430    24.9520    34.9190   142.3240   176.6200   -33.0930     2.1780 
  182.6250    55.5840    24.9270    52.7990   134.4110   163.3080   -32.6460     2.1670 
