~V
VERS. 2.00: Ver 2.00
~W
STRT.M 55.0000:
STOP.M 271.0000:
STEP.M 0.1250:
NULL. -999.2500:
UWI. DF5016:
~C
DEPT.M :
SP.MV :
GR.API :
CALI.CM :
RXO.OHMM :
RI. :
RML.OHMM :
DEN.GM/CC :
~A
# ...
  235.0000   -21.5480    79.4530    24.2090    56.7640    47.2300    51.1110     2.1790 
  235.1250   -21.4450    76.1280    24.2000    61.7490    49.1070    53.1230     2.1840 
  235.2500   -21.3550    74.9380    24.1850    63.8810    51.1150    55.2760     2.1950 
  235.3750   -21.2890    75.3000    24.1850    65.1600    53.2450    57.5580     2.2030 
  235.5000   -21.2490    76.0830    24.1950    69.2140    55.4740    59.9480     2.2060 
  235.6250   -21.2310    77.5910    24.1910    73.6430    57.7730    62.4120     2.1960 
  235.7500   -21.2160    79.6990    24.1830    74.6230    60.1410    64.9520     2.1760 
  235.8750   -21.1930    81.5530    24.1820    73.0340    62.5670    67.5520     2.1590 
  236.0000   -21.1640    82.3840    24.1900    72.1340    64.8880    70.0390     2.1590 
  236.1250   -21.1410    81.8130    24.1990    73.0830    66.5840    71.8580     2.1730 
  236.2500   -21.1370    80.9070    24.2030    75.0010    67.3090    72.6350     2.1820 
  236.3750   -21.1550    81.4080    24.2010    77.6600    66.7940    72.0830     2.1790 
  236.5000   -21.1880    83.5890    24.2030    80.5890    64.9230    70.0770     2.1750 
  236.6250   -21.2150    84.6110    24.2120    80.2910    61.6110    66.5270     2.1830 
  236.7500   -21.2200    82.5030    24.2080    73.1020    57.5000    62.1200     2.2020 
  236.8750   -21.2010    78.1580    24.1900    60.5370    53.1800    57.4890     2.2230 
  237.0000   -21.1650    74.3240    24.1560    49.2460    49.3170    53.3470     2.2350 
  237.1250   -21.1290    74.5910    24.0710    45.4730    46.7460    50.5910     2.2310 
  237.2500   -21.1050    78.2020    23.9930    46.2040    45.7460    49.5200     2.2190 
  237.3750   -21.0960    82.2600    23.9600    46.9500    46.6310    50.4680     2.2110 
  237.5000   -21.0970    84.3700    23.9940    46.4750    49.6180    53.6710     2.2110 
  237.6250   -21.1010    84.4120    24.0780    50.0000    54.9090    59.3420     2.2160 
  237.7500   -21.1110    83.4360    24.1590    63.9560    61.5030    66.4120     2.2180 
  237.8750   -21.1410    81.1910    24.2070    88.5360    68.3850    73.7890     2.2180 
  238.0000   -21.2070    77.6120    24.2330   113.8980    74.2810    80.1090     2.2140 
  238.1250   -21.3260    74.0600    24.2210   123.6680    77.3500    83.3990     2.2030 
  238.2500   -21.4890    72.2520    24.1740   117.5510    77.1360    83.1700     2.1900 
  238.3750   -21.6860    72.4410    24.0850   102.2270    73.8940    79.6950     2.1860 
  238.5000   -21.9050    73.6920    23.9520    84.5260    68.8520    74.2890     2.1890 
  238.6250   -22.1570    75.4300    23.8090    71.3130    63.7950    68.8690     2.1980 
  238.7500   -22.4520    77.5980    23.6790    64.2040    60.1340    64.9440     2.2150 
  238.8750   -22.8020    80.3910    23.6150    61.1080    58.4340    63.1210     2.2450 
  239.0000   -23.2110    83.8870    23.6320    58.4150    58.7390    63.4480     2.2800 
  239.1250   -23.6620    87.1290    23.6690    58.0150    60.6950    65.5450     2.3000 
  239.2500   -24.1150    87.7930    23.6490    65.1100    63.0600    68.0800     2.3050 
  239.3750   -24.5380    85.2350    23.4700    75.0370    64.7640    69.9070     2.2970 
  239.5000   -24.9140    81.9600    23.1800    76.4520    64.8130    69.9600     2.2810 
  239.6250   -25.2300    81.8470    22.8670    64.6070    62.3290    67.2960     2.2630 
  239.7500   -25.5030    84.5050    22.7060    52.4310    58.0730    62.7340     2.2520 
  239.8750   -25.7390    87.5840    22.6940    45.0690    53.0510    57.3500     2.2490 
  240.0000   -25.9360    89.0910    22.8420    42.8630    48.4460    52.4140     2.2530 
  240.1250   -26.0820    88.2520    23.2010    41.7350    45.7170    49.4890     2.2590 
  240.2500   -26.1810    86.6730    23.6370    39.9160    45.3750    49.1220     2.2670 
  240.3750   -26.2400    85.7030    23.9720    37.9570    47.7280    51.6440     2.2730 
  240.5000   -26.2730    85.2880    24.1230    39.5790    52.6900    56.9640     2.2710 
  240.6250   -26.2970    83.6270    24.1380    51.8500    59.8390    64.6280     2.2540 
  240.7500   -26.3200    80.4580    24.1530    72.0950    67.4950    72.8340     2.2280 
  240.8750   -26.3370    77.0950    24.1810    90.5420    74.1880    80.0100     2.2040 
  241.0000   -26.3320    74.8020    24.2120   100.8220    78.7140    84.8620     2.1880 
  241.1250   -26.2780    73.4810    24.2350   102.6030    80.1890    86.4420     2.1810 
  241.2500   -26.1710    72.8900    24.2160    98.7450    79.7040    85.9230     2.1820 
  241.3750   -26.0110    73.4560    24.1370    87.5770    78.3800    84.5030     2.1900 
  241.5000   -25.8050    74.7710    23.9770    72.1950    77.3080    83.3550     2.1950 
  241.6250   -25.5530    75.1380    23.7290    66.9850    77.1870    83.2240     2.1850 
  241.7500   -25.2570    73.9490    23.4730    79.1530    77.3350    83.3830     2.1760 
  241.8750   -24.9010    72.3610    23.2060   102.8410    76.8000    82.8090     2.1850 
  242.0000   -24.4700    72.3340    22.8850   122.9700    75.0190    80.9010     2.2070 
  242.1250   -23.9420    74.9760    22.8140   116.2220    72.1860    77.8630     2.2170 
  242.2500   -23.3390    78.5040    22.9790    92.7360    69.5860    75.0760     2.2230 
  242.3750   -22.6810    81.2420    23.2260    70.7040    68.7370    74.1660     2.2490 
  242.5000   -21.9860    83.0800    23.3970    59.6820    71.3840    77.0040     2.3000 
  242.6250   -21.2680    83.8900    23.5060    61.4000    79.8690    86.0990     2.3530 
  242.7500   -20.5390    82.9300    23.5240    80.4000    93.5190   100.7330     2.3810 
  242.8750   -19.8080    80.5070    23.4790   121.5720   110.2600   118.6780     2.3860 
  243.0000   -19.0850    78.7890    23.5020   178.0140   124.9250   134.3990     2.3910 
  243.1250   -18.3940    79.1250    23.6470   239.0510   127.7730   137.4530     2.4300 
  243.2500   -17.7460    78.5140    23.8030   296.5470   115.7020   124.5120     2.5050 
  243.3750   -17.1490    74.2540    23.9030   316.2710    91.9220    99.0200     2.5920 
  243.5000   -16.6080    66.5560    23.9760   264.1420    64.3180    69.4290     2.6520 
  243.6250   -16.1350    58.6620    24.0300   164.6030    41.4270    44.8900     2.6430 
  243.7500   -15.7300    53.6870    24.0330    77.6570    25.4440    27.7560     2.5810 
  243.8750   -15.4040    52.4530    24.0170    28.9660    15.5400    17.1390     2.4920 
  244.0000   -15.1660    54.4040    24.0090     9.7340     9.9860    11.1850     2.3990 
  244.1250   -15.0320    57.5430    23.9920     5.3330     7.4090     8.4220     2.3210 
  244.2500   -14.9730    59.6020    23.9950     4.3940     6.1390     7.0610     2.2680 
  244.3750   -14.9760    60.2870    24.0270     4.2510     5.5890     6.4720     2.2470 
  244.5000   -15.0240    60.3660    23.9970     4.1850     5.4450     6.3170     2.2440 
  244.6250   -15.1050    59.9930    23.9390     4.1150     5.5150     6.3920     2.2420 
  244.7500   -15.2010    59.1160    23.9070     4.1090     5.6260     6.5110     2.2300 
  244.8750   -15.3000    58.8460    23.8940     4.1470     5.7100     6.6010     2.2050 
  245.0000   -15.3910    59.9740    23.8620     4.1560     5.7510     6.6450     2.1650 
  245.1250   -15.4640    60.9570    23.7850     4.1240     5.7420     6.6350     2.1180 
  245.2500   -15.5160    60.6610    23.6690     4.1470     5.6950     6.5850     2.0840 
  245.3750   -15.5500    60.4650    23.5430     4.2450     5.6140     6.4980     2.0750 
  245.5000   -15.5680    61.6340    23.4190     4.3770     5.5060     6.3820     2.1000 
  245.6250   -15.5770    62.9440    23.4190     4.4660     5.3820     6.2500     2.1610 
  245.7500   -15.5860    63.0050    23.5520     4.4420     5.2610     6.1190     2.2320 
  245.8750   -15.6030    62.6870    23.7300     4.3530     5.1480     5.9990     2.2840 
  246.0000   -15.6340    62.7490    23.8400     4.3080     5.0500     5.8940     2.3010 
  246.1250   -15.6870    62.4210    23.8700     4.4180     4.9760     5.8140     2.2980 
