~V
VERS. 2.00: Ver 2.00
~W
STRT.M 58.0000:
STOP.M 261.0000:
STEP.M 0.1250:
NULL. -999.2500:
UWI. DF5035:
~C
DEPT.M :
DEN.GM/CC :
GR.API :
CALI.CM :
RXO.OHMM :
RI. :
RML.OHMM :
SP.MV :
~A
# ...
  114.2500     2.2700    91.2130    24.3280     5.1170     4.9520     5.3430   -42.9230 
  114.3750     2.2710    93.6390    24.3940     4.7010     4.8260     5.1420   -43.0030 
  114.5000     2.2730    96.2920    24.4430     4.4450     4.6150     4.8920   -43.1150 
  114.6250     2.2750    97.4990    24.5150     4.4180     4.3710     4.6520   -43.1740 
  114.7500     2.2790    98.3120    24.6910     4.3910     4.1510     4.4650   -43.3860 
  114.8750     2.2840   101.9660    24.9590     4.2800     3.9780     4.3420   -43.6070 
  115.0000     2.2910   107.8100    25.2120     4.1540     3.8480     4.2640   -43.8160 
  115.1250     2.2980   110.2580    25.3310     4.2030     3.7450     4.1970   -44.0980 
  115.2500     2.3060   106.5960    25.3460     4.3230     3.6480     4.1190   -44.3710 
  115.3750     2.3100   101.1800    25.2780     4.3520     3.5600     4.0470   -44.7360 
  115.5000     2.3090    99.6090    25.1420     4.3090     3.5100     4.0450   -45.1280 
  115.6250     2.3070   101.8510    24.9680     4.3190     3.6010     4.2750   -45.5330 
  115.7500     2.3150   102.7460    24.7810     4.6290     3.9320     4.8490   -45.9850 
  115.8750     2.3400    98.2800    24.6090     5.1970     4.6000     5.8540   -46.4410 
  116.0000     2.3740    88.8270    24.5420     6.2170     5.6610     7.2830   -46.8600 
  116.1250     2.3940    78.5410    24.6650    11.3690     7.0830     8.9280   -47.2930 
  116.2500     2.3770    71.4530    24.8320    16.7280     8.4550    10.2500   -47.7780 
  116.3750     2.3240    67.9570    24.8940    17.1270     9.2970    10.7850   -48.2860 
  116.5000     2.2610    68.1510    24.8280    12.6060     9.3470    10.4420   -48.7330 
  116.6250     2.2200    69.4430    24.7120     8.9740     8.8110     9.6660   -49.1510 
  116.7500     2.2120    69.1680    24.6370     7.7510     8.3350     9.2030   -49.4800 
  116.8750     2.2360    69.6720    24.6350     7.7260     8.2810     9.4080   -49.7780 
  117.0000     2.2890    73.0490    24.7070     8.0370     8.8000    10.3300   -50.0930 
  117.1250     2.3540    74.4820    24.8780     9.7400     9.9040    11.7610   -50.3230 
  117.2500     2.3950    71.1850    25.0870    14.6460    11.1550    13.0800   -50.4260 
  117.3750     2.3790    66.8190    25.1950    18.9100    12.0520    13.7430   -50.4500 
  117.5000     2.3150    66.0490    25.0510    17.2510    12.1940    13.4740   -50.4780 
  117.6250     2.2430    69.6310    24.6900    10.4170    11.5350    12.4410   -50.4620 
  117.7500     2.1900    73.5620    24.3910     7.8100    10.6350    11.3270   -50.4440 
  117.8750     2.1590    73.7690    24.2700     7.1820     9.8330    10.4840   -50.3980 
  118.0000     2.1470    70.1090    24.2660     7.0570     9.2780    10.0030   -50.2940 
  118.1250     2.1460    68.0050    24.2740     7.2140     8.9900     9.7970   -50.2400 
  118.2500     2.1470    69.6480    24.2720     7.3190     8.8060     9.6360   -50.2670 
  118.3750     2.1490    70.8890    24.2710     7.2730     8.6300     9.4360   -50.2760 
  118.5000     2.1500    68.7950    24.2700     7.0920     8.4400     9.2160   -50.3190 
  118.6250     2.1520    67.3350    24.2930     7.0410     8.2780     9.0440   -50.3770 
  118.7500     2.1540    68.1970    24.3410     6.9470     8.1700     8.9350   -50.4230 
  118.8750     2.1540    68.8800    24.4390     7.0520     8.1200     8.8740   -50.4960 
  119.0000     2.1500    68.0380    24.6440     7.4010     8.1180     8.8460   -50.6360 
  119.1250     2.1410    66.9600    24.9650     7.7190     8.1570     8.8580   -50.7460 
  119.2500     2.1290    65.1990    25.2580     7.9520     8.2270     8.9210   -50.7820 
  119.3750     2.1160    62.5560    25.4240     8.2340     8.3360     9.0540   -50.8510 
  119.5000     2.1070    61.5300    25.4680     8.4980     8.4980     9.2690   -50.8680 
  119.6250     2.1040    64.0140    25.4440     8.7620     8.7190     9.5500   -50.8660 
  119.7500     2.1070    66.2440    25.4050     8.8300     8.9540     9.8390   -50.9040 
  119.8750     2.1130    65.6140    25.3440     8.8090     9.1540    10.0830   -50.8560 
  120.0000     2.1190    63.3210    25.2120     8.8590     9.2710    10.2330   -50.8130 
  120.1250     2.1220    61.7800    25.0050     8.9920     9.2470    10.2270   -50.6940 
  120.2500     2.1230    61.7630    24.8350     9.0210     9.0930    10.0770   -50.5840 
  120.3750     2.1230    63.0870    24.7550     9.0370     8.8250     9.8030   -50.4790 
  120.5000     2.1230    64.2090    24.7590     9.1140     8.4710     9.4460   -50.2150 
  120.6250     2.1260    63.2280    24.8670     9.3400     8.0900     9.0860   -50.1220 
  120.7500     2.1370    61.0920    25.0830     9.4820     7.8010     8.8790   -49.9770 
  120.8750     2.1640    61.2280    25.3710     9.7220     7.7500     9.0320   -49.7590 
  121.0000     2.2130    63.4410    25.6410    10.2100     8.1150     9.7980   -49.6050 
  121.1250     2.2920    63.5150    25.7800    12.5070     9.2350    11.5880   -49.3610 
  121.2500     2.3860    61.9530    25.7950    20.0140    11.1990    14.3180   -49.1660 
  121.3750     2.4630    61.3400    25.7510    30.7290    13.9610    17.6250   -49.0210 
  121.5000     2.4680    61.7290    25.7170    38.2570    16.9440    20.5510   -48.9340 
  121.6250     2.3740    60.5400    25.7060    37.5080    18.5040    21.2690   -48.8590 
  121.7500     2.2610    60.0280    25.6770    33.1160    17.8000    19.4930   -48.8580 
  121.8750     2.1780    61.7750    25.5840    23.8940    15.4140    16.2310   -48.8980 
  122.0000     2.1320    63.8500    25.3950    15.1270    12.6350    12.9680   -48.9590 
  122.1250     2.1120    63.3490    25.1160    12.1120    10.4910    10.7870   -49.0790 
  122.2500     2.1030    62.5440    24.8250    12.3460     9.1120     9.6170   -49.1600 
  122.3750     2.0990    62.6540    24.6110    12.4560     8.4050     9.2180   -49.2270 
  122.5000     2.0990    62.9720    24.5370    12.8910     8.2090     9.3050   -49.2390 
  122.6250     2.1040    61.7710    24.6050    13.5560     8.3590     9.5880   -49.2030 
  122.7500     2.1130    59.5780    24.6960    13.7970     8.5770     9.7930   -49.1080 
  122.8750     2.1230    58.0570    24.7560    13.6920     8.7230     9.8230   -48.9450 
  123.0000     2.1330    58.5940    24.7910    13.4170     8.7560     9.7030   -48.7390 
  123.1250     2.1420    59.7750    24.8010    13.9290     8.7230     9.5450   -48.5000 
  123.2500     2.1480    59.8980    24.7710    15.6700     8.7260     9.4680   -48.3000 
  123.3750     2.1510    60.6100    24.7130    18.5690     8.8100     9.5080   -48.0450 
  123.5000     2.1520    64.3280    24.6500    20.5350     8.9630     9.6230   -47.7750 
  123.6250     2.1500    67.8530    24.5780    18.5890     9.1140     9.7100   -47.5070 
  123.7500     2.1490    67.8300    24.4810    15.0860     9.1800     9.6790   -47.1560 
  123.8750     2.1510    65.5670    24.3780    12.0620     9.1020     9.4800   -46.8420 
  124.0000     2.1600    63.2840    24.3240    10.1300     8.8450     9.1040   -46.5740 
  124.1250     2.1760    62.4890    24.3940     8.9720     8.3880     8.5520   -46.2300 
  124.2500     2.1950    64.4390    24.5660     8.7010     7.8000     7.8950   -45.8750 
  124.3750     2.2140    67.9050    24.7660     8.2830     7.1250     7.1760   -45.4790 
  124.5000     2.2260    71.9010    24.9370     7.0070     6.4240     6.4570   -45.1340 
  124.6250     2.2300    77.3790    25.1120     5.8180     5.7880     5.8300   -44.8850 
  124.7500     2.2280    83.7520    25.3190     5.2800     5.2740     5.3350   -44.6730 
  124.8750     2.2250    87.4840    25.5020     4.9810     4.9000     4.9800   -44.5120 
  125.0000     2.2260    86.5290    25.5750     4.7450     4.6610     4.7520   -44.4020 
  125.1250     2.2350    84.9520    25.4970     4.8650     4.5440     4.6320   -44.4350 
  125.2500     2.2520    85.3510    25.3850     4.9760     4.4830     4.5600   -44.5150 
  125.3750     2.2690    86.7500    25.3380     4.7450     4.4450     4.5090   -44.7400 
