~V
VERS. 2.00: Ver 2.00
~W
STRT.M 60.0000:
STOP.M 271.0000:
STEP.M 0.1250:
NULL. -999.2500:
UWI. DF5026:
~C
DEPT.M :
SP.MV :
GR.API :
CALI.CM :
RXO.OHMM :
RI. :
RML.OHMM :
DEN.GM/CC :
~A
   60.0000     9.5470    66.9710    23.8590     5.7970     0.3680    -0.3100     2.1590 
   60.1250     2.4900    69.8490    23.9160     8.5160     0.9050     0.2440     2.1670 
   60.2500    -4.4740    69.2840    24.0270     9.1700     1.7970     1.3120     2.1630 
   60.3750   -11.0320    69.8650    24.1840     9.5400     2.9210     2.6460     2.1530 
   60.5000   -17.1100    71.1080    24.3660    10.0120     3.9790     3.5900     2.1460 
   60.6250   -22.4360    67.3630    24.4860    10.4170     4.7190     3.9420     2.1430 
   60.7500   -26.7880    62.1770    24.5200    10.5760     5.2330     4.1410     2.1390 
   60.8750   -30.2030    62.5310    24.5190    10.6740     5.6140     4.3550     2.1380 
   61.0000   -32.7750    67.7970    24.5260    10.7870     5.9130     4.6060     2.1390 
   61.1250   -34.6360    70.5160    24.5420    10.9000     6.1480     4.8690     2.1440 
   61.2500   -36.1330    68.7810    24.5430    11.0940     6.3400     5.1210     2.1490 
   61.3750   -37.3200    67.0970    24.5110    11.2840     6.4970     5.3570     2.1510 
   61.5000   -38.2100    68.3500    24.4450    11.5870     6.6290     5.5920     2.1510 
   61.6250   -38.8910    70.0470    24.3500    11.8710     6.7380     5.8310     2.1480 
   61.7500   -39.4120    69.4600    24.2030    12.3620     6.8110     6.0430     2.1450 
   61.8750   -39.7740    66.2500    23.9930    13.2500     6.8030     6.1700     2.1450 
   62.0000   -39.7350    63.6770    23.7800    14.2680     6.6610     6.1450     2.1490 
   62.1250   -39.5920    64.6190    23.6700    13.8870     6.3400     5.9190     2.1610 
   62.2500   -39.2810    67.3330    23.6510    12.2710     5.9260     5.5970     2.1790 
   62.3750   -38.7780    72.7070    23.6580     9.5970     5.5230     5.2850     2.1990 
   62.5000   -38.3570    81.0900    23.6660     7.1940     5.2330     5.0780     2.2170 
   62.6250   -38.0520    88.0530    23.6850     6.3980     5.1530     5.0710     2.2190 
   62.7500   -38.0460    89.7220    23.7090     6.9010     5.2590     5.2520     2.2070 
   62.8750   -38.3420    86.7070    23.7580     7.8140     5.5150     5.5840     2.1830 
   63.0000   -38.9120    81.9820    23.8520     9.0400     5.8490     5.9870     2.1580 
   63.1250   -39.6770    76.8250    23.9680     9.8850     6.1620     6.3460     2.1390 
   63.2500   -40.6440    73.5760    24.0680    10.1770     6.3790     6.5790     2.1260 
   63.3750   -41.7990    73.9410    24.1660    10.0670     6.4750     6.6600     2.1170 
   63.5000   -42.9750    75.9760    24.2840     9.9650     6.4600     6.6060     2.1110 
   63.6250   -44.0100    75.8340    24.4070     9.8780     6.3570     6.4610     2.1060 
   63.7500   -44.8380    73.3920    24.5000     9.8670     6.2230     6.3020     2.1030 
   63.8750   -45.4370    71.7940    24.5500    10.0440     6.0890     6.1750     2.1030 
   64.0000   -45.9390    70.8580    24.5580    10.4090     5.9720     6.1040     2.1070 
   64.1250   -46.2120    68.3210    24.5660    10.7770     5.8820     6.0880     2.1180 
   64.2500   -46.4180    66.7250    24.6290    10.7320     5.8080     6.0850     2.1330 
   64.3750   -46.5190    67.7510    24.7280    10.0220     5.7420     6.0730     2.1470 
   64.5000   -46.5800    71.2910    24.8040     9.2860     5.6810     6.0500     2.1560 
   64.6250   -46.6970    76.4190    24.8230     8.8420     5.6400     6.0380     2.1540 
   64.7500   -46.8020    82.1940    24.8100     8.6560     5.6380     6.0550     2.1450 
   64.8750   -47.1000    85.7780    24.7610     8.8990     5.6850     6.1130     2.1320 
   65.0000   -47.5190    84.3180    24.6710     9.8510     5.7800     6.2140     2.1190 
   65.1250   -48.0710    78.3910    24.5930    10.8210     5.9040     6.3400     2.1080 
   65.2500   -48.5770    72.7840    24.5620    11.2640     6.0180     6.4510     2.0990 
   65.3750   -49.1890    69.6260    24.5600    11.1260     6.1000     6.5200     2.0930 
   65.5000   -49.8740    69.0790    24.5670    10.8350     6.1370     6.5350     2.0880 
   65.6250   -50.5580    69.7450    24.5840    10.6600     6.1250     6.4910     2.0870 
   65.7500   -51.2400    71.2070    24.6100    10.4560     6.0810     6.4140     2.0880 
   65.8750   -51.6380    72.3870    24.6450    10.4200     6.0170     6.3250     2.0890 
   66.0000   -51.7830    70.6490    24.6740    10.3790     5.9470     6.2450     2.0900 
   66.1250   -51.8590    67.8840    24.6690    10.3000     5.8830     6.1970     2.0900 
   66.2500   -51.9290    68.4640    24.6430     9.9870     5.8330     6.1810     2.0920 
   66.3750   -51.9400    72.2180    24.6230     9.6770     5.7980     6.1920     2.0940 
   66.5000   -51.8200    75.3120    24.6180     9.8250     5.7780     6.2170     2.0960 
   66.6250   -51.5820    74.8790    24.6160     9.9960     5.7730     6.2440     2.0930 
   66.7500   -51.3440    73.1470    24.6130     9.8970     5.7780     6.2670     2.0880 
   66.8750   -51.1790    71.4950    24.6100     9.7000     5.7900     6.2850     2.0860 
   67.0000   -51.1300    70.1520    24.6090     9.7550     5.8030     6.2960     2.0870 
   67.1250   -51.0950    70.5060    24.6090     9.8490     5.8110     6.2910     2.0900 
   67.2500   -51.0300    70.3730    24.6090     9.8360     5.8110     6.2640     2.0920 
   67.3750   -50.9270    67.8460    24.6080     9.8440     5.7970     6.2100     2.0950 
   67.5000   -50.7830    65.3980    24.6070     9.9270     5.7690     6.1330     2.0970 
   67.6250   -50.5310    66.0420    24.6180    10.1290     5.7280     6.0510     2.1000 
   67.7500   -50.1120    67.4130    24.6530    10.3230     5.6880     5.9870     2.0990 
   67.8750   -49.4630    68.4250    24.6980    10.4170     5.6620     5.9580     2.0940 
   68.0000   -48.7510    69.8210    24.7260    10.5180     5.6610     5.9670     2.0860 
   68.1250   -47.9550    70.3870    24.7210    10.3790     5.6790     5.9890     2.0810 
   68.2500   -47.0710    68.4220    24.7080    10.3400     5.6800     5.9720     2.0820 
   68.3750   -46.1270    66.8650    24.7010    10.2710     5.6230     5.8680     2.0930 
   68.5000   -45.0790    68.8000    24.7010    10.1590     5.4680     5.6530     2.1170 
   68.6250   -44.0190    74.1860    24.7020     8.7560     5.2040     5.3440     2.1550 
   68.7500   -43.0050    82.7690    24.7050     7.2470     4.9210     5.0510     2.1970 
   68.8750   -42.2060    94.3220    24.7080     6.1190     4.7090     4.8690     2.2330 
   69.0000   -41.4920   106.1360    24.7050     5.4610     4.6400     4.8580     2.2510 
   69.1250   -41.0390   109.7210    24.6990     5.4990     4.7640     5.0400     2.2440 
   69.2500   -40.7910   101.3480    24.6980     6.5700     5.0030     5.3000     2.2260 
   69.3750   -40.7020    87.2680    24.7000     7.9290     5.2480     5.5110     2.2100 
   69.5000   -40.7360    78.1060    24.7000     8.6330     5.3790     5.5590     2.2050 
   69.6250   -40.8120    82.2160    24.6920     8.0050     5.2920     5.3750     2.2100 
   69.7500   -40.9370    92.7370    24.6760     6.9230     5.0580     5.0750     2.2220 
   69.8750   -41.0710   103.4870    24.6510     6.0370     4.7740     4.7820     2.2370 
   70.0000   -41.2480   111.6730    24.6250     5.8880     4.5450     4.6060     2.2510 
   70.1250   -41.3530   113.7520    24.6140     6.2570     4.4700     4.6420     2.2600 
   70.2500   -41.4430   110.0620    24.6040     6.4780     4.5460     4.8530     2.2620 
   70.3750   -41.5560   103.0170    24.5690     6.7080     4.7430     5.1810     2.2520 
   70.5000   -41.7730    96.0980    24.5120     7.5430     4.9920     5.5310     2.2300 
   70.6250   -42.1310    91.0410    24.4710     8.6140     5.1910     5.7780     2.2030 
   70.7500   -42.5200    85.5400    24.4600     8.8730     5.3140     5.9190     2.1850 
   70.8750   -42.8770    79.6180    24.4620     8.4760     5.4270     6.0770     2.1870 
   71.0000   -43.1450    73.3680    24.4620     7.9650     5.6810     6.4710     2.2110 
   71.1250   -43.3620    69.3440    24.4620     8.0920     6.3510     7.4630     2.2630 
