~V
VERS. 2.00: Ver 2.00
~W
STRT.M 55.0000:
STOP.M 274.0000:
STEP.M 0.1250:
NULL. -999.2500:
UWI. DF5018:
~C
DEPT.M :
SP.MV :
GR.API :
CALI.CM :
RXO.OHMM :
RI. :
RML.OHMM :
DEN.GM/CC :
~A
# ...
  167.5000   -26.6000    71.3030    23.7780    16.0750    15.0730    17.6100     2.4680 
  167.6250   -26.5660    69.2530    23.7630    14.9930    14.7140    17.1920     2.4730 
  167.7500   -26.5790    70.4600    23.7430    14.6320    14.5550    17.0220     2.4660 
  167.8750   -26.5540    71.6190    23.7340    15.2910    14.6610    17.1940     2.4530 
  168.0000   -26.5760    70.5100    23.7330    16.4890    15.0410    17.7080     2.4390 
  168.1250   -26.5160    69.2580    23.7330    17.5320    15.6570    18.4900     2.4250 
  168.2500   -26.4440    69.8870    23.7330    18.2350    16.3450    19.3250     2.4120 
  168.3750   -26.4090    71.7660    23.7330    18.6650    16.9690    20.0590     2.4070 
  168.5000   -26.3260    74.0040    23.7330    18.7590    17.3980    20.5610     2.4100 
  168.6250   -26.3240    74.1370    23.7330    18.6540    17.4720    20.6610     2.4180 
  168.7500   -26.2580    71.0180    23.7330    18.4640    17.2330    20.3850     2.4310 
  168.8750   -26.2430    66.4890    23.7330    18.0400    16.7540    19.7950     2.4510 
  169.0000   -26.1970    62.6620    23.7330    17.3100    16.1280    19.0060     2.4780 
  169.1250   -26.2290    61.0530    23.7340    16.1170    15.4590    18.1810     2.5140 
  169.2500   -26.2680    60.5890    23.7460    15.4510    14.8500    17.4710     2.5550 
  169.3750   -26.3010    60.6390    23.7860    15.1160    14.3450    16.9130     2.5900 
  169.5000   -26.3620    60.9350    23.8640    14.5300    13.9480    16.4950     2.6100 
  169.6250   -26.3940    61.1540    23.9440    13.8690    13.6660    16.2310     2.6130 
  169.7500   -26.4410    60.5460    23.9960    13.5310    13.4870    16.1020     2.6140 
  169.8750   -26.4610    58.6390    24.0310    13.3740    13.4060    16.0930     2.6150 
  170.0000   -26.4840    57.1070    24.1080    13.3360    13.4050    16.1740     2.6140 
  170.1250   -26.4000    57.0770    24.2840    13.6750    13.4630    16.2920     2.6140 
  170.2500   -26.3070    56.4290    24.5110    13.9500    13.5030    16.3430     2.6120 
  170.3750   -26.1640    54.3480    24.6590    13.9170    13.4520    16.2470     2.6070 
  170.5000   -26.0510    53.1430    24.7070    13.6080    13.2650    15.9820     2.5960 
  170.6250   -25.9120    54.3090    24.7080    13.2130    12.9450    15.5690     2.5920 
  170.7500   -25.7730    56.7490    24.7070    12.8120    12.5870    15.1170     2.5970 
  170.8750   -25.6580    58.5880    24.7060    12.4490    12.2680    14.7160     2.6070 
  171.0000   -25.5450    58.7000    24.7050    12.2840    12.0640    14.4510     2.6140 
  171.1250   -25.5490    57.4280    24.7050    12.4840    12.0710    14.4410     2.6140 
  171.2500   -25.5290    55.9270    24.7050    12.8680    12.2760    14.6830     2.6090 
  171.3750   -25.5780    55.0960    24.7050    13.1890    12.6310    15.1300     2.6090 
  171.5000   -25.6000    55.2780    24.7050    13.5670    13.0530    15.6640     2.6130 
  171.6250   -25.6930    56.3990    24.7050    14.4820    13.4170    16.0880     2.6060 
  171.7500   -25.8220    57.4220    24.7050    14.9440    13.6330    16.2780     2.5830 
  171.8750   -25.9430    58.2550    24.7050    14.5140    13.6820    16.2320     2.5580 
  172.0000   -26.0880    59.0770    24.7050    13.8430    13.6280    16.0640     2.5450 
  172.1250   -26.1550    58.0540    24.7070    13.9490    13.5840    15.9490     2.5470 
  172.2500   -26.3070    55.4540    24.7090    14.3340    13.5960    15.9500     2.5490 
  172.3750   -26.4190    53.6440    24.7050    14.4470    13.6180    16.0070     2.5490 
  172.5000   -26.5630    53.7930    24.7000    14.1490    13.5590    15.9820     2.5500 
  172.6250   -26.6640    54.9250    24.6970    13.5250    13.3160    15.7120     2.5530 
  172.7500   -26.7680    56.4450    24.6970    12.8560    12.9500    15.2420     2.5540 
  172.8750   -26.8620    59.7740    24.6970    12.1450    12.5790    14.7180     2.5510 
  173.0000   -26.9480    63.2320    24.6970    11.6780    12.3220    14.3090     2.5490 
  173.1250   -27.0240    64.7170    24.6970    12.0290    12.2600    14.1550     2.5490 
  173.2500   -27.0360    64.4320    24.6970    12.7320    12.3500    14.2020     2.5490 
  173.3750   -27.0900    62.6940    24.6980    13.4360    12.5370    14.3570     2.5480 
  173.5000   -27.0940    59.9020    24.7020    13.4880    12.7460    14.5050     2.5520 
  173.6250   -27.1280    56.4800    24.7130    13.0110    12.8960    14.5290     2.5620 
  173.7500   -27.1120    54.6850    24.7230    12.7190    12.9630    14.4230     2.5700 
  173.8750   -27.1660    55.3300    24.7250    12.8540    12.9490    14.2280     2.5690 
  174.0000   -27.2160    57.3820    24.7240    12.8860    12.8620    14.0010     2.5630 
  174.1250   -27.2880    58.7730    24.7260    12.5500    12.6940    13.7920     2.5660 
  174.2500   -27.3960    57.7950    24.7260    12.0590    12.4770    13.6250     2.5790 
  174.3750   -27.4490    56.6560    24.7270    11.6030    12.2400    13.5140     2.5900 
  174.5000   -27.5700    57.4250    24.7260    11.3060    11.9940    13.4510     2.5850 
  174.6250   -27.6980    58.5120    24.7280    11.0870    11.6970    13.3420     2.5620 
  174.7500   -27.9020    58.3900    24.7290    10.9760    11.2960    13.0490     2.5380 
  174.8750   -28.0980    57.3710    24.7200    10.9490    10.7960    12.5260     2.5230 
  175.0000   -28.3320    57.0650    24.6850    10.9270    10.3170    11.9190     2.5210 
  175.1250   -28.6630    58.8150    24.6060    10.7780    10.1660    11.6670     2.5190 
  175.2500   -29.0280    62.5390    24.5140    10.5100    10.6380    12.2150     2.4960 
  175.3750   -29.5250    67.4270    24.3750    10.6550    12.1180    14.0640     2.4450 
  175.5000   -30.0340    71.6170    24.2190    12.6530    15.1740    17.8320     2.3770 
  175.6250   -30.6310    71.7660    24.1150    21.0270    21.2820    24.9690     2.3190 
  175.7500   -31.2180    67.1730    24.0830    37.8770    31.3100    36.1590     2.2850 
  175.8750   -31.8190    62.3950    24.0770    59.0600    45.7550    51.9160     2.2670 
  176.0000   -32.3950    63.3360    24.0750    75.4860    62.9770    70.6990     2.2540 
  176.1250   -32.9330    69.1580    24.0740    76.7880    77.7100    86.5660     2.2410 
  176.2500   -33.4110    71.9450    24.0730    66.0460    86.0740    94.6590     2.2370 
  176.3750   -33.8150    69.9370    24.0730    50.7650    87.6730    94.7790     2.2430 
  176.5000   -34.1700    66.8910    24.0730    40.6570    84.1160    89.4810     2.2530 
  176.6250   -34.3850    66.9010    24.0730    41.4990    77.3850    81.5100     2.2570 
  176.7500   -34.5820    69.8950    24.0730    47.2780    70.1400    73.5850     2.2600 
  176.8750   -34.7420    72.6980    24.0700    51.9230    63.6310    66.8150     2.2660 
  177.0000   -34.9390    73.8440    24.0600    51.8540    58.3920    61.5310     2.2760 
  177.1250   -35.0550    73.1780    24.0070    48.9500    54.4470    57.5530     2.2870 
  177.2500   -35.2350    72.4410    23.9080    46.3210    51.0890    54.0380     2.2930 
  177.3750   -35.3870    73.8650    23.7650    43.1430    48.0210    50.6540     2.2940 
  177.5000   -35.5120    78.1510    23.5770    38.9920    45.3010    47.5100     2.2950 
  177.6250   -35.6280    81.4090    23.4020    34.2170    43.3940    45.2230     2.2980 
  177.7500   -35.7160    81.3520    23.2940    30.9980    42.5110    44.1350     2.3020 
  177.8750   -35.7910    80.6250    23.2570    30.5800    42.5660    44.1680     2.3040 
  178.0000   -35.7740    80.4080    23.2450    31.1610    42.8700    44.5030     2.3030 
  178.1250   -35.8370    81.3640    23.2350    34.8150    44.3660    46.1610     2.2970 
  178.2500   -35.8200    81.0190    23.2080    38.2710    46.3800    48.3140     2.2930 
  178.3750   -35.8350    79.2950    23.1300    39.3720    48.5830    50.5290     2.2960 
  178.5000   -35.8720    78.2050    22.9820    37.0370    50.8530    52.6590     2.3000 
  178.6250   -35.9380    80.5220    22.7730    32.3440    53.4310    55.0050     2.3010 
