~V
VERS. 2.00: Ver 2.00
~W
STRT.M 60.0000:
STOP.M 273.0000:
STEP.M 0.1250:
NULL. -999.2500:
UWI. DF5003:
~C
DEPT.M :
GR.API :
CALI.CM :
RXO.OHMM :
RI. :
RML.OHMM :
DEN.GM/CC :
SP.MV :
~A
# ...
  150.0000    80.9630    24.5350     8.4410     7.6910     8.5950     2.1780   -27.4680 
  150.1250    82.5460    24.5350     8.5350     7.5420     8.4360     2.1800   -27.4520 
  150.2500    84.5910    24.5360     8.3220     7.3530     8.2150     2.1810   -27.3220 
  150.3750    86.7050    24.5360     7.8810     7.1320     7.9490     2.1800   -27.2290 
  150.5000    89.1840    24.5330     7.4980     6.9210     7.7040     2.1790   -27.0900 
  150.6250    89.8330    24.5250     7.4350     6.8330     7.6360     2.1870   -27.0540 
  150.7500    88.0790    24.5150     7.4670     6.9630     7.8620     2.2080   -26.9320 
  150.8750    85.1100    24.5100     7.6320     7.3810     8.4500     2.2440   -26.7960 
  151.0000    82.6600    24.5120     8.1120     8.0640     9.3220     2.2920   -26.6630 
  151.1250    81.4440    24.5060     9.8000     8.7890    10.1110     2.3440   -26.5530 
  151.2500    81.7120    24.4680    12.9070     9.1340    10.3260     2.3840   -26.4890 
  151.3750    84.6210    24.4060    16.4990     8.8350     9.7410     2.4040   -26.3380 
  151.5000    89.2820    24.3400    18.1840     7.9840     8.5660     2.4050   -26.2850 
  151.6250    93.6220    24.2250    13.5080     6.9740     7.3520     2.3930   -26.1460 
  151.7500    98.2080    24.0470     8.1890     6.1830     6.5160     2.3750   -26.0900 
  151.8750   102.7200    23.8740     6.4510     5.7280     6.1430     2.3520   -26.0240 
  152.0000   105.6580    23.8200     7.2120     5.5950     6.1470     2.3250   -25.9920 
  152.1250   103.7460    23.9730     7.6560     5.7280     6.3850     2.2930   -25.9620 
  152.2500    98.2460    24.2220     7.4180     5.9610     6.6490     2.2630   -25.9490 
  152.3750    91.8400    24.4370     6.9910     6.1830     6.8250     2.2420   -25.8820 
  152.5000    87.7260    24.5360     6.5810     6.3130     6.8580     2.2330   -25.7480 
  152.6250    87.1300    24.5400     6.6940     6.3020     6.7360     2.2370   -25.7360 
  152.7500    88.7630    24.5350     7.3450     6.1940     6.5400     2.2490   -25.7690 
  152.8750    92.1810    24.5350     7.3850     6.0690     6.3800     2.2710   -25.8440 
  153.0000    95.8130    24.5350     6.7690     6.0530     6.4210     2.3030   -25.8520 
  153.1250    94.6600    24.5350     6.6610     6.3190     6.8660     2.3470   -25.8110 
  153.2500    88.1900    24.5350     6.7100     6.8480     7.6250     2.3920   -25.8060 
  153.3750    81.6230    24.5350     8.4220     7.4870     8.4450     2.4250   -25.8750 
  153.5000    79.6580    24.5360    12.1250     7.9360     8.9290     2.4310   -25.9010 
  153.6250    78.8610    24.5350    13.8130     7.8540     8.7010     2.4130   -25.8620 
  153.7500    76.5410    24.5340    11.0110     7.4560     8.1410     2.3990   -25.7850 
  153.8750    76.5660    24.5340     7.4630     7.1430     7.8450     2.4060   -25.6890 
  154.0000    80.7510    24.5300     6.3250     7.2970     8.3610     2.4420   -25.6690 
  154.1250    81.1150    24.5170    10.2910     8.3410    10.2150     2.5000   -25.6730 
  154.2500    72.4120    24.5020    18.1840    10.2570    13.1040     2.5450   -25.5830 
  154.3750    60.9230    24.4930    25.5620    12.7170    16.2540     2.5480   -25.6220 
  154.5000    54.5960    24.4930    27.6910    14.6880    18.1660     2.5030   -25.6690 
  154.6250    56.6680    24.4960    24.3600    14.6210    17.1840     2.4310   -25.6930 
  154.7500    62.7020    24.4990    17.9400    13.1180    14.6140     2.3720   -25.6810 
  154.8750    68.2830    24.5060    12.1470    11.3920    12.1540     2.3420   -25.6600 
  155.0000    70.8120    24.5080     9.3130    10.2000    10.7030     2.3450   -25.6080 
  155.1250    71.5440    24.4180     9.3470     9.7650    10.3550     2.3750   -25.5930 
  155.2500    72.3320    24.2250    12.0860     9.7180    10.4270     2.4050   -25.5900 
  155.3750    71.5860    24.0540    17.0510     9.6890    10.3910     2.4120   -25.4580 
  155.5000    68.8170    24.0610    17.7050     9.3340     9.8680     2.3880   -25.4370 
  155.6250    70.3510    24.2430    12.5570     8.5250     8.8180     2.3480   -25.3780 
  155.7500    77.4720    24.3930     7.5560     7.6030     7.7200     2.3120   -25.3700 
  155.8750    85.2580    24.4450     6.2530     6.8500     6.9140     2.2880   -25.3390 
  156.0000    89.1070    24.4420     6.1870     6.4340     6.5600     2.2780   -25.3330 
  156.1250    87.6400    24.4430     6.3740     6.4620     6.7210     2.2830   -25.2710 
  156.2500    85.9190    24.4450     6.6570     6.7810     7.1650     2.2960   -25.2360 
  156.3750    86.5620    24.4280     7.2090     7.2070     7.6540     2.3100   -25.1690 
  156.5000    88.1290    24.3860     8.4380     7.5050     7.9350     2.3200   -25.0340 
  156.6250    86.2990    24.3640     8.5640     7.4260     7.7720     2.3180   -25.0390 
  156.7500    83.7580    24.3870     7.4130     7.0320     7.2810     2.3100   -24.9860 
  156.8750    83.2680    24.4270     6.2110     6.4960     6.6740     2.3030   -24.9460 
  157.0000    83.3870    24.4200     5.7190     6.0420     6.2080     2.3030   -24.8580 
  157.1250    82.5950    24.3440     5.8020     5.9550     6.2310     2.3200   -24.8790 
  157.2500    84.1670    24.2630     6.7540     6.3840     6.9430     2.3530   -24.8390 
  157.3750    86.5950    24.2200     8.2830     7.5210     8.6080     2.4010   -24.8360 
  157.5000    85.5940    24.2150    10.3430     9.5630    11.4220     2.4590   -24.7290 
  157.6250    80.5880    24.2300    15.9470    12.6140    15.2290     2.5110   -24.6440 
  157.7500    73.9730    24.2600    23.6490    15.6360    18.5310     2.5370   -24.6590 
  157.8750    67.1320    24.2570    29.1400    16.9780    19.4670     2.5240   -24.7070 
  158.0000    62.9290    24.1560    30.0440    15.6550    17.2450     2.4800   -24.7360 
  158.1250    67.3010    24.0490    22.7330    12.5880    13.2350     2.4210   -24.7550 
  158.2500    79.0570    24.1080    12.7090     9.7370     9.7840     2.3670   -24.9120 
  158.3750    90.9970    24.3120     6.8390     7.7190     7.5750     2.3250   -25.0010 
  158.5000    97.1530    24.4900     5.7880     6.5540     6.4920     2.2980   -25.1620 
  158.6250    97.4340    24.5280     5.9200     6.1580     6.2750     2.2910   -25.2370 
  158.7500    96.8940    24.5200     6.2710     6.2230     6.4830     2.2940   -25.3730 
  158.8750    95.7570    24.5180     6.5090     6.5650     6.8900     2.2990   -25.5220 
  159.0000    90.9920    24.5140     6.5110     6.9890     7.2960     2.2980   -25.6870 
  159.1250    83.9950    24.5060     6.5180     7.3020     7.5340     2.2840   -25.7630 
  159.2500    78.9570    24.5030     6.5940     7.4510     7.6090     2.2620   -25.8520 
  159.3750    75.8110    24.5050     6.7070     7.4440     7.5540     2.2400   -26.0180 
  159.5000    75.5850    24.5090     6.7110     7.2950     7.3840     2.2270   -26.2300 
  159.6250    80.5050    24.5100     6.8310     6.9780     7.0680     2.2280   -26.3470 
  159.7500    87.2880    24.5100     6.9290     6.5490     6.6590     2.2430   -26.3250 
  159.8750    91.3910    24.5100     6.7850     6.1190     6.2880     2.2710   -26.2470 
  160.0000    93.1180    24.5090     6.3250     5.8600     6.1630     2.3120   -26.1630 
  160.1250    94.9160    24.5170     5.8170     6.0450     6.6490     2.3680   -26.0760 
  160.2500    93.2210    24.4850     6.4890     6.8090     7.9440     2.4320   -25.8910 
  160.3750    83.8970    24.3530    11.0040     8.3210    10.2400     2.4970   -25.5510 
  160.5000    69.3270    24.1530    18.5380    10.6790    13.5240     2.5490   -25.1440 
  160.6250    59.2550    24.0170    24.8650    13.7570    17.2800     2.5770   -24.8560 
  160.7500    58.1030    23.9630    26.1370    16.6050    20.2390     2.5850   -24.6440 
  160.8750    61.5300    23.9250    25.0800    18.2690    21.4620     2.5820   -24.4590 
  161.0000    63.1490    23.8650    23.4390    18.4240    20.9230     2.5730   -24.2600 
  161.1250    61.6540    23.8070    20.7550    17.4940    19.4200     2.5600   -24.1480 
