~V
VERS. 2.00: Ver 2.00
~W
STRT.M 58.0000:
STOP.M 276.0000:
STEP.M 0.1250:
NULL. -999.2500:
UWI. DF5012:
~C
DEPT.M :
SP.MV :
GR.API :
CALI.CM :
RXO.OHMM :
RI. :
RML.OHMM :
DEN.GM/CC :
~A
# ...
  136.7500   -51.1640    72.8670    24.8700    12.9270     9.6860    11.1290     2.1830 
  136.8750   -51.1480    72.3740    24.8260    12.5530     9.6250    11.0640     2.1740 
  137.0000   -51.1360    72.5090    24.7610    11.7690     9.5390    10.9590     2.1650 
  137.1250   -51.1070    74.4820    24.7120    11.2700     9.4840    10.9060     2.1580 
  137.2500   -51.0780    74.6390    24.6940    11.4080     9.4890    10.9470     2.1560 
  137.3750   -51.0310    71.1750    24.6900    11.8330     9.5500    11.0670     2.1570 
  137.5000   -50.9780    67.7620    24.6860    11.9490     9.6410    11.2130     2.1610 
  137.6250   -50.9620    67.7550    24.6860    11.6810     9.7210    11.3130     2.1630 
  137.7500   -50.9170    69.0840    24.6870    11.5760     9.7590    11.3380     2.1640 
  137.8750   -50.8850    68.3770    24.6890    11.8460     9.7470    11.3000     2.1620 
  138.0000   -50.8250    66.0970    24.6970    12.1300     9.6940    11.2280     2.1590 
  138.1250   -50.7400    65.9390    24.6930    12.1170     9.6170    11.1500     2.1550 
  138.2500   -50.6940    67.1010    24.6530    11.9310     9.5370    11.0810     2.1510 
  138.3750   -50.6250    67.5970    24.5860    11.9640     9.4640    11.0210     2.1480 
  138.5000   -50.5690    67.8630    24.5410    12.0720     9.4000    10.9720     2.1470 
  138.6250   -50.4550    68.0920    24.5900    11.9690     9.3540    10.9500     2.1500 
  138.7500   -50.3710    68.0450    24.6990    12.1430     9.3360    10.9750     2.1530 
  138.8750   -50.2640    67.7080    24.7920    12.3910     9.3610    11.0750     2.1550 
  139.0000   -50.1540    67.4970    24.8290    12.5440     9.4510    11.2760     2.1570 
  139.1250   -50.0860    67.0440    24.8240    12.5850     9.6260    11.5960     2.1590 
  139.2500   -49.9650    67.0040    24.8230    12.4730     9.8520    11.9640     2.1680 
  139.3750   -49.8630    67.4660    24.8270    12.3150    10.0830    12.2940     2.1870 
  139.5000   -49.7580    66.3290    24.8230    12.4130    10.2550    12.4920     2.2130 
  139.6250   -49.6650    64.7480    24.7850    12.5940    10.2910    12.4600     2.2350 
  139.7500   -49.5530    65.2230    24.7290    12.7120    10.2000    12.2610     2.2480 
  139.8750   -49.4600    66.5230    24.6880    12.7630    10.0300    11.9950     2.2470 
  140.0000   -49.3980    68.0440    24.6770    12.8060     9.8520    11.7680     2.2340 
  140.1250   -49.3640    69.4980    24.6800    12.7110     9.7330    11.6690     2.2180 
  140.2500   -49.3580    70.4720    24.6830    12.7580     9.6920    11.6810     2.2070 
  140.3750   -49.3700    70.9940    24.7070    13.0080     9.7230    11.7620     2.2050 
  140.5000   -49.3980    72.6140    24.7660    13.3600     9.7980    11.8570     2.2070 
  140.6250   -49.4660    75.5810    24.8360    13.1640     9.8770    11.9070     2.2100 
  140.7500   -49.5630    77.6130    24.8730    12.5960     9.9240    11.8920     2.2050 
  140.8750   -49.6590    78.3050    24.8790    12.3450     9.9280    11.8220     2.1920 
  141.0000   -49.7460    77.5060    24.8850    12.3900     9.8960    11.7200     2.1760 
  141.1250   -49.7840    74.3450    24.9070    12.2850     9.8390    11.6030     2.1660 
  141.2500   -49.7820    71.3430    24.9240    12.3020     9.7510    11.4470     2.1630 
  141.3750   -49.7530    69.9350    24.9300    12.3990     9.6070    11.2150     2.1630 
  141.5000   -49.6910    70.4950    24.9270    12.6650     9.3850    10.8890     2.1640 
  141.6250   -49.6050    70.1010    24.9290    12.7060     9.0890    10.4930     2.1660 
  141.7500   -49.4710    67.7330    24.9340    11.6400     8.7770    10.1180     2.1720 
  141.8750   -49.3410    65.8750    24.8630    10.5150     8.5050     9.8360     2.1800 
  142.0000   -49.2030    67.8790    24.6310    10.4210     8.3160     9.6880     2.1840 
  142.1250   -49.0680    74.1810    24.2980    10.1070     8.2390     9.6870     2.1790 
  142.2500   -48.9250    76.9630    24.1020    10.2090     8.2350     9.7520     2.1710 
  142.3750   -48.8090    74.2830    24.1660    10.5990     8.2580     9.8050     2.1630 
  142.5000   -48.6600    69.7940    24.4140    11.1010     8.2560     9.7780     2.1580 
  142.6250   -48.4970    68.4780    24.6400    11.3100     8.1930     9.6590     2.1580 
  142.7500   -48.3270    69.5730    24.7410    11.2400     8.1290     9.5970     2.1590 
  142.8750   -48.1400    69.0820    24.7490    11.2250     8.1980     9.8120     2.1600 
  143.0000   -47.9030    66.8630    24.7470    11.6390     8.5490    10.4830     2.1640 
  143.1250   -47.6460    65.7040    24.7930    13.4140     9.3060    11.6340     2.1720 
  143.2500   -47.3390    66.8470    24.9200    16.8140    10.2560    12.8210     2.1870 
  143.3750   -46.9820    68.4970    25.1310    26.4380    11.0190    13.4890     2.2130 
  143.5000   -46.6770    68.2960    25.3480    33.2840    11.1150    13.1380     2.2500 
  143.6250   -46.3580    70.0590    25.4630    28.3030    10.2110    11.5900     2.2900 
  143.7500   -46.1070    77.7330    25.4880    14.6360     8.8590     9.6650     2.3160 
  143.8750   -45.8460    87.8000    25.4910     8.3860     7.5600     8.0030     2.3210 
  144.0000   -45.6460    94.7300    25.5170     7.0730     6.5920     6.9120     2.3070 
  144.1250   -45.4300    96.1040    25.5560     7.0730     6.0850     6.4770     2.2860 
  144.2500   -45.3350    96.0150    25.5800     7.4680     5.9070     6.4210     2.2670 
  144.3750   -45.2590    95.4780    25.5840     7.5180     5.9320     6.5240     2.2570 
  144.5000   -45.1830    94.2130    25.5820     6.9410     6.0090     6.5910     2.2560 
  144.6250   -45.1110    93.0010    25.5840     6.4200     5.9990     6.4960     2.2580 
  144.7500   -44.9910    92.0490    25.5890     6.5020     5.8740     6.2650     2.2600 
  144.8750   -44.8980    91.2800    25.6140     6.3350     5.6570     5.9570     2.2620 
  145.0000   -44.7920    91.3510    25.6750     5.8230     5.4110     5.6580     2.2660 
  145.1250   -44.7160    92.3020    25.7450     5.4380     5.2310     5.4810     2.2740 
  145.2500   -44.6090    94.6140    25.7830     5.4920     5.1520     5.4400     2.2860 
  145.3750   -44.5070    98.4460    25.7890     5.8120     5.1610     5.5010     2.3040 
  145.5000   -44.4380   102.4640    25.7850     6.4450     5.2110     5.6010     2.3250 
  145.6250   -44.3790   102.5740    25.7860     7.8960     5.2480     5.6590     2.3450 
  145.7500   -44.3680    99.4380    25.8040     7.5910     5.2390     5.6490     2.3570 
  145.8750   -44.3580    98.0270    25.8430     5.9420     5.1940     5.5970     2.3530 
  146.0000   -44.3780   100.2910    25.8600     5.3970     5.1440     5.5500     2.3330 
  146.1250   -44.4170    99.9930    25.8080     5.9990     5.1200     5.5400     2.3030 
  146.2500   -44.4600    95.8460    25.7350     6.7500     5.1280     5.5540     2.2750 
  146.3750   -44.4930    91.1350    25.6980     6.6930     5.1620     5.5790     2.2550 
  146.5000   -44.5180    88.8800    25.6930     6.1380     5.2240     5.6220     2.2470 
  146.6250   -44.5420    90.0390    25.6660     6.1640     5.3330     5.7390     2.2510 
  146.7500   -44.5420    92.2530    25.6180     6.6830     5.5080     5.9610     2.2580 
  146.8750   -44.5380    93.2960    25.5840     7.0380     5.7450     6.2610     2.2600 
  147.0000   -44.5180    93.5400    25.5250     7.1760     5.9860     6.5330     2.2510 
  147.1250   -44.4860    95.0490    25.2720     7.3070     6.0830     6.5780     2.2350 
  147.2500   -44.4260    97.7440    24.9570     7.5060     5.9520     6.3250     2.2230 
  147.3750   -44.3940    99.1250    24.9190     6.9170     5.5980     5.8200     2.2220 
  147.5000   -44.3590    98.7150    25.2810     5.6270     5.1150     5.2080     2.2340 
  147.6250   -44.3610    98.6350    25.6940     4.8850     4.6410     4.6780     2.2560 
  147.7500   -44.3840   101.7250    25.8260     4.5980     4.2710     4.3190     2.2770 
  147.8750   -44.4390   105.9820    25.7440     4.5450     4.0440     4.1520     2.2930 
