~V
VERS. 2.00: Ver 2.00
~W
STRT.M 60.0000:
STOP.M 261.0000:
STEP.M 0.1250:
NULL. -999.2500:
UWI. DF5055:
~C
DEPT.M :
SP.MV :
GR.API :
RML.OHMM :
RI. :
RXO.OHMM :
CALI.CM :
DEN.GM/CC :
~A
# ...
  172.5000   -20.2940    70.7900   151.9290   150.3680   138.4170    25.7960     2.2060 
  172.6250   -20.2200    69.2950   142.2230   141.4260   131.1970    25.5520     2.2180 
  172.7500   -20.1400    67.9940   135.7560   135.1780   126.9550    25.2560     2.2280 
  172.8750   -20.1060    67.3440   133.1060   132.3470   119.9760    25.1030     2.2330 
  173.0000   -20.1190    67.4040   134.2560   133.0610   114.5270    25.1210     2.2310 
  173.1250   -20.1610    68.2940   138.9040   137.1210   132.6140    25.2270     2.2220 
  173.2500   -20.2480    68.5060   145.0430   142.5710   136.1780    25.4270     2.2100 
  173.3750   -20.3470    67.1630   151.2140   147.9050   128.6650    25.7120     2.1960 
  173.5000   -20.3710    65.2300   156.3230   151.9740   134.5610    25.9070     2.1850 
  173.6250   -20.4120    65.6650   159.6420   153.9880   137.9710    26.0030     2.1800 
  173.7500   -20.4980    66.5000   161.8620   154.6930   137.0030    26.0330     2.1790 
  173.8750   -20.4630    64.4400   163.7640   154.9450   136.2830    26.0280     2.1810 
  174.0000   -20.2870    61.6520   165.7630   155.3010   137.7280    25.9590     2.1850 
  174.1250   -20.1380    62.9220   167.3580   155.5080   139.3180    25.7940     2.1900 
  174.2500   -19.9680    66.1530   167.7810   154.9130   140.0100    25.5260     2.1950 
  174.3750   -19.7610    69.3990   166.5660   153.0820   136.7500    25.2330     2.2020 
  174.5000   -19.6060    72.5330   163.7390   149.9610   132.6100    25.0840     2.2090 
  174.6250   -19.4430    74.4670   159.9590   146.0310   127.9950    25.1570     2.2150 
  174.7500   -19.1680    74.7790   156.6550   142.5030   125.8370    25.3340     2.2170 
  174.8750   -18.9240    74.9460   154.8530   140.3080   125.2150    25.5200     2.2150 
  175.0000   -18.7780    75.4040   155.1710   140.0330   124.7890    25.6450     2.2090 
  175.1250   -18.6240    74.0030   158.2150   142.2590   132.4980    25.6740     2.2020 
  175.2500   -18.4620    71.5800   163.2030   146.3350   146.0840    25.6450     2.1940 
  175.3750   -18.3430    70.3840   168.8210   151.1820   154.9720    25.5840     2.1870 
  175.5000   -18.2520    70.5130   172.9400   154.9570   151.6090    25.5150     2.1830 
  175.6250   -18.1850    69.3110   172.9700   155.2990   146.7410    25.4320     2.1840 
  175.7500   -18.1320    67.6400   169.4940   152.4370   143.0070    25.3720     2.1900 
  175.8750   -18.0590    68.7880   164.3870   147.7940   129.9270    25.2920     2.2000 
  176.0000   -17.9360    72.5620   160.2050   143.5350   108.4070    25.2410     2.2110 
  176.1250   -17.8080    73.8420   159.7870   142.2180    94.8280    25.2300     2.2170 
  176.2500   -17.8300    71.0170   163.2730   144.2190   103.4090    25.2150     2.2170 
  176.3750   -17.8160    67.4540   169.7650   148.8780   113.8140    25.1610     2.2100 
  176.5000   -17.6270    65.8340   177.6460   154.8600   121.1520    25.1110     2.2030 
  176.6250   -17.4020    65.4710   185.1430   160.6680   126.3940    25.0790     2.2020 
  176.7500   -17.3150    65.3600   191.6610   165.6360   130.5840    25.0560     2.2090 
  176.8750   -17.2850    65.6510   198.0080   170.2320   132.2680    25.0420     2.2190 
  177.0000   -17.1500    66.1550   205.6220   175.4990   140.3180    25.0440     2.2240 
  177.1250   -16.9620    66.0200   215.5020   182.2730   164.2440    25.0040     2.2190 
  177.2500   -16.6930    64.3810   225.9780   189.5320   195.4730    24.9040     2.2080 
  177.3750   -16.4140    63.2030   234.6210   195.7130   205.2960    24.7270     2.1980 
  177.5000   -16.2510    62.9020   239.0180   199.3220   198.8240    24.4560     2.1910 
  177.6250   -16.1700    63.4730   236.8500   199.0570   188.2560    24.1630     2.1900 
  177.7500   -16.0410    64.7730   229.7670   196.0800   180.6330    24.0390     2.1930 
  177.8750   -15.8420    66.9880   219.8260   191.8080   176.5920    24.2700     2.1980 
  178.0000   -15.7040    69.2790   209.3640   187.7740   178.5880    24.6280     2.2040 
  178.1250   -15.6320    70.0560   200.8330   185.6530   172.8100    24.7900     2.2100 
  178.2500   -15.6440    69.6140   195.3920   186.2390   167.3070    24.8160     2.2150 
  178.3750   -15.6350    68.0390   193.0440   189.7950   164.1160    24.8230     2.2190 
  178.5000   -15.4860    66.3950   191.1030   194.3930   164.6740    24.8680     2.2190 
  178.6250   -15.2880    66.5100   180.7280   191.7890   169.5860    24.9110     2.2130 
  178.7500   -15.1420    67.0900   155.9660   173.7520   165.6310    24.9400     2.2060 
  178.8750   -14.9750    66.9260   119.6150   139.5570   146.2310    24.9450     2.2040 
  179.0000   -14.8330    66.7780    82.1370    99.0360   101.2040    24.9030     2.2230 
  179.1250   -14.6860    69.1310    54.1890    66.2690    56.2270    24.8300     2.2740 
  179.2500   -14.4330    74.0370    36.1620    44.7550    25.1930    24.7620     2.3450 
  179.3750   -14.2280    80.3370    26.0290    32.6440    14.4280    24.7470     2.4130 
  179.5000   -14.1100    84.2490    21.3920    26.9320    12.1650    24.7700     2.4550 
  179.6250   -14.0720    82.3340    20.6940    25.6660    13.5040    24.8320     2.4510 
  179.7500   -14.1490    77.1540    21.9040    26.6700    17.2530    24.8850     2.4180 
  179.8750   -14.4310    72.0880    24.1200    29.0640    24.1270    24.9020     2.3770 
  180.0000   -14.8470    70.8500    26.7820    32.1580    30.5230    24.9050     2.3440 
  180.1250   -15.3190    75.1320    30.1790    35.8880    29.0250    24.8930     2.3240 
  180.2500   -15.8190    78.1600    35.6970    41.3830    24.1360    24.8360     2.3050 
  180.3750   -16.3510    75.9610    45.8000    51.2940    26.4310    24.7520     2.2810 
  180.5000   -16.9740    70.5010    63.6170    69.3300    53.7490    24.7070     2.2510 
  180.6250   -17.6130    66.8170    95.4100   102.2130   109.8350    24.7520     2.2230 
  180.7500   -18.1850    63.4630   143.2310   150.5030   171.0130    24.8810     2.2010 
  180.8750   -18.6670    59.2310   206.3040   209.9460   196.6670    25.0730     2.1890 
  181.0000   -19.0800    56.5550   273.4120   266.5460   234.4830    25.2740     2.1840 
  181.1250   -19.4970    55.5300   320.2930   299.5280   250.7930    25.4320     2.1820 
  181.2500   -19.9960    54.9740   342.5890   310.8940   266.0380    25.4950     2.1830 
  181.3750   -20.4840    56.5320   349.2820   310.1740   263.2710    25.5030     2.1820 
  181.5000   -20.8630    60.0500   348.7600   305.1250   246.0030    25.4900     2.1790 
  181.6250   -21.1870    61.0820   346.0130   300.5150   236.0580    25.4660     2.1710 
  181.7500   -21.5330    58.8550   343.8750   298.2920   225.6520    25.4480     2.1630 
  181.8750   -21.9370    57.4180   341.3320   297.5520   226.6080    25.3800     2.1550 
  182.0000   -22.3300    59.0430   335.6620   295.8360   219.5740    25.1790     2.1510 
  182.1250   -22.6170    60.3220   323.7750   290.0960   195.9680    24.9140     2.1480 
  182.2500   -22.8170    60.9420   306.5980   279.9390   176.0550    24.7180     2.1470 
  182.3750   -23.0650    63.6980   284.9730   265.3360   161.2810    24.5390     2.1480 
  182.5000   -23.3890    67.3830   258.5100   245.6660   142.3550    24.3810     2.1520 
  182.6250   -23.5950    66.2130   225.5000   218.9500   131.7760    24.3670     2.1590 
  182.7500   -23.6840    62.9130   189.8230   188.0720   134.9270    24.4950     2.1690 
  182.8750   -23.7370    63.0400   170.9910   157.9030   123.4740    24.6290     2.1830 
  183.0000   -23.8040    67.6420   148.7980   133.6260    90.6070    24.6640     2.1960 
  183.1250   -23.9110    71.0240   134.9950   120.3120    68.7550    24.5770     2.2040 
  183.2500   -23.9370    69.5010   133.1970   117.5060    62.3170    24.4820     2.2060 
  183.3750   -23.8320    66.1510   142.4960   124.8010    79.6660    24.4520     2.2020 
  183.5000   -23.7050    64.2990   161.0090   140.6390   130.5430    24.5540     2.1970 
  183.6250   -23.7390    63.0720   184.8990   161.7780   174.3680    24.6750     2.1940 
