~V
VERS. 2.00: Ver 2.00
~W
STRT.M 60.0000:
STOP.M 257.0000:
STEP.M 0.1250:
NULL. -999.2500:
UWI. DF5064:
~C
DEPT.M :
SP.MV :
GR.API :
RML.OHMM :
RI. :
RXO.OHMM :
CALI.CM :
DEN.GM/CC :
~A
# ...
  127.5000    -8.3530    63.6620    14.5120    10.8430    16.8190    26.5680     2.4990 
  127.6250    -8.2000    58.2650    16.0650    12.3200    27.2610    26.5580     2.5520 
  127.7500    -8.1150    55.0910    16.5330    13.2000    28.0570    26.5700     2.5710 
  127.8750    -8.1190    55.4400    16.1790    13.4830    18.3510    26.5980     2.5690 
  128.0000    -8.2510    58.6860    15.5580    13.4080    12.5020    26.6150     2.5650 
  128.1250    -8.5560    62.4790    15.1690    13.2610    15.7820    26.6060     2.5720 
  128.2500    -8.9920    64.9590    15.0260    13.1600    18.5840    26.5790     2.5860 
  128.3750    -9.5510    65.0060    14.9380    13.0450    15.5460    26.5490     2.5930 
  128.5000   -10.1980    63.6840    14.6980    12.8120    13.8100    26.5250     2.5810 
  128.6250   -10.9770    66.5180    14.1630    12.3670    15.8970    26.5060     2.5370 
  128.7500   -11.8610    73.6000    13.4520    11.7860    17.0150    26.4900     2.4720 
  128.8750   -12.8140    78.5470    12.7070    11.1690    14.1210    26.4710     2.3990 
  129.0000   -13.7910    76.5760    12.0420    10.6080    11.8460    26.4540     2.3320 
  129.1250   -14.7120    71.3610    11.5370    10.1810    11.4940    26.4450     2.2840 
  129.2500   -15.5280    69.5130    11.1980     9.8970    11.7000    26.4570     2.2530 
  129.3750   -16.2170    69.6660    11.0470     9.7700    12.1000    26.4660     2.2340 
  129.5000   -16.7600    68.4630    11.1210     9.8110    12.3650    26.4690     2.2230 
  129.6250   -17.0510    64.8350    11.5520    10.0860    12.3670    26.4820     2.2220 
  129.7500   -17.0890    62.6360    12.3480    10.5840    12.4570    26.5120     2.2330 
  129.8750   -16.8890    64.1110    13.4400    11.2670    12.8800    26.5430     2.2610 
  130.0000   -16.4650    67.7230    14.5720    11.9910    13.8060    26.5660     2.3070 
  130.1250   -15.7950    68.1090    15.2040    12.4310    15.7410    26.6460     2.3660 
  130.2500   -14.9610    64.9590    14.9850    12.3480    18.7260    26.8640     2.4190 
  130.3750   -14.0500    62.4900    13.8380    11.6640    20.8050    27.1920     2.4480 
  130.5000   -13.1390    64.0480    12.0700    10.5390    19.2370    27.4580     2.4390 
  130.6250   -12.3010    68.9400    10.3660     9.3750    15.5450    27.5390     2.3890 
  130.7500   -11.5410    73.6700     9.3400     8.5870    10.4530    27.5350     2.3310 
  130.8750   -10.8310    76.3080     9.2520     8.3890     7.9270    27.5190     2.2960 
  131.0000   -10.1870    75.6410    10.1100     8.8590     7.8450    27.5310     2.3070 
  131.1250    -9.7060    71.8090    11.8680    10.0780     9.4130    27.5390     2.3650 
  131.2500    -9.3890    68.5360    14.0960    11.7990    14.0720    27.5140     2.4350 
  131.3750    -9.1670    66.7240    16.4270    13.7570    20.8020    27.4590     2.4920 
  131.5000    -8.9780    64.5670    18.4140    15.5700    24.6870    27.4180     2.5290 
  131.6250    -8.7980    62.7630    19.3570    16.6220    19.3650    27.4080     2.5540 
  131.7500    -8.6630    62.6580    18.9440    16.6040    18.8790    27.4270     2.5740 
  131.8750    -8.6220    63.6750    17.0670    15.4050    23.2670    27.4760     2.5810 
  132.0000    -8.6830    63.0160    14.0840    13.2770    26.1380    27.5450     2.5580 
  132.1250    -8.8400    63.3120    10.8710    10.8450    23.7270    27.6120     2.5010 
  132.2500    -9.0400    70.6370     8.3720     8.8210    15.3710    27.6980     2.4380 
  132.3750    -9.2790    81.4830     7.0340     7.5350     8.5670    27.8010     2.3940 
  132.5000    -9.5850    87.0130     6.9880     7.1140     5.9230    27.9060     2.3800 
  132.6250   -10.0010    85.2360     8.3520     7.7380     6.7500    28.0210     2.3860 
  132.7500   -10.4710    82.7740    10.6910     9.2230    10.1840    28.1060     2.3830 
  132.8750   -10.9570    80.2190    13.6430    11.4180    14.9080    28.1550     2.3590 
  133.0000   -11.4130    75.8500    16.6860    14.0010    18.1160    28.2120     2.3150 
  133.1250   -11.7730    71.8400    19.0360    16.3830    19.8320    28.3820     2.2640 
  133.2500   -12.0350    69.6330    20.2650    18.0280    20.7110    28.6740     2.2200 
  133.3750   -12.1810    67.1600    20.2620    18.6710    21.7890    28.9270     2.1900 
  133.5000   -12.2080    66.0150    19.2590    18.3560    24.6240    29.0520     2.1720 
  133.6250   -12.1030    69.3800    17.6520    17.3040    24.3780    29.0420     2.1680 
  133.7500   -11.8840    72.3480    15.9440    15.9810    21.2490    28.9750     2.1710 
  133.8750   -11.5850    74.2410    14.3290    14.6010    17.0590    28.8710     2.1770 
  134.0000   -11.2430    76.7530    12.8380    13.2510    14.9420    28.7510     2.1820 
  134.1250   -10.8640    80.2230    11.4200    11.9510    14.3270    28.6270     2.1880 
  134.2500   -10.4820    83.0230    10.0480    10.7100    14.4270    28.5600     2.1980 
  134.3750   -10.1220    84.8750     8.8160     9.6000    12.7110    28.5410     2.2170 
  134.5000    -9.7610    87.3140     7.8900     8.7340    10.9300    28.5170     2.2400 
  134.6250    -9.3880    89.5770     7.4940     8.2730     8.7220    28.4590     2.2580 
  134.7500    -9.0400    91.3590     7.5430     8.1580     6.4810    28.4010     2.2630 
  134.8750    -8.7270    91.7160     7.8570     8.2820     5.8860    28.3570     2.2560 
  135.0000    -8.4050    90.6800     8.1610     8.4620     7.0550    28.2930     2.2450 
  135.1250    -8.0410    91.0040     8.1200     8.4570     9.3280    28.2100     2.2430 
  135.2500    -7.6720    93.6910     7.6790     8.1810     9.4810    28.1710     2.2540 
  135.3750    -7.2990    96.0070     6.9600     7.6820     7.3520    28.1560     2.2720 
  135.5000    -6.9120    96.5860     6.2180     7.1210     5.9890    28.1440     2.2870 
  135.6250    -6.4950    96.7170     5.8290     6.7560     5.7360    28.1310     2.2940 
  135.7500    -6.0400    96.1790     5.9910     6.7540     5.9780    28.1050     2.3010 
  135.8750    -5.5570    93.3940     6.8180     7.2230     6.3710    28.0630     2.3160 
  136.0000    -5.1120    89.3350     8.3380     8.2200     7.1160    28.0180     2.3410 
  136.1250    -4.7590    86.5450    10.5650     9.8230     8.7020    27.9810     2.3710 
  136.2500    -4.4570    82.1160    13.1830    11.8350    13.4080    27.9600     2.3990 
  136.3750    -4.1970    74.5270    15.9010    14.0560    17.8420    27.9200     2.4260 
  136.5000    -3.9770    66.8530    18.3940    16.2250    20.1340    27.8730     2.4580 
  136.6250    -3.8140    63.3770    20.2660    17.9860    20.4390    27.8360     2.5000 
  136.7500    -3.6990    61.6860    21.4370    19.1950    22.9700    27.8110     2.5430 
  136.8750    -3.6390    58.6900    21.8960    19.7950    25.1900    27.8030     2.5710 
  137.0000    -3.6020    54.6320    21.7450    19.8370    26.6460    27.8140     2.5740 
  137.1250    -3.5780    52.1200    21.1730    19.4460    25.2470    27.8670     2.5460 
  137.2500    -3.5740    51.9710    20.6020    18.9720    23.2180    27.9630     2.5050 
  137.3750    -3.5950    53.7090    20.3700    18.6930    21.0920    28.0680     2.4690 
  137.5000    -3.6540    55.6010    20.6990    18.8170    19.5210    28.1300     2.4560 
  137.6250    -3.7060    55.8510    21.6520    19.4590    19.3810    28.1300     2.4810 
  137.7500    -3.7270    54.0910    22.8410    20.3720    20.0600    28.0740     2.5330 
  137.8750    -3.7230    51.8670    23.8660    21.2670    23.2730    28.0000     2.5920 
  138.0000    -3.7330    49.7810    24.3420    21.8280    27.2370    27.9640     2.6360 
  138.1250    -3.7800    48.0350    23.9170    21.7230    28.9840    27.9910     2.6440 
  138.2500    -3.8440    48.0390    22.8240    21.0520    25.9080    28.0490     2.6240 
  138.3750    -3.8950    51.2380    21.3900    20.0300    22.1290    28.0950     2.5900 
  138.5000    -3.9370    56.2040    20.0130    18.9570    20.8170    28.1200     2.5590 
  138.6250    -4.0010    60.9620    19.1290    18.1790    19.1680    28.1320     2.5430 
