~V
VERS. 2.00: Ver 2.00
~W
STRT.M 55.0000:
STOP.M 274.0000:
STEP.M 0.1250:
NULL. -999.2500:
UWI. DF5018:
~C
DEPT.M :
SP.MV :
GR.API :
CALI.CM :
RXO.OHMM :
RI. :
RML.OHMM :
DEN.GM/CC :
~A
# ...
  212.5000   -24.7210    73.5590    24.8270    17.7130    15.2900    20.3880     2.3380 
  212.6250   -24.6270    72.0440    24.8260    21.9120    15.9560    21.4370     2.3370 
  212.7500   -24.4770    75.2380    24.8240    26.4970    16.2220    21.7040     2.3460 
  212.8750   -24.2770    80.2660    24.8250    27.8010    15.8510    20.8110     2.3500 
  213.0000   -24.0500    83.0410    24.8260    23.6570    15.0500    19.2330     2.3370 
  213.1250   -23.8050    83.1800    24.8270    17.2860    14.4030    18.0730     2.3140 
  213.2500   -23.5810    84.0060    24.8270    14.0930    14.2700    17.8570     2.3030 
  213.3750   -23.2920    85.5480    24.8270    15.4640    14.5920    18.3830     2.3160 
  213.5000   -23.0130    85.7240    24.8270    18.7000    14.9660    18.9080     2.3510 
  213.6250   -22.7480    85.5040    24.8270    19.2650    14.6650    18.2480     2.3910 
  213.7500   -22.5440    87.0790    24.8270    16.2110    13.5290    16.3260     2.4140 
  213.8750   -22.2980    88.8460    24.8270    12.0690    11.9070    13.8440     2.4130 
  214.0000   -22.0920    87.8480    24.8190     9.0650    10.3380    11.6460     2.4010 
  214.1250   -21.8680    86.1240    24.7940     7.6240     9.2460    10.2780     2.4000 
  214.2500   -21.6860    86.7330    24.7620     6.9930     8.6000     9.5660     2.4090 
  214.3750   -21.5920    88.3170    24.7480     6.8210     8.2900     9.2950     2.4170 
  214.5000   -21.5190    89.1740    24.7460     7.0250     8.1840     9.2470     2.4160 
  214.6250   -21.4970    88.5650    24.7550     7.4160     8.1580     9.2380     2.4100 
  214.7500   -21.4610    88.2200    24.7870     7.6060     8.1170     9.1760     2.4040 
  214.8750   -21.5610    88.7590    24.8400     7.5140     8.0350     9.0490     2.4050 
  215.0000   -21.6770    90.2070    24.8790     7.2900     7.9080     8.8520     2.4120 
  215.1250   -21.8420    92.1310    24.8900     7.0750     7.7490     8.5800     2.4180 
  215.2500   -22.0280    92.6500    24.8920     6.9060     7.6500     8.3620     2.4200 
  215.3750   -22.2050    92.2420    24.9030     6.9040     7.7620     8.4220     2.4190 
  215.5000   -22.4460    90.9240    24.9360     7.1500     8.2730     9.0390     2.4200 
  215.6250   -22.7140    86.5510    24.9960     7.9080     9.4730    10.6240     2.4310 
  215.7500   -23.0770    81.0270    25.0230    10.0930    11.3670    13.1520     2.4480 
  215.8750   -23.4260    77.4320    25.0290    15.7320    13.8280    16.3960     2.4640 
  216.0000   -23.8240    76.5490    25.0290    24.1460    16.3580    19.5960     2.4700 
  216.1250   -24.2770    75.6490    25.0290    29.5650    17.9010    21.2430     2.4670 
  216.2500   -24.8250    73.8050    25.0290    27.1830    18.1710    21.0940     2.4620 
  216.3750   -25.3860    72.5260    25.0290    21.0830    17.7040    20.0550     2.4490 
  216.5000   -26.0020    72.3700    25.0290    18.1910    17.4080    19.4200     2.4210 
  216.6250   -26.6840    73.0390    25.0290    19.0570    18.4060    20.5560     2.3800 
  216.7500   -27.4080    72.1280    25.0290    23.1760    21.5630    24.1550     2.3340 
  216.8750   -28.1550    69.6460    25.0290    35.4290    28.4350    31.3740     2.2900 
  217.0000   -28.9240    67.1000    25.0290    61.4290    41.5590    44.1220     2.2490 
  217.1250   -29.7220    65.5480    25.0290   111.3700    66.4530    67.6860     2.2210 
  217.2500   -30.4640    64.4530    25.0290   182.2390   103.8810   105.5480     2.2090 
  217.3750   -31.2390    63.9310    25.0230   253.1950   150.5250   159.2600     2.2080 
  217.5000   -31.9310    64.9760    24.9830   296.0260   195.9560   218.8590     2.2060 
  217.6250   -32.6500    65.3490    24.8850   298.9860   224.9170   257.8720     2.1960 
  217.7500   -33.3310    64.2700    24.7890   287.5840   236.5020   270.9020     2.1860 
  217.8750   -34.0310    62.5450    24.7510   276.5500   235.8620   268.1370     2.1860 
  218.0000   -34.6700    61.3860    24.7460   270.6780   229.8020   260.1890     2.1910 
  218.1250   -35.3050    62.2440    24.7460   276.6150   224.2240   253.8910     2.1920 
  218.2500   -35.9700    63.3470    24.7460   289.1380   221.4450   250.7940     2.1860 
  218.3750   -36.5520    63.3250    24.7460   292.3530   220.7030   249.4520     2.1790 
  218.5000   -37.1530    63.2180    24.7670   276.4070   219.7360   246.9240     2.1740 
  218.6250   -37.6650    64.3020    24.8410   247.4940   215.2410   238.9930     2.1650 
  218.7500   -38.1720    64.0930    24.9510   220.1960   206.4040   225.2670     2.1530 
  218.8750   -38.5820    61.7290    25.0130   196.7520   194.1660   207.7860     2.1460 
  219.0000   -39.0010    59.9410    25.0290   174.9310   180.7990   190.0950     2.1510 
  219.1250   -39.3960    62.5010    25.0290   155.5790   169.5210   176.2580     2.1600 
  219.2500   -39.7450    65.7050    25.0290   141.0960   162.1460   167.5000     2.1650 
  219.3750   -40.0900    65.7850    25.0290   133.5780   159.1990   163.8190     2.1640 
  219.5000   -40.3620    63.4800    25.0290   135.7900   160.0530   164.2330     2.1620 
  219.6250   -40.5740    61.9850    25.0290   149.7300   163.6550   167.4910     2.1630 
  219.7500   -40.6970    61.1110    25.0290   166.4740   168.2360   171.7230     2.1650 
  219.8750   -40.8390    60.4710    25.0290   179.0760   173.1280   176.3170     2.1670 
  220.0000   -40.9170    60.6380    25.0290   186.2900   178.1900   181.3190     2.1670 
  220.1250   -40.9380    62.3480    25.0290   189.3090   183.5500   187.1270     2.1700 
  220.2500   -40.8770    63.5650    25.0290   204.6660   188.8260   193.2610     2.1810 
  220.3750   -40.8530    63.7150    25.0290   227.3360   193.1880   198.5990     2.1970 
  220.5000   -40.7890    63.4600    25.0290   239.0740   195.8340   201.9110     2.2020 
  220.6250   -40.6970    63.2630    25.0290   228.5290   196.3400   202.4510     2.1870 
  220.7500   -40.6570    62.5650    25.0290   212.1210   195.9530   201.7880     2.1710 
  220.8750   -40.5350    61.9730    25.0240   205.1360   196.0890   201.6990     2.1640 
  221.0000   -40.3920    61.8220    25.0040   207.0690   198.0070   203.6500     2.1620 
  221.1250   -40.1830    61.7630    24.9570   200.0020   202.4550   208.4800     2.1540 
  221.2500   -40.0110    61.1460    24.9200   179.2420   207.9800   214.5470     2.1500 
  221.3750   -39.7150    60.4640    24.9230   167.4940   212.5740   219.4040     2.1560 
  221.5000   -39.4160    60.3320    24.9830   181.9080   214.1170   220.3600     2.1660 
  221.6250   -39.1480    59.5790    25.0910   215.5600   210.7480   215.3190     2.1640 
  221.7500   -38.8520    59.4470    25.1400   234.3090   204.5760   206.2110     2.1560 
  221.8750   -38.6060    59.6370    25.1350   224.9390   196.1760   196.8000     2.1520 
  222.0000   -38.3240    58.9930    25.0760   196.5750   186.9140   188.6060     2.1580 
  222.1250   -38.0890    59.6060    24.9900   177.6610   178.0280   180.8610     2.1730 
  222.2500   -37.8150    62.9460    24.9180   176.0550   169.1120   173.2830     2.1850 
  222.3750   -37.6780    66.2960    24.8930   176.9580   160.5540   166.1180     2.1890 
  222.5000   -37.5620    66.1020    24.8910   163.1330   153.3650   160.2380     2.1860 
  222.6250   -37.4730    63.4200    24.9180   142.0190   149.4430   157.5080     2.1860 
  222.7500   -37.4210    62.0640    25.0020   140.0740   149.2660   158.5230     2.1930 
  222.8750   -37.3650    62.3790    25.1160   167.7860   152.4190   162.9240     2.2100 
  223.0000   -37.3480    63.0910    25.1180   197.1850   156.8360   168.6790     2.2420 
  223.1250   -37.2840    61.5430    24.9500   206.3450   158.4760   171.8490     2.2880 
  223.2500   -37.2410    59.0000    24.7730   197.2580   155.3610   170.2400     2.3200 
  223.3750   -37.1530    58.8010    24.6950   177.5750   148.3070   164.1130     2.3130 
  223.5000   -37.1040    61.8570    24.6830   155.0720   139.8380   155.6160     2.2730 
  223.6250   -36.9470    64.4070    24.6480   139.7700   132.0610   147.1010     2.2260 
