~V
VERS. 2.00: Ver 2.00
~W
STRT.M 55.0000:
STOP.M 250.0000:
STEP.M 0.1250:
NULL. -999.2500:
UWI. DF5052:
~C
DEPT.M :
SP.MV :
GR.API :
CALI.CM :
RXO.OHMM :
RI. :
RML.OHMM :
DEN.GM/CC :
~A
# ...
   77.5000   -27.3450    82.0030    24.2790     8.3350     7.4580     8.2750     2.1030 
   77.6250   -27.4470    81.2260    24.3180     8.3730     7.5420     8.3650     2.1190 
   77.7500   -27.4870    77.8410    24.4370     8.4250     7.6710     8.5020     2.1350 
   77.8750   -27.4670    74.5460    24.4640     8.4700     7.8210     8.6600     2.1350 
   78.0000   -27.3990    73.3060    24.2680     8.5620     7.9630     8.8100     2.1330 
   78.1250   -27.3070    73.6590    23.8820     8.8820     8.0560     8.9090     2.1610 
   78.2500   -27.2220    73.9890    23.5270     9.2850     8.0790     8.9340     2.2120 
   78.3750   -27.1520    73.8470    23.1980     9.3170     8.0260     8.8770     2.2530 
   78.5000   -27.0930    73.7690    22.8080     8.7500     7.9060     8.7500     2.2570 
   78.6250   -27.0430    75.3920    22.3830     7.9140     7.7460     8.5810     2.2230 
   78.7500   -27.0090    78.6710    22.0940     7.4370     7.5930     8.4180     2.1810 
   78.8750   -27.0080    81.1320    21.9320     7.3780     7.4690     8.2870     2.1480 
   79.0000   -27.0500    79.8850    21.8470     7.6460     7.3890     8.2020     2.1270 
   79.1250   -27.1320    75.3500    21.9330     8.1050     7.3620     8.1740     2.1200 
   79.2500   -27.2280    72.3960    22.1930     8.5050     7.3710     8.1830     2.1200 
   79.3750   -27.3260    73.4100    22.5770     8.7170     7.3960     8.2100     2.1230 
   79.5000   -27.4270    76.9350    22.9790     8.7670     7.4220     8.2370     2.1240 
   79.6250   -27.5430    79.8190    23.2490     8.7530     7.4420     8.2580     2.1200 
   79.7500   -27.6770    80.7410    23.3580     8.7070     7.4600     8.2780     2.1150 
   79.8750   -27.8200    79.8200    23.3750     8.6700     7.4810     8.3000     2.1170 
   80.0000   -27.9470    77.1530    23.3500     8.7160     7.5050     8.3250     2.1280 
   80.1250   -28.0290    73.6090    23.3020     8.9270     7.5260     8.3480     2.1450 
   80.2500   -28.0640    70.9510    23.2730     9.1740     7.5420     8.3640     2.1570 
   80.3750   -28.0620    69.5210    23.2660     9.2940     7.5520     8.3750     2.1550 
   80.5000   -28.0360    68.7440    23.2690     9.2780     7.5580     8.3820     2.1370 
   80.6250   -27.9890    67.8810    23.2750     9.2260     7.5620     8.3860     2.1140 
   80.7500   -27.9130    66.6170    23.2960     9.2280     7.5660     8.3900     2.1060 
   80.8750   -27.8000    65.0410    23.3360     9.1680     7.5750     8.3990     2.1170 
   81.0000   -27.6550    63.7720    23.3710     9.0560     7.5920     8.4170     2.1390 
   81.1250   -27.5010    64.5060    23.3760     9.0040     7.6170     8.4440     2.1570 
   81.2500   -27.3670    66.9900    23.3410     9.0450     7.6420     8.4700     2.1670 
   81.3750   -27.2620    69.2980    23.2530     9.1520     7.6560     8.4860     2.1720 
   81.5000   -27.1790    69.7120    23.1360     9.2800     7.6530     8.4820     2.1730 
   81.6250   -27.0980    69.0270    23.0220     9.3700     7.6280     8.4560     2.1720 
   81.7500   -27.0120    69.0340    22.9700     9.3880     7.5860     8.4110     2.1710 
   81.8750   -26.9270    69.1100    22.9540     9.3420     7.5280     8.3500     2.1670 
   82.0000   -26.8570    68.3390    22.9640     9.2540     7.4620     8.2800     2.1580 
   82.1250   -26.8150    68.2200    22.9930     9.0790     7.3970     8.2110     2.1520 
   82.2500   -26.7900    70.3260    23.0370     8.8630     7.3430     8.1540     2.1580 
   82.3750   -26.7680    73.4610    23.0820     8.6870     7.3060     8.1140     2.1710 
   82.5000   -26.7330    74.4980    23.1270     8.6150     7.2850     8.0920     2.1750 
   82.6250   -26.6800    71.1380    23.1860     8.7000     7.2760     8.0820     2.1610 
   82.7500   -26.6170    66.3220    23.2450     8.8330     7.2630     8.0690     2.1410 
   82.8750   -26.5480    62.9670    23.2700     8.9680     7.2400     8.0440     2.1270 
   83.0000   -26.4680    62.1120    23.2790     9.1180     7.2070     8.0090     2.1240 
   83.1250   -26.3530    63.9410    23.3290     9.1570     7.1760     7.9760     2.1290 
   83.2500   -26.1860    68.1660    23.4280     9.0010     7.1620     7.9620     2.1310 
   83.3750   -25.9620    73.5280    23.5170     8.6600     7.1840     7.9850     2.1260 
   83.5000   -25.6900    77.3520    23.5490     8.2830     7.2500     8.0550     2.1190 
   83.6250   -25.3860    77.7370    23.5620     8.1540     7.3620     8.1740     2.1190 
   83.7500   -25.0680    76.5730    23.5920     8.3310     7.4870     8.3060     2.1260 
   83.8750   -24.7340    75.6320    23.6200     8.7460     7.5840     8.4090     2.1350 
   84.0000   -24.3740    75.7490    23.6150     9.1000     7.6010     8.4270     2.1390 
   84.1250   -23.9770    76.7470    23.5490     9.0700     7.4640     8.2820     2.1420 
   84.2500   -23.5530    78.5220    23.4540     8.7720     7.1780     7.9790     2.1490 
   84.3750   -23.1140    81.3440    23.3820     8.2720     6.7650     7.5410     2.1580 
   84.5000   -22.6730    84.6590    23.4140     7.6470     6.2720     7.0190     2.1640 
   84.6250   -22.2470    87.5060    23.7110     6.9310     5.7730     6.4890     2.1750 
   84.7500   -21.8480    91.0680    24.2100     6.0960     5.3350     6.0260     2.2010 
   84.8750   -21.4880    96.8680    24.7220     5.2730     5.0000     5.6700     2.2370 
   85.0000   -21.1800   103.0740    24.9920     4.7610     4.7840     5.4410     2.2680 
   85.1250   -20.9470   104.5450    24.9630     4.7390     4.7000     5.3520     2.2810 
   85.2500   -20.7880   101.6920    24.8510     4.9110     4.7000     5.3520     2.2860 
   85.3750   -20.7030    98.2220    24.7250     5.0520     4.7470     5.4020     2.2830 
   85.5000   -20.6910    96.3840    24.5230     5.1440     4.8030     5.4620     2.2710 
   85.6250   -20.7570    95.4420    24.2740     5.2940     4.8300     5.4900     2.2610 
   85.7500   -20.8860    95.8710    24.0570     5.4940     4.8190     5.4780     2.2670 
   85.8750   -21.0720   100.8240    24.0290     5.6310     4.7820     5.4390     2.2910 
   86.0000   -21.3110   109.7370    24.1840     5.6090     4.7470     5.4020     2.3140 
   86.1250   -21.6070   115.1300    24.3490     5.5140     4.7580     5.4140     2.3120 
   86.2500   -21.9460   112.3940    24.3810     5.3710     4.8370     5.4970     2.2780 
   86.3750   -22.3190   103.2670    24.2540     5.3430     4.9930     5.6620     2.2310 
   86.5000   -22.7170    92.5750    24.0270     5.5140     5.2220     5.9050     2.1950 
   86.6250   -23.1170    84.5800    23.7280     5.9650     5.5010     6.2010     2.1770 
   86.7500   -23.4920    79.8130    23.5190     6.5420     5.7690     6.4850     2.1580 
   86.8750   -23.8130    76.5020    23.3920     7.0580     5.9710     6.6990     2.1310 
   87.0000   -24.0540    72.6350    23.3020     7.3460     6.0580     6.7920     2.1060 
   87.1250   -24.1740    69.4570    23.1960     7.2690     5.9920     6.7220     2.1020 
   87.2500   -24.1780    69.9420    23.0270     6.9590     5.8190     6.5380     2.1130 
   87.3750   -24.0580    74.9180    22.7740     6.4980     5.5880     6.2930     2.1200 
   87.5000   -23.8140    83.1390    22.5160     5.9620     5.3590     6.0500     2.1210 
   87.6250   -23.4330    92.2500    22.4540     5.4020     5.2040     5.8860     2.1420 
   87.7500   -22.9610    98.9640    22.5240     4.9730     5.1510     5.8300     2.1880 
   87.8750   -22.4350   100.9310    22.6130     4.8730     5.2070     5.8900     2.2340 
   88.0000   -21.9030    98.4610    22.6650     5.1540     5.3580     6.0500     2.2450 
   88.1250   -21.4210    93.9750    22.6620     5.6170     5.5750     6.2800     2.2170 
   88.2500   -21.0190    89.6820    22.6140     5.9950     5.7990     6.5170     2.1900 
   88.3750   -20.7140    86.4060    22.5530     6.3130     5.9830     6.7120     2.1820 
   88.5000   -20.5120    85.4700    22.5920     6.6730     6.0970     6.8320     2.1870 
   88.6250   -20.4250    88.4520    22.7110     6.9110     6.1210     6.8580     2.1900 
