~V
VERS. 2.00: Ver 2.00
~W
STRT.M 59.0000:
STOP.M 277.0000:
STEP.M 0.1250:
NULL. -999.2500:
UWI. DF5027:
~C
DEPT.M :
GR.API :
RML.OHMM :
RI. :
RXO.OHMM :
CALI.CM :
DEN.GM/CC :
SP.MV :
~A
# ...
   81.5000    95.8360     6.1540     5.6180     5.6700    24.9910     2.2880   -39.3040 
   81.6250    93.1100     6.5520     5.7980     5.8310    24.8420     2.2500   -40.1950 
   81.7500    85.6550     7.0950     6.1160     6.5490    24.3900     2.2170   -41.1110 
   81.8750    74.8420     7.7080     6.5320     7.7410    24.0340     2.1910   -41.9760 
   82.0000    64.7730     8.3370     7.0060     9.1650    23.9070     2.1690   -42.7340 
   82.1250    60.7870     8.9650     7.5110     9.8110    23.9330     2.1480   -43.3160 
   82.2500    61.5080     9.6230     8.0350     9.9920    23.9860     2.1280   -43.7020 
   82.3750    63.4360    10.3450     8.5740     9.9380    24.0560     2.1160   -43.8080 
   82.5000    63.5750    11.1080     9.1020     9.9830    24.1410     2.1210   -43.7290 
   82.6250    61.3810    11.7810     9.5280    10.0490    24.1880     2.1640   -43.4700 
   82.7500    59.8620    12.2130     9.7710    10.2180    24.1400     2.2410   -42.9910 
   82.8750    60.6280    12.2800     9.7610    10.2950    24.0110     2.3350   -42.5480 
   83.0000    64.6880    11.9380     9.4720    10.1880    23.8890     2.4150   -42.0380 
   83.1250    72.8050    11.2650     8.9330     9.9420    23.8470     2.4350   -41.6300 
   83.2500    81.2480    10.5440     8.3250     9.5170    23.8320     2.4000   -41.2690 
   83.3750    86.0550     9.9560     7.7730     9.1590    23.7930     2.3350   -40.9920 
   83.5000    85.4510     9.6060     7.3610     9.2360    23.7030     2.2710   -40.8730 
   83.6250    82.6120     9.5500     7.1590     9.3210    23.6230     2.2290   -40.7550 
   83.7500    81.0180     9.6740     7.1140     9.4470    23.5930     2.2080   -40.8270 
   83.8750    79.1090     9.8940     7.1840     9.7550    23.5960     2.2010   -40.9490 
   84.0000    75.5920    10.1420     7.3210    10.1160    23.6130     2.2010   -41.1720 
   84.1250    74.0960    10.3780     7.4880     9.9890    23.6730     2.2030   -41.5000 
   84.2500    76.3620    10.6040     7.6600     9.7310    23.7960     2.2030   -41.8280 
   84.3750    78.0660    10.8400     7.8310     9.4110    23.9680     2.2000   -42.2290 
   84.5000    76.5460    11.0950     8.0000     9.3140    24.1720     2.1970   -42.6370 
   84.6250    73.6190    11.3400     8.1560     9.3360    24.3650     2.1930   -43.0990 
   84.7500    71.9160    11.5380     8.2820     9.5340    24.4950     2.1860   -43.6040 
   84.8750    71.2030    11.6710     8.3670     9.7100    24.6020     2.1770   -44.0770 
   85.0000    70.2630    11.7370     8.4070     9.6670    24.6780     2.1670   -44.4980 
   85.1250    68.3130    11.7350     8.3980     9.7690    24.6540     2.1610   -44.8340 
   85.2500    66.6710    11.6910     8.3550     9.9880    24.5610     2.1590   -45.1450 
   85.3750    65.7640    11.6250     8.2910    10.2230    24.4570     2.1570   -45.4060 
   85.5000    66.0660    11.5490     8.2140    10.1580    24.3720     2.1480   -45.5360 
   85.6250    68.1080    11.4630     8.1290    10.1480    24.2860     2.1240   -45.6760 
   85.7500    71.3260    11.3790     8.0480    10.1010    24.2190     2.0910   -45.6760 
   85.8750    74.0350    11.3060     7.9800     9.9990    24.0640     2.0620   -45.6530 
   86.0000    73.6980    11.2550     7.9320    10.0160    23.9280     2.0490   -45.6640 
   86.1250    70.5070    11.2430     7.9170    10.1790    23.8680     2.0620   -45.5710 
   86.2500    67.5520    11.2680     7.9340    10.5960    23.8410     2.0870   -45.5450 
   86.3750    66.6330    11.3090     7.9730    10.8980    23.8320     2.1140   -45.4410 
   86.5000    67.6930    11.3450     8.0240    11.1790    23.8320     2.1330   -45.4080 
   86.6250    66.7660    11.3610     8.0730    11.2300    23.8350     2.1430   -45.2640 
   86.7500    63.2330    11.3600     8.1090    11.1570    23.8380     2.1480   -45.0720 
   86.8750    58.9610    11.3520     8.1320    11.0740    23.8410     2.1500   -44.8430 
   87.0000    56.8240    11.3410     8.1390    10.9940    23.8400     2.1490   -44.4620 
   87.1250    58.2390    11.2930     8.1090    11.0330    23.8440     2.1460   -44.0620 
   87.2500    61.2210    11.1630     8.0260    11.1370    23.8630     2.1440   -43.4330 
   87.3750    64.2120    10.9150     7.8720    11.1640    23.8840     2.1450   -42.7220 
   87.5000    65.5770    10.5320     7.6390    10.6220    23.9010     2.1500   -41.8860 
   87.6250    65.8730    10.0270     7.3320     9.9820    23.9530     2.1610   -40.9050 
   87.7500    67.6650     9.4980     7.0030     9.3890    24.0510     2.1780   -39.9720 
   87.8750    74.1080     9.0180     6.6940     8.3050    24.1480     2.2010   -39.0490 
   88.0000    82.0490     8.6560     6.4470     6.9240    24.1880     2.2280   -38.1440 
   88.1250    83.0100     8.4840     6.3090     6.3840    24.2410     2.2540   -37.3420 
   88.2500    77.3720     8.4720     6.2680     6.4490    24.1770     2.2750   -36.6520 
   88.3750    70.9020     8.5690     6.3000     6.8140    24.0170     2.2870   -36.0170 
   88.5000    69.3370     8.7030     6.3660     7.0460    23.8800     2.2860   -35.4100 
   88.6250    72.9660     8.7540     6.4050     6.5990    23.8570     2.2690   -34.9750 
   88.7500    77.8910     8.6440     6.3680     6.1360    23.8820     2.2450   -34.5530 
   88.8750    80.6480     8.3480     6.2330     5.9860    23.8950     2.2210   -34.1020 
   89.0000    81.2160     7.8930     6.0030     5.9620    23.8920     2.2080   -33.7800 
   89.1250    82.8060     7.3550     5.7070     5.9120    23.9730     2.2200   -33.3850 
   89.2500    86.1820     6.8650     5.4150     5.8140    24.1850     2.2520   -33.1240 
   89.3750    90.4150     6.5040     5.1750     5.5430    24.4930     2.2900   -32.9370 
   89.5000    93.9450     6.3230     5.0220     5.2290    24.7830     2.3180   -32.8280 
   89.6250    95.4570     6.3590     4.9810     5.1200    24.8250     2.3190   -32.7750 
   89.7500    94.3910     6.5260     5.0190     5.2600    24.5830     2.2970   -32.6790 
   89.8750    91.5140     6.7340     5.0940     5.4060    24.1940     2.2660   -32.6880 
   90.0000    89.7530     6.8900     5.1580     5.5070    24.0220     2.2390   -32.6210 
   90.1250    91.0140     6.8910     5.1560     5.5320    24.1460     2.2300   -32.6100 
   90.2500    91.8570     6.7290     5.0690     5.1990    24.3290     2.2390   -32.5750 
   90.3750    89.3800     6.4390     4.9060     5.0280    24.4400     2.2620   -32.5440 
   90.5000    84.9680     6.0980     4.7010     4.9650    24.3920     2.2930   -32.6020 
   90.6250    85.0660     5.7920     4.5050     4.9080    24.2210     2.3220   -32.6830 
   90.7500    88.5550     5.5930     4.3650     4.8400    24.0670     2.3410   -32.9530 
   90.8750    89.6480     5.5830     4.3320     4.8410    23.9810     2.3440   -33.2920 
   91.0000    87.3270     5.8450     4.4570     4.9360    23.9310     2.3320   -33.7250 
   91.1250    85.9180     6.4630     4.8020     5.3550    23.8390     2.3140   -34.3630 
   91.2500    86.6220     7.3690     5.3370     5.8990    23.6640     2.3040   -35.0830 
   91.3750    84.0950     8.4910     6.0300     6.7670    23.4980     2.3130   -35.9230 
   91.5000    76.6850     9.6910     6.8050     7.6550    23.4670     2.3390   -36.8500 
   91.6250    68.1200    10.7270     7.5180     9.4930    23.6360     2.3620   -37.8190 
   91.7500    63.4810    11.4210     8.0430    12.3280    23.8510     2.3580   -38.7300 
   91.8750    64.2020    11.6720     8.3090    12.8700    24.0080     2.3220   -39.4760 
   92.0000    66.9670    11.4840     8.3020    10.9650    24.0910     2.2640   -40.1400 
   92.1250    67.9930    10.9770     8.0560     9.3860    24.0710     2.2110   -40.4840 
   92.2500    66.1170    10.4240     7.7170     8.8690    24.0090     2.1780   -40.6100 
   92.3750    63.9810     9.9380     7.3640     8.7410    23.9780     2.1660   -40.4850 
   92.5000    64.5030     9.5630     7.0450     8.7410    23.9700     2.1680   -40.0490 
   92.6250    68.8480     9.2980     6.7920     8.5920    24.0000     2.1780   -39.4230 
