~V
VERS. 2.00: Ver 2.00
~W
STRT.M 59.0000:
STOP.M 275.0000:
STEP.M 0.1250:
NULL. -999.2500:
UWI. DF5021:
~C
DEPT.M :
SP.MV :
GR.API :
CALI.CM :
RXO.OHMM :
RI. :
RML.OHMM :
DEN.GM/CC :
~A
# ...
  149.0000   -23.6310   102.2000    24.8460     7.5060     6.5520     7.2720     2.2620 
  149.1250   -23.6560   101.8050    24.7420     7.5000     6.9470     7.8830     2.2620 
  149.2500   -23.6520    98.5970    24.4440     7.9650     7.5560     8.7610     2.2510 
  149.3750   -23.7640    93.1900    24.1820     9.2040     8.4570     9.9380     2.2360 
  149.5000   -23.7640    89.2390    24.0780    10.6800     9.6230    11.2210     2.2370 
  149.6250   -23.6380    87.1970    24.1650    12.2680    11.0250    12.4740     2.2710 
  149.7500   -23.6140    85.2150    24.4150    14.6210    12.5930    13.9250     2.3440 
  149.8750   -23.4890    81.5810    24.7170    18.2740    14.2290    15.5960     2.4430 
  150.0000   -23.2030    77.2770    24.8950    21.9910    15.8140    17.3000     2.5280 
  150.1250   -23.0230    73.8700    24.9190    24.6840    17.2570    18.8510     2.5780 
  150.2500   -22.8350    71.9140    24.9190    27.2110    18.5130    20.2010     2.6010 
  150.3750   -22.4890    69.9300    24.9040    29.8000    19.5210    21.2850     2.6230 
  150.5000   -22.1930    66.9560    24.8740    30.8730    20.2770    22.0980     2.6500 
  150.6250   -22.0320    64.3030    24.8460    29.7610    20.7690    22.6260     2.6650 
  150.7500   -21.7480    63.0810    24.8500    27.4890    21.0370    22.9140     2.6600 
  150.8750   -21.4950    61.8610    24.8790    25.4350    21.0900    22.9720     2.6430 
  151.0000   -21.4210    59.1560    24.9020    24.3130    20.9650    22.8380     2.6280 
  151.1250   -21.2690    56.2020    24.8860    24.2320    20.7130    22.5660     2.6180 
  151.2500   -21.0780    55.3960    24.8300    24.2910    20.4180    22.2500     2.6100 
  151.3750   -21.0390    57.6200    24.8180    23.9600    20.1570    21.9690     2.6030 
  151.5000   -20.9790    59.7000    24.8540    23.7740    19.9620    21.7590     2.5940 
  151.6250   -20.7940    59.2920    24.9060    23.8630    19.8630    21.6520     2.5850 
  151.7500   -20.7650    57.0290    24.9240    23.5920    19.8700    21.6600     2.5830 
  151.8750   -20.7580    55.6540    24.8960    23.3790    19.9850    21.7840     2.5910 
  152.0000   -20.6010    56.1100    24.8610    23.8530    20.1740    21.9870     2.6000 
  152.1250   -20.5640    57.5150    24.8700    24.9520    20.4110    22.2420     2.6040 
  152.2500   -20.5800    58.5280    24.9130    25.7450    20.6600    22.5090     2.6060 
  152.3750   -20.4740    58.0000    24.9330    25.4860    20.8790    22.7450     2.6020 
  152.5000   -20.4460    56.4170    24.9280    24.4650    21.0410    22.9190     2.5950 
  152.6250   -20.5430    54.8570    24.9240    23.6660    21.1080    22.9910     2.5870 
  152.7500   -20.4880    54.5770    24.9180    23.7900    21.0450    22.9230     2.5820 
  152.8750   -20.4450    56.4440    24.9250    24.4920    20.8400    22.7030     2.5810 
  153.0000   -20.5370    59.0470    24.9030    24.6170    20.5730    22.4160     2.5870 
  153.1250   -20.4830    60.5050    24.8730    23.4600    20.3140    22.1370     2.5940 
  153.2500   -20.4010    59.6510    24.8970    21.6170    20.1180    21.9270     2.5940 
  153.3750   -20.4450    57.1380    25.0030    20.3370    20.0270    21.8290     2.5830 
  153.5000   -20.4180    55.6070    25.0640    20.2510    19.9930    21.7930     2.5750 
  153.6250   -20.2570    56.6990    25.0240    21.2770    19.9380    21.7330     2.5800 
  153.7500   -20.2390    60.5780    24.9270    23.1600    19.7700    21.5530     2.5940 
  153.8750   -20.2480    65.1110    24.8230    24.4010    19.4100    21.1660     2.5950 
  154.0000   -20.1240    68.1030    24.7920    23.4260    18.9040    20.6210     2.5730 
  154.1250   -20.1170    69.4880    24.8160    20.4070    18.3380    20.0130     2.5410 
  154.2500   -20.1900    70.2610    24.8800    17.1690    17.8440    19.4820     2.5210 
  154.3750   -20.1430    70.8160    24.8780    15.3890    17.5820    19.2010     2.5260 
  154.5000   -20.1520    71.0860    24.8000    15.0230    17.5700    19.1870     2.5330 
  154.6250   -20.3040    71.1170    24.6960    15.8780    17.7750    19.4080     2.5260 
  154.7500   -20.3200    70.4400    24.6330    17.6030    18.1090    19.7670     2.5160 
  154.8750   -20.3360    68.4320    24.5890    19.8740    18.4240    20.1050     2.5240 
  155.0000   -20.5020    66.5600    24.5330    22.0460    18.5910    20.2850     2.5430 
  155.1250   -20.5870    66.9060    24.5020    23.5720    18.5680    20.2600     2.5550 
  155.2500   -20.6360    70.2930    24.4820    23.4500    18.3850    20.0640     2.5490 
  155.3750   -20.8270    74.8020    24.4490    21.4160    18.1420    19.8030     2.5170 
  155.5000   -20.9510    76.8530    24.4170    19.2340    17.9710    19.6180     2.4770 
  155.6250   -21.0220    75.0700    24.4260    18.0470    17.9420    19.5880     2.4500 
  155.7500   -21.2640    71.1090    24.4720    18.0740    18.0760    19.7310     2.4520 
  155.8750   -21.4630    67.9870    24.4770    19.0900    18.3310    20.0060     2.4800 
  156.0000   -21.5620    66.8130    24.4420    20.4080    18.5640    20.2560     2.5110 
  156.1250   -21.8000    67.9280    24.4060    21.5250    18.6520    20.3510     2.5290 
  156.2500   -22.0180    71.2880    24.3970    22.0120    18.5080    20.1960     2.5300 
  156.3750   -22.1090    76.2020    24.4250    21.6370    18.0620    19.7170     2.5200 
  156.5000   -22.3050    80.8010    24.5010    20.7850    17.4130    19.0190     2.5180 
  156.6250   -22.5240    83.3750    24.6460    19.6110    16.6630    18.2120     2.5310 
  156.7500   -22.5820    82.7560    24.8450    18.3360    15.9260    17.4200     2.5520 
  156.8750   -22.7030    79.2630    24.9640    17.4590    15.3250    16.7750     2.5640 
  157.0000   -22.9160    76.1010    25.0220    17.1200    14.8980    16.3150     2.5590 
  157.1250   -22.9660    74.5710    25.0400    16.8260    14.6520    16.0510     2.5420 
  157.2500   -23.0350    73.6510    25.0300    16.1830    14.5660    15.9580     2.5230 
  157.3750   -23.2350    71.0830    24.9600    15.5610    14.6220    16.0190     2.5200 
  157.5000   -23.3510    66.5100    24.8550    15.5620    14.7590    16.1660     2.5310 
  157.6250   -23.4080    61.7990    24.7670    16.2020    14.9230    16.3420     2.5450 
  157.7500   -23.6140    59.6500    24.7470    17.0220    15.0570    16.4860     2.5520 
  157.8750   -23.7450    61.2050    24.7860    17.5410    15.0950    16.5270     2.5600 
  158.0000   -23.7780    63.9420    24.8470    17.7860    15.0220    16.4490     2.5690 
  158.1250   -23.9770    65.9960    24.8910    18.0590    14.8430    16.2560     2.5730 
  158.2500   -24.1290    66.6400    24.8820    18.2130    14.5950    15.9890     2.5670 
  158.3750   -24.1550    65.8100    24.8240    17.6950    14.3480    15.7240     2.5600 
  158.5000   -24.2840    64.6670    24.8200    16.7460    14.1790    15.5420     2.5690 
  158.6250   -24.4450    64.4880    24.8680    15.8960    14.1430    15.5030     2.5920 
  158.7500   -24.4730    65.7870    24.8960    15.7410    14.2660    15.6360     2.6190 
  158.8750   -24.5900    67.7570    24.8640    16.3600    14.5600    15.9520     2.6270 
  159.0000   -24.7610    68.8840    24.8180    17.4200    14.9490    16.3700     2.6080 
  159.1250   -24.7760    68.3750    24.8250    18.2980    15.3680    16.8210     2.5750 
  159.2500   -24.8870    66.5400    24.8870    18.6840    15.7470    17.2280     2.5510 
  159.3750   -25.0660    64.8270    24.8980    18.8620    15.9950    17.4940     2.5520 
  159.5000   -25.0830    64.1250    24.8410    19.1410    16.0920    17.5980     2.5650 
  159.6250   -25.1040    63.8840    24.7500    19.1100    16.0420    17.5450     2.5770 
  159.7500   -25.2380    63.1830    24.6710    18.5030    15.8850    17.3760     2.5820 
  159.8750   -25.2600    62.2710    24.6450    17.5820    15.6730    17.1480     2.5780 
  160.0000   -25.2380    62.1150    24.6380    16.8470    15.4610    16.9200     2.5670 
  160.1250   -25.3690    62.8290    24.6070    16.4400    15.2700    16.7150     2.5560 
