~V
VERS. 2.00: Ver 2.00
~W
STRT.M 60.0000:
STOP.M 273.0000:
STEP.M 0.1250:
NULL. -999.2500:
UWI. DF5008:
~C
DEPT.M :
GR.API :
CALI.CM :
RXO.OHMM :
RI. :
RML.OHMM :
DEN.GM/CC :
SP.MV :
~A
# ...
  206.2500    91.7250    23.9890    11.1790     9.9010    10.1380     2.4180   -42.2760 
  206.3750    94.4770    23.9870    11.2230     9.7070     9.8860     2.4220   -42.5150 
  206.5000    96.6460    23.9940    10.4320     9.4320     9.6230     2.4250   -42.7980 
  206.6250    96.5740    24.0230    10.2150     9.1590     9.4470     2.4260   -43.0640 
  206.7500    96.5780    24.0680     9.9910     8.9420     9.3890     2.4280   -43.3680 
  206.8750    97.7940    24.1070     9.9620     8.7960     9.4330     2.4310   -43.6900 
  207.0000    97.0350    24.1220     9.9750     8.7080     9.5190     2.4350   -44.0050 
  207.1250    93.3550    24.1210     9.8490     8.6300     9.5340     2.4430   -44.3150 
  207.2500    92.6680    24.1200     9.9040     8.4950     9.4020     2.4560   -44.6370 
  207.3750    96.9110    24.1200    10.0410     8.2710     9.1220     2.4740   -44.9810 
  207.5000   102.3650    24.1260     9.3240     7.9800     8.7810     2.4880   -45.3350 
  207.6250   104.6710    24.1370     8.7660     7.7250     8.5600     2.4820   -45.8050 
  207.7500   102.9530    24.1420     8.4580     7.6140     8.5920     2.4550   -46.2530 
  207.8750   100.1070    24.1190     8.4300     7.7160     8.9390     2.4140   -46.7380 
  208.0000    96.8630    24.0240     8.8280     8.0510     9.5790     2.3710   -47.2870 
  208.1250    92.2670    23.8340    11.0230     8.5880    10.3970     2.3430   -47.8730 
  208.2500    85.9780    23.6410    13.5750     9.1560    11.1380     2.3310   -48.4280 
  208.3750    79.4660    23.5200    14.8860     9.5880    11.5980     2.3300   -48.8590 
  208.5000    74.6230    23.4750    14.9320     9.7610    11.6700     2.3330   -49.1840 
  208.6250    71.0220    23.4700    14.7580     9.6500    11.4170     2.3410   -49.1840 
  208.7500    69.2730    23.4910    14.8810     9.4890    11.2070     2.3550   -49.0680 
  208.8750    71.0780    23.5390    15.0510     9.5180    11.4270     2.3790   -48.7190 
  209.0000    73.5160    23.5820    15.2200     9.9890    12.5120     2.4150   -48.1410 
  209.1250    74.3070    23.5420    16.5540    11.3810    15.2420     2.4630   -47.3150 
  209.2500    73.8790    23.4070    19.9560    13.9850    19.7480     2.5110   -46.3330 
  209.3750    71.8610    23.2270    25.9320    17.9920    25.6790     2.5480   -45.2680 
  209.5000    66.3120    23.1010    33.3540    22.7670    31.4280     2.5670   -44.0910 
  209.6250    60.4240    23.1640    42.0320    25.3510    32.9070     2.5650   -43.0320 
  209.7500    60.5580    23.4150    49.4410    23.5080    28.5760     2.5510   -41.9380 
  209.8750    66.2110    23.7450    48.2340    18.4570    20.7770     2.5270   -40.9290 
  210.0000    71.6570    23.9850    30.8460    13.1570    13.4770     2.4960   -40.0280 
  210.1250    77.3940    24.0470    13.1910     9.5650     9.1100     2.4640   -39.3150 
  210.2500    84.2670    24.0400     5.7810     7.4520     6.8730     2.4410   -38.7660 
  210.3750    88.8460    24.0580     5.7560     6.3830     5.9350     2.4300   -38.4000 
  210.5000    89.1140    24.1450     6.7710     5.9700     5.6660     2.4300   -38.1680 
  210.6250    88.5750    24.2990     6.5850     5.9290     5.6500     2.4290   -38.0930 
  210.7500    89.9050    24.4440     5.7750     5.9440     5.5870     2.4240   -38.1280 
  210.8750    91.2390    24.5130     5.2720     5.8960     5.4250     2.4160   -38.2730 
  211.0000    91.2050    24.5050     5.2500     5.8010     5.2570     2.4110   -38.5030 
  211.1250    93.1110    24.4810     5.5200     5.7900     5.2650     2.4120   -38.7960 
  211.2500    94.7320    24.4990     6.0520     5.9550     5.5170     2.4100   -39.1220 
  211.3750    93.9800    24.5480     6.8620     6.3280     6.0230     2.4030   -39.4580 
  211.5000    92.5610    24.5790     8.0000     6.8810     6.7280     2.3920   -39.8880 
  211.6250    93.5290    24.5660     8.4030     7.5070     7.5030     2.3830   -40.2490 
  211.7500    94.6940    24.5420     9.1280     8.0300     8.1710     2.3770   -40.6900 
  211.8750    92.6880    24.5170    10.4840     8.3430     8.6430     2.3720   -41.0850 
  212.0000    89.6630    24.4890    11.0180     8.4550     8.9600     2.3660   -41.4800 
  212.1250    91.1070    24.4770    10.7190     8.5200     9.3560     2.3560   -41.8510 
  212.2500    92.9830    24.4920    10.2920     8.7840    10.1650     2.3450   -42.2240 
  212.3750    91.9200    24.5140    12.3860     9.4780    11.7400     2.3360   -42.5930 
  212.5000    89.7820    24.5220    14.6840    10.8550    14.4460     2.3280   -42.9130 
  212.6250    87.3470    24.5180    19.4130    13.4280    18.8820     2.3170   -43.1620 
  212.7500    82.6000    24.5050    25.0500    17.3620    24.9560     2.3020   -43.4410 
  212.8750    75.6150    24.4830    38.2090    22.7440    32.4260     2.2810   -43.7290 
  213.0000    70.9160    24.4560    56.9210    29.1740    40.5380     2.2610   -43.9990 
  213.1250    70.3200    24.4500    71.5990    35.5150    47.8280     2.2450   -44.2590 
  213.2500    70.0030    24.4840    71.2020    40.6410    53.3450     2.2330   -44.4930 
  213.3750    68.4860    24.5400    64.5780    44.2710    57.1060     2.2230   -44.6870 
  213.5000    66.2940    24.5830    58.4840    46.8220    59.9020     2.2120   -44.9080 
  213.6250    65.1820    24.5950    58.9730    49.0190    62.7480     2.2010   -45.1340 
  213.7500    65.0380    24.5970    63.7210    51.3900    66.0140     2.1950   -45.3350 
  213.8750    64.0230    24.5920    71.9870    53.8420    69.3140     2.1960   -45.5270 
  214.0000    64.1500    24.5640    77.4100    55.9790    71.9750     2.2030   -45.7620 
  214.1250    68.1640    24.4850    75.2270    57.3870    73.4610     2.2140   -45.9850 
  214.2500    72.8890    24.3610    71.9430    58.3570    74.3460     2.2230   -46.1950 
  214.3750    72.8960    24.2250    69.8020    59.4030    75.4040     2.2280   -46.4150 
  214.5000    67.9840    24.1530    69.1900    61.0750    77.2990     2.2250   -46.6040 
  214.6250    64.1140    24.2590    73.6860    63.7650    80.3280     2.2160   -46.8190 
  214.7500    64.7740    24.4750    81.8980    66.9760    83.7230     2.2040   -46.9730 
  214.8750    69.1960    24.6590    92.8660    69.9920    86.5630     2.1940   -47.1090 
  215.0000    71.9740    24.6780   102.7880    72.0590    88.0130     2.1880   -47.1840 
  215.1250    69.4080    24.4850   101.2800    72.5360    87.5150     2.1890   -47.1990 
  215.2500    64.7770    24.2250    90.4010    71.9200    85.8950     2.1930   -47.2200 
  215.3750    62.0670    24.0270    79.2350    70.7970    83.9290     2.1960   -47.1960 
  215.5000    62.8470    23.9620    75.0690    69.6500    82.1270     2.1970   -47.1900 
  215.6250    64.9400    23.9870    78.6260    68.6960    80.6450     2.1960   -47.1700 
  215.7500    66.3440    24.0130    83.1870    67.9270    79.4050     2.1950   -47.1100 
  215.8750    66.2250    24.0430    81.2470    67.4000    78.5000     2.1960   -47.0460 
  216.0000    65.0610    24.0710    71.8360    67.2850    78.2160     2.1970   -46.9880 
  216.1250    64.4000    24.0640    68.7980    68.0880    79.2120     2.1970   -46.9490 
  216.2500    62.8840    24.0910    76.9910    70.0060    81.5940     2.1950   -46.9390 
  216.3750    61.1600    24.2290    87.1200    73.0470    85.2310     2.1920   -46.9260 
  216.5000    60.7550    24.4300    91.7550    76.9220    89.6720     2.1920   -46.8420 
  216.6250    63.2710    24.5250    96.7410    81.1250    94.2430     2.1960   -46.7780 
  216.7500    64.8050    24.4950   101.7090    85.0450    98.3070     2.2040   -46.7440 
  216.8750    64.8270    24.4420   102.3110    88.3540   101.5640     2.2120   -46.7150 
  217.0000    65.3050    24.4290   102.1580    90.9010   103.9230     2.2150   -46.6590 
  217.1250    64.3380    24.4490   109.3400    92.3790   105.1120     2.2120   -46.5990 
  217.2500    61.5840    24.4650   112.1700    92.7760   105.1740     2.2030   -46.4520 
  217.3750    59.6790    24.4620   108.5770    92.1890   104.2640     2.1910   -46.3900 
