~V
VERS. 2.00: Ver 2.00
~W
STRT.M 65.0000:
STOP.M 272.0000:
STEP.M 0.1250:
NULL. -999.2500:
UWI. DF5002:
~C
DEPT.M :
DEN.GM/CC :
GR.API :
CALI.CM :
RXO.OHMM :
RI. :
RML.OHMM :
SP.MV :
~A
# ...
  245.0000     2.2980   105.4150    24.2030    11.9660    11.7360    12.9210   -19.8070 
  245.1250     2.2850   105.8440    24.1670    12.0490    11.1970    11.9980   -19.9390 
  245.2500     2.2860   107.5910    24.1750    12.2710    11.3250    11.9070   -20.0350 
  245.3750     2.2910   107.7260    24.2330    12.3900    11.7350    12.2540   -20.0030 
  245.5000     2.2950   104.1830    24.3630    12.3710    12.1150    12.6890   -19.9230 
  245.6250     2.2960    99.4760    24.4240    12.5890    12.2030    12.8880   -19.7760 
  245.7500     2.2960    97.4790    24.4810    12.7800    11.9710    12.7450   -19.5290 
  245.8750     2.2990    97.2920    24.4840    12.7400    11.4600    12.2630   -19.2040 
  246.0000     2.3030    97.4010    24.4400    12.0590    10.7930    11.5470   -18.8730 
  246.1250     2.3010    96.1720    24.3910    10.8610    10.1680    10.7910   -18.5530 
  246.2500     2.2940    94.3510    24.3670    10.0220     9.7410    10.1820   -18.2050 
  246.3750     2.2890    92.8960    24.3610     9.7980     9.5950     9.8190   -17.9080 
  246.5000     2.2850    92.8080    24.3630     9.9730     9.7220     9.7330   -17.7080 
  246.6250     2.2790    92.6470    24.3650    10.4140     9.8140    10.0330   -17.5760 
  246.7500     2.2780    92.5090    24.3660    10.9570     9.8550    10.2130   -17.4220 
  246.8750     2.2860    94.8460    24.3710    11.2230     9.6950    10.0890   -17.2490 
  247.0000     2.2950    99.6880    24.3860    10.7350     9.3310     9.6780   -17.0860 
  247.1250     2.2930   108.1020    24.4030     9.5650     8.9480     9.2450   -16.9110 
  247.2500     2.2900   118.3600    24.4090     8.9570     8.7960     9.1220   -16.7020 
  247.3750     2.2990   125.1360    24.4260    10.2530     9.0280     9.4900   -16.4930 
  247.5000     2.3210   123.3670    24.4430    12.9630     9.6630    10.3440   -16.2630 
  247.6250     2.3360   114.4310    24.4360    15.2860    10.5290    11.4370   -15.8770 
  247.7500     2.3320   104.2700    24.3800    15.6530    11.1760    12.2090   -15.4270 
  247.8750     2.3120    93.8580    24.2750    14.3030    11.2330    12.2190   -15.0370 
  248.0000     2.2900    83.5750    24.2350    11.7670    10.5970    11.3970   -14.6100 
  248.1250     2.2920    77.1330    24.2750     9.3110     9.5000    10.1130   -14.0530 
  248.2500     2.3140    73.8840    24.2660     7.8760     8.3970     8.9200   -13.5660 
  248.3750     2.3320    72.2260    24.1980     7.3820     7.4920     8.0130   -13.1390 
  248.5000     2.3260    71.8370    24.1580     7.2950     6.8630     7.4350   -12.6880 
  248.6250     2.3020    74.1070    24.1510     7.3130     6.5620     7.2020   -12.4290 
  248.7500     2.2900    76.0710    24.1330     7.4690     6.4960     7.2070   -12.4440 
  248.8750     2.2980    75.4900    24.1170     7.8270     6.6080     7.4010   -12.5920 
  249.0000     2.3100    73.9480    24.1160     8.2380     6.8390     7.7270   -12.8340 
  249.1250     2.3150    73.7830    24.1580     8.4660     7.1220     8.1000   -13.2110 
  249.2500     2.3170    76.3940    24.2320     8.6130     7.3680     8.4070   -13.6670 
  249.3750     2.3210    80.8820    24.2940     8.6740     7.5250     8.5830   -14.1000 
  249.5000     2.3300    85.8210    24.3170     8.7050     7.5860     8.6270   -14.4810 
  249.6250     2.3390    87.1100    24.3170     8.8250     7.5920     8.6130   -14.7970 
  249.7500     2.3380    84.1610    24.3170     9.0350     7.6230     8.6620   -15.0580 
  249.8750     2.3250    81.3820    24.3190     9.3340     7.7280     8.8350   -15.2730 
  250.0000     2.3120    82.4330    24.3230     9.6820     7.9050     9.1210   -15.4150 
  250.1250     2.3180    87.2160    24.3280     9.8720     8.0950     9.4370   -15.5640 
  250.2500     2.3360    91.9300    24.3380    10.0520     8.2190     9.6700   -15.6340 
  250.3750     2.3500    92.9250    24.3480    10.3460     8.2460     9.7690   -15.6450 
  250.5000     2.3460    90.3840    24.3430    10.3850     8.2020     9.7610   -15.6340 
  250.6250     2.3190    88.5280    24.3250    10.2580     8.1570     9.7400   -15.5520 
  250.7500     2.2900    88.4450    24.3170    10.5090     8.1710     9.7870   -15.4090 
  250.8750     2.2750    89.1220    24.3060    11.2460     8.2560     9.9190   -15.2840 
  251.0000     2.2790    89.0910    24.2390    11.6760     8.3860    10.0980   -15.2010 
  251.1250     2.2970    89.7130    24.1870    11.1320     8.5260    10.2650   -15.0870 
  251.2500     2.3140    90.8330    24.1700    10.7870     8.6710    10.4060   -14.9630 
  251.3750     2.3120    91.6290    24.1670    10.9130     8.8410    10.5590   -14.9130 
  251.5000     2.2780    93.7000    24.1620    11.3060     9.0630    10.7800   -14.9510 
  251.6250     2.2310    96.3080    24.1530    12.0910     9.3600    11.1130   -15.0320 
  251.7500     2.2140    98.2890    24.1100    13.1700     9.7050    11.5110   -15.0240 
  251.8750     2.2340    99.3390    24.0370    13.5620    10.0480    11.8990   -14.9020 
  252.0000     2.2710    99.3960    24.1190    12.9870    10.3120    12.1740   -14.6640 
  252.1250     2.3000    98.5980    24.2460    12.4470    10.3670    12.1870   -14.2220 
  252.2500     2.3210    94.7970    24.2810    12.6550    10.1750    11.9060   -13.6370 
  252.3750     2.3400    85.6500    24.1920    12.9140     9.7640    11.3760   -12.8950 
  252.5000     2.3590    71.2300    24.1730    12.1490     9.2610    10.7510   -11.9620 
  252.6250     2.3830    57.5970    24.2580    10.4380     8.8420    10.2590   -10.8030 
  252.7500     2.4160    49.3850    24.2280     9.2040     8.5680     9.9880    -9.6350 
  252.8750     2.4570    44.7500    24.1710     9.4330     8.3930     9.8770    -8.4900 
  253.0000     2.4930    43.1030    24.0760    11.3420     8.1980     9.7440    -7.3750 
  253.1250     2.4980    46.9540    24.0170    12.9760     7.8130     9.3080    -6.4600 
  253.2500     2.4730    53.7850    23.9910    11.5920     7.2360     8.5720    -5.6700 
  253.3750     2.4330    59.6200    23.9880     8.5290     6.5770     7.7320    -5.0040 
  253.5000     2.3960    62.7890    23.9750     6.6760     5.9910     7.0270    -4.4840 
  253.6250     2.3790    64.4670    24.1080     6.2220     5.6230     6.6440    -4.1620 
  253.7500     2.3750    65.0500    24.3470     6.2300     5.4650     6.5300    -3.9650 
  253.8750     2.3760    64.4760    24.5750     6.3000     5.4680     6.5880    -3.8000 
  254.0000     2.3700    63.5510    24.6860     6.3700     5.5470     6.6950    -3.7520 
  254.1250     2.3550    63.1590    24.7030     6.3470     5.6170     6.7540    -3.7580 
  254.2500     2.3450    64.5170    24.6960     6.3690     5.6420     6.7500    -3.7760 
  254.3750     2.3460    66.4220    24.7100     6.5210     5.6140     6.6950    -3.8030 
  254.5000     2.3570    66.6530    24.7400     6.7720     5.5340     6.6010    -3.8670 
  254.6250     2.3690    65.4280    24.7590     6.9190     5.4080     6.4810    -3.9600 
  254.7500     2.3720    64.3670    24.7640     6.7750     5.2760     6.3610    -3.9920 
  254.8750     2.3660    64.0380    24.7850     6.4810     5.1650     6.2570    -4.0470 
  255.0000     2.3550    64.4440    24.8010     6.3860     5.0900     6.1850    -4.0930 
  255.1250     2.3500    64.8750    24.8030     6.6440     5.0520     6.1530    -4.1100 
  255.2500     2.3520    64.7030    24.8030     6.9360     5.0290     6.1470    -4.1510 
  255.3750     2.3560    65.1250    24.8020     6.8310     5.0080     6.1570    -4.1880 
  255.5000     2.3530    67.2770    24.8010     6.3810     4.9850     6.1740    -4.2210 
  255.6250     2.3460    69.5180    24.7800     6.1770     4.9680     6.2010    -4.2870 
  255.7500     2.3410    70.1230    24.7290     6.1090     4.9670     6.2430    -4.3770 
  255.8750     2.3380    70.5320    24.6890     6.1730     4.9850     6.3020    -4.4480 
  256.0000     2.3330    70.0200    24.7050     6.4690     5.0090     6.3600    -4.4960 
  256.1250     2.3330    66.6920    24.6910     6.9190     5.0060     6.3770    -4.5280 
