~V
VERS. 2.00: Ver 2.00
~W
STRT.M 60.0000:
STOP.M 268.0000:
STEP.M 0.1250:
NULL. -999.2500:
UWI. DF5039:
~C
DEPT.M :
DEN.GM/CC :
GR.API :
CALI.CM :
RXO.OHMM :
RI. :
RML.OHMM :
SP.MV :
~A
# ...
  251.2500     2.3310    70.8340    24.4590     7.6150     7.0290     8.1460    -8.4960 
  251.3750     2.3310    67.6200    24.4950     7.1430     6.8820     8.0710    -8.4880 
  251.5000     2.3230    62.3790    24.4800     6.6670     6.8080     8.0690    -8.4440 
  251.6250     2.3120    60.3940    24.4590     6.3690     6.8010     8.1220    -8.3880 
  251.7500     2.3030    60.7630    24.4690     5.9440     6.8320     8.1990    -8.4610 
  251.8750     2.2980    61.1890    24.4600     5.6470     6.8840     8.2780    -8.4970 
  252.0000     2.2980    61.9790    24.4080     5.5820     6.9390     8.3430    -8.5520 
  252.1250     2.3000    63.2050    24.3520     5.8570     6.9730     8.3740    -8.6070 
  252.2500     2.3000    64.2150    24.3190     6.6150     6.9720     8.3640    -8.5930 
  252.3750     2.2960    64.1320    24.3550     7.5030     6.9290     8.3090    -8.6800 
  252.5000     2.2900    63.6090    24.4660     7.6860     6.8460     8.2160    -8.7210 
  252.6250     2.2870    62.9000    24.6550     7.0600     6.7400     8.1060    -8.7660 
  252.7500     2.2870    63.1460    24.8560     6.4380     6.6430     8.0180    -8.8310 
  252.8750     2.2910    64.3450    24.9170     6.1230     6.5840     7.9850    -8.8330 
  253.0000     2.2970    65.5740    24.7280     6.0490     6.5820     8.0270    -8.8890 
  253.1250     2.3020    65.9210    24.3840     6.1170     6.6590     8.1610    -8.9610 
  253.2500     2.3060    65.1630    24.1680     6.2460     6.7960     8.3540    -9.0070 
  253.3750     2.3090    63.2850    24.1170     6.2690     6.9760     8.5840    -9.0740 
  253.5000     2.3130    62.9220    24.0890     6.1160     7.1750     8.8230    -9.1590 
  253.6250     2.3180    65.7750    24.0100     5.9530     7.3650     9.0400    -9.2290 
  253.7500     2.3240    67.6610    23.9210     5.9580     7.5200     9.2110    -9.3210 
  253.8750     2.3320    65.6940    23.8600     6.1730     7.6190     9.3120    -9.4090 
  254.0000     2.3420    62.4780    23.8350     6.4220     7.6500     9.3270    -9.4790 
  254.1250     2.3500    61.9290    23.8470     6.4600     7.6000     9.2480    -9.5460 
  254.2500     2.3550    62.7750    23.8870     6.5350     7.4980     9.1160    -9.5980 
  254.3750     2.3530    62.6570    23.9360     6.7590     7.3700     8.9670    -9.5950 
  254.5000     2.3460    62.3610    23.9740     6.8530     7.2410     8.8280    -9.5740 
  254.6250     2.3390    62.8530    23.9840     6.7310     7.1310     8.7190    -9.6010 
  254.7500     2.3350    64.1570    23.9770     6.5310     7.0460     8.6390    -9.6320 
  254.8750     2.3320    65.5530    23.9670     6.3240     6.9900     8.5930    -9.6350 
  255.0000     2.3310    65.3540    23.9680     6.2510     6.9750     8.6020    -9.6520 
  255.1250     2.3310    62.9630    23.9660     6.5260     7.0360     8.7160    -9.6380 
  255.2500     2.3300    61.1660    23.9560     6.7020     7.1880     8.9520    -9.6460 
  255.3750     2.3280    61.3900    23.9600     6.6260     7.4440     9.3180    -9.7230 
  255.5000     2.3270    62.7250    23.9870     6.5340     7.8000     9.7900    -9.8150 
  255.6250     2.3350    62.5440    24.0090     6.6920     8.2200    10.2860    -9.8330 
  255.7500     2.3560    62.1020    23.9950     7.0300     8.6130    10.6890    -9.7940 
  255.8750     2.3880    61.2800    23.9290     7.2810     8.8950    10.9060    -9.9250 
  256.0000     2.4210    59.8240    23.8050     7.3110     9.0060    10.8930   -10.1060 
  256.1250     2.4390    59.2190    23.6640     7.1940     8.9120    10.6580   -10.2540 
  256.2500     2.4410    60.3880    23.5830     7.1180     8.7100    10.3440   -10.3820 
  256.3750     2.4330    61.9770    23.5700     7.0700     8.4860    10.0630   -10.3820 
  256.5000     2.4220    61.6860    23.5850     6.9600     8.3150     9.8960   -10.3820 
  256.6250     2.4120    59.3600    23.5900     7.0000     8.2530     9.8850   -10.5350 
  256.7500     2.4040    57.4570    23.5890     7.4070     8.2750     9.9600   -10.7050 
  256.8750     2.3990    58.2250    23.6100     7.7400     8.3360    10.0470   -10.7420 
  257.0000     2.3970    61.5030    23.6660     7.6590     8.3850    10.0710   -10.7740 
  257.1250     2.3970    61.5030    23.7320     7.4510     8.3670     9.9780   -10.8400 
  257.2500     2.3970    61.5030    23.7680     7.2900     8.2870     9.8020   -10.9770 
  257.3750     2.3970    61.5030    23.7740     7.1010     8.1710     9.5980   -11.1690 
  257.5000     2.3970    61.5030    23.7710     7.0570     8.0640     9.4330   -11.3060 
  257.6250     2.3960    61.5030    23.7720     7.3310     8.0310     9.3960   -11.3950 
  257.7500     2.3940    61.5030    23.7820     7.9440     8.0960     9.5040   -11.4330 
  257.8750     2.3940    61.5030    23.8040     8.8850     8.2690     9.7590   -11.4890 
  258.0000     2.3980    61.5030    23.8310     9.9300     8.5450    10.1380   -11.4950 
  258.1250     2.4080    61.5030    23.8480    10.6790     8.9250    10.6280   -11.4990 
  258.2500     2.4230    61.5030    23.8500    11.1580     9.3860    11.1890   -11.5760 
  258.3750     2.4380    61.5030    23.8440    11.3090     9.9160    11.8030   -11.5690 
  258.5000     2.4490    61.5030    23.8340    11.3000    10.4990    12.4410   -11.6250 
  258.6250     2.4540    61.5030    23.8320    11.8820    11.0910    13.0480   -11.6880 
  258.7500     2.4560    61.5030    23.8400    12.5140    11.6320    13.5650   -11.7560 
  258.8750     2.4560    61.5030    23.8680    12.7180    12.0690    13.9470   -11.7580 
  259.0000     2.4550    61.5030    23.9330    12.7870    12.3700    14.1750   -11.6680 
  259.1250     2.4520    61.5030    24.0270    12.8020    12.5150    14.2560   -11.6020 
  259.2500     2.4480    61.5030    24.0930    13.3520    12.5730    14.2800   -11.5090 
  259.3750     2.4460    61.5030    24.1040    14.1050    12.6100    14.3230   -11.4130 
  259.5000     2.4480    61.5030    24.0780    14.3660    12.6950    14.4520   -11.2800 
  259.6250     2.4550    61.5030    24.0610    13.7990    12.8990    14.7250   -11.1570 
  259.7500     2.4610    61.5030    24.0690    13.5630    13.2180    15.1090   -10.9940 
  259.8750     2.4630    61.5030    24.0930    14.4830    13.6200    15.5430   -10.8400 
  260.0000     2.4590    61.5030    24.1140    15.4680    14.0400    15.9450   -10.7680 
  260.1250     2.4480    61.5030    24.1200    15.9480    14.3860    16.2140   -10.7180 
  260.2500     2.4380    61.5030    24.1190    16.6130    14.6180    16.3430   -10.7270 
  260.3750     2.4320    61.5030    24.1200    16.5490    14.7320    16.3650   -10.8180 
  260.5000     2.4310    61.5030    24.1150    15.3900    14.7630    16.3390   -10.8820 
  260.6250     2.4370    61.5030    24.0950    15.5700    14.7550    16.3150   -10.8820 
  260.7500     2.4460    61.5030    24.0710    16.1350    14.7520    16.3110   -10.8790 
  260.8750     2.4520    61.5030    24.0560    16.1950    14.7640    16.3200   -10.8920 
  261.0000     2.4540    61.5030    24.0520    15.6010    14.7870    16.3310   -10.8990 
  261.1250     2.4510    61.5030    24.0460    15.0770    14.8090    16.3330   -10.8580 
  261.2500     2.4450    61.5030    24.0310    15.2820    14.8240    16.3290   -10.8350 
  261.3750     2.4360    61.5030    24.0030    15.3010    14.8300    16.3250   -10.8400 
  261.5000     2.4300    61.5030    23.9580    15.0040    14.8300    16.3250   -10.7800 
  261.6250     2.4290    61.5030    23.9120    14.6920    14.8260    16.3310   -10.6870 
  261.7500     2.4310    61.5030    23.8860    14.3330    14.8220    16.3360   -10.6870 
  261.8750     2.4340    61.5030    23.8520    14.2390    14.8180    16.3340   -10.7630 
  262.0000     2.4370    61.5030    23.7680    14.5880    14.8140    16.3230   -10.8210 
  262.1250     2.4390    61.5030    23.6560    15.1180    14.8100    16.3120   -10.8210 
  262.2500     2.4420    61.5030    23.5830    15.3340    14.8060    16.3080   -10.6250 
  262.3750     2.4460    61.5030    23.5560    15.2170    14.8040    16.3070   -10.4520 
