~V
VERS. 2.00: Ver 2.00
~W
STRT.M 60.0000:
STOP.M 261.0000:
STEP.M 0.1250:
NULL. -999.2500:
UWI. DF5055:
~C
DEPT.M :
SP.MV :
GR.API :
RML.OHMM :
RI. :
RXO.OHMM :
CALI.CM :
DEN.GM/CC :
~A
# ...
  183.7500   -23.8390    60.8060   205.7200   180.9720   174.4060    24.7460     2.1940 
  183.8750   -23.9550    58.7040   216.9780   192.6370   166.2020    24.8190     2.1950 
  184.0000   -24.0560    59.5480   217.3740   195.0720   170.6440    24.9540     2.1960 
  184.1250   -24.0720    60.7910   210.8890   190.7640   171.7290    25.0660     2.1950 
  184.2500   -24.1050    59.5900   202.6710   184.3200   151.9920    25.0790     2.1930 
  184.3750   -24.2120    57.5210   191.7810   175.4780   134.4440    25.0200     2.1860 
  184.5000   -24.3230    56.4460   175.2310   161.9050   126.0950    24.9790     2.1760 
  184.6250   -24.2230    58.8070   151.3300   141.6840   118.7200    24.9730     2.1700 
  184.7500   -24.0350    62.9590   125.3140   118.8080   103.8980    24.8770     2.1740 
  184.8750   -23.8110    66.5150   102.2770    97.7320    78.2270    24.6960     2.1900 
  185.0000   -23.5440    69.2200    85.4400    81.7190    56.7930    24.5140     2.2120 
  185.1250   -23.2330    72.7220    76.8210    72.9890    45.0630    24.3580     2.2290 
  185.2500   -22.9300    74.7530    74.4720    70.0050    41.2800    24.1330     2.2350 
  185.3750   -22.6740    72.4540    77.0580    71.6510    39.1200    23.8740     2.2330 
  185.5000   -22.4560    68.0950    82.7870    76.4070    37.7760    23.6650     2.2290 
  185.6250   -22.3330    68.0930    89.1260    82.1290    37.7350    23.5200     2.2300 
  185.7500   -22.1790    71.3060    93.4640    86.3470    40.9230    23.4270     2.2370 
  185.8750   -21.9980    73.5000    94.9460    88.0510    43.4200    23.3830     2.2440 
  186.0000   -21.9010    72.4940    94.6170    87.8600    44.6360    23.3290     2.2490 
  186.1250   -21.9860    68.6810    94.9710    87.7660    47.5880    23.2870     2.2470 
  186.2500   -22.2170    64.8960    97.6980    89.4240    54.3740    23.2360     2.2430 
  186.3750   -22.4230    62.5140   103.2890    93.3800    62.2680    23.1610     2.2370 
  186.5000   -22.5050    62.2420   111.5970    99.5660    73.3030    23.1330     2.2330 
  186.6250   -22.6030    63.3900   122.4170   107.8060    84.4860    23.3680     2.2300 
  186.7500   -22.8100    63.3730   134.6820   117.1700    86.1190    23.8830     2.2260 
  186.8750   -23.0490    60.9220   147.9640   127.2340    90.6130    24.4610     2.2190 
  187.0000   -23.2280    58.2050   162.0430   137.7640   109.1380    24.8980     2.2100 
  187.1250   -23.3040    58.7740   176.3310   148.2420   133.4070    25.0830     2.2010 
  187.2500   -23.2000    59.6970   189.0720   157.3650   148.2510    25.1860     2.1930 
  187.3750   -23.0390    57.3910   197.5360   163.1810   145.1970    25.2750     2.1890 
  187.5000   -22.9820    53.4230   198.3900   163.3890   135.5380    25.3560     2.1850 
  187.6250   -22.9230    52.5940   188.4900   155.6620   133.2680    25.4000     2.1840 
  187.7500   -22.7720    54.3780   172.7970   143.3160   134.4400    25.3880     2.1860 
  187.8750   -22.5740    57.6700   157.0800   130.4890   134.9160    25.3190     2.1890 
  188.0000   -22.4140    60.7140   146.1480   121.0610   135.2650    25.2790     2.1920 
  188.1250   -22.3490    61.5550   144.1150   118.7290   112.3830    25.3070     2.1880 
  188.2500   -22.3610    59.6000   150.2210   123.2770    87.9450    25.3180     2.1830 
  188.3750   -22.3790    57.3280   162.1830   133.0320    92.9680    25.3090     2.1890 
  188.5000   -22.3720    55.8310   173.8060   143.2460   118.1370    25.2740     2.2210 
  188.6250   -22.4450    54.8320   173.2480   145.0860   142.5170    25.2070     2.2790 
  188.7500   -22.5050    55.0780   158.3890   135.9360   134.9020    25.1810     2.3390 
  188.8750   -22.4700    56.1880   135.3050   119.0190   102.7230    25.1970     2.3770 
  189.0000   -22.3580    59.4310   111.2330    99.6070    71.3640    25.2200     2.3850 
  189.1250   -22.1800    63.9940    89.8170    81.3190    52.5850    25.2370     2.3700 
  189.2500   -22.0030    64.9820    70.9490    64.9710    50.1250    25.2610     2.3510 
  189.3750   -21.8210    62.2760    54.8330    50.8650    62.9430    25.3190     2.3330 
  189.5000   -21.5510    62.3710    42.0390    39.4720    56.2440    25.3910     2.3150 
  189.6250   -21.1570    69.2660    33.3660    31.5660    26.9060    25.4110     2.2960 
  189.7500   -20.8140    75.0530    27.6090    26.2030    16.6430    25.4490     2.2850 
  189.8750   -20.6170    76.9210    23.8090    22.5570    16.6420    25.5520     2.2920 
  190.0000   -20.5400    78.9080    21.1100    19.8740    19.5320    25.6820     2.3180 
  190.1250   -20.5220    84.9120    19.0350    17.7740    15.1730    25.7760     2.3550 
  190.2500   -20.5570    91.2600    17.2610    16.0060    11.8770    25.7800     2.3870 
  190.3750   -20.6350    94.5770    15.8060    14.5780    10.8770    25.7610     2.4070 
  190.5000   -20.7640    95.1360    14.8400    13.5830    10.8370    25.7720     2.4140 
  190.6250   -21.0290    96.5800    14.6200    13.1920    10.9580    25.7730     2.4100 
  190.7500   -21.3260    97.2390    15.0190    13.3140    11.4880    25.7700     2.3990 
  190.8750   -21.5540    94.7810    15.9680    13.9060    13.2420    25.7570     2.3830 
  191.0000   -21.6980    91.3560    17.5080    14.9800    15.5090    25.7440     2.3620 
  191.1250   -21.8100    89.1440    20.0200    16.7890    16.4820    25.7350     2.3400 
  191.2500   -21.8660    85.3130    23.6750    19.4710    18.2700    25.7340     2.3180 
  191.3750   -21.8960    79.3740    28.5730    23.1830    26.2000    25.7500     2.2960 
  191.5000   -21.8730    74.7100    30.5580    27.8250    39.3370    25.7950     2.2750 
  191.6250   -21.7280    75.1520    36.1280    32.9220    51.3300    25.7840     2.2520 
  191.7500   -21.5050    76.1110    41.3910    37.7510    49.7680    25.6630     2.2330 
  191.8750   -21.2080    74.7300    46.1510    41.9810    41.3810    25.5020     2.2310 
  192.0000   -20.7990    71.9970    50.1450    45.3230    39.6890    25.4150     2.2590 
  192.1250   -20.2360    69.0220    51.6750    46.3320    44.7050    25.4220     2.3310 
  192.2500   -19.5470    66.4820    48.8110    43.4220    57.8820    25.4440     2.4260 
  192.3750   -18.7100    63.6680    40.9070    36.1450    68.9480    25.4360     2.5130 
  192.5000   -17.7460    62.2000    30.2080    26.7040    50.0700    25.3380     2.5640 
  192.6250   -16.6200    64.5290    20.7240    18.6600    22.2500    25.1300     2.5630 
  192.7500   -15.4720    69.2650    14.1800    13.1640    10.1960    24.9640     2.5320 
  192.8750   -14.4460    75.3020    10.4300     9.8860     6.6480    24.9770     2.4960 
  193.0000   -13.5770    82.6000     8.7490     8.1830     6.6760    25.1000     2.4700 
  193.1250   -12.8960    90.7840     8.5100     7.6380     7.5820    25.2200     2.4580 
  193.2500   -12.4010    97.0310     8.8550     7.6860     7.9300    25.1970     2.4520 
  193.3750   -12.1120    99.7240     9.3700     8.0440     7.7570    25.1760     2.4470 
  193.5000   -12.0470    99.3010     9.7790     8.4580     7.5370    25.2030     2.4430 
  193.6250   -12.3220   100.1670     9.9500     8.7320     7.8100    25.2560     2.4430 
  193.7500   -12.7660   102.8610     9.9620     8.8470     7.9220    25.2200     2.4450 
  193.8750   -13.2210   104.4300     9.8850     8.8400     7.9360    25.1230     2.4460 
  194.0000   -13.6540   104.0180     9.7710     8.7620     7.9480    25.0390     2.4380 
  194.1250   -14.1260   103.5420     9.6960     8.6740     8.0410    24.9770     2.4210 
  194.2500   -14.6820   104.3710     9.7420     8.6400     7.8950    24.9170     2.4010 
  194.3750   -15.2700   103.4690     9.9620     8.6940     7.8840    24.8400     2.3880 
  194.5000   -15.8440    99.8970    10.3340     8.8310     8.2750    24.7500     2.3880 
  194.6250   -16.3460    96.4960    10.7360     8.9840     8.9120    24.6510     2.4010 
  194.7500   -16.7490    94.4050    10.9880     9.0440     9.1510    24.5450     2.4180 
  194.8750   -17.0480    92.5810    10.9800     8.9350     9.1540    24.4070     2.4350 
