~V
VERS. 2.00: Ver 2.00
~W
STRT.M 55.0000:
STOP.M 262.0000:
STEP.M 0.1250:
NULL. -999.2500:
UWI. DF5047:
~C
DEPT.M :
GR.API :
CALI.CM :
RXO.OHMM :
RI. :
RML.OHMM :
DEN.GM/CC :
SP.MV :
~A
   55.0000    45.1720    25.8630     0.4070     0.1560     0.3070     2.0720   102.5230 
   55.1250    46.5960    25.8630     0.7200     0.1610     0.2780     2.0660   102.1540 
   55.2500    47.0440    25.8640     0.6900     0.1640     0.2510     2.0620   101.7540 
   55.3750    46.3720    25.8660     0.4050     0.1630     0.2280     2.0560   101.3640 
   55.5000    45.2490    25.8670     0.2910     0.1620     0.2030     2.0480   100.8820 
   55.6250    45.4300    25.8680     0.2670     0.1620     0.1700     2.0390   100.2520 
   55.7500    46.1920    25.8650     0.2830     0.1640     0.1350     2.0320    99.6100 
   55.8750    45.4010    25.8600     0.3680     0.1660     0.1060     2.0320    98.9220 
   56.0000    44.4030    25.8570     0.4750     0.1680     0.0940     2.0400    98.0640 
   56.1250    46.0640    25.8560     0.4930     0.1690     0.1060     2.0520    97.1360 
   56.2500    49.2200    25.8560     0.4340     0.1730     0.1280     2.0600    96.2550 
   56.3750    50.1670    25.8560     0.3510     0.1790     0.1460     2.0630    95.3410 
   56.5000    47.7630    25.8560     0.2850     0.1840     0.1530     2.0610    94.3180 
   56.6250    46.4870    25.8560     0.2570     0.1860     0.1460     2.0590    93.2580 
   56.7500    48.4000    25.8560     0.2550     0.1840     0.1330     2.0570    92.2260 
   56.8750    50.1800    25.8560     0.2600     0.1800     0.1170     2.0530    91.1520 
   57.0000    49.8780    25.8560     0.2640     0.1760     0.0980     2.0440    90.0300 
   57.1250    50.6170    25.8560     0.2490     0.1740     0.0780     2.0310    88.9300 
   57.2500    54.1990    25.8560     0.2620     0.1760     0.0580     2.0170    87.8220 
   57.3750    56.9690    25.8570     0.2610     0.1800     0.0400     2.0050    86.7130 
   57.5000    56.6980    25.8560     0.2630     0.1870     0.0250     2.0000    85.6380 
   57.6250    54.8950    25.8440     0.4140     0.1920     0.0130     2.0020    84.5430 
   57.7500    53.0210    25.8200     0.3400     0.1950     0.0030     2.0100    83.3410 
   57.8750    51.5770    25.7990     0.2300     0.1940    -0.0040     2.0220    82.1080 
   58.0000    50.7900    25.7870     0.3110     0.1920    -0.0070     2.0350    80.8920 
   58.1250    49.9340    25.7760     0.4030     0.1910    -0.0110     2.0430    79.5560 
   58.2500    48.8140    25.7550     0.4180     0.1920    -0.0200     2.0430    78.0800 
   58.3750    49.1070    25.7240     0.5110     0.1960    -0.0350     2.0360    76.4670 
   58.5000    49.8110    25.6850     0.6240     0.2020    -0.0530     2.0260    74.6270 
   58.6250    47.8330    25.6480     0.6410     0.2120    -0.0710     2.0210    72.6890 
   58.7500    45.6590    25.6250     0.6130     0.2230    -0.0820     2.0250    70.6170 
   58.8750    45.6500    25.6170     0.5830     0.2310    -0.0860     2.0340    68.2240 
   59.0000    46.5190    25.6170     0.5370     0.2330    -0.0820     2.0430    65.7090 
   59.1250    46.2000    25.6170     0.6350     0.2290    -0.0760     2.0460    62.9600 
   59.2500    47.8620    25.6170     1.4280     0.2230    -0.0720     2.0470    59.9390 
   59.3750    50.9800    25.6170     2.2580     0.2160    -0.0750     2.0510    56.6930 
   59.5000    52.3160    25.6180     2.2220     0.2070    -0.0820     2.0620    53.1740 
   59.6250    50.6790    25.6160     0.9330     0.1930    -0.0930     2.0780    49.3470 
   59.7500    49.0870    25.6030     0.8850     0.1720    -0.1020     2.0890    45.2830 
   59.8750    48.8950    25.5740     1.5440     0.1440    -0.1080     2.0910    40.8490 
   60.0000    49.0370    25.5320     1.9480     0.1150    -0.1110     2.0820    36.0080 
   60.1250    49.1550    25.4980     2.3740     0.0890    -0.1120     2.0630    30.9960 
   60.2500    48.1410    25.4860     2.0960     0.0690    -0.1120     2.0350    25.6510 
   60.3750    46.4060    25.4810     1.9540     0.0610    -0.1090     2.0120    19.7150 
   60.5000    46.1400    25.4620     2.0020     0.0750    -0.0940     2.0240    13.4510 
   60.6250    49.0160    25.6350     3.5910     0.1620    -0.0270     2.0660     6.8110 
   60.7500    53.2720    26.1540     4.9330     0.3890     0.1720     2.1050    -0.2130 
   60.8750    58.5320    26.7480     5.5670     0.8690     0.6420     2.1310    -7.0550 
   61.0000    64.7600    26.8120     6.3330     1.7070     1.4860     2.1430   -13.3650 
   61.1250    68.9080    26.0170     7.8160     2.8880     2.5470     2.1320   -19.0200 
   61.2500    68.2320    25.0870     8.7810     4.0570     3.4150     2.1170   -23.9910 
   61.3750    65.4870    24.5370     8.8290     4.9900     3.9780     2.1150   -28.0620 
   61.5000    63.9920    24.3810     8.4970     5.6540     4.3290     2.1250   -31.1770 
   61.6250    63.5790    24.3690     8.2890     6.0380     4.5340     2.1340   -33.1430 
   61.7500    62.5120    24.3550     8.1160     6.1540     4.5850     2.1370   -34.1570 
   61.8750    63.0190    24.3680     7.8790     5.9740     4.4410     2.1380   -34.6130 
   62.0000    69.4280    24.4090     7.2830     5.5490     4.1230     2.1440   -34.7580 
   62.1250    81.5450    24.5120     6.7510     5.0150     3.7380     2.1620   -34.7170 
   62.2500    91.9290    24.7500     5.8190     4.5400     3.4260     2.1890   -34.6020 
   62.3750    98.2960    25.1240     4.8320     4.2200     3.2650     2.2160   -34.3960 
   62.5000   100.9820    25.4810     4.4470     4.1260     3.3060     2.2340   -34.1840 
   62.6250   102.4340    25.5740     4.8410     4.3760     3.6270     2.2370   -34.2440 
   62.7500   102.7640    25.4680     5.5350     4.9600     4.2100     2.2350   -34.4710 
   62.8750   101.8770    25.3230     6.0840     5.8840     5.0580     2.2360   -34.6850 
   63.0000    97.2220    25.1560     8.8690     7.0790     6.1140     2.2460   -35.1300 
   63.1250    84.3770    24.8390    11.4730     8.3010     7.1750     2.2590   -35.8910 
   63.2500    70.8860    24.4230    11.3420     9.1910     7.9240     2.2610   -36.6240 
   63.3750    64.6840    24.0970     9.3890     9.5470     8.1770     2.2450   -37.3440 
   63.5000    67.6170    23.9850     8.4750     9.3720     7.9570     2.2170   -38.0880 
   63.6250    72.9720    24.0320     7.9360     8.7730     7.3980     2.1930   -38.8010 
   63.7500    76.9470    24.0910     7.6330     8.0010     6.7330     2.1790   -39.4270 
   63.8750    80.3550    24.1530     7.5900     7.1690     6.0600     2.1790   -39.9440 
   64.0000    86.0440    24.2720     7.1960     6.3630     5.4530     2.1900   -40.3090 
   64.1250    93.7910    24.4940     6.0630     5.7620     5.0910     2.2120   -40.5380 
   64.2500   100.1400    24.7550     5.2450     5.5510     5.1340     2.2430   -40.7720 
   64.3750   104.0050    24.9610     5.4110     5.9630     5.7630     2.2840   -41.0070 
   64.5000   104.9880    25.0280     7.5140     7.3280     7.2120     2.3340   -41.2240 
   64.6250   100.9350    24.9230    13.0240    10.3760    10.0890     2.3930   -41.4390 
   64.7500    91.0510    24.7520    26.4060    15.0800    14.5400     2.4600   -41.6720 
   64.8750    80.3670    24.5960    43.1680    20.4000    19.7560     2.5310   -41.9700 
   65.0000    74.3570    24.4810    55.2890    23.5170    22.5560     2.5880   -42.3890 
   65.1250    72.9830    24.3840    44.4550    21.5580    19.7610     2.5920   -42.8950 
   65.2500    73.7280    24.2610    26.7300    17.2700    15.2200     2.5340   -43.3620 
   65.3750    75.2070    24.1170    13.2240    13.1930    11.5510     2.4360   -43.8100 
   65.5000    76.0410    23.9910     9.1000    10.3140     9.2550     2.3310   -44.3650 
   65.6250    75.4670    23.9160     8.5510     8.7280     8.1550     2.2480   -44.8620 
   65.7500    73.9030    23.8790     8.4680     7.8950     7.6970     2.1900   -45.1740 
   65.8750    72.1280    23.8660     8.4110     7.5510     7.6240     2.1550   -45.5490 
   66.0000    70.8500    23.8680     8.3100     7.4870     7.7390     2.1390   -45.9570 
   66.1250    71.1170    23.8910     8.0290     7.5560     7.9110     2.1350   -46.1330 
