~V
VERS. 2.00: Ver 2.00
~W
STRT.M 55.0000:
STOP.M 271.0000:
STEP.M 0.1250:
NULL. -999.2500:
UWI. DF5009:
~C
DEPT.M :
GR.API :
CALI.CM :
RXO.OHMM :
RI. :
RML.OHMM :
DEN.GM/CC :
SP.MV :
~A
# ...
  111.2500    74.8880    23.4840     6.8010     6.0490     7.5510     2.1660   -20.6730 
  111.3750    75.1790    23.4810     6.8560     5.9620     7.4050     2.1820   -20.4910 
  111.5000    77.6450    23.3490     6.4950     5.7800     7.1190     2.2030   -20.2090 
  111.6250    81.7050    22.8030     6.1430     5.5240     6.7580     2.2200   -20.1130 
  111.7500    86.0940    22.1430     6.0220     5.2630     6.4320     2.2260   -19.9650 
  111.8750    90.7210    21.8620     5.7730     5.0480     6.2090     2.2220   -19.8540 
  112.0000    95.1250    22.1310     5.4900     4.9230     6.1350     2.2100   -19.7150 
  112.1250    97.5250    22.6810     5.6490     4.9360     6.2560     2.1960   -19.7610 
  112.2500    97.0620    23.2120     6.0250     5.0690     6.5200     2.1820   -19.8220 
  112.3750    94.3240    23.6980     6.5440     5.3070     6.8910     2.1700   -19.8330 
  112.5000    88.8260    24.1010     7.1960     5.6230     7.3170     2.1610   -19.9410 
  112.6250    81.4000    24.3000     7.5140     5.9760     7.7230     2.1550   -19.9010 
  112.7500    76.2480    24.3520     7.6820     6.3020     8.0410     2.1530   -19.8280 
  112.8750    75.1280    24.4330     7.8570     6.5560     8.2320     2.1520   -19.7820 
  113.0000    76.3980    24.6060     8.1460     6.7150     8.3040     2.1510   -19.7520 
  113.1250    74.1130    24.7660     8.4180     6.7820     8.3040     2.1490   -19.5720 
  113.2500    70.6020    24.8390     8.3190     6.8150     8.3180     2.1480   -19.1630 
  113.3750    70.9610    24.8440     8.1430     6.8440     8.3670     2.1480   -18.7450 
  113.5000    75.1410    24.8230     8.0700     6.8530     8.3910     2.1520   -18.2020 
  113.6250    77.3180    24.7900     7.9920     6.7490     8.2200     2.1630   -17.5210 
  113.7500    77.4480    24.7740     7.8800     6.4700     7.7710     2.1820   -16.8850 
  113.8750    79.9130    24.8100     7.6030     6.0120     7.0730     2.2040   -16.1940 
  114.0000    86.0740    24.9320     6.6070     5.4510     6.2770     2.2230   -15.5370 
  114.1250    93.8350    25.1550     5.3830     4.9330     5.6370     2.2350   -14.7970 
  114.2500   100.0570    25.3930     4.5710     4.5710     5.2820     2.2410   -14.1700 
  114.3750   102.1180    25.5540     4.5230     4.4020     5.2150     2.2480   -13.7130 
  114.5000   101.9380    25.5940     4.7620     4.3990     5.3340     2.2600   -13.2980 
  114.6250   101.4670    25.5240     4.9810     4.4790     5.4680     2.2790   -13.0860 
  114.7500   101.0400    25.4020     5.3370     4.5290     5.4800     2.2980   -12.9590 
  114.8750   100.1730    25.2940     5.5810     4.5020     5.3530     2.3110   -12.7830 
  115.0000   101.3430    25.2950     5.2290     4.4170     5.1780     2.3140   -12.5720 
  115.1250   105.1310    25.4430     4.7390     4.3550     5.1060     2.3040   -12.4740 
  115.2500   107.7830    25.5850     4.9310     4.3760     5.1860     2.2870   -12.5140 
  115.3750   107.3100    25.6100     5.5050     4.4890     5.3900     2.2660   -12.5030 
  115.5000   104.7420    25.5150     5.7910     4.6620     5.6400     2.2470   -12.5480 
  115.6250   101.7330    25.3620     5.5420     4.8290     5.8270     2.2310   -12.6620 
  115.7500   100.1740    25.2310     5.5450     4.9330     5.8970     2.2220   -12.6210 
  115.8750    99.9170    25.1640     5.5550     4.9590     5.8610     2.2210   -12.7030 
  116.0000    99.7820    25.1430     5.4590     4.9360     5.7800     2.2260   -12.8950 
  116.1250    99.7000    25.1110     5.4580     4.9130     5.7300     2.2300   -13.0420 
  116.2500    99.0230    25.0710     5.5280     4.9160     5.7410     2.2280   -13.1760 
  116.3750    97.6990    25.0340     5.5650     4.9490     5.8070     2.2190   -13.2420 
  116.5000    95.6130    24.9680     5.5990     5.0060     5.9060     2.2090   -13.2610 
  116.6250    93.6880    24.8670     5.7030     5.0730     6.0060     2.2070   -13.2220 
  116.7500    93.2550    24.8200     5.7710     5.1410     6.0960     2.2140   -13.2310 
  116.8750    94.0900    24.8870     5.7230     5.2050     6.1740     2.2320   -13.2900 
  117.0000    95.2440    25.0210     5.5530     5.2470     6.2220     2.2570   -13.2920 
  117.1250    96.0720    25.1170     5.5800     5.2190     6.1790     2.2860   -13.3590 
  117.2500    97.2990    25.1540     5.8570     5.1000     6.0120     2.3120   -13.2770 
  117.3750    99.6250    25.1700     6.0660     4.8870     5.7180     2.3260   -13.3040 
  117.5000   103.9380    25.2020     5.5870     4.6130     5.3500     2.3260   -13.3710 
  117.6250   110.1340    25.1960     4.9420     4.3540     5.0320     2.3130   -13.3940 
  117.7500   115.0200    25.0870     4.6760     4.1830     4.8620     2.2970   -13.5540 
  117.8750   117.1560    24.9100     4.7730     4.1390     4.8750     2.2790   -13.7050 
  118.0000   116.3410    24.7620     4.8640     4.2310     5.0550     2.2600   -13.9630 
  118.1250   112.3980    24.7100     5.0660     4.4370     5.3350     2.2400   -14.1670 
  118.2500   107.0370    24.6860     5.1990     4.6660     5.5890     2.2250   -14.5060 
  118.3750   103.3770    24.6430     5.4010     4.8390     5.7360     2.2210   -14.8170 
  118.5000   102.8210    24.5830     5.5320     4.9070     5.7360     2.2300   -15.1280 
  118.6250   105.4800    24.5530     5.2010     4.8370     5.5770     2.2480   -15.5210 
  118.7500   110.9850    24.5810     4.8430     4.6780     5.3350     2.2670   -15.8540 
  118.8750   115.8890    24.6430     4.6460     4.4790     5.0790     2.2840   -16.2640 
  119.0000   116.3140    24.6830     4.5860     4.2900     4.8740     2.2970   -16.5190 
  119.1250   114.3740    24.6750     4.5120     4.1620     4.7820     2.3040   -16.7440 
  119.2500   114.8830    24.6500     4.4780     4.1060     4.7930     2.3000   -17.0430 
  119.3750   113.7350    24.5990     4.5470     4.1240     4.8910     2.2820   -17.3240 
  119.5000   106.6300    24.4950     4.8670     4.2100     5.0600     2.2530   -17.6410 
  119.6250    98.1760    24.3620     5.1440     4.3710     5.3070     2.2200   -18.0610 
  119.7500    96.1180    24.2370     5.2830     4.6020     5.6420     2.1920   -18.3820 
  119.8750    98.4200    24.1010     5.5480     4.9180     6.0910     2.1730   -18.5760 
  120.0000    98.6690    23.9260     6.0240     5.3380     6.6800     2.1620   -18.8310 
  120.1250    94.1500    23.7290     6.4740     5.8950     7.4430     2.1620   -19.1680 
  120.2500    89.0800    23.5680     6.9390     6.5530     8.3060     2.1700   -19.3890 
  120.3750    86.5860    23.4840     7.4320     7.2370     9.1310     2.1800   -19.4770 
  120.5000    87.0530    23.4880     7.8280     7.7910     9.6890     2.1890   -19.4960 
  120.6250    86.6960    23.5380     8.1760     7.9270     9.6160     2.1940   -19.2990 
  120.7500    83.6590    23.5760     8.3380     7.5880     8.9300     2.1990   -19.0870 
  120.8750    81.1000    23.6260     7.9380     6.8850     7.8490     2.2080   -18.9300 
  121.0000    83.4300    23.7510     6.7100     6.0550     6.7300     2.2200   -18.6600 
  121.1250    91.7020    24.0010     5.2730     5.3690     5.9430     2.2270   -18.2770 
  121.2500   100.5060    24.2800     4.5340     4.9400     5.5720     2.2230   -17.8730 
  121.3750   105.7300    24.4710     4.7030     4.7900     5.5840     2.2090   -17.6060 
  121.5000   104.1590    24.5330     5.2760     4.8820     5.8630     2.1940   -17.3850 
  121.6250    97.2140    24.5210     5.5370     5.1370     6.2320     2.1850   -17.1790 
  121.7500    91.4450    24.5150     5.5910     5.3920     6.4850     2.1880   -17.1620 
  121.8750    89.4430    24.5240     5.6760     5.5340     6.5170     2.2000   -17.0450 
  122.0000    90.6470    24.5570     5.6350     5.5050     6.3190     2.2170   -16.8790 
  122.1250    92.3750    24.6720     5.3420     5.3100     5.9660     2.2330   -16.8630 
  122.2500    94.0850    24.8450     4.9990     5.0470     5.5940     2.2450   -16.8480 
  122.3750    96.7000    24.9980     4.8840     4.7710     5.2580     2.2550   -16.8560 
