~V
VERS. 2.00: Ver 2.00
~W
STRT.M 55.0000:
STOP.M 263.0000:
STEP.M 0.1250:
NULL. -999.2500:
UWI. DF5056:
~C
DEPT.M :
GR.API :
CALI.CM :
RXO.OHMM :
RI. :
RML.OHMM :
DEN.GM/CC :
SP.MV :
~A
# ...
  235.0000    60.0200    25.7820    20.5010    18.1830    18.4080     2.2370   -26.2910 
  235.1250    62.9850    25.9730    20.6220    17.7470    17.9930     2.2430   -26.3310 
  235.2500    64.4560    25.9780    19.0950    17.3890    17.7160     2.2540   -26.3640 
  235.3750    64.2480    25.6180    16.5900    17.3340    17.8390     2.2650   -26.3840 
  235.5000    64.6550    24.9040    15.9480    17.7400    18.5100     2.2690   -26.4190 
  235.6250    65.7510    24.1840    17.1950    18.7120    19.7460     2.2670   -26.4620 
  235.7500    64.7970    23.8120    19.6380    20.0020    21.1650     2.2630   -26.5140 
  235.8750    62.8930    23.8160    22.3230    21.2740    22.3540     2.2580   -26.5610 
  236.0000    61.6690    24.0260    24.1390    22.0850    22.9060     2.2530   -26.5470 
  236.1250    61.3470    24.2340    24.0590    21.9520    22.4690     2.2510   -26.5120 
  236.2500    63.2950    24.3950    24.0060    21.0430    21.3370     2.2510   -26.4400 
  236.3750    67.9110    24.5880    23.2180    19.6640    19.8550     2.2510   -26.3500 
  236.5000    72.4500    24.8370    21.0560    18.1740    18.3880     2.2520   -26.2300 
  236.6250    73.5040    25.0580    18.9970    16.9220    17.2940     2.2530   -26.1290 
  236.7500    72.1650    25.1570    17.2550    16.0650    16.7010     2.2540   -25.9860 
  236.8750    70.9090    25.1640    16.6640    15.6840    16.6910     2.2580   -25.8340 
  237.0000    70.0620    25.1610    17.5850    15.8380    17.3180     2.2670   -25.6990 
  237.1250    70.3760    25.1610    18.1810    16.6930    18.7480     2.2870   -25.6440 
  237.2500    71.2420    25.1040    19.5910    18.2290    20.9120     2.3190   -25.5770 
  237.3750    72.0180    24.9700    22.8510    20.5170    23.8280     2.3570   -25.5240 
  237.5000    72.5590    24.8340    31.8060    23.5880    27.4540     2.3920   -25.4800 
  237.6250    72.3580    24.7460    41.8060    27.4400    31.6920     2.4010   -25.4280 
  237.7500    71.9710    24.5780    43.6780    31.6430    36.0730     2.3820   -25.3970 
  237.8750    72.8850    24.3360    37.0320    35.7140    40.0540     2.3470   -25.3490 
  238.0000    74.6490    24.2220    33.3300    38.9870    42.9180     2.3110   -25.3580 
  238.1250    74.8770    24.2760    37.9300    40.2860    43.4480     2.2840   -25.2890 
  238.2500    72.7240    24.1940    45.1840    39.2270    41.4610     2.2650   -25.2850 
  238.3750    69.8780    23.9250    45.9180    35.8930    37.2660     2.2560   -25.2390 
  238.5000    67.5620    23.8470    37.6150    31.1320    31.8960     2.2580   -25.1930 
  238.6250    66.2180    24.0990    29.9990    26.3100    26.8300     2.2680   -25.1110 
  238.7500    65.8110    24.3730    21.8920    22.4540    23.0050     2.2760   -25.0250 
  238.8750    65.6960    24.6190    18.1060    19.8800    20.6690     2.2730   -24.9900 
  239.0000    64.8130    24.9450    17.8190    18.5320    19.6790     2.2570   -24.9190 
  239.1250    63.4340    25.2710    18.7880    18.3120    19.8380     2.2310   -24.8850 
  239.2500    63.1470    25.3840    20.4060    18.7920    20.6420     2.2070   -24.7900 
  239.3750    64.8840    25.3570    22.0810    19.7830    21.8600     2.1920   -24.7050 
  239.5000    68.5650    25.3070    21.5250    21.0840    23.2600     2.1940   -24.6010 
  239.6250    72.4640    25.2420    19.7060    22.3050    24.3700     2.2210   -24.5390 
  239.7500    74.0370    25.1830    20.5200    22.8230    24.5880     2.2710   -24.4820 
  239.8750    74.4910    25.0920    23.1150    22.0490    23.3990     2.3350   -24.4580 
  240.0000    75.0240    24.9220    25.0840    19.8240    20.7410     2.3970   -24.3940 
  240.1250    72.4540    24.7130    21.0600    16.6620    17.1870     2.4250   -24.2870 
  240.2500    66.9470    24.5620    14.8710    13.6310    13.8480     2.4140   -24.2320 
  240.3750    62.1930    24.4510    10.2250    11.2290    11.2810     2.3810   -24.1450 
  240.5000    61.9280    24.3050     8.5360     9.5800     9.6240     2.3470   -24.0650 
  240.6250    63.8190    24.1560     7.7470     8.6750     8.8080     2.3270   -23.9150 
  240.7500    62.3940    24.1580     7.3240     8.2000     8.4160     2.3220   -23.7560 
  240.8750    59.8400    24.3220     7.4830     7.9720     8.2250     2.3290   -23.5610 
  241.0000    59.6200    24.4580     7.8590     7.8520     8.0980     2.3360   -23.4300 
  241.1250    62.0210    24.4420     8.1680     7.7620     7.9780     2.3380   -23.3080 
  241.2500    64.3810    24.4730     8.2130     7.6790     7.8590     2.3370   -23.1830 
  241.3750    65.9190    24.6510     8.0170     7.6010     7.7470     2.3390   -23.0440 
  241.5000    66.0120    24.8420     8.0110     7.5160     7.6330     2.3460   -22.9910 
  241.6250    62.4480    24.8790     8.0330     7.3950     7.5010     2.3530   -22.9240 
  241.7500    58.7210    24.8280     7.9990     7.2330     7.3540     2.3550   -22.8840 
  241.8750    60.1150    24.7480     7.8970     7.0420     7.2110     2.3500   -22.7800 
  242.0000    65.4180    24.6370     7.9430     6.8590     7.1080     2.3420   -22.7160 
  242.1250    67.3850    24.5440     8.1200     6.7340     7.0920     2.3370   -22.6580 
  242.2500    64.8420    24.5400     8.3810     6.6870     7.1720     2.3360   -22.5300 
  242.3750    62.7570    24.6160     8.5970     6.7210     7.3430     2.3390   -22.4980 
  242.5000    63.9730    24.6980     8.7870     6.8220     7.5780     2.3430   -22.3570 
  242.6250    66.2900    24.7220     8.3900     6.9700     7.8430     2.3510   -22.3320 
  242.7500    66.2170    24.7230     8.4450     7.1310     8.0960     2.3600   -22.2410 
  242.8750    64.0930    24.7420     9.0950     7.2870     8.3240     2.3680   -22.2540 
  243.0000    63.4440    24.7890     9.8320     7.4250     8.5270     2.3730   -22.1860 
  243.1250    67.7630    24.8540    10.2310     7.5430     8.7090     2.3760   -22.0120 
  243.2500    70.2270    24.9060    10.1850     7.6520     8.8850     2.3800   -21.9330 
  243.3750    65.7260    24.9290    10.3860     7.7630     9.0600     2.3860   -21.8940 
  243.5000    59.3280    24.9280    10.9070     7.8810     9.2350     2.3950   -21.9480 
  243.6250    58.8580    24.9090    11.5830     7.9910     9.3990     2.4030   -21.9680 
  243.7500    61.6160    24.9000    12.3150     8.0760     9.5280     2.4060   -22.0030 
  243.8750    63.0600    24.9080    13.2040     8.1220     9.6020     2.4040   -21.8870 
  244.0000    64.1290    24.9340    13.0040     8.1310     9.6210     2.3980   -21.7650 
  244.1250    65.3590    24.9830    12.3730     8.1240     9.6200     2.3940   -21.7370 
  244.2500    64.3070    24.9910    11.7640     8.1270     9.6430     2.3920   -21.6790 
  244.3750    61.1870    24.9210    11.5320     8.1500     9.7010     2.3930   -21.6080 
  244.5000    57.6850    24.7980    11.2660     8.1820     9.7720     2.3940   -21.5760 
  244.6250    57.4660    24.6740    10.8190     8.1990     9.8040     2.3920   -21.5850 
  244.7500    60.7780    24.5810     9.7410     8.1830     9.7720     2.3900   -21.5790 
  244.8750    63.6520    24.5620     8.2430     8.1290     9.6870     2.3860   -21.6370 
  245.0000    62.4390    24.6880     7.0660     8.0550     9.5870     2.3800   -21.7770 
  245.1250    60.2000    24.9080     6.7890     7.9960     9.5260     2.3710   -21.9870 
  245.2500    59.5800    25.0320     7.2050     7.9790     9.5270     2.3610   -22.1980 
  245.3750    61.4740    24.9520     8.3060     8.0150     9.5840     2.3550   -22.3170 
  245.5000    64.8030    24.7050     9.1620     8.0910     9.6720     2.3550   -22.2710 
  245.6250    65.7790    24.4740     9.0790     8.1800     9.7530     2.3600   -22.0910 
  245.7500    62.8720    24.3600     8.6360     8.2510     9.8080     2.3650   -21.9420 
  245.8750    59.0080    24.3370     8.3450     8.2950     9.8370     2.3680   -21.7970 
  246.0000    59.9320    24.3540     7.7820     8.3130     9.8520     2.3690   -21.5940 
  246.1250    63.5030    24.4050     7.0110     8.3150     9.8650     2.3720   -21.3810 
