~V
VERS. 2.00: Ver 2.00
~W
STRT.M 59.0000:
STOP.M 260.0000:
STEP.M 0.1250:
NULL. -999.2500:
UWI. DF5044:
~C
DEPT.M :
GR.API :
CALI.CM :
RXO.OHMM :
RI. :
RML.OHMM :
DEN.GM/CC :
SP.MV :
~A
# ...
  149.0000    66.2960    24.1380    18.9270    15.1530    15.9560     2.5660   -18.2120 
  149.1250    66.1080    24.1660    16.9630    14.4150    15.2520     2.5660   -18.2510 
  149.2500    64.9050    24.2240    14.8960    13.8940    14.7980     2.5570   -18.2750 
  149.3750    62.2690    24.2840    13.6080    13.6290    14.6310     2.5380   -18.3040 
  149.5000    60.6630    24.2640    13.6660    13.6120    14.7420     2.5160   -18.3390 
  149.6250    61.7300    24.2160    14.3060    13.8100    15.0770     2.4970   -18.3880 
  149.7500    63.0550    24.1730    14.7010    14.1100    15.4900     2.4880   -18.4350 
  149.8750    63.4270    24.1530    14.8990    14.4560    15.9130     2.4890   -18.4900 
  150.0000    63.5610    24.1070    15.2690    14.8020    16.3020     2.4910   -18.5530 
  150.1250    63.9150    24.0040    16.2140    15.0930    16.6100     2.4920   -18.6190 
  150.2500    63.2730    23.8970    17.7330    15.3200    16.8390     2.4940   -18.6780 
  150.3750    61.6250    23.8620    19.2460    15.4870    16.9960     2.5030   -18.7160 
  150.5000    59.8810    23.8690    19.5400    15.5890    17.0770     2.5170   -18.7390 
  150.6250    58.2030    23.8410    18.4840    15.5920    17.0340     2.5340   -18.7490 
  150.7500    56.4220    23.8080    17.4720    15.4830    16.8540     2.5480   -18.7420 
  150.8750    55.1920    23.7970    17.2080    15.2370    16.4990     2.5580   -18.7430 
  151.0000    55.3140    23.7940    17.3270    14.8400    15.9570     2.5660   -18.7500 
  151.1250    57.2310    23.8240    17.1850    14.2820    15.2290     2.5660   -18.7870 
  151.2500    60.4480    23.9110    16.5990    13.6040    14.3790     2.5550   -18.8610 
  151.3750    63.5920    23.9970    15.5260    12.8370    13.4530     2.5350   -18.9650 
  151.5000    64.7080    24.0370    14.0320    12.0330    12.5140     2.5180   -19.1100 
  151.6250    63.3830    24.0510    12.5550    11.2620    11.6500     2.5080   -19.3010 
  151.7500    63.8040    24.0560    11.4830    10.5830    10.9180     2.4970   -19.5440 
  151.8750    69.9840    24.0820    10.7310    10.0450    10.3620     2.4840   -19.8090 
  152.0000    81.8170    24.0880     9.9660     9.6770    10.0020     2.4770   -20.1120 
  152.1250    93.8930    24.0880     9.2430     9.5160     9.8750     2.4830   -20.4630 
  152.2500   101.1140    24.0880     8.9210     9.5120     9.9180     2.4920   -20.8370 
  152.3750   102.4250    24.0860     9.1910     9.6230    10.0710     2.4910   -21.2450 
  152.5000    99.1680    24.0920    10.0100     9.7910    10.2630     2.4730   -21.6770 
  152.6250    94.2000    24.0930    11.1100     9.9510    10.4260     2.4450   -22.1100 
  152.7500    90.9470    24.1060    11.9140    10.0600    10.5280     2.4180   -22.5400 
  152.8750    90.2370    24.1090    12.0770    10.1140    10.5770     2.3910   -22.9880 
  153.0000    90.2810    24.1010    11.6720    10.1530    10.6200     2.3660   -23.4390 
  153.1250    90.5980    24.1160    11.2130    10.2670    10.7520     2.3540   -23.8890 
  153.2500    92.8390    24.1210    11.1880    10.5200    11.0340     2.3590   -24.3400 
  153.3750    97.0150    24.1080    11.6810    10.9500    11.4970     2.3750   -24.7560 
  153.5000   101.0500    24.0550    12.5780    11.5440    12.1120     2.3910   -25.1540 
  153.6250   102.6680    23.9540    13.9950    12.2260    12.7730     2.3980   -25.5760 
  153.7500   101.3710    23.9040    16.1880    12.8560    13.3430     2.3960   -25.9710 
  153.8750    97.4430    23.9250    18.8940    13.3400    13.7380     2.3850   -26.3710 
  154.0000    93.5570    24.0090    21.2910    13.6330    13.9240     2.3700   -26.7480 
  154.1250    93.5600    24.0910    21.6880    13.7310    13.9080     2.3580   -27.1160 
  154.2500    96.2440    24.1250    19.3970    13.7380    13.8160     2.3530   -27.4980 
  154.3750    99.2850    24.1350    15.5370    13.7070    13.7200     2.3520   -27.8590 
  154.5000   101.4290    24.1340    12.4710    13.6470    13.6270     2.3510   -28.2370 
  154.6250   101.0890    24.1340    12.3430    13.4950    13.4740     2.3570   -28.6410 
  154.7500    98.3460    24.1340    14.0160    13.2060    13.2000     2.3700   -29.0370 
  154.8750    96.0910    24.1310    15.6870    12.7890    12.8000     2.3850   -29.4280 
  155.0000    97.4310    24.1270    15.7130    12.3340    12.3630     2.3950   -29.8020 
  155.1250   101.6890    24.1360    14.0510    12.0490    12.1190     2.3980   -30.1270 
  155.2500   104.9900    24.1480    12.3840    12.1330    12.3230     2.4000   -30.4130 
  155.3750   106.3140    24.1560    11.7660    12.7790    13.2780     2.4020   -30.6680 
  155.5000   105.5770    24.1540    13.2140    14.1670    15.2800     2.4050   -30.8790 
  155.6250   102.2260    24.1540    18.5220    16.6310    18.3770     2.4030   -31.0460 
  155.7500    97.8670    24.1530    26.9340    20.1490    22.4680     2.3930   -31.2040 
  155.8750    94.5860    24.1560    35.0730    24.7390    27.5350     2.3680   -31.3310 
  156.0000    92.9250    24.1590    40.0890    30.2750    33.4710     2.3310   -31.4650 
  156.1250    91.9420    24.1570    43.0340    36.5250    40.0510     2.2990   -31.5920 
  156.2500    91.4980    24.1550    47.1910    42.8990    46.7390     2.2930   -31.7170 
  156.3750    91.7280    24.1510    53.9960    48.9750    53.1570     2.3060   -31.8590 
  156.5000    91.8220    24.1500    62.6090    54.5030    59.1050     2.3170   -31.9920 
  156.6250    91.3240    24.1590    71.6960    59.2630    64.4380     2.3020   -32.1170 
  156.7500    90.5210    24.1730    78.0600    63.2270    69.1000     2.2770   -32.2470 
  156.8750    88.8550    24.1940    79.9980    66.2260    72.7960     2.2580   -32.3730 
  157.0000    86.3090    24.2400    78.3180    68.1650    75.2800     2.2510   -32.4900 
  157.1250    84.5600    24.2950    77.1280    68.9130    76.2760     2.2500   -32.6060 
  157.2500    84.6910    24.3280    78.7520    68.7700    76.0930     2.2490   -32.7190 
  157.3750    86.7130    24.3330    82.6540    67.9240    74.9550     2.2470   -32.8150 
  157.5000    89.6560    24.3470    86.1590    66.6140    73.1630     2.2450   -32.8960 
  157.6250    91.3740    24.3470    84.7640    65.1560    71.1530     2.2510   -32.9730 
  157.7500    90.5120    24.3710    78.8610    64.0120    69.5010     2.2550   -33.0350 
  157.8750    88.4720    24.3900    71.1330    63.5640    68.6670     2.2520   -33.0890 
  158.0000    87.3660    24.3580    64.6850    64.1100    68.9690     2.2440   -33.1510 
  158.1250    87.2060    24.3260    63.9280    65.9450    70.7300     2.2500   -33.2260 
  158.2500    85.7480    24.3000    69.3770    68.7220    73.5840     2.2680   -33.2900 
  158.3750    82.1200    24.3260    78.4510    72.0670    77.1210     2.2830   -33.3930 
  158.5000    77.9970    24.3190    86.7450    75.4630    80.7320     2.2820   -33.5050 
  158.6250    77.0910    24.2350    90.6030    78.2020    83.5730     2.2690   -33.5830 
  158.7500    79.6010    24.1710    92.1310    79.9120    85.2130     2.2570   -33.6840 
  158.8750    82.4890    24.1600    94.3690    80.4280    85.4850     2.2500   -33.7680 
  159.0000    82.9170    24.1680    97.8740    79.8380    84.5350     2.2490   -33.8410 
  159.1250    81.9490    24.1730    98.4160    78.3150    82.6080     2.2550   -33.8960 
  159.2500    82.7000    24.1670    93.9690    76.4080    80.3080     2.2610   -33.9360 
  159.3750    85.2100    24.1570    86.6730    74.4860    78.0150     2.2560   -33.9590 
  159.5000    87.3530    24.1510    80.5820    72.8350    76.0220     2.2390   -33.9800 
  159.6250    87.0580    24.1550    77.3420    71.7300    74.5930     2.2260   -34.0100 
  159.7500    84.9730    24.1550    75.0430    71.1550    73.7020     2.2310   -34.0120 
  159.8750    82.3850    24.1600    72.5150    70.9920    73.2290     2.2450   -34.0170 
  160.0000    80.5160    24.1730    70.9230    70.9880    72.9200     2.2550   -34.0320 
  160.1250    80.2910    24.1850    72.4900    70.9000    72.5550     2.2500   -34.0390 
