~V
VERS. 2.00: Ver 2.00
~W
STRT.M 50.0000:
STOP.M 260.0000:
STEP.M 0.1250:
NULL. -999.2500:
UWI. DF5023:
~C
DEPT.M :
GR.API :
RML.OHMM :
RI. :
RXO.OHMM :
CALI.CM :
DEN.GM/CC :
SP.MV :
~A
# ...
   72.5000    94.3940     8.1250     6.8730     7.4220    23.4470     2.2420   -29.1420 
   72.6250    94.7500     8.2200     6.9090     7.6030    23.3620     2.2290   -29.3360 
   72.7500    95.7390     8.2760     6.9240     7.9680    23.3330     2.2160   -29.5480 
   72.8750    94.6960     8.3520     6.9500     8.2240    23.4280     2.2060   -29.7410 
   73.0000    93.5310     8.4910     7.0220     8.3220    23.4970     2.2030   -30.0330 
   73.1250    93.6580     8.7020     7.1560     8.5070    23.4990     2.2110   -30.2250 
   73.2500    93.0330     8.9560     7.3360     8.3140    23.5010     2.2300   -30.4910 
   73.3750    90.2880     9.2560     7.5620     8.7170    23.4970     2.2560   -30.7700 
   73.5000    86.1230     9.5980     7.8280     9.6480    23.4820     2.2810   -31.1560 
   73.6250    83.7580     9.9460     8.1000    11.0880    23.4420     2.2970   -31.6400 
   73.7500    83.8410    10.2720     8.3460    11.9690    23.4200     2.3060   -32.0780 
   73.8750    84.3620    10.5510     8.5490    11.2580    23.4160     2.3170   -32.5290 
   74.0000    83.0150    10.7420     8.6860    10.8930    23.4120     2.3310   -32.8770 
   74.1250    80.2730    10.7670     8.7080    12.7570    23.2980     2.3410   -33.2910 
   74.2500    78.0320    10.6250     8.6110    15.4220    23.0150     2.3340   -33.5820 
   74.3750    77.2190    10.3260     8.4010    14.4840    22.6960     2.3050   -33.8230 
   74.5000    77.8970     9.9180     8.1110    10.8400    22.5330     2.2610   -33.9210 
   74.6250    78.3750     9.5070     7.8090     9.3110    22.5100     2.2180   -33.9440 
   74.7500    78.6880     9.1940     7.5590     9.0770    22.5100     2.1880   -33.9600 
   74.8750    78.8220     9.0350     7.4010     9.0240    22.5160     2.1730   -33.9310 
   75.0000    79.6700     9.0700     7.3650     9.0380    22.5340     2.1680   -33.8660 
   75.1250    82.4030     9.3160     7.4850     9.1650    22.5720     2.1660   -33.7450 
   75.2500    84.6050     9.6440     7.6880     8.9650    22.5920     2.1630   -33.6770 
   75.3750    83.2180     9.9500     7.9060     8.9330    22.6020     2.1600   -33.5850 
   75.5000    79.6440    10.1740     8.0880     9.5390    22.6550     2.1590   -33.4690 
   75.6250    78.9070    10.2720     8.1940     9.9700    22.8300     2.1640   -33.2160 
   75.7500    80.6330    10.2490     8.2130    10.0740    23.0840     2.1740   -32.8950 
   75.8750    81.9010    10.1210     8.1460    10.0330    23.2400     2.1900   -32.5250 
   76.0000    82.8470     9.9300     8.0160     9.8110    23.2720     2.2090   -32.2240 
   76.1250    85.7260     9.7120     7.8510     8.9530    23.1910     2.2290   -31.9770 
   76.2500    89.3430     9.5230     7.6920     8.4580    23.0250     2.2480   -31.8360 
   76.3750    91.4920     9.3970     7.5680     8.4330    22.8400     2.2640   -31.7560 
   76.5000    89.7880     9.3400     7.4880     8.5150    22.7180     2.2740   -31.8700 
   76.6250    85.2020     9.3480     7.4580     8.5500    22.6310     2.2740   -32.1170 
   76.7500    82.1270     9.4080     7.4720     8.4160    22.5960     2.2650   -32.5110 
   76.8750    80.8910     9.5180     7.5310     8.3620    22.5840     2.2470   -33.0650 
   77.0000    78.6420     9.6880     7.6370     8.5920    22.5850     2.2240   -33.5970 
   77.1250    75.9730     9.9490     7.8070     9.2300    22.5870     2.2010   -34.1570 
   77.2500    75.2540    10.2840     8.0300     9.6270    22.5900     2.1820   -34.5710 
   77.3750    74.7390    10.6650     8.2930     9.9950    22.5940     2.1690   -34.9660 
   77.5000    72.8960    11.0570     8.5740    10.4450    22.5970     2.1590   -35.2210 
   77.6250    71.9770    11.4010     8.8360    10.8460    22.5990     2.1500   -35.4880 
   77.7500    71.7840    11.6590     9.0470    11.3360    22.5990     2.1400   -35.6690 
   77.8750    70.4830    11.8180     9.1920    11.7320    22.5940     2.1310   -35.7550 
   78.0000    67.4970    11.8850     9.2690    11.8480    22.5880     2.1240   -35.7950 
   78.1250    65.0770    11.8510     9.2730    11.8060    22.5850     2.1200   -35.7900 
   78.2500    62.7870    11.7510     9.2250    11.8040    22.5860     2.1210   -35.8040 
   78.3750    62.4040    11.6160     9.1440    11.9040    22.5780     2.1300   -35.8490 
   78.5000    65.8220    11.4610     9.0440    12.0090    22.5630     2.1450   -35.9290 
   78.6250    70.8850    11.3030     8.9340    12.1300    22.5490     2.1630   -35.9910 
   78.7500    73.2470    11.1650     8.8340    12.0590    22.5710     2.1770   -35.9960 
   78.8750    72.3490    11.0620     8.7560    11.6300    22.5850     2.1830   -35.9730 
   79.0000    70.8580    11.0070     8.7110    11.3800    22.5880     2.1830   -35.9900 
   79.1250    72.2390    11.0400     8.7250    11.5590    22.5880     2.1770   -35.9880 
   79.2500    72.8890    11.1650     8.7990    11.9370    22.5870     2.1710   -36.0050 
   79.3750    70.3310    11.3640     8.9250    12.2480    22.5860     2.1680   -35.9490 
   79.5000    66.2390    11.5990     9.0800    12.4570    22.5830     2.1680   -35.8980 
   79.6250    65.0180    11.7830     9.2170    12.6710    22.6100     2.1720   -35.7530 
   79.7500    65.5290    11.8350     9.2840    12.9720    22.6700     2.1790   -35.6630 
   79.8750    65.8210    11.7040     9.2430    13.5150    22.7240     2.1840   -35.4450 
   80.0000    66.2070    11.3970     9.0900    14.0720    22.7450     2.1840   -35.1660 
   80.1250    68.2610    10.9990     8.8610    13.7640    22.7470     2.1820   -34.7870 
   80.2500    70.6850    10.6560     8.6440    12.4460    22.7830     2.1810   -34.2990 
   80.3750    72.2410    10.4450     8.4970    11.3680    22.8900     2.1880   -33.8110 
   80.5000    73.9600    10.4000     8.4500    10.7420    23.0410     2.2060   -33.2620 
   80.6250    77.2150    10.5330     8.5300    10.4480    23.1250     2.2320   -32.8590 
   80.7500    80.8820    10.7390     8.6850    10.7690    23.1600     2.2580   -32.5410 
   80.8750    81.2370    10.9170     8.8510    11.8660    23.1420     2.2700   -32.4670 
   81.0000    77.9190    10.9980     8.9740    13.4010    23.0630     2.2630   -32.4680 
   81.1250    73.6620    10.9370     9.0090    12.8130    22.9880     2.2350   -32.6560 
   81.2500    69.1100    10.7760     8.9680    11.4270    22.9570     2.1990   -32.9560 
   81.3750    63.9900    10.5920     8.8890    11.2140    22.9530     2.1670   -33.3210 
   81.5000    60.7850    10.4630     8.8210    11.4800    22.9510     2.1460   -33.7190 
   81.6250    62.1290    10.4410     8.8050    11.6100    22.9530     2.1380   -34.0500 
   81.7500    64.7770    10.5080     8.8440    11.6370    22.9640     2.1380   -34.2870 
   81.8750    65.5780    10.6300     8.9280    11.7870    22.9880     2.1430   -34.4370 
   82.0000    65.6240    10.7480     9.0200    11.9650    23.0230     2.1500   -34.5130 
   82.1250    67.9470    10.8050     9.0760    12.0270    23.0410     2.1600   -34.4760 
   82.2500    71.1640    10.8290     9.0960    12.0620    23.0440     2.1680   -34.3790 
   82.3750    72.4450    10.8550     9.0960    12.2060    23.0420     2.1740   -34.2170 
   82.5000    70.4320    10.9110     9.0920    12.3930    23.0490     2.1740   -34.0550 
   82.6250    68.1660    11.0080     9.0910    12.3580    23.0680     2.1680   -33.8840 
   82.7500    68.7900    11.1070     9.0820    12.1310    23.0970     2.1560   -33.6980 
   82.8750    69.7320    11.1390     9.0310    11.8990    23.1120     2.1430   -33.3290 
   83.0000    69.0710    11.0290     8.8980    11.6250    23.1150     2.1340   -32.9560 
   83.1250    68.1330    10.6950     8.6320    11.3570    23.1170     2.1350   -32.4440 
   83.2500    70.6800    10.1700     8.2580    10.9520    23.1500     2.1500   -31.9130 
   83.3750    76.8900     9.5350     7.8170    10.1620    23.2630     2.1770   -31.4230 
   83.5000    84.7190     8.9450     7.3700     8.9150    23.4740     2.2100   -30.9730 
   83.6250    90.5210     8.5910     7.0240     7.8560    23.5740     2.2380   -30.6510 
