~V
VERS. 2.00: Ver 2.00
~W
STRT.M 58.0000:
STOP.M 261.0000:
STEP.M 0.1250:
NULL. -999.2500:
UWI. DF5035:
~C
DEPT.M :
DEN.GM/CC :
GR.API :
CALI.CM :
RXO.OHMM :
RI. :
RML.OHMM :
SP.MV :
~A
# ...
   91.7500     2.2640    80.7470    25.0650     5.0430     4.6490     5.2730   -45.1400 
   91.8750     2.2710    80.0770    24.9450     4.9750     4.4050     5.0270   -45.5360 
   92.0000     2.2780    78.9240    24.8440     4.6640     4.1510     4.7660   -45.9820 
   92.1250     2.2830    79.5040    24.8540     4.2140     3.9150     4.5520   -46.2900 
   92.2500     2.2820    83.3720    24.9240     4.1710     3.7630     4.4680   -46.6410 
   92.3750     2.2730    87.7380    24.9720     4.2740     3.7560     4.5810   -47.0420 
   92.5000     2.2560    87.0450    24.9610     4.3700     3.9380     4.9250   -47.5010 
   92.6250     2.2350    79.4340    24.8920     5.0110     4.3560     5.5270   -48.0540 
   92.7500     2.2150    72.8710    24.7930     6.7810     4.9360     6.2700   -48.5410 
   92.8750     2.1980    71.5510    24.6940     8.8460     5.5800     7.0180   -49.0460 
   93.0000     2.1840    73.1250    24.6340     9.6130     6.1560     7.6200   -49.5200 
   93.1250     2.1740    73.1300    24.6360     7.9480     6.5160     7.9250   -49.9610 
   93.2500     2.1680    71.7640    24.6550     7.6030     6.6610     7.9870   -50.4100 
   93.3750     2.1630    71.4930    24.6650     7.6020     6.6510     7.9040   -50.6910 
   93.5000     2.1590    73.0910    24.6670     7.6690     6.5720     7.7910   -51.0200 
   93.6250     2.1560    72.1080    24.6790     7.7350     6.5010     7.7510   -51.1330 
   93.7500     2.1550    68.8100    24.7130     7.8370     6.4710     7.7900   -51.1390 
   93.8750     2.1560    67.4730    24.7650     8.0200     6.4790     7.8740   -51.1680 
   94.0000     2.1570    70.5370    24.7980     8.2290     6.5070     7.9580   -51.0510 
   94.1250     2.1570    75.2660    24.7580     8.3770     6.5350     8.0030   -51.0370 
   94.2500     2.1540    76.9890    24.6790     8.4580     6.5530     8.0270   -50.9500 
   94.3750     2.1480    73.5370    24.6090     8.4620     6.5800     8.0720   -50.9000 
   94.5000     2.1420    67.7250    24.5690     8.4410     6.6420     8.1820   -50.7820 
   94.6250     2.1390    66.0160    24.5460     8.6920     6.7670     8.3690   -50.5920 
   94.7500     2.1390    69.4180    24.5330     9.6630     6.9250     8.5660   -50.4990 
   94.8750     2.1430    72.0410    24.5310    11.2340     7.0620     8.6820   -50.3140 
   95.0000     2.1460    68.9870    24.5310    11.6900     7.1080     8.6310   -50.2330 
   95.1250     2.1460    63.8140    24.5310    10.0870     6.9910     8.3540   -50.1510 
   95.2500     2.1440    62.7710    24.5380     8.5450     6.7560     7.9610   -49.9590 
   95.3750     2.1410    64.5920    24.5570     7.8770     6.4900     7.5910   -49.8030 
   95.5000     2.1400    66.3050    24.5930     7.6430     6.3080     7.3900   -49.7150 
   95.6250     2.1410    67.8000    24.6440     7.6490     6.3370     7.4780   -49.5980 
   95.7500     2.1450    69.2450    24.6860     7.8120     6.5560     7.7550   -49.4340 
   95.8750     2.1500    68.7970    24.7200     8.2020     6.8650     8.0520   -49.3120 
   96.0000     2.1570    67.2300    24.7570     9.3420     7.0810     8.1450   -49.0680 
   96.1250     2.1670    66.8230    24.7980     9.5220     6.9380     7.7770   -48.7650 
   96.2500     2.1800    67.4520    24.8280     8.0390     6.4260     7.0250   -48.5220 
   96.3750     2.1960    70.3490    24.8510     5.9760     5.6780     6.0840   -48.3070 
   96.5000     2.2140    76.9440    24.8590     4.8590     4.8870     5.1890   -48.0130 
   96.6250     2.2330    84.0960    24.8140     4.4980     4.2410     4.5430   -47.8820 
   96.7500     2.2530    88.1080    24.7500     4.4190     3.7850     4.1460   -47.8480 
   96.8750     2.2720    90.7320    24.7200     4.3340     3.5150     3.9570   -47.7690 
   97.0000     2.2830    93.6630    24.6980     4.1410     3.4000     3.9180   -47.8910 
   97.1250     2.2830    93.8220    24.5980     4.0730     3.4170     3.9930   -48.0570 
   97.2500     2.2740    89.7450    24.4790     4.1080     3.5120     4.1310   -48.3360 
   97.3750     2.2590    83.7360    24.4310     4.1370     3.6600     4.3120   -48.6700 
   97.5000     2.2460    79.5220    24.4480     4.3060     3.8480     4.5290   -49.0010 
   97.6250     2.2360    80.1940    24.4400     4.6110     4.0860     4.8000   -49.4530 
   97.7500     2.2260    82.0950    24.4000     4.8360     4.3830     5.1360   -49.9010 
   97.8750     2.2130    80.9000    24.3540     5.1290     4.7540     5.5530   -50.3950 
   98.0000     2.1960    76.4930    24.3070     5.8710     5.1990     6.0400   -50.9110 
   98.1250     2.1760    73.3400    24.2740     8.1600     5.6820     6.5470   -51.3570 
   98.2500     2.1580    72.9690    24.2690     9.8830     6.1160     6.9840   -51.8040 
   98.3750     2.1440    72.2310    24.2690     9.2420     6.4290     7.2860   -52.0910 
   98.5000     2.1360    70.3910    24.2430     7.3360     6.5870     7.4340   -52.3560 
   98.6250     2.1310    70.7470    24.1990     6.9320     6.5750     7.4220   -52.5960 
   98.7500     2.1290    71.4510    24.1690     7.0070     6.4310     7.2770   -52.7160 
   98.8750     2.1320    70.0170    24.1700     7.1880     6.1490     6.9860   -52.8230 
   99.0000     2.1440    67.6270    24.1980     7.4580     5.7400     6.5580   -52.8020 
   99.1250     2.1610    69.2510    24.2800     7.4680     5.2710     6.0940   -52.7480 
   99.2500     2.1770    76.1830    24.4330     6.8350     4.9050     5.8160   -52.7530 
   99.3750     2.1920    83.2880    24.6010     5.9760     4.7990     5.9340   -52.7990 
   99.5000     2.2090    84.1540    24.6670     6.3400     5.0740     6.5760   -52.9660 
   99.6250     2.2290    76.7850    24.6010     8.5310     5.8470     7.7900   -53.0240 
   99.7500     2.2440    69.3770    24.5970    13.3120     6.9550     9.2250   -53.1100 
   99.8750     2.2390    67.8290    24.7100    17.9720     8.1090    10.4240   -53.2360 
  100.0000     2.2100    70.0290    24.7820    17.3700     8.8600    10.8920   -53.3260 
  100.1250     2.1670    69.2230    24.6770    11.3880     8.7820    10.3450   -53.5210 
  100.2500     2.1330    65.2890    24.5330     8.7550     8.2020     9.3650   -53.5430 
  100.3750     2.1150    63.5410    24.4660     8.3800     7.5080     8.4480   -53.6050 
  100.5000     2.1120    66.2960    24.4570     8.5090     6.9670     7.8710   -53.5280 
  100.6250     2.1180    69.9040    24.4330     8.4540     6.7140     7.7070   -53.4390 
  100.7500     2.1250    71.6450    24.4000     8.3790     6.6600     7.7570   -53.3630 
  100.8750     2.1290    71.9920    24.3880     8.4170     6.7060     7.8770   -53.1310 
  101.0000     2.1280    70.9090    24.3960     8.6060     6.7680     7.9740   -52.9850 
  101.1250     2.1250    68.8240    24.4040     8.5850     6.7960     8.0090   -52.7020 
  101.2500     2.1230    67.8680    24.4040     8.4240     6.7910     7.9970   -52.4450 
  101.3750     2.1250    69.4750    24.4030     8.2000     6.7630     7.9540   -52.1280 
  101.5000     2.1300    71.4090    24.4030     8.0700     6.7190     7.8980   -51.7520 
  101.6250     2.1370    71.1060    24.4020     8.1620     6.6690     7.8450   -51.4520 
  101.7500     2.1430    68.2760    24.4050     8.2030     6.6210     7.8010   -51.1120 
  101.8750     2.1470    65.7570    24.4200     8.1030     6.5800     7.7650   -50.8220 
  102.0000     2.1500    66.1640    24.4460     7.8380     6.5480     7.7360   -50.5630 
  102.1250     2.1540    67.6160    24.4550     7.7570     6.5300     7.7180   -50.2660 
  102.2500     2.1570    68.2230    24.4150     7.8610     6.5290     7.7130   -49.9320 
  102.3750     2.1560    69.5240    24.3190     8.2280     6.5500     7.7240   -49.6160 
  102.5000     2.1490    71.6280    24.2050     8.5350     6.5990     7.7560   -49.3120 
  102.6250     2.1370    71.5960    24.1480     8.5850     6.6810     7.8230   -48.9750 
  102.7500     2.1300    70.3930    24.1450     8.3370     6.7990     7.9260   -48.6170 
  102.8750     2.1360    70.3170    24.1140     8.1120     6.9270     8.0150   -48.1950 
