~V
VERS. 2.00: Ver 2.00
~W
STRT.M 58.0000:
STOP.M 240.0000:
STEP.M 0.1250:
NULL. -999.2500:
UWI. DF5049:
~C
DEPT.M :
GR.API :
RML.OHMM :
RI. :
RXO.OHMM :
CALI.CM :
DEN.GM/CC :
SP.MV :
~A
# ...
   80.5000    85.3510     9.3090     7.3440     9.1230    25.0520     2.2990    -9.9070 
   80.6250    82.6410    10.1100     8.1240    12.6750    24.6780     2.2930   -10.3660 
   80.7500    81.9050    10.1560     8.4430    10.7540    24.5040     2.2780   -11.0120 
   80.8750    82.3040     9.5920     8.2900     8.5880    24.5630     2.2600   -11.7440 
   81.0000    84.3440     8.8540     7.8990     7.4060    24.7270     2.2410   -12.4830 
   81.1250    86.1760     8.4490     7.5960     7.1870    24.7590     2.2250   -13.2760 
   81.2500    85.5070     8.4950     7.5340     7.2360    24.6250     2.2160   -14.0470 
   81.3750    82.0000     8.8700     7.6930     7.5280    24.4520     2.2160   -14.6110 
   81.5000    78.5250     9.3160     7.9400     8.0090    24.4050     2.2240   -14.9440 
   81.6250    79.9430     9.5070     8.0630     8.2520    24.5370     2.2380   -15.0270 
   81.7500    83.4780     9.3220     7.9580     8.1380    24.7070     2.2500   -14.9470 
   81.8750    85.7520     8.8250     7.6550     7.5410    24.8470     2.2580   -14.7470 
   82.0000    86.8680     8.2380     7.2860     6.8750    24.9280     2.2590   -14.4890 
   82.1250    88.2150     7.8950     7.0570     6.6020    24.8780     2.2520   -14.2720 
   82.2500    88.4960     7.9770     7.0870     6.8850    24.7100     2.2400   -14.1650 
   82.3750    86.9980     8.5570     7.4440     7.7110    24.4310     2.2290   -14.2120 
   82.5000    84.0320     9.6080     8.1500     8.9150    24.1530     2.2290   -14.4500 
   82.6250    80.5070    11.0330     9.2080    10.3910    24.0690     2.2550   -14.8860 
   82.7500    77.0220    12.5070    10.4240    11.1300    24.1200     2.3050   -15.3830 
   82.8750    73.7460    13.7470    11.5940    11.3230    24.2060     2.3660   -15.9470 
   83.0000    71.0570    14.5730    12.5200    11.4110    24.2280     2.4200   -16.5400 
   83.1250    69.1030    15.0770    13.1490    11.5380    24.1790     2.4490   -16.9580 
   83.2500    68.0930    15.7950    13.8170    11.7080    24.1480     2.4640   -17.1550 
   83.3750    68.4810    17.2140    14.9000    12.0380    24.1960     2.4820   -17.1450 
   83.5000    68.6550    19.5870    16.6670    13.2050    24.2600     2.5180   -16.9500 
   83.6250    67.3770    22.6460    19.0800    17.4210    24.3490     2.5760   -16.7110 
   83.7500    65.2400    25.0640    21.2010    26.1320    24.5080     2.6300   -16.5910 
   83.8750    65.2160    25.4400    21.8280    34.0260    24.6810     2.6530   -16.5860 
   84.0000    70.0730    23.1790    20.3040    30.9600    24.7270     2.6290   -16.6740 
   84.1250    77.6230    19.1140    17.2250    20.8860    24.5910     2.5480   -16.9130 
   84.2500    82.3620    15.2430    14.2080    14.2560    24.3830     2.4410   -17.2890 
   84.3750    81.8540    12.4680    11.9170    12.0730    24.2260     2.3330   -17.7960 
   84.5000    77.5680    10.9850    10.4840    11.5980    24.0710     2.2470   -18.3660 
   84.6250    73.8210    10.6870     9.8890    11.3790    23.9450     2.1970   -18.9120 
   84.7500    72.4480    10.9440     9.7830    11.3130    23.8820     2.1720   -19.4110 
   84.8750    72.8070    11.3240     9.9240    11.3240    23.8590     2.1620   -19.8080 
   85.0000    74.9220    11.4770    10.0700    11.2850    23.8510     2.1590   -20.0770 
   85.1250    76.6160    11.2200    10.0150    11.1580    23.8470     2.1630   -20.2500 
   85.2500    77.2230    10.7360     9.7650    10.7600    23.8360     2.1720   -20.2920 
   85.3750    77.2450    10.2110     9.3990    10.0030    23.8100     2.1870   -20.2180 
   85.5000    78.4760     9.8070     9.0390     9.3580    23.7810     2.2060   -20.1350 
   85.6250    81.0180     9.6630     8.8250     9.1270    23.7510     2.2220   -20.0310 
   85.7500    80.3020     9.7450     8.7880     9.4140    23.7300     2.2320   -19.8400 
   85.8750    76.8450     9.9570     8.8950     9.9230    23.7190     2.2350   -19.6540 
   86.0000    72.8460    10.1600     9.0650    10.2740    23.7160     2.2300   -19.5640 
   86.1250    71.5790    10.2310     9.2060    10.2970    23.7170     2.2210   -19.4650 
   86.2500    72.0070    10.1650     9.2750    10.2410    23.7200     2.2130   -19.3910 
   86.3750    71.9240    10.0240     9.2750    10.0640    23.7210     2.2080   -19.4230 
   86.5000    71.9520     9.9130     9.2430     9.9190    23.7170     2.2070   -19.4750 
   86.6250    75.2460     9.9490     9.2330     9.9100    23.7110     2.2090   -19.5400 
   86.7500    80.2410    10.1380     9.2750     9.9320    23.7030     2.2120   -19.7020 
   86.8750    83.1490    10.4290     9.3730    10.0150    23.6980     2.2150   -19.8830 
   87.0000    81.7160    10.7360     9.5040    10.1390    23.6980     2.2150   -20.0000 
   87.1250    79.6640    10.9300     9.6180    10.2360    23.7040     2.2090   -20.1220 
   87.2500    77.5480    10.9540     9.6760    10.2560    23.7120     2.2000   -20.2570 
   87.3750    73.6220    10.8350     9.6680    10.3400    23.7150     2.1910   -20.2950 
   87.5000    69.1760    10.6630     9.6110    10.4900    23.7160     2.1850   -20.2950 
   87.6250    66.7900    10.5530     9.5420    10.5260    23.7150     2.1820   -20.3060 
   87.7500    65.8550    10.5460     9.4920    10.5690    23.7130     2.1800   -20.2820 
   87.8750    65.3790    10.6110     9.4720    10.6780    23.7090     2.1780   -20.2250 
   88.0000    64.9220    10.6820     9.4750    10.7440    23.7120     2.1780   -20.1730 
   88.1250    65.0070    10.6990     9.4960    10.6920    23.6930     2.1820   -20.1440 
   88.2500    64.3800    10.6830     9.5320    10.6960    23.6490     2.1880   -20.0900 
   88.3750    63.4730    10.6800     9.5860    10.7000    23.6160     2.1940   -20.0350 
   88.5000    63.8750    10.7320     9.6640    10.7980    23.6210     2.1980   -20.0070 
   88.6250    66.0420    10.8580     9.7790    10.8310    23.6350     2.1960   -19.9890 
   88.7500    68.1410    11.0150     9.9110    10.7790    23.6470     2.1910   -19.9200 
   88.8750    68.8280    11.1290    10.0090    10.8140    23.6650     2.1840   -19.8320 
   89.0000    68.9820    11.0920     9.9830    10.8680    23.6960     2.1790   -19.6800 
   89.1250    69.2140    10.7600     9.7060    10.6680    23.7050     2.1840   -19.3530 
   89.2500    69.4890    10.1750     9.2110    10.1140    23.6960     2.2010   -18.9520 
   89.3750    72.5600     9.4430     8.5930     9.2320    23.6810     2.2280   -18.4850 
   89.5000    81.3510     8.7160     7.9730     7.9830    23.6910     2.2550   -17.9370 
   89.6250    91.3070     8.1400     7.4380     7.1790    23.6920     2.2740   -17.3790 
   89.7500    95.4300     7.7020     6.9790     7.1800    23.6470     2.2820   -16.8660 
   89.8750    94.5060     7.3320     6.5630     7.4640    23.5550     2.2840   -16.3250 
   90.0000    92.8440     6.9770     6.1830     7.7710    23.4730     2.2850   -15.7960 
   90.1250    91.4820     6.7200     5.9340     6.7590    23.5420     2.2880   -15.4440 
   90.2500    88.5050     6.7380     5.9250     5.8430    23.6500     2.2940   -15.3090 
   90.3750    85.5220     7.2140     6.2570     5.7810    23.6920     2.3040   -15.4730 
   90.5000    82.6890     8.2280     6.9870     6.5760    23.6840     2.3170   -15.9120 
   90.6250    79.6200     9.6920     8.1310     8.5250    23.7270     2.3240   -16.5410 
   90.7500    76.2350    11.0860     9.3640    11.3480    23.7610     2.3150   -17.2890 
   90.8750    73.7540    11.8880    10.2570    12.1730    23.7560     2.2870   -18.1240 
   91.0000    72.4250    11.8270    10.4750    11.1410    23.7330     2.2470   -19.0260 
   91.1250    71.5970    11.0570    10.0210    10.5320    23.7320     2.2150   -19.9670 
   91.2500    69.1500    10.2070     9.3950    10.2080    23.7480     2.2030   -20.8110 
   91.3750    65.9810     9.6220     8.8930     9.6240    23.7600     2.2110   -21.5160 
   91.5000    65.3910     9.4160     8.6410     9.1500    23.7640     2.2280   -22.0770 
   91.6250    68.8120     9.5360     8.6350     9.0990    23.7640     2.2410   -22.4360 
