~V
VERS. 2.00: Ver 2.00
~W
STRT.M 60.0000:
STOP.M 257.0000:
STEP.M 0.1250:
NULL. -999.2500:
UWI. DF5064:
~C
DEPT.M :
SP.MV :
GR.API :
RML.OHMM :
RI. :
RXO.OHMM :
CALI.CM :
DEN.GM/CC :
~A
# ...
  172.5000   -19.9390    65.7790    84.5800    78.3090    54.8330    32.1840     2.2310 
  172.6250   -20.1830    64.1580    88.4630    80.8140    56.2120    32.1820     2.2320 
  172.7500   -20.4410    63.5300    92.3770    83.6110    58.9430    32.1720     2.2300 
  172.8750   -20.6870    64.3160    96.0430    86.4470    59.6790    32.1490     2.2270 
  173.0000   -20.8810    65.7090    99.1130    89.0400    58.4830    32.1220     2.2220 
  173.1250   -20.9960    67.8780   101.2460    91.1620    58.3130    32.0890     2.2180 
  173.2500   -21.0370    70.7730   102.6460    92.8420    59.3450    32.0710     2.2160 
  173.3750   -21.0360    70.8570   103.3780    93.9480    59.9490    32.0530     2.2170 
  173.5000   -21.0290    65.9660   103.2120    94.0610    59.2600    32.0170     2.2190 
  173.6250   -20.9930    61.4090   101.0950    92.0500    57.4170    31.9680     2.2210 
  173.7500   -20.9240    62.4480    96.3390    87.3980    57.0670    31.9120     2.2200 
  173.8750   -20.8540    66.1530    88.5360    79.9600    57.8970    31.8770     2.2170 
  174.0000   -20.7900    67.4000    78.2430    70.5260    58.5220    31.8630     2.2160 
  174.1250   -20.7220    66.4000    67.2360    60.9860    55.5620    31.8600     2.2210 
  174.2500   -20.6770    65.8070    57.8920    53.4140    47.2700    31.8500     2.2310 
  174.3750   -20.6610    66.6820    51.6960    49.0510    36.7040    31.8050     2.2430 
  174.5000   -20.6770    70.3020    49.4170    48.4740    30.7360    31.7010     2.2510 
  174.6250   -20.7220    73.7780    51.8540    52.2350    30.1390    31.5930     2.2480 
  174.7500   -20.7820    72.5720    57.8080    58.9870    34.6200    31.5150     2.2350 
  174.8750   -20.8370    67.1170    66.2010    67.4990    42.4470    31.4260     2.2160 
  175.0000   -20.8870    61.3870    75.4140    76.1420    50.3320    31.3210     2.1990 
  175.1250   -20.9450    59.5970    83.1380    82.8710    54.6710    31.2350     2.1920 
  175.2500   -21.0030    59.9810    88.1370    87.1130    56.0170    31.1800     2.1930 
  175.3750   -21.0360    61.8120    90.4390    89.2980    56.0090    31.1290     2.2020 
  175.5000   -21.0570    63.9750    91.1720    90.5160    57.0310    31.0790     2.2120 
  175.6250   -21.0970    65.4650    91.8210    91.7810    58.6180    31.0370     2.2170 
  175.7500   -21.1590    66.7420    92.9100    93.0790    58.8920    30.9660     2.2180 
  175.8750   -21.2300    66.1550    93.6780    93.3770    59.2250    30.8660     2.2150 
  176.0000   -21.2950    65.5020    92.5390    91.0880    59.7900    30.7760     2.2130 
  176.1250   -21.3580    66.8590    86.9670    84.1640    60.3080    30.6810     2.2160 
  176.2500   -21.4120    68.6030    77.1320    73.6830    58.8970    30.5940     2.2250 
  176.3750   -21.4660    66.7750    64.8310    61.9270    58.0060    30.5040     2.2410 
  176.5000   -21.5110    63.2620    53.1650    51.8590    55.8510    30.4190     2.2650 
  176.6250   -21.5660    66.3930    45.6660    46.8500    42.2040    30.3560     2.2890 
  176.7500   -21.6560    72.4390    43.6440    47.7000    29.4200    30.3010     2.3030 
  176.8750   -21.7790    75.4400    47.8560    54.9410    27.4240    30.2730     2.3020 
  177.0000   -21.9420    72.8210    59.1540    68.2260    38.1780    30.2480     2.2850 
  177.1250   -22.1450    68.9250    77.1680    86.1560    59.5900    30.2000     2.2610 
  177.2500   -22.3770    68.8890    98.6860   104.2780    74.5160    30.1520     2.2370 
  177.3750   -22.6080    70.8780   119.2270   118.7580    79.4350    30.1000     2.2190 
  177.5000   -22.7770    71.2050   132.6790   127.1130    79.2870    30.0310     2.2060 
  177.6250   -22.8530    68.7480   137.4730   129.0310    76.4060    29.9770     2.2020 
  177.7500   -22.8450    67.7400   137.9060   128.4350    75.0490    29.9370     2.2050 
  177.8750   -22.8020    70.1650   137.4490   127.7320    74.8820    29.9180     2.2150 
  178.0000   -22.7710    73.7500   138.2300   128.1610    75.4980    29.8850     2.2280 
  178.1250   -22.7500    73.7760   141.3100   130.4080    76.9270    29.8410     2.2390 
  178.2500   -22.7170    70.4580   146.3430   134.2480    79.1270    29.7820     2.2440 
  178.3750   -22.6760    66.3240   153.0620   139.6170    81.3520    29.7210     2.2410 
  178.5000   -22.7030    64.0390   161.1050   146.4680    82.7090    29.6470     2.2330 
  178.6250   -22.8190    63.7410   170.2250   154.9870    86.7290    29.5710     2.2240 
  178.7500   -22.9950    65.3670   179.8480   164.6670    93.4600    29.5370     2.2170 
  178.8750   -23.2140    68.4220   189.3200   174.7460   100.8110    29.5200     2.2130 
  179.0000   -23.4410    71.1570   197.4030   183.7070   106.1850    29.4930     2.2110 
  179.1250   -23.6610    70.7620   201.0900   188.1840   108.8880    29.4310     2.2100 
  179.2500   -23.8840    67.3850   198.0240   185.6740   109.3470    29.3400     2.2070 
  179.3750   -24.1020    63.1580   186.0570   174.2530   106.9100    29.2160     2.2070 
  179.5000   -24.2810    61.6070   164.9100   154.1950   105.4140    29.0820     2.2110 
  179.6250   -24.3960    63.7840   137.1310   128.6730   104.8660    28.9660     2.2260 
  179.7500   -24.4340    65.2080   109.8800   104.3900   100.6610    28.8630     2.2520 
  179.8750   -24.4050    64.7470    87.9250    85.5580    89.2420    28.7720     2.2820 
  180.0000   -24.3090    66.1830    73.5070    74.1450    68.0560    28.6910     2.3090 
  180.1250   -24.1800    70.9530    67.9010    71.3600    49.7480    28.6140     2.3210 
  180.2500   -24.0570    73.5440    68.8290    74.8210    47.7450    28.5670     2.3170 
  180.3750   -23.9760    71.0870    75.0520    82.9800    60.8710    28.5430     2.3030 
  180.5000   -23.9350    66.4230    84.9350    93.8230    80.7670    28.5250     2.2880 
  180.6250   -23.9750    65.0280    96.2310   104.6340    88.8740    28.5010     2.2780 
  180.7500   -24.1220    65.2850   106.1380   113.0630    91.8650    28.4800     2.2750 
  180.8750   -24.3630    64.4990   113.1270   118.2810    93.2160    28.4670     2.2760 
  181.0000   -24.6670    64.3280   117.0790   120.8940    95.4110    28.4590     2.2770 
  181.1250   -25.0050    64.9860   119.2160   122.4420    98.3430    28.4510     2.2750 
  181.2500   -25.3430    65.0580   121.5670   124.4430    98.7050    28.4520     2.2670 
  181.3750   -25.6160    64.7810   124.8740   127.1480    94.6590    28.4620     2.2540 
  181.5000   -25.8310    64.6180   128.9650   130.0630    91.1060    28.4720     2.2400 
  181.6250   -25.9730    62.4090   132.9480   132.2520    90.2940    28.4850     2.2300 
  181.7500   -26.0720    60.9170   136.0130   133.4480    95.7470    28.4940     2.2260 
  181.8750   -26.1200    64.8510   138.0400   134.0610    98.1960    28.5010     2.2260 
  182.0000   -26.1320    70.8190   139.6040   134.9510    91.1860    28.4890     2.2280 
  182.1250   -26.0890    71.3730   141.7710   137.0610    81.5780    28.4680     2.2260 
  182.2500   -26.0150    69.8900   144.8300   140.0240    79.2700    28.4450     2.2200 
  182.3750   -25.9410    70.3210   148.0100   142.6140    85.8670    28.4230     2.2150 
  182.5000   -25.8820    70.5050   149.7010   143.1270    91.9970    28.3340     2.2130 
  182.6250   -25.8110    69.1830   147.6050   139.7730    93.5070    28.1490     2.2180 
  182.7500   -25.6970    68.7790   142.0290   133.6770    94.0240    27.9230     2.2280 
  182.8750   -25.5450    68.5930   134.6360   126.8940    92.5960    27.7650     2.2410 
  183.0000   -25.3880    66.9510   128.0270   121.8810    91.0850    27.6740     2.2530 
  183.1250   -25.2490    64.6890   125.1510   121.0530    86.1930    27.6220     2.2570 
  183.2500   -25.0930    63.9860   126.2440   123.9030    83.0490    27.5750     2.2560 
  183.3750   -24.9540    64.4750   130.4200   129.0470    90.2580    27.5220     2.2510 
  183.5000   -24.8490    64.8790   135.6960   134.2440   106.5160    27.4780     2.2460 
  183.6250   -24.7380    63.5670   138.9110   136.4370   112.8140    27.4400     2.2450 
