~V
VERS. 2.00: Ver 2.00
~W
STRT.M 55.0000:
STOP.M 271.0000:
STEP.M 0.1250:
NULL. -999.2500:
UWI. DF5032:
~C
DEPT.M :
SP.MV :
GR.API :
CALI.CM :
RXO.OHMM :
RI. :
RML.OHMM :
DEN.GM/CC :
~A
# ...
  100.0000   -18.4520    87.2830    24.2080    17.4780     9.8520    11.1200     2.5320 
  100.1250   -18.6660    87.2830    24.1900    18.7760    10.5910    11.7400     2.5340 
  100.2500   -18.9480    87.0380    24.0680    17.2820    10.9590    11.8860     2.4840 
  100.3750   -19.2670    86.9720    23.8970    14.4740    10.9420    11.6030     2.4030 
  100.5000   -19.5840    88.2750    23.7120    11.8530    10.6370    11.0660     2.3310 
  100.6250   -19.8420    91.8600    23.5640    10.6160    10.2110    10.5100     2.3090 
  100.7500   -20.0060    95.6380    23.3690    10.4570     9.8450    10.0790     2.3210 
  100.8750   -20.0470    96.3160    23.1260    10.6730     9.5920     9.7860     2.3270 
  101.0000   -19.9470    91.8260    22.9140    10.7890     9.4230     9.5810     2.2980 
  101.1250   -19.6820    83.4130    22.7890    10.7330     9.2590     9.3810     2.2400 
  101.2500   -19.2950    76.0700    22.7530    10.6160     9.0100     9.0870     2.1940 
  101.3750   -18.8120    72.8600    22.7490    10.3890     8.6230     8.6580     2.1790 
  101.5000   -18.2620    74.6370    22.7810     9.9880     8.0980     8.0980     2.1930 
  101.6250   -17.6740    80.4420    22.9040     9.3340     7.4730     7.4510     2.2190 
  101.7500   -17.0890    86.5010    23.0880     8.5050     6.8310     6.8170     2.2460 
  101.8750   -16.5400    90.3480    23.3130     7.6520     6.2300     6.2590     2.2770 
  102.0000   -16.0640    90.9610    23.5890     6.7500     5.7250     5.8190     2.3070 
  102.1250   -15.7150    88.5890    23.8970     5.9890     5.3660     5.5410     2.3160 
  102.2500   -15.5030    85.2340    24.1680     5.5360     5.1250     5.3870     2.3040 
  102.3750   -15.4430    82.6740    24.3300     5.4350     4.9730     5.3130     2.2890 
  102.5000   -15.5420    82.6510    24.3470     5.4230     4.8750     5.2680     2.2850 
  102.6250   -15.8250    85.7270    24.2260     5.4790     4.8070     5.2260     2.2950 
  102.7500   -16.2560    89.9160    24.0490     5.4910     4.7630     5.1960     2.3100 
  102.8750   -16.8190    93.3770    23.9180     5.2730     4.7630     5.2150     2.3270 
  103.0000   -17.4940    94.6000    23.8540     4.8780     4.8350     5.3400     2.3370 
  103.1250   -18.2670    92.5360    23.8360     4.6790     5.0310     5.6410     2.3240 
  103.2500   -19.0940    88.6790    23.7730     4.8380     5.3520     6.0970     2.2910 
  103.3750   -19.9490    84.8180    23.5940     5.5850     5.7880     6.6720     2.2500 
  103.5000   -20.8060    81.7760    23.2910     7.0290     6.3060     7.2970     2.2160 
  103.6250   -21.6330    78.7700    23.1130     8.6060     6.8500     7.8970     2.1970 
  103.7500   -22.4060    74.8150    23.0140     9.7360     7.3700     8.4320     2.1910 
  103.8750   -23.1070    71.0960    22.8840    10.2320     7.8660     8.9280     2.1950 
  104.0000   -23.7200    70.1660    22.7630    10.3860     8.3730     9.4350     2.2090 
  104.1250   -24.2130    73.8810    22.8300    10.6420     8.9560    10.0370     2.2360 
  104.2500   -24.5990    79.2670    23.0650    11.1400     9.6390    10.7540     2.2670 
  104.3750   -24.8850    83.3020    23.3930    11.9620    10.3950    11.5350     2.2940 
  104.5000   -25.0860    84.1130    23.7270    13.1440    11.1280    12.2390     2.3150 
  104.6250   -25.2150    81.4340    23.9010    14.2210    11.6300    12.6150     2.3290 
  104.7500   -25.3010    78.1440    23.8160    14.1520    11.7830    12.5780     2.3290 
  104.8750   -25.3610    75.7050    23.4870    12.9720    11.5530    12.1530     2.3070 
  105.0000   -25.4050    73.3710    23.0400    11.7010    11.0220    11.4790     2.2710 
  105.1250   -25.4390    69.7360    22.7690    11.2080    10.3500    10.7670     2.2460 
  105.2500   -25.4650    66.1360    22.7780    11.1350     9.7240    10.1760     2.2370 
  105.3750   -25.4760    64.6390    22.9230    11.1750     9.2400     9.7740     2.2340 
  105.5000   -25.4690    65.4460    23.0930    11.2330     8.9380     9.5640     2.2290 
  105.6250   -25.4350    66.5770    23.1730    11.3070     8.8380     9.5230     2.2240 
  105.7500   -25.3760    66.8230    23.1990    11.4140     8.8670     9.5690     2.2200 
  105.8750   -25.2950    66.6920    23.1930    11.5760     8.9790     9.6560     2.2070 
  106.0000   -25.1930    66.7740    23.1750    11.7760     9.1330     9.7530     2.1830 
  106.1250   -25.0670    67.1250    23.1490    11.9870     9.2850     9.8170     2.1610 
  106.2500   -24.9170    68.0840    23.1030    12.1580     9.3910     9.8220     2.1530 
  106.3750   -24.7410    70.0280    23.0140    12.2620     9.4280     9.7520     2.1580 
  106.5000   -24.5370    72.5330    22.8790    12.3010     9.3860     9.6070     2.1700 
  106.6250   -24.3010    75.1000    22.7330    12.3320     9.2670     9.4070     2.1810 
  106.7500   -24.0390    76.5660    22.6360    12.3840     9.1090     9.1960     2.1830 
  106.8750   -23.7470    75.3240    22.5970    12.3070     8.9450     9.0160     2.1710 
  107.0000   -23.4220    72.0250    22.5840    11.9540     8.8110     8.9020     2.1510 
  107.1250   -23.0570    70.3120    22.5780    11.5710     8.7520     8.8880     2.1370 
  107.2500   -22.6590    71.2900    22.5680    11.5500     8.7740     8.9660     2.1300 
  107.3750   -22.2350    72.5140    22.5680    11.7050     8.8680     9.1130     2.1270 
  107.5000   -21.7870    72.3370    22.5700    11.6230     9.0090     9.2860     2.1250 
  107.6250   -21.3160    70.9820    22.5200    11.3000     9.1520     9.4190     2.1300 
  107.7500   -20.8240    68.8450    22.4120    11.0430     9.2290     9.4400     2.1410 
  107.8750   -20.3170    66.0680    22.2990    11.0070     9.1720     9.2980     2.1500 
  108.0000   -19.8040    63.8430    22.2660    11.1140     8.9230     8.9570     2.1490 
  108.1250   -19.3080    65.2390    22.2960    11.1520     8.4200     8.3750     2.1440 
  108.2500   -18.8470    70.6110    22.3840    10.9000     7.7250     7.6290     2.1550 
  108.3750   -18.4390    77.9200    22.5950    10.0900     6.9200     6.8080     2.1920 
  108.5000   -18.1030    83.6980    22.9690     8.6130     6.1180     6.0430     2.2440 
  108.6250   -17.8760    85.7790    23.4890     6.8940     5.4640     5.4890     2.2760 
  108.7500   -17.7650    86.2420    23.9120     5.6260     5.0280     5.1980     2.2730 
  108.8750   -17.7840    86.5080    24.1790     4.9930     4.8550     5.1890     2.2550 
  109.0000   -17.9360    86.4090    24.3200     4.9060     4.9580     5.4490     2.2500 
  109.1250   -18.2330    85.2870    24.2120     5.7230     5.3450     5.9650     2.2700 
  109.2500   -18.6280    83.7870    23.8290     7.4850     5.8920     6.5940     2.2860 
  109.3750   -19.0820    82.3630    23.4410     9.4900     6.4910     7.2170     2.2810 
  109.5000   -19.5570    80.9620    23.2170    10.6260     7.0330     7.7240     2.2570 
  109.6250   -20.0040    79.8590    23.1770    10.3130     7.4280     8.0370     2.2370 
  109.7500   -20.3910    79.6490    23.1680     9.6620     7.6990     8.2210     2.2350 
  109.8750   -20.6960    79.5640    23.1810     9.1770     7.8930     8.3560     2.2570 
  110.0000   -20.9080    78.2370    23.2050     9.1860     8.0790     8.5190     2.3040 
  110.1250   -21.0180    75.7300    23.2660    10.3810     8.3180     8.7550     2.3800 
  110.2500   -21.0650    73.2300    23.3580    13.0910     8.6060     9.0470     2.4590 
  110.3750   -21.0730    70.9540    23.3890    16.6430     8.8870     9.3310     2.4950 
  110.5000   -21.0690    69.5560    23.2160    18.8560     9.0880     9.5270     2.4530 
  110.6250   -21.0750    70.5590    22.7930    17.9590     9.1280     9.5640     2.3380 
  110.7500   -21.1030    72.1810    22.4190    15.7040     9.0320     9.4730     2.2190 
  110.8750   -21.1570    71.6840    22.2240    13.9050     8.8550     9.3100     2.1360 
  111.0000   -21.2350    68.9650    22.1160    12.8550     8.6600     9.1410     2.1010 
  111.1250   -21.3350    67.5900    22.0730    12.2200     8.4960     9.0130     2.1060 
