~V
VERS. 2.00: Ver 2.00
~W
STRT.M 59.0000:
STOP.M 275.0000:
STEP.M 0.1250:
NULL. -999.2500:
UWI. DF5021:
~C
DEPT.M :
SP.MV :
GR.API :
CALI.CM :
RXO.OHMM :
RI. :
RML.OHMM :
DEN.GM/CC :
~A
# ...
  104.0000   -15.8580    73.6870    23.8650     7.9730     7.4740     8.1830     2.1860 
  104.1250   -15.9270    68.8160    23.8860     7.9900     7.4800     8.2120     2.1870 
  104.2500   -15.9180    67.4970    23.8680     7.9750     7.4800     8.2380     2.1850 
  104.3750   -15.7940    70.8880    23.8380     7.8680     7.4680     8.2570     2.1800 
  104.5000   -15.7950    73.9760    23.8510     7.6900     7.4530     8.2780     2.1810 
  104.6250   -15.8160    74.1100    23.9090     7.4990     7.4480     8.3150     2.1880 
  104.7500   -15.6970    72.5680    23.9220     7.3510     7.4590     8.3700     2.1950 
  104.8750   -15.6460    71.9160    23.8520     7.3070     7.4870     8.4390     2.1920 
  105.0000   -15.6760    71.8550    23.7900     7.3210     7.5230     8.5070     2.1850 
  105.1250   -15.5500    72.2370    23.7700     7.3810     7.5590     8.5570     2.1860 
  105.2500   -15.4730    74.3170    23.7790     7.4890     7.5820     8.5770     2.1940 
  105.3750   -15.4900    78.1390    23.8050     7.6920     7.5800     8.5570     2.2000 
  105.5000   -15.3740    81.0040    23.8370     7.9490     7.5560     8.5120     2.1990 
  105.6250   -15.2390    81.8190    23.8450     8.1740     7.5220     8.4600     2.1960 
  105.7500   -15.2340    81.3580    23.8280     8.2970     7.4950     8.4310     2.1950 
  105.8750   -15.1390    79.9590    23.7970     8.3240     7.4910     8.4380     2.1960 
  106.0000   -14.9470    78.0370    23.7950     8.3040     7.4960     8.4480     2.1940 
  106.1250   -14.8900    77.4770    23.8190     8.2680     7.4740     8.4140     2.1940 
  106.2500   -14.7430    79.6990    23.8330     8.2470     7.3920     8.2870     2.2040 
  106.3750   -14.4590    83.7940    23.8020     8.2400     7.2040     8.0180     2.2240 
  106.5000   -14.2800    87.1670    23.7200     8.1840     6.9270     7.6530     2.2430 
  106.6250   -14.0980    88.9900    23.6180     7.9470     6.5980     7.2560     2.2570 
  106.7500   -13.7820    89.7050    23.5680     7.3800     6.2800     6.9160     2.2670 
  106.8750   -13.5770    91.1520    23.5600     6.5090     6.0650     6.7480     2.2750 
  107.0000   -13.5220    94.0780    23.5570     5.8570     5.9950     6.7760     2.2820 
  107.1250   -13.4070    96.2670    23.5420     5.7650     6.0840     6.9900     2.2840 
  107.2500   -13.4100    95.0510    23.5440     6.2370     6.3140     7.3380     2.2750 
  107.3750   -13.6400    90.8630    23.6170     7.0600     6.6410     7.7380     2.2610 
  107.5000   -13.8590    87.0540    23.7010     7.9850     6.9740     8.0870     2.2540 
  107.6250   -14.0780    84.3630    23.7950     8.8430     7.2420     8.3250     2.2540 
  107.7500   -14.4800    81.9540    23.8380     9.1920     7.4030     8.4350     2.2510 
  107.8750   -14.8660    79.5410    23.8200     8.7910     7.4350     8.4240     2.2370 
  108.0000   -15.1080    77.8080    23.7950     8.1650     7.3940     8.3580     2.2220 
  108.1250   -15.4360    76.3110    23.7940     7.8190     7.3250     8.2790     2.2150 
  108.2500   -15.7460    73.9270    23.8110     7.6940     7.2590     8.2120     2.2150 
  108.3750   -15.8730    71.0540    23.7580     7.6030     7.2160     8.1690     2.2140 
  108.5000   -16.0340    69.7870    23.6420     7.5860     7.2000     8.1440     2.2100 
  108.6250   -16.2390    70.2300    23.5670     7.7040     7.2080     8.1360     2.2020 
  108.7500   -16.2830    70.7440    23.6170     7.9020     7.2380     8.1500     2.1950 
  108.8750   -16.3530    70.4910    23.7790     8.0100     7.2910     8.1980     2.1910 
  109.0000   -16.5110    70.9210    23.8450     8.0740     7.3660     8.2820     2.1950 
  109.1250   -16.4950    72.7130    23.8240     8.0890     7.4630     8.3980     2.2070 
  109.2500   -16.4690    75.5690    23.7990     8.0980     7.5760     8.5230     2.2180 
  109.3750   -16.5530    78.6370    23.8130     8.1060     7.6790     8.6070     2.2150 
  109.5000   -16.5250    80.9170    23.8160     8.0310     7.7320     8.6100     2.2000 
  109.6250   -16.4110    81.7920    23.7370     7.8260     7.7040     8.5090     2.1790 
  109.7500   -16.4130    80.9620    23.6070     7.5540     7.5850     8.3060     2.1620 
  109.8750   -16.3300    79.1610    23.5170     7.3210     7.3820     8.0300     2.1560 
  110.0000   -16.1530    78.3280    23.5100     7.1200     7.1490     7.7510     2.1630 
  110.1250   -16.1530    79.3250    23.5720     6.8800     6.9330     7.5250     2.1850 
  110.2500   -16.1360    81.3040    23.6550     6.5740     6.7800     7.3960     2.2180 
  110.3750   -16.0180    81.4320    23.7660     6.4820     6.7300     7.3980     2.2420 
  110.5000   -16.0270    79.0720    23.8900     6.8480     6.7690     7.4950     2.2370 
  110.6250   -16.1900    76.3530    24.0100     7.5850     6.8730     7.6470     2.2090 
  110.7500   -16.2410    76.0210    24.1010     8.2900     7.0050     7.8090     2.1810 
  110.8750   -16.3340    78.9410    24.1690     8.6120     7.1210     7.9440     2.1750 
  111.0000   -16.5670    82.3210    24.1930     8.6430     7.2020     8.0360     2.1810 
  111.1250   -16.6670    84.3810    24.1730     8.5350     7.2450     8.0910     2.1890 
  111.2500   -16.7140    84.6170    24.1200     8.4290     7.2620     8.1220     2.1910 
  111.3750   -16.8770    83.7550    24.1090     8.3790     7.2740     8.1500     2.1890 
  111.5000   -16.9600    83.2490    24.1410     8.3450     7.3030     8.1820     2.1890 
  111.6250   -16.8550    83.0220    24.1730     8.3250     7.3490     8.2170     2.1970 
  111.7500   -16.8690    81.8820    24.1630     8.3800     7.3970     8.2430     2.2120 
  111.8750   -16.8880    79.6670    24.1070     8.5000     7.4290     8.2510     2.2190 
  112.0000   -16.7490    78.3240    24.0620     8.5120     7.4370     8.2460     2.2120 
  112.1250   -16.7040    78.6850    23.9850     8.3100     7.4240     8.2320     2.1980 
  112.2500   -16.7070    80.1650    23.8340     7.9720     7.3950     8.2150     2.1900 
  112.3750   -16.5690    82.3980    23.6580     7.6560     7.3560     8.1940     2.1940 
  112.5000   -16.4900    85.0460    23.5360     7.4560     7.3130     8.1670     2.2040 
  112.6250   -16.5390    87.0730    23.4720     7.3950     7.2650     8.1260     2.2130 
  112.7500   -16.4480    87.6470    23.4470     7.4470     7.2100     8.0660     2.2150 
  112.8750   -16.3300    86.8260    23.4450     7.4770     7.1430     7.9820     2.2060 
  113.0000   -16.3570    84.9290    23.4510     7.3310     7.0640     7.8860     2.1920 
  113.1250   -16.2860    82.2870    23.4530     7.0450     6.9800     7.7930     2.1820 
  113.2500   -16.1600    80.5410    23.4540     6.8130     6.9030     7.7200     2.1880 
  113.3750   -16.1710    80.6120    23.4620     6.8170     6.8450     7.6860     2.2070 
  113.5000   -16.1320    80.4770    23.4750     6.9110     6.8130     7.6860     2.2160 
  113.6250   -15.9760    79.3780    23.4830     6.9080     6.8100     7.7160     2.2010 
  113.7500   -15.9570    79.0990    23.5030     6.8910     6.8350     7.7670     2.1710 
  113.8750   -15.9950    80.6010    23.5310     7.1320     6.8810     7.8260     2.1560 
  114.0000   -15.8940    80.8700    23.5560     7.5690     6.9340     7.8780     2.1670 
  114.1250   -15.8090    77.9660    23.5640     7.9500     6.9820     7.9140     2.1930 
  114.2500   -15.8200    73.1640    23.5940     8.1410     7.0200     7.9250     2.2120 
  114.3750   -15.6940    70.3210    23.6660     8.2040     7.0360     7.9040     2.2070 
  114.5000   -15.5220    70.5750    23.7330     8.2820     7.0320     7.8640     2.1860 
  114.6250   -15.4690    72.0330    23.7820     8.3240     7.0210     7.8270     2.1640 
  114.7500   -15.2660    72.1400    23.8280     8.2670     7.0230     7.8200     2.1530 
  114.8750   -14.9310    70.5320    23.8430     8.1700     7.0580     7.8500     2.1510 
  115.0000   -14.7010    69.9980    23.8230     8.0550     7.1140     7.8890     2.1460 
  115.1250   -14.4310    71.8460    23.7880     7.9210     7.1670     7.9010     2.1400 
