~V
VERS. 2.00: Ver 2.00
~W
STRT.M 64.0000:
STOP.M 271.0000:
STEP.M 0.1250:
NULL. -999.2500:
UWI. DF5037:
~C
DEPT.M :
SP.MV :
GR.API :
RML.OHMM :
RI. :
RXO.OHMM :
CALI.CM :
DEN.GM/CC :
~A
# ...
  199.0000   -11.6880    94.4040    17.7620    14.5770    17.7990    23.6900     2.4290 
  199.1250   -11.2760    95.1780    16.8200    14.1090    15.4530    23.6960     2.4360 
  199.2500   -10.7600    99.7400    15.3580    13.1910    13.7160    23.6480     2.4340 
  199.3750   -10.1370   104.6910    13.5490    11.9420    12.3270    23.5630     2.4240 
  199.5000    -9.4220   104.2080    11.5200    10.4450    11.3270    23.4190     2.4050 
  199.6250    -8.6620    94.6500     9.5310     8.8570     9.9520    23.1250     2.3810 
  199.7500    -7.8890    78.8170     7.8950     7.4450     7.9270    23.0490     2.3550 
  199.8750    -7.1230    65.9720     6.7260     6.3810     6.1410    23.3140     2.3320 
  200.0000    -6.3840    59.9640     5.9890     5.7330     5.4080    23.7400     2.3150 
  200.1250    -5.7420    57.9620     5.7260     5.4750     5.2570    24.1180     2.3060 
  200.2500    -5.2430    53.3310     5.7940     5.5440     5.1410    24.1770     2.3080 
  200.3750    -4.8960    50.1490     5.9610     5.7530     5.1470    23.9240     2.3190 
  200.5000    -4.7190    55.8110     6.1170     5.9880     5.2010    23.5490     2.3350 
  200.6250    -4.6480    69.5610     6.2240     6.1700     5.2520    23.2410     2.3530 
  200.7500    -4.6660    82.5610     6.2790     6.2560     5.2700    23.0530     2.3690 
  200.8750    -4.7540    91.6410     6.3210     6.2750     5.3170    23.0350     2.3780 
  201.0000    -4.8650    98.2100     6.3190     6.2510     5.4010    23.1730     2.3770 
  201.1250    -4.9760   101.9150     6.2980     6.2110     5.4800    23.3440     2.3710 
  201.2500    -5.1140   100.4620     6.2590     6.1810     5.5460    23.3380     2.3660 
  201.3750    -5.2710    99.0630     6.2340     6.1870     5.5240    23.0970     2.3660 
  201.5000    -5.4320   101.6630     6.2690     6.2500     5.5060    22.7020     2.3730 
  201.6250    -5.6150   106.2380     6.3990     6.3790     5.5980    22.3520     2.3830 
  201.7500    -5.8030   107.5390     6.6410     6.5730     5.7800    22.1750     2.3910 
  201.8750    -6.0130   107.1340     6.9230     6.7800     6.0580    22.1190     2.3920 
  202.0000    -6.2650   105.1080     7.1420     6.9510     6.3140    22.1110     2.3880 
  202.1250    -6.5340   101.2700     7.2650     7.0470     6.4830    22.1080     2.3800 
  202.2500    -6.8120    98.5810     7.2880     7.0420     6.4940    22.0900     2.3710 
  202.3750    -7.0740    99.5890     7.2900     6.9890     6.4560    22.0410     2.3630 
  202.5000    -7.3170   100.8960     7.3470     6.9480     6.5780    21.9620     2.3580 
  202.6250    -7.5580   100.3230     7.5360     6.9890     7.0510    21.8800     2.3540 
  202.7500    -7.8080    99.8010     7.9690     7.2080     7.9150    21.8470     2.3520 
  202.8750    -8.0630    98.7310     8.6810     7.6410     8.9060    21.8360     2.3510 
  203.0000    -8.3330    96.7110     9.7350     8.3310    10.0250    21.8220     2.3500 
  203.1250    -8.6420    94.4980    11.2260     9.3380    11.5280    21.7910     2.3480 
  203.2500    -8.9670    93.2830    13.4160    10.8470    13.3000    21.7750     2.3420 
  203.3750    -9.2940    91.9800    16.3720    12.9380    15.7120    21.7700     2.3320 
  203.5000    -9.6130    91.9000    20.1490    15.7110    18.6170    21.7700     2.3180 
  203.6250    -9.9040    93.9200    24.6350    19.1610    21.7240    21.7770     2.3000 
  203.7500   -10.1580    93.7320    29.4710    23.1320    25.5390    21.8140     2.2830 
  203.8750   -10.3550    88.1690    34.0250    27.1210    29.5180    21.8920     2.2710 
  204.0000   -10.4820    82.1520    37.9040    30.7510    31.3680    21.9800     2.2650 
  204.1250   -10.5430    80.7820    41.0800    33.8730    29.7720    22.0290     2.2650 
  204.2500   -10.5580    82.0640    43.9260    36.6390    27.6720    22.0320     2.2690 
  204.3750   -10.5510    80.4470    46.9300    39.4260    27.6490    21.9930     2.2710 
  204.5000   -10.5540    76.0330    50.0670    42.3040    29.9250    21.9110     2.2680 
  204.6250   -10.5590    73.4630    52.8310    44.9950    33.2710    21.8370     2.2620 
  204.7500   -10.5630    75.7380    54.2120    46.7720    35.3560    21.7740     2.2540 
  204.8750   -10.6100    81.4790    53.9960    47.3330    35.6290    21.7440     2.2500 
  205.0000   -10.6800    84.5940    52.5080    46.7680    35.4390    21.7920     2.2510 
  205.1250   -10.7400    81.2260    50.4630    45.5340    35.6620    21.9290     2.2580 
  205.2500   -10.7660    78.3200    48.5530    44.1660    36.5580    22.0810     2.2660 
  205.3750   -10.7820    79.5660    46.9310    42.9260    36.8310    22.2680     2.2730 
  205.5000   -10.7760    83.5260    45.4220    41.7500    36.1120    22.4890     2.2760 
  205.6250   -10.7450    86.0680    43.8430    40.5030    34.6380    22.7300     2.2740 
  205.7500   -10.7150    84.6480    42.2510    39.1860    33.6320    22.9180     2.2660 
  205.8750   -10.6670    83.3820    41.0460    38.0860    33.5490    23.0090     2.2570 
  206.0000   -10.6330    86.0640    40.8080    37.6670    34.2960    23.0310     2.2480 
  206.1250   -10.6390    91.9930    42.2270    38.5250    35.9390    23.0310     2.2420 
  206.2500   -10.7160    92.6820    46.5690    41.7850    39.0110    23.0320     2.2330 
  206.3750   -10.8610    88.8730    54.2210    47.8770    46.6530    23.0300     2.2190 
  206.5000   -11.0560    86.2360    65.6400    57.2840    59.6260    23.0290     2.1980 
  206.6250   -11.2780    82.7780    80.7420    70.0090    76.4980    23.0300     2.1770 
  206.7500   -11.4820    73.7870    98.8160    85.4770    93.7400    23.0310     2.1680 
  206.8750   -11.6520    62.5250   117.3810   101.4690   101.9690    23.0310     2.1780 
  207.0000   -11.7820    53.3260   134.4980   116.2670   102.4960    23.0300     2.2070 
  207.1250   -11.8800    48.7430   148.9620   128.8010   105.1190    23.0320     2.2430 
  207.2500   -11.9120    49.5230   160.4340   138.7050   113.1950    23.0470     2.2690 
  207.3750   -11.8850    54.0980   170.2680   147.0970   121.2850    23.0720     2.2780 
  207.5000   -11.8090    58.3430   178.8810   154.4090   127.0360    23.0900     2.2720 
  207.6250   -11.7260    58.6930   185.7430   160.3930   133.5080    23.0980     2.2550 
  207.7500   -11.6840    59.5320   189.0300   163.8070   137.8210    23.0990     2.2330 
  207.8750   -11.6940    64.4190   188.1840   164.1950   136.7730    23.0990     2.2130 
  208.0000   -11.7690    68.6590   182.9920   161.2440   133.9100    23.0990     2.1980 
  208.1250   -11.8950    66.4320   174.1370   155.2220   129.2880    23.0990     2.1900 
  208.2500   -12.0680    62.2740   163.4470   147.2050   122.5080    23.1020     2.1880 
  208.3750   -12.2420    60.6950   154.0530   139.7230   115.7980    23.1060     2.1900 
  208.5000   -12.4060    58.5800   148.1700   134.8150   108.8920    23.1070     2.1920 
  208.6250   -12.5580    56.5090   147.0470   133.8960   101.7430    23.1070     2.1960 
  208.7500   -12.7090    57.3290   151.3710   138.0100   100.0370    23.1070     2.1980 
  208.8750   -12.8620    60.6240   158.8710   145.3910   106.2060    23.1070     2.1970 
  209.0000   -13.0020    63.4630   167.5050   154.2730   115.8600    23.1070     2.1930 
  209.1250   -13.1180    62.4830   175.3400   162.7950   123.1600    23.1050     2.1880 
  209.2500   -13.2300    56.2970   180.6790   169.2850   122.9920    23.0920     2.1860 
  209.3750   -13.3520    51.8180   183.6240   173.6890   120.8790    23.0680     2.1900 
  209.5000   -13.4830    57.6350   184.7550   176.1730   119.6690    23.0470     2.1960 
  209.6250   -13.6040    68.5510   183.7980   176.5840   120.5820    23.0370     2.2030 
  209.7500   -13.6860    67.7880   180.2480   173.4000   125.1100    23.0370     2.2060 
  209.8750   -13.7280    58.9290   172.9040   166.0430   129.6500    23.0370     2.2060 
  210.0000   -13.7110    54.2660   162.5580   154.6580   126.8370    23.0310     2.2050 
  210.1250   -13.6330    59.7160   150.8320   140.8530   114.6670    23.0130     2.2040 
