~V
VERS. 2.00: Ver 2.00
~W
STRT.M 60.0000:
STOP.M 251.0000:
STEP.M 0.1250:
NULL. -999.2500:
UWI. DF5053:
~C
DEPT.M :
GR.API :
RML.OHMM :
RI. :
RXO.OHMM :
CALI.CM :
DEN.GM/CC :
SP.MV :
~A
# ...
  172.5000    57.2280   135.8500   117.9450   129.6320    24.2980     2.2270   -16.7440 
  172.6250    66.2900   144.0410   125.8360   144.9130    24.2900     2.2300   -16.6400 
  172.7500    71.0940   148.9130   131.3870   154.9870    24.2940     2.2310   -16.5640 
  172.8750    69.5840   148.8600   133.0160   155.1150    24.3410     2.2310   -16.4910 
  173.0000    67.4990   143.6700   129.3560   147.3210    24.3950     2.2310   -16.4070 
  173.1250    67.0330   135.6940   122.1400   137.4560    24.4080     2.2340   -16.3080 
  173.2500    66.5390   127.6300   113.2890   126.5950    24.3540     2.2380   -16.2090 
  173.3750    66.2690   121.3950   104.8870   114.7460    24.2800     2.2450   -16.1130 
  173.5000    64.5700   115.1750    98.8160   101.6480    24.2880     2.2510   -15.9970 
  173.6250    60.7380   109.8040    94.9420    90.5300    24.3290     2.2540   -15.8600 
  173.7500    58.5670   105.1130    92.2440    84.4040    24.3970     2.2530   -15.7270 
  173.8750    58.9880    99.2270    88.9740    85.1170    24.4490     2.2490   -15.6130 
  174.0000    57.6530    89.7780    82.8050    87.8610    24.4720     2.2450   -15.5380 
  174.1250    58.7800    77.2770    73.5730    85.1690    24.4550     2.2470   -15.4880 
  174.2500    66.6040    63.5930    62.4770    72.7830    24.3530     2.2580   -15.4330 
  174.3750    78.3650    51.2240    51.6410    48.5650    24.1550     2.2780   -15.3810 
  174.5000    87.4740    42.5760    43.4370    31.2060    23.9410     2.3000   -15.3390 
  174.6250    91.3050    37.3540    38.1290    26.8230    23.7900     2.3150   -15.2960 
  174.7500    90.3350    34.6940    35.1920    29.9600    23.7490     2.3200   -15.2490 
  174.8750    87.2990    33.3320    33.6130    34.3600    23.7920     2.3160   -15.1980 
  175.0000    84.9400    31.8890    32.1850    35.7940    23.8870     2.3150   -15.1620 
  175.1250    85.6450    29.5910    30.0690    32.8450    23.9950     2.3230   -15.1710 
  175.2500    87.8190    26.5770    27.2490    30.1750    24.0260     2.3400   -15.2490 
  175.3750    91.7570    23.6870    24.3600    27.5580    23.9820     2.3600   -15.4060 
  175.5000    95.0800    22.5260    22.7080    25.0590    23.9720     2.3690   -15.5960 
  175.6250    91.7040    24.0780    23.2080    22.0100    23.9090     2.3620   -15.8030 
  175.7500    82.5310    29.0310    26.5880    23.6930    23.7570     2.3420   -16.0110 
  175.8750    72.6900    37.5060    33.1960    31.2400    23.6820     2.3160   -16.2130 
  176.0000    68.8220    49.0350    42.9820    44.3660    23.8570     2.2900   -16.4320 
  176.1250    64.5980    61.1790    53.8460    57.3750    24.1270     2.2680   -16.6680 
  176.2500    57.8090    71.7210    63.6800    66.3620    24.2520     2.2530   -16.9070 
  176.3750    56.1600    79.0040    70.6930    71.2700    24.1910     2.2450   -17.1290 
  176.5000    62.7220    82.5330    73.9950    74.0050    24.0240     2.2450   -17.3510 
  176.6250    67.2360    84.4100    75.4230    74.7060    23.7770     2.2490   -17.5620 
  176.7500    65.6600    86.1680    76.4000    74.5100    23.4780     2.2530   -17.7680 
  176.8750    66.3930    88.3470    77.7320    76.6830    23.2650     2.2540   -17.9530 
  177.0000    74.9950    91.0510    79.5820    80.1820    23.3050     2.2500   -18.0750 
  177.1250    78.1460    93.4910    81.5030    84.9150    23.3770     2.2440   -18.1360 
  177.2500    72.7620    95.3790    83.0890    87.9230    23.3070     2.2390   -18.1520 
  177.3750    68.8360    97.2000    84.1080    87.6320    23.2480     2.2350   -18.1370 
  177.5000    72.4890    98.6360    84.5750    84.6100    23.4020     2.2360   -18.1180 
  177.6250    76.3640    99.4050    84.9030    81.2330    23.7280     2.2390   -18.1000 
  177.7500    76.5330    99.7430    85.3470    80.1360    24.0350     2.2430   -18.0680 
  177.8750    72.8290    99.9630    85.9360    80.9400    24.1620     2.2470   -18.0520 
  178.0000    65.6460    99.9330    86.3990    82.3840    24.1660     2.2520   -18.0620 
  178.1250    60.4480    99.3460    86.4300    82.9800    24.1210     2.2550   -18.0670 
  178.2500    63.7140    98.0770    85.8760    83.3150    24.0320     2.2580   -18.0490 
  178.3750    71.1970    96.2180    84.7710    83.0730    23.9050     2.2580   -18.0030 
  178.5000    72.2300    93.9880    83.2510    81.2310    23.7860     2.2550   -17.9180 
  178.6250    70.1460    91.7260    81.6080    78.4340    23.7990     2.2500   -17.8140 
  178.7500    69.5330    89.6050    80.0110    77.3430    23.9950     2.2440   -17.7200 
  178.8750    69.8680    87.7260    78.5800    76.5260    24.2680     2.2410   -17.6500 
  179.0000    69.7160    86.2150    77.4620    74.9100    24.3600     2.2420   -17.5960 
  179.1250    70.7750    85.0530    76.6790    72.3060    24.3670     2.2450   -17.5740 
  179.2500    72.7970    84.1710    76.1990    71.1690    24.3680     2.2500   -17.5780 
  179.3750    71.9840    83.3590    75.8620    72.2250    24.4050     2.2540   -17.5950 
  179.5000    69.2490    82.2120    75.3330    72.9960    24.4310     2.2590   -17.6080 
  179.6250    68.1400    80.4710    74.3350    72.3350    24.4390     2.2620   -17.6350 
  179.7500    69.0220    78.0550    72.7390    70.0560    24.4400     2.2650   -17.6810 
  179.8750    69.9570    75.1170    70.6280    67.4590    24.4390     2.2670   -17.7420 
  180.0000    68.1030    72.0890    68.3400    63.7310    24.4290     2.2670   -17.8400 
  180.1250    66.5760    69.4960    66.3550    60.5440    24.4070     2.2650   -17.9560 
  180.2500    69.4200    67.6110    64.9680    59.0920    24.3880     2.2620   -18.0950 
  180.3750    76.9160    66.6180    64.2660    58.1130    24.3800     2.2590   -18.2490 
  180.5000    79.7620    66.2480    64.1640    57.0570    24.3800     2.2590   -18.4140 
  180.6250    74.3130    66.2540    64.1980    56.7360    24.3790     2.2600   -18.5820 
  180.7500    66.1700    65.8730    63.9960    57.7650    24.3750     2.2620   -18.7360 
  180.8750    62.3930    64.6720    63.3260    57.4160    24.3620     2.2630   -18.8720 
  181.0000    65.5460    63.4300    62.1960    56.0480    24.3390     2.2640   -19.0070 
  181.1250    72.0420    62.3970    61.0460    53.3120    24.3250     2.2640   -19.1500 
  181.2500    76.9210    61.9980    60.2710    51.6440    24.3150     2.2640   -19.3260 
  181.3750    73.0490    62.4800    60.1360    50.4860    24.2990     2.2650   -19.5750 
  181.5000    62.8980    64.0270    60.8370    52.3310    24.2610     2.2660   -19.9060 
  181.6250    59.6480    66.4100    62.2300    56.1170    24.2370     2.2680   -20.2770 
  181.7500    67.2280    69.6980    64.3780    59.9540    24.2440     2.2720   -20.6840 
  181.8750    76.7650    74.6830    67.5890    62.7250    24.2670     2.2740   -21.0950 
  182.0000    76.4000    82.5860    73.0680    65.6800    24.3100     2.2740   -21.4550 
  182.1250    70.4720    94.4610    82.0020    74.9740    24.3370     2.2690   -21.8000 
  182.2500    65.2220   110.9810    96.1700    93.5350    24.3430     2.2610   -22.0990 
  182.3750    61.1480   134.4430   117.5010   120.5020    24.3190     2.2490   -22.3590 
  182.5000    52.5140   165.5540   148.9260   154.0690    24.2870     2.2350   -22.6170 
  182.6250    43.4840   204.1000   188.2250   197.2220    24.2750     2.2220   -22.8380 
  182.7500    43.2930   249.7950   231.5910   237.9570    24.2610     2.2130   -23.0000 
  182.8750    48.7570   295.9940   272.6140   260.1140    24.2520     2.2100   -23.1220 
  183.0000    48.4150   329.3510   301.4820   262.3140    24.2230     2.2120   -23.1970 
  183.1250    43.4090   345.7630   314.9970   253.1590    24.1600     2.2140   -23.1960 
  183.2500    41.9400   346.3550   314.2690   240.1480    24.1140     2.2140   -23.1160 
  183.3750    46.7360   337.5650   304.8150   233.1400    24.1570     2.2100   -22.9640 
  183.5000    50.3800   327.0850   293.5030   234.5990    24.3010     2.2060   -22.7080 
  183.6250    51.0930   318.5770   284.3040   234.8620    24.4030     2.2010   -22.4120 
