~V
VERS. 2.00: Ver 2.00
~W
STRT.M 55.0000:
STOP.M 268.0000:
STEP.M 0.1250:
NULL. -999.2500:
UWI. DF5025:
~C
DEPT.M :
SP.MV :
GR.API :
CALI.CM :
RXO.OHMM :
RI. :
RML.OHMM :
DEN.GM/CC :
~A
# ...
   77.5000   -15.5070   114.2100    25.2330     4.0130     5.2620     7.3000     2.3250 
   77.6250   -15.2180   110.5260    25.2630     4.0300     5.1200     7.1760     2.3430 
   77.7500   -15.0140   107.8460    25.2620     4.0790     5.0000     7.0870     2.3680 
   77.8750   -14.8960   106.2920    25.1980     4.1100     4.9540     7.1290     2.3820 
   78.0000   -14.8960   105.5410    25.1060     4.1400     5.0740     7.4740     2.3720 
   78.1250   -15.0480   104.4460    25.0990     4.7260     5.4950     8.3960     2.3620 
   78.2500   -15.3000    99.8670    25.1530     6.6300     6.1800     9.8370     2.3760 
   78.3750   -15.6350    89.9260    25.1430     9.8570     6.9850    11.4720     2.3950 
   78.5000   -16.0320    79.9800    24.9920    12.8960     7.6300    12.6380     2.3870 
   78.6250   -16.4810    78.0620    24.6930    13.1070     7.7310    12.5000     2.3420 
   78.7500   -16.9990    82.3680    24.4780    10.7090     7.3170    11.3290     2.2970 
   78.8750   -17.6050    89.7640    24.4870     7.5300     6.6250     9.8120     2.2740 
   79.0000   -18.2950    97.0220    24.6140     5.3490     5.9730     8.6580     2.2660 
   79.1250   -19.0620    97.2960    24.6180     4.9140     5.6540     8.3470     2.2510 
   79.2500   -19.8690    91.1690    24.5410     5.4580     5.6820     8.7240     2.2320 
   79.3750   -20.6790    84.4990    24.4490     6.4000     6.0030     9.6060     2.2210 
   79.5000   -21.4810    81.8550    24.2340     7.2760     6.5180    10.7590     2.2160 
   79.6250   -22.2620    78.7670    23.8420     7.8060     7.0970    11.8940     2.2000 
   79.7500   -22.9880    74.0570    23.5680     8.1260     7.6050    12.7880     2.1690 
   79.8750   -23.6470    70.2140    23.4950     8.4080     7.9790    13.3510     2.1350 
   80.0000   -24.2050    68.1310    23.5060     8.7250     8.2000    13.5990     2.1150 
   80.1250   -24.6440    68.1530    23.5610     8.9860     8.2680    13.5840     2.1210 
   80.2500   -24.9990    70.0830    23.7650     9.0910     8.2400    13.4530     2.1370 
   80.3750   -25.3030    73.3150    24.0530     9.0600     8.1480    13.2960     2.1540 
   80.5000   -25.5710    75.3790    24.2450     9.0160     8.0270    13.1920     2.1680 
   80.6250   -25.7980    75.3180    24.2430     9.0870     7.9140    13.2120     2.1790 
   80.7500   -26.0010    74.7180    24.1970     9.2440     7.8340    13.3430     2.1870 
   80.8750   -26.1680    75.3490    24.1940     9.4100     7.7960    13.5460     2.1910 
   81.0000   -26.3190    76.4040    24.2230     9.5370     7.7990    13.7750     2.1940 
   81.1250   -26.4500    73.0560    24.2560     9.6220     7.8400    13.9890     2.1990 
   81.2500   -26.5770    67.3780    24.2780     9.6960     7.9060    14.1790     2.2010 
   81.3750   -26.7100    65.3620    24.2840     9.7590     7.9950    14.3510     2.1940 
   81.5000   -26.8220    66.2320    24.2840     9.7880     8.1020    14.5050     2.1760 
   81.6250   -26.8690    64.7270    24.2990     9.7490     8.2220    14.6190     2.1610 
   81.7500   -26.8460    63.2070    24.3430     9.6870     8.3340    14.6790     2.1600 
   81.8750   -26.7460    64.7860    24.4000     9.6750     8.4170    14.6800     2.1690 
   82.0000   -26.5530    66.6390    24.4270     9.7540     8.4610    14.6560     2.1790 
   82.1250   -26.2510    66.7140    24.4010     9.8520     8.4680    14.6830     2.1810 
   82.2500   -25.8660    67.7990    24.3630     9.8260     8.4620    14.7800     2.1750 
   82.3750   -25.3910    69.3530    24.3470     9.6230     8.4430    14.8560     2.1660 
   82.5000   -24.8280    68.0390    24.3740     9.3170     8.3830    14.7290     2.1570 
   82.6250   -24.1490    64.9630    24.4910     9.0280     8.2080    14.1410     2.1510 
   82.7500   -23.3870    65.9070    24.6620     8.7030     7.9020    13.1370     2.1490 
   82.8750   -22.5960    71.1400    24.8010     8.1390     7.4810    11.8770     2.1540 
   83.0000   -21.8100    76.8260    24.8590     7.2490     7.0010    10.6000     2.1680 
   83.1250   -21.0690    79.3060    24.8970     6.2870     6.5480     9.5830     2.1860 
   83.2500   -20.3640    79.2220    24.9640     5.6460     6.1880     8.9340     2.2010 
   83.3750   -19.7040    78.1030    24.9970     5.4080     5.9660     8.7040     2.2190 
   83.5000   -19.1070    76.1630    24.9450     5.4150     5.9040     8.8880     2.2530 
   83.6250   -18.6080    74.7000    24.8610     5.5910     6.0170     9.4550     2.3050 
   83.7500   -18.1710    75.9550    24.8120     6.0420     6.2210    10.1540     2.3510 
   83.8750   -17.7380    80.0070    24.7850     6.7590     6.4260    10.7190     2.3740 
   84.0000   -17.2620    83.1850    24.7550     7.3610     6.5370    10.8740     2.3750 
   84.1250   -16.6920    81.9890    24.7340     7.1990     6.4570    10.3990     2.3590 
   84.2500   -16.0790    82.3020    24.7390     6.3740     6.2210     9.5430     2.3390 
   84.3750   -15.4600    89.0800    24.7630     5.3600     5.8970     8.6070     2.3270 
   84.5000   -14.8840    99.2700    24.7900     4.5840     5.5660     7.8620     2.3340 
   84.6250   -14.4250   103.4580    24.8050     4.1830     5.3180     7.5190     2.3540 
   84.7500   -14.1060   101.4320    24.8040     3.9970     5.1830     7.5270     2.3640 
   84.8750   -13.9420    97.9930    24.7900     3.9770     5.1690     7.8090     2.3560 
   85.0000   -13.9270    94.7840    24.7680     4.1020     5.2630     8.2430     2.3340 
   85.1250   -14.0870    91.2260    24.7400     4.3250     5.4300     8.6510     2.3070 
   85.2500   -14.3280    87.7390    24.7020     4.5650     5.5890     8.8600     2.2820 
   85.3750   -14.6110    84.9220    24.6530     4.7670     5.6720     8.7730     2.2620 
   85.5000   -14.8880    83.6720    24.6060     4.8530     5.6400     8.4030     2.2530 
   85.6250   -15.1260    85.9120    24.5840     4.7250     5.5010     7.9160     2.2650 
   85.7500   -15.3510    91.5340    24.5800     4.5020     5.3640     7.6130     2.2880 
   85.8750   -15.5800    95.5350    24.5830     4.4090     5.3420     7.7190     2.3100 
   86.0000   -15.8400    93.8670    24.5700     4.7390     5.5360     8.3730     2.3280 
   86.1250   -16.1620    87.6510    24.5080     6.0900     6.0450     9.6710     2.3530 
   86.2500   -16.5620    81.0470    24.3910     8.6170     6.7840    11.3170     2.3910 
   86.3750   -17.0410    76.5000    24.3130    11.7130     7.6060    12.9130     2.4200 
   86.5000   -17.6080    73.8660    24.5090    13.8290     8.2960    13.9660     2.4040 
   86.6250   -18.2650    72.0870    24.6910    13.3320     8.5940    14.0210     2.3300 
   86.7500   -18.9550    70.9530    24.3590    11.3530     8.5310    13.4060     2.2470 
   86.8750   -19.6570    70.9680    23.6320     9.5020     8.2480    12.5880     2.1890 
   87.0000   -20.3410    71.5210    23.0730     8.6060     7.9280    11.9830     2.1610 
   87.1250   -20.9850    71.1730    23.0230     8.4440     7.7270    11.8310     2.1520 
   87.2500   -21.5850    69.7140    23.1060     8.4140     7.6560    11.9750     2.1490 
   87.3750   -22.1210    67.9800    23.2040     8.4200     7.6730    12.2330     2.1500 
   87.5000   -22.5740    66.1410    23.3200     8.4610     7.7220    12.4370     2.1550 
   87.6250   -22.9030    66.0880    23.4350     8.4690     7.7520    12.4600     2.1660 
   87.7500   -23.1180    69.0290    23.5280     8.3990     7.7490    12.3290     2.1760 
   87.8750   -23.2090    72.3180    23.5290     8.2860     7.7130    12.1230     2.1760 
   88.0000   -23.1840    73.0020    23.3970     8.2010     7.6610    11.9500     2.1650 
   88.1250   -22.9910    70.1900    23.2120     8.1990     7.6280    11.9360     2.1540 
   88.2500   -22.6360    67.2110    23.0960     8.2450     7.6380    12.0780     2.1550 
   88.3750   -22.1330    66.3260    23.0430     8.3050     7.6810    12.2840     2.1650 
   88.5000   -21.4980    66.4730    23.0050     8.3640     7.7040    12.3690     2.1780 
   88.6250   -20.7210    66.4880    22.9860     8.3530     7.6020    12.0530     2.1870 
