~V
VERS. 2.00: Ver 2.00
~W
STRT.M 60.0000:
STOP.M 268.0000:
STEP.M 0.1250:
NULL. -999.2500:
UWI. DF5039:
~C
DEPT.M :
DEN.GM/CC :
GR.API :
CALI.CM :
RXO.OHMM :
RI. :
RML.OHMM :
SP.MV :
~A
# ...
  150.0000     2.5010    55.7460    24.4780    20.1360    20.2790    22.4930   -25.5850 
  150.1250     2.4930    56.7970    24.4620    18.6890    19.2670    21.1510   -25.5350 
  150.2500     2.4870    56.9890    24.4740    16.4020    18.1080    19.7520   -25.4030 
  150.3750     2.4840    58.9190    24.5020    14.3710    17.1090    18.6770   -25.3360 
  150.5000     2.4860    62.0300    24.5210    14.4010    16.5110    18.1960   -25.2690 
  150.6250     2.4930    63.7970    24.4960    15.1680    16.5480    18.5410   -25.2660 
  150.7500     2.4980    64.6230    24.4290    15.7630    17.1460    19.5280   -25.1930 
  150.8750     2.4980    65.4910    24.3700    16.5190    18.2080    20.9440   -25.1140 
  151.0000     2.4910    64.6470    24.3840    18.4780    19.5010    22.4410   -25.0570 
  151.1250     2.4790    60.4630    24.4970    20.7360    20.6050    23.4940   -25.0100 
  151.2500     2.4680    55.1610    24.5990    21.6780    21.2020    23.8410   -25.0620 
  151.3750     2.4630    51.9360    24.6210    20.1510    21.2000    23.4720   -25.0590 
  151.5000     2.4660    52.1700    24.5940    18.3480    20.7370    22.6240   -25.0920 
  151.6250     2.4720    54.4360    24.6090    17.7190    20.0810    21.6550   -25.0950 
  151.7500     2.4750    55.9620    24.6620    17.0430    19.4820    20.8230   -25.1120 
  151.8750     2.4710    56.4240    24.6990    16.3480    18.9600    20.1130   -25.1260 
  152.0000     2.4610    56.7160    24.7060    16.5110    18.3830    19.3520   -25.1210 
  152.1250     2.4500    55.9480    24.7080    16.1460    17.5320    18.3040   -25.1260 
  152.2500     2.4440    54.7470    24.7070    15.1170    16.4090    17.0000   -25.0910 
  152.3750     2.4420    55.7910    24.7030    13.7120    15.1580    15.6190   -25.0980 
  152.5000     2.4450    59.4760    24.6980    12.0930    13.9810    14.3870   -25.0600 
  152.6250     2.4500    63.4750    24.6650    10.7120    13.0790    13.5150   -25.0220 
  152.7500     2.4580    64.7500    24.6180    10.5560    12.4560    12.9670   -24.9630 
  152.8750     2.4670    62.3870    24.6030    10.9220    12.0730    12.6720   -24.9150 
  153.0000     2.4730    58.7100    24.6410    11.0440    11.8740    12.5620   -24.8770 
  153.1250     2.4750    57.4880    24.6850    10.8970    11.8510    12.6400   -24.8510 
  153.2500     2.4750    58.1200    24.6710    10.5140    11.9940    12.9250   -24.8160 
  153.3750     2.4760    57.6940    24.6180    10.4050    12.3520    13.4720   -24.8090 
  153.5000     2.4830    56.3830    24.5690    11.0950    12.9530    14.2740   -24.8470 
  153.6250     2.4950    55.8230    24.5270    12.1080    13.7490    15.2020   -24.8940 
  153.7500     2.5080    55.0560    24.4440    13.2760    14.5180    15.9880   -24.9790 
  153.8750     2.5170    54.1130    24.3030    14.9180    15.0540    16.4340   -25.0500 
  154.0000     2.5180    54.0610    24.1580    15.1460    15.2240    16.4770   -25.1060 
  154.1250     2.5100    56.0060    24.0770    13.9520    15.0330    16.2190   -25.1380 
  154.2500     2.5000    58.0490    24.0430    12.9990    14.7520    15.9730   -25.1870 
  154.3750     2.4900    59.8500    24.0130    12.9590    14.5700    15.9160   -25.2390 
  154.5000     2.4830    60.7950    23.9820    12.8790    14.5710    16.0780   -25.3000 
  154.6250     2.4810    58.5590    24.0340    13.6300    14.7320    16.3550   -25.3820 
  154.7500     2.4820    55.5680    24.1980    14.9290    14.8960    16.5430   -25.3880 
  154.8750     2.4840    55.7800    24.3970    15.5570    14.9360    16.5240   -25.4030 
  155.0000     2.4840    59.6830    24.5150    14.6580    14.8020    16.3000   -25.4230 
  155.1250     2.4820    62.6300    24.5090    13.0620    14.5600    16.0180   -25.4490 
  155.2500     2.4810    60.5070    24.4720    12.5450    14.3800    15.8820   -25.4510 
  155.3750     2.4780    55.8610    24.4500    12.9400    14.3690    15.9960   -25.4030 
  155.5000     2.4690    53.0230    24.4370    13.3480    14.5780    16.3670   -25.3290 
  155.6250     2.4460    55.2630    24.4180    14.0700    14.9900    16.9000   -25.2240 
  155.7500     2.4090    59.7520    24.4060    14.7870    15.4280    17.3630   -25.1880 
  155.8750     2.3700    64.0320    24.3990    15.3200    15.7230    17.5810   -25.1410 
  156.0000     2.3440    66.8800    24.3840    14.9280    15.7640    17.4800   -25.0980 
  156.1250     2.3400    66.4830    24.3540    14.3820    15.5280    17.1050   -25.0710 
  156.2500     2.3490    65.3380    24.3330    13.6530    15.1880    16.6860   -24.9890 
  156.3750     2.3610    66.0600    24.3310    13.0080    14.8940    16.3900   -24.9670 
  156.5000     2.3700    68.0250    24.3380    12.7350    14.7530    16.3140   -24.9410 
  156.6250     2.3740    68.2870    24.3310    13.1960    14.8090    16.4580   -24.9550 
  156.7500     2.3760    67.3350    24.2950    13.6560    14.9420    16.6480   -24.9440 
  156.8750     2.3810    67.2240    24.2230    13.7980    15.0320    16.7400   -24.9220 
  157.0000     2.3910    67.0030    24.1290    13.5330    14.9810    16.6370   -24.8990 
  157.1250     2.4070    65.9890    24.0470    12.9810    14.7350    16.3120   -24.8580 
  157.2500     2.4240    68.0610    23.9800    12.1380    14.3850    15.8970   -24.9020 
  157.3750     2.4390    72.3840    23.8870    11.7080    14.0290    15.5180   -24.8910 
  157.5000     2.4500    74.6180    23.7540    11.5080    13.7500    15.2700   -24.9260 
  157.6250     2.4540    72.8710    23.6420    11.5380    13.6200    15.2220   -24.9250 
  157.7500     2.4510    70.2980    23.6020    11.7010    13.6170    15.3240   -24.9410 
  157.8750     2.4410    68.3370    23.6290    11.9850    13.7080    15.5230   -24.9950 
  158.0000     2.4250    66.7430    23.7110    12.2870    13.8510    15.7680   -25.0530 
  158.1250     2.4120    67.8000    23.8470    12.5540    14.0150    16.0230   -25.1380 
  158.2500     2.4080    70.8890    23.9950    12.7720    14.1840    16.2740   -25.1590 
  158.3750     2.4150    72.3060    24.1060    12.7650    14.3600    16.5250   -25.2450 
  158.5000     2.4260    71.6920    24.1550    12.9000    14.5400    16.7760   -25.2750 
  158.6250     2.4340    70.4970    24.1440    13.3090    14.7200    17.0310   -25.3150 
  158.7500     2.4340    68.2960    24.1180    13.6420    14.9090    17.3090   -25.3230 
  158.8750     2.4280    64.7940    24.1040    13.9050    15.1300    17.6350   -25.3180 
  159.0000     2.4210    63.9640    24.0870    13.8580    15.4000    18.0250   -25.2950 
  159.1250     2.4180    69.1430    24.0680    13.7360    15.7260    18.4690   -25.2910 
  159.2500     2.4180    74.7870    24.0650    14.2130    16.0650    18.8990   -25.3300 
  159.3750     2.4210    76.6440    24.0730    15.2870    16.3530    19.2210   -25.3360 
  159.5000     2.4250    74.0240    24.0670    15.5330    16.5060    19.3440   -25.3470 
  159.6250     2.4300    69.1250    24.0400    15.1030    16.4410    19.2030   -25.3390 
  159.7500     2.4350    65.7220    24.0090    14.4340    16.2200    18.9140   -25.3120 
  159.8750     2.4400    65.7760    23.9700    14.0920    15.9330    18.6070   -25.2750 
  160.0000     2.4470    68.6310    23.9220    13.9570    15.6960    18.4210   -25.2710 
  160.1250     2.4600    69.4720    23.8840    13.8300    15.6600    18.5170   -25.2110 
  160.2500     2.4770    67.7910    23.8610    14.2020    15.8290    18.8380   -25.2050 
  160.3750     2.4960    68.1130    23.8620    14.4230    15.9310    18.9420   -25.1660 
  160.5000     2.5130    68.3860    23.8820    14.6900    15.9050    18.8230   -25.1300 
  160.6250     2.5230    63.5890    23.9250    14.4580    15.6760    18.4290   -25.0890 
  160.7500     2.5270    57.2840    23.9610    13.6010    15.3200    17.9140   -25.0820 
  160.8750     2.5270    55.9320    23.9700    12.9700    14.9520    17.4530   -25.1140 
  161.0000     2.5280    61.3840    23.9650    13.3140    14.6910    17.1900   -25.1410 
  161.1250     2.5310    66.8830    23.9920    13.3150    14.6130    17.1730   -25.2110 
