~V
VERS. 2.00: Ver 2.00
~W
STRT.M 59.0000:
STOP.M 260.0000:
STEP.M 0.1250:
NULL. -999.2500:
UWI. DF5044:
~C
DEPT.M :
GR.API :
CALI.CM :
RXO.OHMM :
RI. :
RML.OHMM :
DEN.GM/CC :
SP.MV :
~A
# ...
   81.5000    71.9900    23.7770    11.8310     7.8190     9.1330     2.2670   -26.4290 
   81.6250    70.2370    23.6970    10.4280     7.6270     8.9040     2.2200   -26.5820 
   81.7500    68.4620    23.6030     9.9570     7.4930     8.7610     2.1950   -26.6690 
   81.8750    69.5910    23.5470     9.9940     7.4330     8.7270     2.1900   -26.6650 
   82.0000    76.4870    23.5380    10.0750     7.4490     8.7980     2.1890   -26.6840 
   82.1250    86.1360    23.5360    10.0830     7.5310     8.9370     2.1840   -26.6920 
   82.2500    89.5050    23.5560    10.0650     7.6320     9.0770     2.1820   -26.6290 
   82.3750    83.9540    23.6070    10.0150     7.7170     9.1780     2.1840   -26.5220 
   82.5000    74.8130    23.6690     9.9460     7.7680     9.2230     2.1930   -26.3770 
   82.6250    69.5300    23.6210     9.9860     7.7680     9.1950     2.2040   -26.2060 
   82.7500    67.4620    23.5590    10.1060     7.7300     9.1190     2.2100   -26.0230 
   82.8750    66.5630    23.5130    10.1960     7.6650     9.0150     2.2050   -25.8670 
   83.0000    66.2110    23.5140    10.2150     7.5840     8.9120     2.1900   -25.6930 
   83.1250    66.8870    23.5410    10.1910     7.5080     8.8370     2.1760   -25.5060 
   83.2500    69.2950    23.5460    10.1490     7.4540     8.8020     2.1670   -25.2930 
   83.3750    72.8640    23.5290    10.0840     7.4300     8.8100     2.1630   -25.1060 
   83.5000    76.0290    23.5240    10.0390     7.4330     8.8510     2.1610   -24.9740 
   83.6250    78.3740    23.5350    10.0380     7.4480     8.8940     2.1620   -24.7370 
   83.7500    80.5120    23.5220    10.0080     7.4490     8.9040     2.1630   -24.4120 
   83.8750    80.3980    23.5050     9.9560     7.4120     8.8500     2.1620   -24.1090 
   84.0000    76.2470    23.5160     9.9200     7.3180     8.7080     2.1580   -23.8330 
   84.1250    71.4100    23.5060     9.8430     7.1530     8.4650     2.1540   -23.3950 
   84.2500    70.4390    23.4830     9.5510     6.9500     8.1750     2.1520   -22.9460 
   84.3750    73.4320    23.4860     8.9400     6.7440     7.8920     2.1550   -22.5580 
   84.5000    77.6220    23.5570     8.0630     6.5670     7.6650     2.1680   -22.1000 
   84.6250    80.0760    23.6440     7.2390     6.4490     7.5400     2.1900   -21.5840 
   84.7500    80.1060    23.7040     6.8570     6.3850     7.4970     2.2090   -21.1550 
   84.8750    78.8450    23.6910     7.0070     6.3580     7.4990     2.2170   -20.7960 
   85.0000    78.0650    23.6740     7.5580     6.3370     7.4990     2.2090   -20.4250 
   85.1250    78.6050    23.7420     8.2210     6.2820     7.4340     2.1920   -20.0850 
   85.2500    80.6070    23.8880     8.5090     6.1680     7.2790     2.1840   -19.8200 
   85.3750    85.4240    24.0610     8.1790     5.9870     7.0310     2.2000   -19.5330 
   85.5000    93.5200    24.1620     7.3860     5.7530     6.7210     2.2360   -19.2020 
   85.6250   101.0440    24.1390     6.6120     5.4800     6.3850     2.2720   -19.0290 
   85.7500   104.0070    24.0620     6.1960     5.2000     6.0620     2.2900   -18.9270 
   85.8750   104.0870    24.0000     6.0580     4.9300     5.7710     2.2910   -18.7480 
   86.0000   105.1240    23.9920     5.9480     4.6870     5.5260     2.2910   -18.5820 
   86.1250   107.5500    23.9700     5.6210     4.5010     5.3560     2.2990   -18.6230 
   86.2500   108.0550    23.9640     5.2340     4.3880     5.2670     2.3090   -18.6920 
   86.3750   106.7350    24.0130     4.9350     4.3730     5.2830     2.3120   -18.7970 
   86.5000   105.6770    24.1240     4.7960     4.4700     5.4250     2.3080   -19.0920 
   86.6250   103.9490    24.1340     4.8710     4.7020     5.7180     2.3090   -19.4470 
   86.7500    99.2940    24.0100     5.2070     5.0280     6.1140     2.3170   -19.7470 
   86.8750    92.7110    23.7850     5.7810     5.3990     6.5520     2.3180   -20.1210 
   87.0000    86.8200    23.5450     6.4020     5.7460     6.9470     2.2960   -20.5870 
   87.1250    82.5220    23.3860     7.0720     5.9650     7.1740     2.2520   -20.9730 
   87.2500    79.2490    23.2980     7.5980     6.0180     7.1960     2.2100   -21.2510 
   87.3750    78.6130    23.2410     7.8610     5.9060     7.0250     2.1830   -21.4600 
   87.5000    81.9190    23.2050     7.7540     5.6770     6.7270     2.1740   -21.5900 
   87.6250    88.0090    23.3170     7.2620     5.4120     6.4200     2.1870   -21.5910 
   87.7500    93.6150    23.5000     6.6010     5.2060     6.2150     2.2220   -21.5470 
   87.8750    96.4440    23.6920     6.0020     5.1230     6.1720     2.2660   -21.5280 
   88.0000    94.6740    23.7730     5.8030     5.1960     6.3200     2.2930   -21.4800 
   88.1250    87.9360    23.6870     6.3510     5.4510     6.6730     2.2810   -21.3650 
   88.2500    80.9340    23.5410     7.2940     5.8240     7.1480     2.2400   -21.3210 
   88.3750    76.9250    23.3740     8.1620     6.2500     7.6620     2.1870   -21.3360 
   88.5000    75.6050    23.3270     8.7300     6.6380     8.1020     2.1470   -21.2650 
   88.6250    75.6360    23.2810     9.3930     6.8550     8.3090     2.1460   -21.0760 
   88.7500    78.7260    23.2650    10.4040     6.8550     8.2400     2.1790   -20.8740 
   88.8750    85.7450    23.2600    11.3080     6.6470     7.9210     2.2220   -20.5990 
   89.0000    93.2750    23.2780    11.1830     6.2940     7.4470     2.2470   -20.1760 
   89.1250    97.3550    23.3650     9.6070     5.8910     6.9510     2.2470   -19.6560 
   89.2500    99.4850    23.5890     7.6800     5.5400     6.5480     2.2470   -19.1210 
   89.3750   100.2120    23.8920     6.1880     5.2920     6.2880     2.2640   -18.6080 
   89.5000    98.5980    24.0980     5.7120     5.1590     6.1670     2.3000   -18.1190 
   89.6250    95.8690    24.1500     6.4990     5.1310     6.1580     2.3380   -17.7250 
   89.7500    94.7170    24.0830     7.4710     5.1410     6.1750     2.3540   -17.4610 
   89.8750    93.9800    23.9410     7.6390     5.1400     6.1580     2.3420   -17.2410 
   90.0000    92.5530    23.8030     6.9900     5.0910     6.0560     2.3110   -17.0410 
   90.1250    94.8780    23.7220     6.4270     4.9770     5.8520     2.2820   -16.9420 
   90.2500   103.1080    23.6600     5.9650     4.8290     5.6060     2.2690   -16.9020 
   90.3750   112.2830    23.7100     5.4160     4.6790     5.3630     2.2780   -16.7960 
   90.5000   115.8000    23.8870     4.8370     4.5600     5.1620     2.3050   -16.6760 
   90.6250   111.4150    24.0650     4.5820     4.5010     5.0430     2.3320   -16.6800 
   90.7500   104.9790    24.1610     4.6380     4.4900     4.9920     2.3400   -16.6320 
   90.8750   100.9930    24.2220     4.7650     4.5160     4.9970     2.3310   -16.4980 
   91.0000   101.8350    24.2790     4.7980     4.5680     5.0450     2.3240   -16.4380 
   91.1250   106.2170    24.2380     4.7380     4.6370     5.1260     2.3360   -16.5120 
   91.2500   107.9300    24.2020     4.7270     4.7110     5.2180     2.3510   -16.5480 
   91.3750   104.0030    24.1760     4.8450     4.7800     5.3090     2.3480   -16.6110 
   91.5000    96.2850    24.1640     5.0640     4.8400     5.3940     2.3220   -16.8090 
   91.6250    90.4150    24.1340     5.3340     4.8890     5.4640     2.2930   -17.0060 
   91.7500    88.9460    24.0510     5.7150     4.9260     5.5160     2.2870   -17.1680 
   91.8750    89.9370    23.9170     6.2500     4.9520     5.5550     2.3080   -17.4480 
   92.0000    90.6830    23.8060     6.5640     4.9680     5.5880     2.3410   -17.8290 
   92.1250    90.7230    23.8660     6.3740     4.9870     5.6400     2.3630   -18.1230 
   92.2500    90.9370    23.9940     6.0120     5.0490     5.7580     2.3700   -18.4520 
   92.3750    90.2470    24.0630     5.9720     5.2180     6.0030     2.3590   -18.9110 
   92.5000    87.4570    24.0070     6.3200     5.5700     6.4520     2.3330   -19.3650 
   92.6250    83.7820    23.8360     7.0000     6.2500     7.2470     2.3060   -19.7370 
