~V
VERS. 2.00: Ver 2.00
~W
STRT.M 55.0000:
STOP.M 271.0000:
STEP.M 0.1250:
NULL. -999.2500:
UWI. DF5032:
~C
DEPT.M :
SP.MV :
GR.API :
CALI.CM :
RXO.OHMM :
RI. :
RML.OHMM :
DEN.GM/CC :
~A
# ...
  145.0000   -18.4590    87.9740    23.2290     7.4990     5.9040     6.6490     2.2460 
  145.1250   -17.9680    92.4410    23.8320     6.5210     5.5720     6.3520     2.2970 
  145.2500   -17.5290    95.0300    24.3490     5.6940     5.3170     6.1180     2.3170 
  145.3750   -17.1630    95.3760    24.5260     5.3730     5.1420     5.9520     2.3040 
  145.5000   -16.8840    95.1000    24.3920     5.4970     5.0340     5.8470     2.2890 
  145.6250   -16.7130    96.1920    24.1520     5.6780     4.9680     5.7790     2.2970 
  145.7500   -16.6340    98.1160    23.9600     5.6270     4.9080     5.7130     2.3190 
  145.8750   -16.6370    99.5650    23.9110     5.3840     4.8350     5.6200     2.3420 
  146.0000   -16.7100   100.3730    23.9940     5.0870     4.7430     5.4960     2.3600 
  146.1250   -16.8370   102.6000    24.1320     4.8420     4.6440     5.3710     2.3630 
  146.2500   -16.9910   106.4210    24.2480     4.7150     4.5710     5.2830     2.3540 
  146.3750   -17.1580   109.3670    24.3070     4.7070     4.5550     5.2710     2.3400 
  146.5000   -17.3290   109.5330    24.3060     4.7690     4.6250     5.3740     2.3270 
  146.6250   -17.4980   106.8720    24.3160     4.8320     4.8150     5.6230     2.3160 
  146.7500   -17.6590   102.8570    24.3630     4.9540     5.0990     5.9740     2.3100 
  146.8750   -17.8030    98.6990    24.3830     5.3430     5.4370     6.3760     2.3220 
  147.0000   -17.9250    95.7760    24.4050     6.2100     5.7720     6.7480     2.3580 
  147.1250   -18.0170    94.0830    24.4200     7.6480     6.0150     6.9650     2.4120 
  147.2500   -18.0830    92.8020    24.4220     9.0420     6.1160     6.9910     2.4580 
  147.3750   -18.1250    93.4150    24.4060     9.5310     6.0660     6.8390     2.4770 
  147.5000   -18.1430    97.3650    24.3770     8.6080     5.9000     6.5640     2.4600 
  147.6250   -18.1420   101.5550    24.3610     6.7340     5.6720     6.2660     2.4130 
  147.7500   -18.1310   102.0190    24.3650     5.5600     5.4590     6.0320     2.3750 
  147.8750   -18.1130   100.1960    24.3650     5.2430     5.2950     5.8870     2.3700 
  148.0000   -18.0910    99.7710    24.3580     5.3370     5.1760     5.8080     2.3900 
  148.1250   -18.0660   101.3390    24.3580     5.4840     5.0730     5.7500     2.4030 
  148.2500   -18.0450   102.2920    24.3720     5.5730     4.9720     5.7050     2.3850 
  148.3750   -18.0280   102.3250    24.4020     5.5320     4.8940     5.7020     2.3420 
  148.5000   -18.0190   102.1880    24.4200     5.3600     4.8990     5.8100     2.3020 
  148.6250   -18.0160   101.6860    24.4240     5.1970     5.1150     6.1820     2.3000 
  148.7500   -18.0190    99.8140    24.4160     5.3150     5.6200     6.8880     2.3390 
  148.8750   -18.0300    95.4640    24.3970     6.3180     6.4890     7.9930     2.4030 
  149.0000   -18.0500    87.8150    24.3470     9.2810     7.7590     9.3850     2.4790 
  149.1250   -18.0830    77.9110    24.2520    15.1830     9.4590    10.9330     2.5580 
  149.2500   -18.1280    69.1510    24.1600    21.0960    11.3890    12.5470     2.6230 
  149.3750   -18.1840    63.2270    24.1150    24.2120    13.3390    14.4260     2.6520 
  149.5000   -18.2490    60.2280    24.1160    24.2360    15.0990    16.2760     2.6500 
  149.6250   -18.3170    59.1500    24.1300    23.6320    16.4870    17.7580     2.6420 
  149.7500   -18.3820    57.8510    24.1350    23.3720    17.5670    18.9110     2.6440 
  149.8750   -18.4430    55.4470    24.1320    23.4690    18.4420    19.8460     2.6540 
  150.0000   -18.4950    52.7200    24.1340    24.2100    19.2440    20.7030     2.6680 
  150.1250   -18.5350    51.7470    24.1320    25.4660    20.0380    21.5500     2.6790 
  150.2500   -18.5650    53.2980    24.1240    26.3380    20.7740    22.3360     2.6810 
  150.3750   -18.5860    56.5100    24.1080    26.6840    21.3780    22.9810     2.6750 
  150.5000   -18.6020    59.2690    24.0920    26.6310    21.8200    23.4540     2.6670 
  150.6250   -18.6190    59.2660    24.0760    25.7150    22.0940    23.7460     2.6600 
  150.7500   -18.6460    56.9850    24.0760    24.7650    22.2630    23.9270     2.6530 
  150.8750   -18.6900    53.6940    24.0840    24.8850    22.3650    24.0360     2.6450 
  151.0000   -18.7550    50.7400    24.0950    26.0370    22.4150    24.0890     2.6400 
  151.1250   -18.8420    49.3060    24.1090    27.0550    22.4020    24.0750     2.6330 
  151.2500   -18.9430    49.3330    24.1080    26.8600    22.3300    23.9990     2.6180 
  151.3750   -19.0530    49.9790    24.0990    25.5720    22.2180    23.8790     2.5990 
  151.5000   -19.1670    50.4110    24.0770    23.8630    22.0970    23.7490     2.5850 
  151.6250   -19.2750    50.9190    24.0520    23.0320    22.0160    23.6630     2.5780 
  151.7500   -19.3690    52.3310    24.0510    22.5650    22.0010    23.6470     2.5720 
  151.8750   -19.4400    54.4080    24.0550    22.1850    22.0330    23.6810     2.5680 
  152.0000   -19.4790    56.0060    24.0190    21.9410    22.0680    23.7190     2.5650 
  152.1250   -19.4780    56.3070    23.9660    22.0670    22.0100    23.6560     2.5510 
  152.2500   -19.4400    56.1490    23.8930    22.5980    21.7730    23.4040     2.5200 
  152.3750   -19.3650    56.2740    23.8680    23.4940    21.2990    22.8970     2.4870 
  152.5000   -19.2560    57.4860    23.9080    23.9420    20.5950    22.1450     2.4760 
  152.6250   -19.1100    60.6770    23.9670    23.0400    19.7060    21.1960     2.4910 
  152.7500   -18.9370    64.4650    23.9970    21.4010    18.7810    20.2080     2.5100 
  152.8750   -18.7460    66.9700    23.9610    20.0460    17.9440    19.3140     2.5240 
  153.0000   -18.5480    67.1750    23.9070    18.9840    17.3040    18.6310     2.5350 
  153.1250   -18.3550    65.7060    23.9310    17.9820    16.9890    18.2950     2.5410 
  153.2500   -18.1760    64.1060    24.0060    17.3710    16.9630    18.2660     2.5400 
  153.3750   -18.0190    63.1330    24.0680    17.2990    17.1600    18.4770     2.5350 
  153.5000   -17.8890    63.4150    24.0850    17.4800    17.4690    18.8070     2.5330 
  153.6250   -17.8000    64.6170    24.0990    18.0820    17.7510    19.1080     2.5300 
  153.7500   -17.7460    65.4930    24.0600    19.1440    17.8810    19.2470     2.5220 
  153.8750   -17.7280    65.9240    23.9420    20.1190    17.7810    19.1400     2.5110 
  154.0000   -17.7420    66.9400    23.7950    20.1330    17.4320    18.7680     2.5030 
  154.1250   -17.7840    68.3400    23.6660    18.6130    16.8640    18.1610     2.5030 
  154.2500   -17.8420    68.1680    23.6350    17.1360    16.2010    17.4520     2.5080 
  154.3750   -17.9060    66.3400    23.7350    16.6450    15.5260    16.7320     2.5140 
  154.5000   -17.9750    64.6630    23.9060    16.7560    14.9100    16.0740     2.5170 
  154.6250   -18.0470    64.4810    24.0200    16.4140    14.4260    15.5570     2.5130 
  154.7500   -18.1240    64.9210    24.0520    15.7250    14.0820    15.1900     2.5060 
  154.8750   -18.2070    65.2730    24.0420    15.1260    13.8730    14.9660     2.5040 
  155.0000   -18.2990    65.1230    23.9910    14.4820    13.7710    14.8570     2.5140 
  155.1250   -18.4090    64.6500    23.8930    13.9340    13.7620    14.8480     2.5300 
  155.2500   -18.5440    64.8550    23.8700    13.9580    13.8030    14.8910     2.5340 
  155.3750   -18.7100    65.7190    23.9250    14.7090    13.8540    14.9470     2.5250 
  155.5000   -18.9080    65.8050    24.0200    15.5710    13.8790    14.9730     2.5140 
  155.6250   -19.1430    64.3670    24.0810    15.8210    13.8570    14.9500     2.5130 
  155.7500   -19.4050    63.2870    24.0980    15.7000    13.8180    14.9080     2.5150 
  155.8750   -19.6890    63.3810    24.0820    15.7210    13.7930    14.8810     2.5150 
  156.0000   -19.9910    63.5990    24.0550    15.9000    13.8130    14.9020     2.5150 
  156.1250   -20.3100    63.3960    24.0320    15.6280    13.8820    14.9760     2.5170 
