~V
VERS. 2.00: Ver 2.00
~W
STRT.M 61.0000:
STOP.M 253.0000:
STEP.M 0.1250:
NULL. -999.2500:
UWI. DF5045:
~C
DEPT.M :
GR.API :
CALI.CM :
RXO.OHMM :
RI. :
RML.OHMM :
DEN.GM/CC :
SP.MV :
~A
# ...
  117.2500   100.7860    24.5540     4.4350     4.3720     4.5330     2.3130   -10.1710 
  117.3750   106.1360    24.5980     4.2650     4.3010     4.4650     2.3370   -10.3000 
  117.5000   113.1070    24.5530     4.0180     4.3120     4.5120     2.3550   -10.3500 
  117.6250   116.3450    24.3560     3.9290     4.4060     4.6510     2.3460   -10.3040 
  117.7500   112.6370    24.0100     4.1780     4.5700     4.8490     2.3130   -10.4070 
  117.8750   104.8990    23.6290     4.7320     4.7650     5.0500     2.2800   -10.5270 
  118.0000   100.1880    23.3000     5.3570     4.9300     5.1730     2.2690   -10.4890 
  118.1250   100.5560    23.0400     5.7430     5.0140     5.1850     2.2770   -10.5270 
  118.2500   103.7780    23.0350     5.7120     4.9940     5.0800     2.2970   -10.6320 
  118.3750   107.3200    23.3560     5.2790     4.8750     4.8840     2.3200   -10.6150 
  118.5000   110.6270    23.8520     4.7570     4.6840     4.6380     2.3350   -10.5570 
  118.6250   113.8220    24.2220     4.3970     4.4730     4.4040     2.3410   -10.6550 
  118.7500   115.9120    24.3920     4.1090     4.2740     4.2170     2.3500   -10.7430 
  118.8750   116.3230    24.4580     3.7890     4.1060     4.0930     2.3710   -10.7620 
  119.0000   115.6940    24.5010     3.5530     3.9870     4.0420     2.3900   -11.0030 
  119.1250   114.1860    24.5050     3.5020     3.9120     4.0400     2.3970   -11.3510 
  119.2500   111.0210    24.4730     3.5800     3.8730     4.0760     2.4000   -11.6440 
  119.3750   107.5700    24.4410     3.6150     3.8660     4.1500     2.4110   -12.0650 
  119.5000   105.8560    24.4160     3.5550     3.9010     4.2870     2.4190   -12.6780 
  119.6250   104.0480    24.3270     3.5870     4.0030     4.5270     2.4060   -13.1770 
  119.7500   100.0620    24.0460     3.9020     4.2210     4.9540     2.3680   -13.6820 
  119.8750    94.6170    23.5090     4.5060     4.6310     5.6870     2.3170   -14.3480 
  120.0000    89.5680    23.0010     5.1850     5.3910     6.9310     2.2790   -14.8530 
  120.1250    84.2920    22.7300     6.0380     6.5430     8.6510     2.2750   -15.2490 
  120.2500    78.5690    22.7680     7.8000     8.0890    10.7360     2.3180   -15.7430 
  120.3750    74.3560    23.1050    11.5990     9.9100    12.9250     2.4060   -16.1490 
  120.5000    74.3480    23.6230    18.7930    11.6570    14.6970     2.5150   -16.3740 
  120.6250    76.8920    23.9910    25.8880    12.8750    15.6320     2.5950   -16.7090 
  120.7500    79.6960    24.0160    28.8150    13.2470    15.5000     2.6160   -17.0600 
  120.8750    81.9300    23.6610    25.7890    12.7410    14.3990     2.5700   -17.2250 
  121.0000    83.8930    22.8980    18.5020    11.5850    12.7160     2.4720   -17.4340 
  121.1250    84.8450    22.1730    12.3350    10.3110    11.0850     2.3710   -17.7050 
  121.2500    83.6870    21.7640     9.1300     9.2130     9.8310     2.2950   -17.8110 
  121.3750    80.8090    21.6340     8.3690     8.4320     9.0520     2.2590   -17.8770 
  121.5000    77.8950    21.6270     8.5770     8.0060     8.7070     2.2560   -18.0800 
  121.6250    75.6020    21.6310     8.6610     7.7970     8.5680     2.2580   -18.1660 
  121.7500    73.9790    21.6340     8.4520     7.7180     8.5160     2.2480   -18.0870 
  121.8750    73.5170    21.6280     8.0480     7.7040     8.4870     2.2290   -18.1180 
  122.0000    74.3710    21.6170     7.7410     7.7170     8.4670     2.2170   -18.2240 
  122.1250    75.4810    21.5990     7.7130     7.7390     8.4600     2.2170   -18.1800 
  122.2500    76.6110    21.5570     7.8590     7.7550     8.4530     2.2210   -18.1800 
  122.3750    77.7550    21.4770     8.0070     7.7330     8.4100     2.2190   -18.2870 
  122.5000    78.2470    21.4060     8.0650     7.6260     8.2790     2.2090   -18.2260 
  122.6250    78.6390    21.3890     8.0360     7.4300     8.0560     2.1950   -18.1260 
  122.7500    80.2140    21.4190     7.9300     7.1570     7.7640     2.1840   -18.1950 
  122.8750    83.1500    21.4470     7.7270     6.8420     7.4500     2.1860   -18.2350 
  123.0000    85.6440    21.4370     7.3280     6.5460     7.1900     2.2090   -18.1370 
  123.1250    85.8560    21.3960     6.7800     6.3230     7.0320     2.2330   -18.2210 
  123.2500    82.9170    21.3530     6.3870     6.2020     7.0030     2.2390   -18.3540 
  123.3750    77.7670    21.3290     6.4650     6.1940     7.1030     2.2270   -18.3450 
  123.5000    74.4150    21.3120     6.9600     6.3030     7.3240     2.2180   -18.4530 
  123.6250    75.3670    21.2900     7.4140     6.4880     7.6070     2.2270   -18.6640 
  123.7500    78.6610    21.2840     7.7090     6.7300     7.9210     2.2400   -18.7090 
  123.8750    80.6820    21.3070     7.8980     7.0050     8.2300     2.2370   -18.7330 
  124.0000    80.4670    21.3270     8.0850     7.2780     8.4910     2.2170   -18.8720 
  124.1250    80.5630    21.3500     8.3220     7.5180     8.6850     2.2010   -18.8280 
  124.2500    80.9320    21.3820     8.7040     7.7080     8.7950     2.2030   -18.6750 
  124.3750    79.7850    21.4250     9.2750     7.8340     8.8190     2.2160   -18.6380 
  124.5000    76.4270    21.4290     9.8310     7.8820     8.7630     2.2230   -18.5410 
  124.6250    73.0650    21.3930     9.8140     7.8760     8.6730     2.2170   -18.2650 
  124.7500    70.7120    21.3530     9.1800     7.8390     8.5800     2.2010   -18.0600 
  124.8750    69.3060    21.3300     8.4510     7.7860     8.5020     2.1830   -17.9060 
  125.0000    68.4740    21.3190     8.0950     7.7050     8.4150     2.1660   -17.5910 
  125.1250    68.1510    21.2980     8.0160     7.5630     8.2620     2.1530   -17.2730 
  125.2500    68.5260    21.2730     7.9820     7.3100     7.9780     2.1490   -17.0640 
  125.3750    69.9240    21.2630     7.8550     6.9150     7.5230     2.1570   -16.7790 
  125.5000    72.5660    21.2940     7.4120     6.3640     6.8890     2.1740   -16.4180 
  125.6250    76.5300    21.4090     6.5910     5.7420     6.1930     2.1910   -16.2550 
  125.7500    81.6760    21.6870     5.4960     5.1460     5.5730     2.2070   -16.1640 
  125.8750    86.8650    22.1640     4.4920     4.6930     5.2000     2.2250   -16.0320 
  126.0000    89.9030    22.7840     3.9800     4.5590     5.3230     2.2330   -16.1400 
  126.1250    90.7290    23.1720     3.9850     4.8060     5.9810     2.2270   -16.4710 
  126.2500    89.7840    23.0990     4.5600     5.4960     7.1780     2.2200   -16.7690 
  126.3750    86.6050    22.6120     5.8970     6.6440     8.8130     2.2490   -17.1370 
  126.5000    80.6250    22.3670     8.4150     8.2000    10.6500     2.3490   -17.7210 
  126.6250    74.8990    22.6210    12.6050     9.8130    12.2550     2.4730   -18.2060 
  126.7500    71.9810    23.2140    18.5250    11.0900    13.2310     2.5580   -18.6310 
  126.8750    71.6260    23.7120    24.4390    11.6630    13.3040     2.5730   -19.1650 
  127.0000    72.3650    23.6510    25.9690    11.2690    12.3770     2.5350   -19.5990 
  127.1250    74.2370    23.0210    22.3830    10.2990    10.9950     2.4750   -19.8640 
  127.2500    77.3730    22.1020    16.3650     9.1230     9.6000     2.3990   -20.2120 
  127.3750    80.2850    21.4330    11.5660     8.0500     8.5090     2.3190   -20.5780 
  127.5000    81.5510    21.2440     9.9060     7.3080     7.9160     2.2610   -20.7350 
  127.6250    81.8100    21.2520     9.5620     6.8830     7.6900     2.2250   -20.9440 
  127.7500    81.3930    21.3000     9.3240     6.7230     7.7100     2.2000   -21.2180 
  127.8750    79.9410    21.3310     8.7650     6.7430     7.8450     2.1800   -21.3540 
  128.0000    77.3300    21.3450     8.0730     6.8500     7.9710     2.1730   -21.4010 
  128.1250    75.1290    21.3600     7.6150     6.9500     8.0220     2.1740   -21.5770 
  128.2500    74.6300    21.3640     7.4660     7.0060     7.9930     2.1800   -21.6700 
  128.3750    76.0370    21.3270     7.5280     7.0180     7.9120     2.1880   -21.6320 
