~V
VERS. 2.00: Ver 2.00
~W
STRT.M 61.0000:
STOP.M 253.0000:
STEP.M 0.1250:
NULL. -999.2500:
UWI. DF5045:
~C
DEPT.M :
GR.API :
CALI.CM :
RXO.OHMM :
RI. :
RML.OHMM :
DEN.GM/CC :
SP.MV :
~A
# ...
   83.5000    71.4330    21.9660     7.7730     7.6190     9.1300     2.1720   -24.1460 
   83.6250    76.0770    21.9460     7.5730     7.5600     9.0630     2.1620   -23.9670 
   83.7500    79.7500    21.9580     7.4480     7.4870     8.9860     2.1550   -23.7600 
   83.8750    82.0940    21.9830     7.4080     7.4160     8.9250     2.1600   -23.5420 
   84.0000    83.9480    21.9910     7.4940     7.3710     8.9060     2.1730   -23.3250 
   84.1250    84.7780    21.9740     7.6600     7.3560     8.9200     2.1780   -23.1250 
   84.2500    83.7500    21.9550     7.7930     7.3610     8.9450     2.1720   -22.9590 
   84.3750    81.3520    21.9870     7.8850     7.3700     8.9510     2.1580   -22.7810 
   84.5000    79.1900    22.0990     8.0710     7.3590     8.9040     2.1430   -22.4990 
   84.6250    78.3760    22.2050     8.3350     7.3170     8.8000     2.1340   -22.1150 
   84.7500    79.3230    22.2950     8.4630     7.2450     8.6510     2.1360   -21.6040 
   84.8750    81.5490    22.3130     8.2540     7.1580     8.4890     2.1460   -20.9800 
   85.0000    83.0690    22.2420     7.7980     7.0880     8.3640     2.1610   -20.3010 
   85.1250    82.7980    22.1940     7.4500     7.0550     8.2980     2.1720   -19.6410 
   85.2500    82.0260    22.1870     7.4250     7.0610     8.2880     2.1740   -19.0570 
   85.3750    82.3340    22.2130     7.5880     7.0900     8.2950     2.1670   -18.5210 
   85.5000    83.3070    22.2650     7.6300     7.0990     8.2540     2.1520   -18.0670 
   85.6250    83.3210    22.3150     7.6060     7.0450     8.1160     2.1370   -17.6680 
   85.7500    82.7800    22.3770     7.6280     6.8960     7.8540     2.1270   -17.2910 
   85.8750    83.5730    22.4510     7.6830     6.6370     7.4650     2.1270   -16.9100 
   86.0000    88.0550    22.5850     7.5110     6.2710     6.9700     2.1420   -16.4800 
   86.1250    95.7700    22.8910     7.0190     5.8570     6.4450     2.1680   -16.0360 
   86.2500   104.9140    23.4340     6.2910     5.4390     5.9460     2.2050   -15.5640 
   86.3750   112.3980    24.1260     5.5000     5.0560     5.5200     2.2490   -15.1390 
   86.5000   115.1300    24.7650     4.9250     4.7510     5.2170     2.2900   -14.8530 
   86.6250   115.3210    25.1650     4.5850     4.5350     5.0260     2.3130   -14.7250 
   86.7500   115.8310    25.3180     4.4510     4.4120     4.9360     2.3220   -14.7560 
   86.8750   117.6460    25.3080     4.3620     4.3690     4.9290     2.3290   -14.9410 
   87.0000   119.4800    25.1510     4.2740     4.4000     4.9910     2.3370   -15.2380 
   87.1250   119.8770    24.8420     4.2820     4.4850     5.1000     2.3380   -15.5600 
   87.2500   118.1490    24.4490     4.4550     4.6130     5.2490     2.3280   -15.9040 
   87.3750   114.6690    24.0710     4.7320     4.7800     5.4330     2.3160   -16.2220 
   87.5000   111.1200    23.9450     4.9150     4.9850     5.6530     2.3070   -16.4730 
   87.6250   108.4510    23.9250     4.9850     5.2080     5.8820     2.2920   -16.6510 
   87.7500   105.9470    23.7500     5.1810     5.4210     6.0850     2.2650   -16.7790 
   87.8750   103.2930    23.2590     5.7290     5.5890     6.2200     2.2310   -16.8590 
   88.0000   102.0610    22.7440     6.4330     5.6590     6.2350     2.2100   -16.9090 
   88.1250   103.7130    22.4690     6.8810     5.6270     6.1480     2.2090   -16.9140 
   88.2500   108.7370    22.4490     6.9260     5.5110     5.9880     2.2260   -16.8480 
   88.3750   116.0070    22.6890     6.6040     5.3410     5.7940     2.2520   -16.7130 
   88.5000   121.2650    23.1960     5.8990     5.1560     5.6140     2.2780   -16.4840 
   88.6250   120.8260    23.7710     5.1570     4.9990     5.4840     2.2940   -16.1970 
   88.7500   115.7430    24.0570     4.7760     4.8930     5.4170     2.2960   -15.8650 
   88.8750   111.0750    23.8230     4.9690     4.8390     5.3990     2.2890   -15.5270 
   89.0000   112.2500    23.3680     5.5240     4.8220     5.4070     2.2850   -15.2560 
   89.1250   116.8130    23.2770     5.6840     4.8230     5.4260     2.2970   -15.1130 
   89.2500   120.2460    23.6240     5.2920     4.8520     5.4770     2.3240   -15.0970 
   89.3750   119.4660    24.0440     4.8780     4.9400     5.5990     2.3530   -15.2190 
   89.5000   113.6540    24.0230     5.0890     5.1370     5.8650     2.3620   -15.4340 
   89.6250   105.2120    23.5810     5.6080     5.4620     6.2920     2.3520   -15.6550 
   89.7500    96.7320    23.1640     6.1370     5.9250     6.8680     2.3380   -15.8330 
   89.8750    90.9300    22.9940     6.7320     6.4880     7.5070     2.3370   -15.9440 
   90.0000    89.3610    23.1010     7.8810     7.0270     8.0330     2.3560   -15.9590 
   90.1250    89.6290    23.3550     9.7220     7.4000     8.3140     2.3800   -15.9110 
   90.2500    90.3290    23.6490    11.7620     7.5060     8.2730     2.4080   -15.8200 
   90.3750    91.7670    23.9500    13.3400     7.3020     7.9030     2.4430   -15.6810 
   90.5000    95.6440    24.2600    13.5730     6.8140     7.2690     2.4690   -15.5840 
   90.6250   101.0610    24.5270    12.0050     6.2230     6.5730     2.4640   -15.5670 
   90.7500   106.0240    24.6580     8.9590     5.6570     5.9570     2.4300   -15.6440 
   90.8750   109.9380    24.6540     6.1270     5.2100     5.5270     2.3870   -15.8050 
   91.0000   113.6710    24.5970     5.1030     4.9740     5.3640     2.3630   -16.0250 
   91.1250   116.0600    24.6290     4.9480     4.9140     5.3900     2.3550   -16.2440 
   91.2500   114.8410    24.6960     5.0490     4.9970     5.5470     2.3510   -16.4800 
   91.3750   109.7060    24.7030     5.2290     5.1870     5.7840     2.3440   -16.7420 
   91.5000   103.2210    24.5680     5.3180     5.4360     6.0400     2.3390   -17.0260 
   91.6250    98.1680    24.2330     5.3350     5.6650     6.2530     2.3280   -17.3610 
   91.7500    95.1270    23.6750     5.5020     5.8310     6.3910     2.3020   -17.7120 
   91.8750    93.5270    23.0350     6.0390     5.9120     6.4410     2.2670   -18.0670 
   92.0000    92.8220    22.6820     6.6080     5.8840     6.3820     2.2480   -18.4460 
   92.1250    93.3730    22.7380     6.6260     5.7670     6.2510     2.2550   -18.8430 
   92.2500    95.0270    23.1700     6.0740     5.6040     6.1120     2.2770   -19.2290 
   92.3750    95.7900    23.6660     5.4540     5.4670     6.0660     2.2930   -19.5680 
   92.5000    93.3930    23.6400     5.3270     5.4910     6.3110     2.2950   -19.8130 
   92.6250    89.2390    23.1390     5.5650     5.7810     6.9680     2.2920   -19.9560 
   92.7500    85.7170    22.6260     5.9550     6.4300     8.1180     2.2950   -20.0650 
   92.8750    83.6090    22.4160     6.4420     7.4860     9.7270     2.3150   -20.1970 
   93.0000    81.5100    22.5620     7.6040     8.9420    11.6220     2.3660   -20.3840 
   93.1250    78.4600    22.9180    10.5420    10.5150    13.3930     2.4440   -20.5890 
   93.2500    75.3470    23.3820    15.9590    11.8600    14.6440     2.5360   -20.7830 
   93.3750    73.7340    23.7530    21.9800    12.5980    15.0330     2.6130   -20.9510 
   93.5000    74.6390    23.6790    23.2080    12.3570    14.2960     2.6280   -21.1190 
   93.6250    77.1610    23.2500    19.0020    11.4130    12.8780     2.5710   -21.2580 
   93.7500    80.4940    22.7500    13.1600    10.1240    11.2490     2.4680   -21.3980 
   93.8750    83.4400    22.4200     9.2780     8.8740     9.8780     2.3610   -21.5510 
   94.0000    84.7250    22.3180     7.9830     8.0370     9.2110     2.2850   -21.7090 
   94.1250    84.8740    22.2900     7.6160     7.7010     9.2420     2.2360   -21.8730 
   94.2500    85.0510    22.2150     7.6090     7.8760     9.8840     2.2090   -22.0710 
   94.3750    85.5550    22.0360     7.8480     8.4930    10.9580     2.2070   -22.3270 
   94.5000    86.2050    21.8910     8.5400     9.4430    12.2070     2.2480   -22.6180 
   94.6250    87.8020    22.0110    10.1880    10.4340    13.2730     2.3260   -22.9350 
