~V
VERS. 2.00: Ver 2.00
~W
STRT.M 59.0000:
STOP.M 260.0000:
STEP.M 0.1250:
NULL. -999.2500:
UWI. DF5044:
~C
DEPT.M :
GR.API :
CALI.CM :
RXO.OHMM :
RI. :
RML.OHMM :
DEN.GM/CC :
SP.MV :
~A
# ...
  194.0000    64.3260    24.5490   107.6590    68.8190    71.9780     2.1950   -26.3820 
  194.1250    65.3200    24.5080   102.2570    73.9870    77.3690     2.1940   -26.0520 
  194.2500    68.2850    24.4500    96.5940    77.0670    80.5810     2.2000   -25.7510 
  194.3750    71.9860    24.4260    93.6060    78.7740    82.3620     2.2090   -25.3230 
  194.5000    74.0660    24.4020    92.3060    79.3370    82.9480     2.2340   -24.9220 
  194.6250    73.0580    24.3280    92.6690    77.2950    80.8190     2.2940   -24.5830 
  194.7500    71.3630    24.2060    97.6500    71.4180    74.6890     2.3820   -24.1460 
  194.8750    71.0800    24.0890   107.2220    61.5090    64.3540     2.4800   -23.7560 
  195.0000    71.6200    24.0270   113.8030    49.0570    51.4350     2.5690   -23.5020 
  195.1250    70.0720    24.0390   104.6330    36.7510    38.7870     2.6310   -23.1890 
  195.2500    67.3000    24.0580    81.0610    26.5790    28.3990     2.6590   -22.9340 
  195.3750    68.4670    24.0460    52.8470    19.1190    20.6570     2.6500   -22.7790 
  195.5000    77.6680    24.0710    29.6140    14.1890    15.4620     2.6110   -22.5460 
  195.6250    90.7970    24.1490    16.7030    11.5000    12.6170     2.5550   -22.3710 
  195.7500    98.1860    24.2340    11.1260    10.1040    11.1400     2.4930   -22.2910 
  195.8750    97.3930    24.2890     9.8810     9.5660    10.5700     2.4310   -22.1070 
  196.0000    92.8650    24.2700    10.3360     9.5580    10.5630     2.3860   -21.8800 
  196.1250    89.9850    24.2220    11.1810     9.8090    10.8280     2.3880   -21.7130 
  196.2500    89.0760    24.1780    12.3990    10.0090    11.0400     2.4300   -21.4540 
  196.3750    89.9030    24.1680    13.9350     9.9730    11.0020     2.4870   -21.1900 
  196.5000    93.3960    24.1520    14.7310     9.6150    10.6230     2.5310   -20.9930 
  196.6250    99.3740    24.1330    13.8980     8.9420     9.9110     2.5390   -20.6660 
  196.7500   104.3210    24.1110    11.9770     8.1580     9.0810     2.5140   -20.3090 
  196.8750   106.4020    24.1070    10.0750     7.4210     8.3020     2.4680   -20.0350 
  197.0000   106.0710    24.1220     8.6100     6.8570     7.7050     2.4210   -19.6890 
  197.1250   104.8070    24.1310     7.5210     6.5880     7.4200     2.3960   -19.3340 
  197.2500   104.2530    24.1300     6.8400     6.5950     7.4270     2.3930   -19.0520 
  197.3750   106.0050    24.0710     6.7990     6.8400     7.6860     2.4020   -18.6820 
  197.5000   109.7310    23.9810     7.7080     7.2310     8.1000     2.4150   -18.3160 
  197.6250   111.1910    23.9810     9.5120     7.6000     8.4910     2.4310   -18.0680 
  197.7500   108.1660    24.0480    11.2560     7.7670     8.6680     2.4520   -17.7480 
  197.8750   102.0290    24.0890    12.1940     7.6220     8.5140     2.4750   -17.4020 
  198.0000    94.7680    24.0940    12.0140     7.1550     8.0200     2.4960   -17.1510 
  198.1250    86.3230    24.0480    10.5130     6.4380     7.2610     2.5060   -16.8090 
  198.2500    77.9460    23.8990     8.3740     5.6710     6.4500     2.5030   -16.4560 
  198.3750    71.6820    23.6880     6.2320     4.9720     5.7100     2.4860   -16.2280 
  198.5000    67.6860    23.5560     4.6970     4.4070     5.1120     2.4580   -15.9570 
  198.6250    64.4670    23.4950     4.0920     4.0170     4.7000     2.4270   -15.6860 
  198.7500    61.9840    23.5920     3.8840     3.7610     4.4290     2.4040   -15.5810 
  198.8750    62.0500    23.6900     3.8460     3.6210     4.2810     2.3910   -15.4880 
  199.0000    65.4190    23.7170     3.8630     3.5850     4.2430     2.3890   -15.3950 
  199.1250    71.3210    23.7260     3.8390     3.6640     4.3260     2.3910   -15.4750 
  199.2500    77.8280    23.7280     3.7400     3.8290     4.5010     2.3880   -15.5430 
  199.3750    83.2580    23.6750     3.7170     4.0640     4.7490     2.3800   -15.5850 
  199.5000    86.4380    23.5830     3.9970     4.3380     5.0400     2.3740   -15.7490 
  199.6250    87.9770    23.6610     4.7890     4.6020     5.3190     2.3800   -15.8720 
  199.7500    89.6980    23.8440     5.8370     4.8010     5.5300     2.3880   -15.9280 
  199.8750    91.2690    23.9880     6.6810     4.9020     5.6370     2.3840   -16.0800 
  200.0000    92.2560    23.9940     6.9310     4.8980     5.6320     2.3720   -16.2300 
  200.1250    93.9780    23.8830     6.5100     4.8080     5.5360     2.3690   -16.3310 
  200.2500    96.8980    23.8120     5.9790     4.7030     5.4250     2.3790   -16.5450 
  200.3750    99.2660    23.8030     5.6070     4.6290     5.3470     2.3950   -16.7340 
  200.5000    99.9260    23.8480     5.4140     4.6100     5.3270     2.4080   -16.8610 
  200.6250    99.9420    23.9520     5.3480     4.6550     5.3750     2.4150   -17.1130 
  200.7500   100.9370    23.9790     5.3920     4.7360     5.4610     2.4160   -17.3480 
  200.8750   102.5490    23.8700     5.6150     4.8290     5.5590     2.4130   -17.5260 
  201.0000   103.5940    23.6900     6.0300     4.9160     5.6510     2.4130   -17.8170 
  201.1250   102.8220    23.5600     6.4720     5.0010     5.7410     2.4150   -18.0900 
  201.2500   100.7530    23.5330     6.5810     5.1030     5.8490     2.4160   -18.3300 
  201.3750    98.2800    23.5460     6.3010     5.2440     5.9980     2.4170   -18.6970 
  201.5000    96.8720    23.5460     5.9700     5.4430     6.2080     2.4150   -19.0750 
  201.6250    97.0880    23.5470     6.0860     5.7260     6.5080     2.4060   -19.4390 
  201.7500    96.5800    23.5510     6.7650     6.0820     6.8850     2.3940   -19.9330 
  201.8750    93.8280    23.5370     7.7650     6.4960     7.3230     2.3830   -20.4310 
  202.0000    90.7530    23.5260     8.6370     6.9380     7.7910     2.3760   -20.8310 
  202.1250    90.9290    23.5750     8.9870     7.3570     8.2330     2.3750   -21.3380 
  202.2500    92.5750    23.6320     9.0970     7.7090     8.6060     2.3840   -21.8130 
  202.3750    93.2600    23.6480     9.4370     7.9840     8.8970     2.3960   -22.1750 
  202.5000    93.3130    23.6130    10.1630     8.2180     9.1450     2.3970   -22.6040 
  202.6250    93.0600    23.5710    10.7160     8.5320     9.4770     2.3810   -22.9890 
  202.7500    90.7240    23.5620    10.5120     9.0850    10.0620     2.3640   -23.2730 
  202.8750    86.5540    23.5550     9.8250    10.0710    11.1050     2.3640   -23.6490 
  203.0000    83.4160    23.5890    10.0210    11.7280    12.8580     2.3740   -24.0760 
  203.1250    82.9490    23.7130    15.7330    14.5500    15.8440     2.3700   -24.4090 
  203.2500    82.3930    23.8570    30.0200    18.7440    20.2810     2.3400   -24.8150 
  203.3750    80.3280    23.9040    49.5460    24.6180    26.4960     2.2960   -25.2510 
  203.5000    77.3610    23.8170    63.7620    32.3580    34.6840     2.2600   -25.6000 
  203.6250    75.6780    23.7510    64.7140    42.0020    44.8880     2.2430   -26.0260 
  203.7500    75.5820    23.7200    63.8540    52.5090    56.0040     2.2370   -26.4550 
  203.8750    75.3690    23.7690    68.2290    63.0190    67.1240     2.2390   -26.7400 
  204.0000    73.5550    23.9260    77.7770    72.9030    77.5820     2.2480   -27.0310 
  204.1250    70.4410    24.1010    88.9620    81.9460    87.1490     2.2620   -27.3390 
  204.2500    68.1760    24.1960    98.6370    90.5250    96.2250     2.2720   -27.5300 
  204.3750    67.3150    24.2310   105.6680    98.7130   104.8890     2.2700   -27.7650 
  204.5000    67.3050    24.2460   110.3350   106.0930   112.6960     2.2540   -28.0050 
  204.6250    67.8000    24.2380   116.1950   111.6010   118.5240     2.2310   -28.1010 
  204.7500    69.8680    24.2320   129.2850   114.8130   121.9220     2.2100   -28.2480 
  204.8750    74.1960    24.2320   148.0290   115.5500   122.7020     2.1970   -28.4610 
  205.0000    78.4490    24.2450   161.7690   114.1840   121.2570     2.1980   -28.5610 
  205.1250    78.7520    24.2610   154.7690   111.5730   118.4940     2.2120   -28.6870 
