~V
VERS. 2.00: Ver 2.00
~W
STRT.M 59.0000:
STOP.M 277.0000:
STEP.M 0.1250:
NULL. -999.2500:
UWI. DF5027:
~C
DEPT.M :
GR.API :
RML.OHMM :
RI. :
RXO.OHMM :
CALI.CM :
DEN.GM/CC :
SP.MV :
~A
# ...
  205.2500    90.3560     9.0080     8.6960     8.7250    24.1220     2.4220   -13.1350 
  205.3750    87.3340     9.4120     8.9590     9.1310    24.1070     2.4290   -13.1580 
  205.5000    85.2900     9.9700     9.3310     9.4620    24.1020     2.4260   -13.2970 
  205.6250    84.8680    10.7800     9.9050     9.8660    24.1010     2.4090   -13.4510 
  205.7500    84.7480    11.8570    10.7140    10.5420    24.1030     2.3830   -13.6390 
  205.8750    82.1970    13.1240    11.7300    11.9350    24.1240     2.3550   -13.8770 
  206.0000    77.7300    14.4030    12.8420    13.9480    24.1790     2.3330   -14.1390 
  206.1250    74.3680    15.5100    13.8970    16.8040    24.2310     2.3290   -14.5090 
  206.2500    72.4850    16.3720    14.8370    18.9910    24.2400     2.3420   -14.8320 
  206.3750    69.2110    17.0800    15.7310    24.4370    24.2080     2.3650   -15.2700 
  206.5000    66.5270    17.9780    16.8500    36.1340    24.1970     2.3850   -15.6590 
  206.6250    69.0910    19.7360    19.0180    38.0250    24.2260     2.3860   -16.0890 
  206.7500    74.1050    23.2020    23.1220    27.1440    24.3090     2.3670   -16.5290 
  206.8750    75.1220    29.4660    30.2560    33.0480    24.4770     2.3330   -16.9870 
  207.0000    70.9030    40.1430    41.5340    55.6290    24.7110     2.2920   -17.4600 
  207.1250    66.1600    58.0180    58.5670   104.2310    24.8830     2.2530   -17.8810 
  207.2500    62.3050    81.8000    80.1140   167.3710    24.9590     2.2210   -18.3390 
  207.3750    59.1270   110.8780   104.3560   185.0340    24.9860     2.1960   -18.7370 
  207.5000    57.5650   141.5110   128.4100   179.9060    24.9800     2.1780   -19.1500 
  207.6250    59.0680   166.5020   147.9290   199.9260    24.9510     2.1690   -19.5320 
  207.7500    60.1160   182.7570   161.6920   242.0710    24.9030     2.1680   -19.9350 
  207.8750    59.3830   192.7230   170.8790   273.7990    24.8630     2.1750   -20.2960 
  208.0000    59.4280   200.5130   177.5880   276.9910    24.8350     2.1860   -20.6700 
  208.1250    61.9010   206.9840   182.4680   260.6550    24.8080     2.2000   -21.0090 
  208.2500    62.0300   211.5120   185.3780   258.5860    24.7740     2.2110   -21.3570 
  208.3750    59.2770   213.3530   185.9970   268.7920    24.7480     2.2210   -21.6410 
  208.5000    57.2120   212.1480   184.3400   277.5580    24.7270     2.2270   -21.9210 
  208.6250    57.7960   207.7560   180.4300   286.4210    24.7020     2.2260   -22.1640 
  208.7500    60.1790   201.5360   175.2020   311.4460    24.7220     2.2190   -22.3970 
  208.8750    63.3680   194.4680   169.4380   314.4780    24.7850     2.2050   -22.5900 
  209.0000    65.2740   187.6070   163.9970   272.9520    24.8520     2.1880   -22.7210 
  209.1250    62.9130   182.1960   159.9100   207.9490    24.9070     2.1720   -22.8170 
  209.2500    58.7180   178.8950   157.6780   182.5100    24.9230     2.1610   -22.8190 
  209.3750    57.1250   178.2150   157.7260   182.5580    24.9270     2.1540   -22.8800 
  209.5000    58.1660   180.2180   160.0910   189.1460    24.9270     2.1530   -22.7760 
  209.6250    59.6770   184.5910   164.5580   193.2170    24.9280     2.1550   -22.6750 
  209.7500    62.2170   189.7560   169.8330   201.4580    24.9310     2.1600   -22.5040 
  209.8750    63.7220   194.2770   174.7260   213.9110    24.9330     2.1620   -22.2880 
  210.0000    61.9580   196.6820   177.9910   231.6720    24.9310     2.1620   -22.0430 
  210.1250    58.5980   195.3320   178.2010   279.4570    24.9270     2.1590   -21.7520 
  210.2500    58.1390   190.6650   175.5140   334.4220    24.9110     2.1570   -21.4820 
  210.3750    59.5080   183.5610   170.3950   335.9110    24.8760     2.1580   -21.1390 
  210.5000    58.8400   175.4020   163.8140   266.2600    24.8490     2.1630   -20.8780 
  210.6250    57.9270   167.5830   156.9800   188.6150    24.8320     2.1680   -20.5280 
  210.7500    59.8880   160.8200   150.8280   152.3220    24.7990     2.1720   -20.1510 
  210.8750    62.6740   155.3900   145.8180   135.6340    24.7240     2.1720   -19.7650 
  211.0000    62.9760   151.5210   142.2230   125.9930    24.6080     2.1680   -19.3940 
  211.1250    61.1600   149.4140   140.3400   122.6050    24.5270     2.1600   -19.0300 
  211.2500    60.9030   148.4990   139.6500   124.6430    24.4820     2.1520   -18.7140 
  211.3750    61.0270   148.1760   139.6290   132.0170    24.4780     2.1450   -18.3710 
  211.5000    60.4890   148.0410   139.5550   128.4230    24.5160     2.1410   -18.0940 
  211.6250    59.0060   147.1010   138.3180   127.4260    24.5820     2.1420   -17.8430 
  211.7500    58.0780   145.3320   135.3080   133.8660    24.6600     2.1460   -17.6400 
  211.8750    58.1940   142.8830   130.3280   149.6040    24.7380     2.1510   -17.5240 
  212.0000    59.2190   140.0080   123.7000   166.2980    24.8110     2.1560   -17.4050 
  212.1250    61.7620   135.8350   116.2470   156.0830    24.8430     2.1620   -17.3940 
  212.2500    63.5360   129.9830   109.2490   117.2280    24.8640     2.1690   -17.3220 
  212.3750    64.6290   122.8430   103.4770    85.3930    24.8960     2.1760   -17.3470 
  212.5000    65.7250   115.2360    99.1810    75.0310    24.9210     2.1820   -17.2460 
  212.6250    65.4820   108.2060    96.1170    84.7150    24.9320     2.1850   -17.2510 
  212.7500    62.8040   103.8990    93.3060    94.8070    24.9330     2.1850   -17.2400 
  212.8750    59.5480    98.7450    90.0720    94.8350    24.9340     2.1830   -17.2160 
  213.0000    59.1030    92.5730    86.0140    88.7060    24.9250     2.1820   -17.2400 
  213.1250    62.8880    85.7000    81.0720    79.0890    24.9150     2.1830   -17.1770 
  213.2500    67.2920    79.0040    75.8630    66.7500    24.9110     2.1870   -17.1450 
  213.3750    70.2920    73.0930    70.9370    56.2920    24.9230     2.1920   -17.0260 
  213.5000    71.7700    68.3050    66.7340    51.6960    24.9240     2.1980   -17.0200 
  213.6250    71.1480    64.8850    63.6570    50.4220    24.8970     2.2040   -16.9100 
  213.7500    68.2100    62.4930    61.5000    49.2110    24.8650     2.2080   -16.8550 
  213.8750    64.4470    60.9480    60.0810    48.9690    24.8510     2.2070   -16.8000 
  214.0000    64.2110    60.0930    59.2330    49.6960    24.8490     2.1990   -16.7460 
  214.1250    66.2960    59.7930    58.8190    50.7300    24.8470     2.1860   -16.7090 
  214.2500    66.9460    59.7780    58.6130    49.0800    24.8260     2.1780   -16.7610 
  214.3750    66.7670    60.0230    58.5880    47.2790    24.7610     2.1880   -16.9040 
  214.5000    67.5680    60.6400    58.8260    46.5480    24.6550     2.2160   -17.1120 
  214.6250    68.7300    62.0660    59.6760    46.3610    24.5790     2.2550   -17.3860 
  214.7500    70.4380    64.7180    61.5600    47.6530    24.5870     2.2830   -17.6850 
  214.8750    73.3520    69.2640    65.1440    50.5980    24.6360     2.2890   -18.0070 
  215.0000    73.7070    76.4410    71.1470    53.1300    24.6730     2.2730   -18.3570 
  215.1250    67.3310    87.3200    80.5950    62.6580    24.7080     2.2450   -18.7980 
  215.2500    59.5100   100.9920    92.6410    75.8280    24.7350     2.2160   -19.2080 
  215.3750    55.4340   115.8800   105.8240   102.5710    24.6830     2.1920   -19.6780 
  215.5000    55.6060   129.3930   117.8510   147.7640    24.5910     2.1740   -20.0540 
  215.6250    57.4130   137.6520   125.4030   171.7360    24.5550     2.1690   -20.5540 
  215.7500    59.2640   139.6200   127.5430   167.3770    24.5440     2.1830   -20.9940 
  215.8750    60.3440   135.9820   124.6190   173.4720    24.4940     2.2200   -21.4420 
  216.0000    60.2700   129.3750   118.5970   183.6810    24.4000     2.2760   -21.8970 
  216.1250    58.8410   123.7830   112.8200   200.7900    24.3730     2.3340   -22.2910 
  216.2500    57.7260   122.2790   110.4440   143.9900    24.4570     2.3720   -22.7030 
  216.3750    57.9310   126.3410   113.2160   100.9240    24.5610     2.3740   -23.0280 
