~V
VERS. 2.00: Ver 2.00
~W
STRT.M 64.0000:
STOP.M 271.0000:
STEP.M 0.1250:
NULL. -999.2500:
UWI. DF5037:
~C
DEPT.M :
SP.MV :
GR.API :
RML.OHMM :
RI. :
RXO.OHMM :
CALI.CM :
DEN.GM/CC :
~A
# ...
  221.5000   -16.2020    75.4900    92.2540    83.2050    77.7760    23.5930     2.3520 
  221.6250   -16.1650    86.3180    96.0230    86.1130    88.4980    23.6210     2.4360 
  221.7500   -16.1260    94.6300    98.5020    88.1770    98.6810    23.4600     2.4950 
  221.8750   -16.0630    93.2540    98.7630    88.5130    98.6050    23.3200     2.5120 
  222.0000   -15.9680    87.3970    97.0500    87.1130    91.4850    23.2870     2.4890 
  222.1250   -15.8210    80.0220    94.6940    84.9910    85.8620    23.3110     2.4450 
  222.2500   -15.5830    72.9300    94.2460    84.3810    77.5070    23.4140     2.3990 
  222.3750   -15.3070    69.7740    97.4850    87.2170    76.7700    23.5220     2.3560 
  222.5000   -14.9820    70.0070   105.6370    94.9470    84.7260    23.6280     2.3120 
  222.6250   -14.5860    67.6050   118.5900   107.9600   100.3020    23.6980     2.2630 
  222.7500   -14.1190    60.1850   134.8960   124.5820   121.7770    23.7510     2.2200 
  222.8750   -13.6150    56.0830   149.0360   138.8930   135.4030    23.7810     2.2050 
  223.0000   -13.0830    57.5250   154.9380   144.4100   137.5400    23.7320     2.2330 
  223.1250   -12.5520    60.3460   145.6800   135.7570   130.9780    23.5690     2.3090 
  223.2500   -12.0550    58.9350   118.2690   110.1390   120.7120    23.3900     2.4140 
  223.3750   -11.5960    57.6370    83.4340    77.5830   105.0340    23.1630     2.5090 
  223.5000   -11.2180    61.1500    51.8320    48.0490    74.2910    22.9720     2.5640 
  223.6250   -10.9510    69.3060    29.7400    27.4020    41.8470    22.8340     2.5750 
  223.7500   -10.8280    78.7380    18.0670    16.4930    21.0240    22.6250     2.5550 
  223.8750   -10.8130    89.8300    11.9640    10.7890    10.3870    22.2990     2.5250 
  224.0000   -10.8880   102.2820     9.0750     8.0880     6.8930    22.0360     2.4930 
  224.1250   -11.0280   111.6190     7.9770     7.0630     6.7210    22.0040     2.4590 
  224.2500   -11.2110   112.7980     7.9700     7.0560     7.4020    22.3390     2.4250 
  224.3750   -11.4450   109.5570     8.4050     7.4630     7.7240    22.7310     2.3960 
  224.5000   -11.6890   105.6560     8.9910     8.0100     7.8230    23.0320     2.3750 
  224.6250   -11.9240   102.5220     9.5310     8.5150     7.9610    23.2300     2.3650 
  224.7500   -12.1610   102.0140     9.9090     8.8690     8.1620    23.2570     2.3660 
  224.8750   -12.3770   105.6610    10.1520     9.0960     8.3300    23.2380     2.3730 
  225.0000   -12.5750   115.5840    10.2890     9.2230     8.3860    23.2100     2.3840 
  225.1250   -12.7760   128.1490    10.3450     9.2700     8.3500    23.1790     2.3970 
  225.2500   -12.9980   136.3900    10.3290     9.2520     8.3050    23.1640     2.4120 
  225.3750   -13.2020   143.4950    10.2690     9.2040     8.3240    23.1600     2.4240 
  225.5000   -13.3930   155.5720    10.1710     9.1440     8.3730    23.1600     2.4310 
  225.6250   -13.5620   170.6800    10.0350     9.0810     8.4730    23.1600     2.4310 
  225.7500   -13.6910   168.8200     9.8840     9.0190     8.5740    23.1550     2.4280 
  225.8750   -13.7900   148.9390     9.7510     8.9530     8.6380    23.1240     2.4230 
  226.0000   -13.8430   126.8900     9.6840     8.8770     8.6450    23.0400     2.4190 
  226.1250   -13.8280   116.0390     9.6070     8.7850     8.6100    22.9240     2.4140 
  226.2500   -13.7420   115.5540     9.4990     8.6740     8.5680    22.8230     2.4110 
  226.3750   -13.6320   114.9770     9.3670     8.5590     8.5030    22.7680     2.4100 
  226.5000   -13.5400   113.9810     9.2150     8.4550     8.3570    22.7560     2.4110 
  226.6250   -13.4850   113.7490     9.1310     8.3830     8.1450    22.7750     2.4130 
  226.7500   -13.4610   113.7680     9.1670     8.3720     7.8880    22.8140     2.4120 
  226.8750   -13.4530   117.4190     9.2630     8.4220     7.7240    22.8310     2.4080 
  227.0000   -13.4630   125.9660     9.4420     8.5270     7.7940    22.8250     2.4050 
  227.1250   -13.4890   137.6990     9.6960     8.6700     8.0060    22.8190     2.4040 
  227.2500   -13.5260   142.5910     9.8580     8.8210     8.1730    22.8190     2.4080 
  227.3750   -13.5670   137.6520     9.9860     8.9400     8.2040    22.8190     2.4120 
  227.5000   -13.5760   128.8690    10.0410     8.9920     8.0710    22.8060     2.4090 
  227.6250   -13.5480   124.2870     9.9930     8.9460     7.9220    22.7440     2.3930 
  227.7500   -13.4930   124.4030     9.8080     8.7740     7.8070    22.5550     2.3660 
  227.8750   -13.4550   124.2110     9.5320     8.5090     7.6410    22.3170     2.3380 
  228.0000   -13.4460   126.3600     9.2070     8.1840     7.4010    22.1770     2.3170 
  228.1250   -13.4910   130.7600     8.8050     7.8530     7.2890    22.2410     2.3090 
  228.2500   -13.5960   129.1690     8.4620     7.6320     7.4940    22.4410     2.3140 
  228.3750   -13.7250   122.1560     8.4230     7.7000     8.0750    22.5470     2.3260 
  228.5000   -13.9000   118.4870     9.3840     8.4200     9.3780    22.6110     2.3370 
  228.6250   -14.1000   119.4790    12.2160    10.4940    13.1200    22.6960     2.3430 
  228.7500   -14.3370   113.2750    19.5630    15.6590    22.5680    22.8370     2.3400 
  228.8750   -14.5930    98.1310    32.1110    24.8620    37.9440    22.9570     2.3270 
  229.0000   -14.8490    80.8140    49.5250    38.6560    58.8130    23.0380     2.3080 
  229.1250   -15.0860    67.1560    70.3360    56.3120    80.5870    23.0880     2.2870 
  229.2500   -15.3220    60.9170    91.7650    75.3660    94.7950    23.1400     2.2670 
  229.3750   -15.5710    59.7060   109.9660    92.2090   103.9270    23.1780     2.2510 
  229.5000   -15.8190    59.5000   123.2850   105.0610   114.1620    23.1630     2.2390 
  229.6250   -16.0790    57.6690   132.5350   114.1600   123.1820    23.1130     2.2320 
  229.7500   -16.3660    54.8760   139.4580   120.5700   128.8890    23.1170     2.2300 
  229.8750   -16.6490    52.6970   145.1230   125.4440   133.4050    23.2090     2.2310 
  230.0000   -16.9370    51.7550   148.8720   128.5970   134.0660    23.2740     2.2350 
  230.1250   -17.2490    52.7640   149.8380   129.6050   131.0910    23.3120     2.2400 
  230.2500   -17.5420    54.9100   146.9500   127.7360   125.6450    23.3530     2.2440 
  230.3750   -17.8220    55.6750   140.9650   123.4550   121.0620    23.4070     2.2470 
  230.5000   -18.0750    58.0220   132.7590   117.2910   116.3400    23.4530     2.2460 
  230.6250   -18.2730    62.1170   123.6630   110.1780   109.3630    23.4780     2.2440 
  230.7500   -18.3560    66.3390   115.3550   103.4160   100.9850    23.5010     2.2420 
  230.8750   -18.3820    70.2730   108.8580    97.9780    90.9150    23.5120     2.2430 
  231.0000   -18.3800    70.2850   104.5980    94.3490    82.6890    23.4510     2.2470 
  231.1250   -18.3440    65.5670   102.5270    92.6050    80.1410    23.2960     2.2520 
  231.2500   -18.2990    63.1760   102.5290    92.7580    81.5530    23.1910     2.2560 
  231.3750   -18.2330    66.7180   103.8670    94.1860    83.6190    23.0970     2.2590 
  231.5000   -18.1440    69.0630   106.3080    96.6720    85.2020    23.0230     2.2630 
  231.6250   -18.0680    66.0100   109.6480   100.0440    88.1530    23.0100     2.2690 
  231.7500   -18.0530    64.5200   113.3250   104.0450    90.9080    23.1030     2.2750 
  231.8750   -18.0610    66.0800   116.5970   107.8420    95.4330    23.2020     2.2790 
  232.0000   -18.0720    65.0680   118.1680   110.3790    99.9150    23.2350     2.2790 
  232.1250   -18.0780    58.6050   117.5600   110.4800   102.9360    23.2020     2.2750 
  232.2500   -18.0300    53.6970   113.2000   106.8050   100.0730    23.1320     2.2690 
  232.3750   -17.9610    55.7160   107.3030   100.3090    92.9230    23.0180     2.2630 
  232.5000   -17.9100    63.1460   101.0890    92.4870    85.3610    22.8380     2.2580 
  232.6250   -17.8810    70.5890    94.3360    85.2570    78.0800    22.7160     2.2570 
