~V
VERS. 2.00: Ver 2.00
~W
STRT.M 58.0000:
STOP.M 261.0000:
STEP.M 0.1250:
NULL. -999.2500:
UWI. DF5035:
~C
DEPT.M :
DEN.GM/CC :
GR.API :
CALI.CM :
RXO.OHMM :
RI. :
RML.OHMM :
SP.MV :
~A
# ...
   80.5000     2.1610    71.9450    23.6860     8.9640     7.9690     9.2800   -46.7500 
   80.6250     2.1680    71.6490    23.5300     9.4630     7.6280     8.7410   -46.3300 
   80.7500     2.1780    72.0780    23.5170     9.1890     7.1060     8.0310   -46.0060 
   80.8750     2.1900    73.8200    23.7590     7.9030     6.5170     7.2970   -45.5500 
   81.0000     2.1960    76.8370    24.2420     6.5750     5.9680     6.6630   -45.1700 
   81.1250     2.1960    78.7660    24.7460     6.0310     5.5460     6.2270   -44.8110 
   81.2500     2.1930    80.7020    25.0560     5.9690     5.2630     5.9750   -44.4570 
   81.3750     2.1920    85.2100    25.1560     5.8550     5.1200     5.8850   -44.1530 
   81.5000     2.1930    90.3510    25.1220     5.8920     5.0980     5.9170   -43.7740 
   81.6250     2.1960    91.2000    25.0190     5.8200     5.1790     6.0440   -43.6350 
   81.7500     2.1960    88.9190    24.9030     5.8420     5.3220     6.2260   -43.4500 
   81.8750     2.1910    85.3090    24.8020     5.9180     5.5040     6.4330   -43.2890 
   82.0000     2.1840    81.4350    24.7040     5.9100     5.6820     6.6000   -43.2120 
   82.1250     2.1810    81.6970    24.5680     6.0110     5.7550     6.6020   -43.0110 
   82.2500     2.1880    86.4330    24.4400     6.2470     5.6460     6.3850   -42.8010 
   82.3750     2.2050    90.2990    24.4010     6.6100     5.3390     5.9690   -42.5900 
   82.5000     2.2240    91.3130    24.5040     6.1830     4.9070     5.4710   -42.4010 
   82.6250     2.2370    91.4150    24.7870     5.1260     4.5010     5.0820   -42.2200 
   82.7500     2.2360    91.6200    25.1270     4.4530     4.2390     4.9000   -42.0630 
   82.8750     2.2250    92.2880    25.3400     4.5250     4.1640     4.9310   -41.9650 
   83.0000     2.2150    94.3270    25.2900     5.0610     4.2570     5.1140   -41.8760 
   83.1250     2.2180    95.2170    25.0390     5.6100     4.4360     5.3200   -41.8190 
   83.2500     2.2340    92.1170    24.8290     5.5760     4.5530     5.3940   -41.8550 
   83.3750     2.2560    89.1540    24.7360     5.0330     4.5210     5.2680   -41.8690 
   83.5000     2.2770    91.1240    24.7210     4.7050     4.3390     4.9820   -41.9680 
   83.6250     2.2850    97.4700    24.7370     4.7510     4.0980     4.6810   -42.0560 
   83.7500     2.2810   102.3210    24.7700     4.9840     3.9210     4.5070   -42.1020 
   83.8750     2.2670   102.6740    24.8120     4.9240     3.8770     4.5310   -42.2440 
   84.0000     2.2480    97.5190    24.8310     4.8550     3.9960     4.7680   -42.3650 
   84.1250     2.2310    90.4310    24.8010     5.3480     4.2900     5.2000   -42.5920 
   84.2500     2.2180    87.5390    24.8260     5.9730     4.6730     5.6920   -42.8250 
   84.3750     2.2090    87.4410    25.0050     6.2510     5.0560     6.1190   -42.9990 
   84.5000     2.2070    86.9930    25.2470     6.2570     5.3320     6.3600   -43.1940 
   84.6250     2.2090    85.8500    25.3210     6.3030     5.3710     6.3030   -43.2060 
   84.7500     2.2120    84.6960    25.2260     5.9270     5.1970     6.0330   -43.2860 
   84.8750     2.2140    83.4550    25.0880     5.5350     4.8930     5.6730   -43.3370 
   85.0000     2.2130    84.8790    24.9970     5.5130     4.5830     5.3690   -43.2980 
   85.1250     2.2010    91.5660    24.9380     5.2370     4.4040     5.2760   -43.3310 
   85.2500     2.1760    96.1390    24.8300     4.9090     4.4150     5.4300   -43.2490 
   85.3750     2.1430    94.1670    24.6110     5.2120     4.6420     5.8330   -43.2630 
   85.5000     2.1110    87.2850    24.3510     6.0140     5.0690     6.4160   -43.3340 
   85.6250     2.0940    78.4890    24.2030     6.7640     5.5980     6.9930   -43.3310 
   85.7500     2.0940    70.6570    24.1110     6.9530     6.0130     7.3280   -43.2340 
   85.8750     2.1130    66.4180    24.0200     6.8510     6.1620     7.3050   -42.9900 
   86.0000     2.1520    66.7410    23.9770     6.5610     6.0290     6.9860   -42.6820 
   86.1250     2.2090    71.0770    24.0870     6.0780     5.7380     6.5820   -42.2090 
   86.2500     2.2750    77.1520    24.3490     5.4920     5.4850     6.3050   -41.7330 
   86.3750     2.3330    84.9380    24.6720     6.1040     5.3430     6.2030   -41.2570 
   86.5000     2.3610    91.0020    24.8910     6.8890     5.2950     6.2060   -40.6750 
   86.6250     2.3470    92.9640    24.8680     6.5400     5.2490     6.1680   -40.3640 
   86.7500     2.3170    93.4560    24.7400     5.3590     5.1180     5.9970   -40.0650 
   86.8750     2.2870    94.7470    24.6180     4.9220     4.8790     5.6890   -39.8850 
   87.0000     2.2600    96.7700    24.5160     4.6630     4.5560     5.3020   -39.8700 
   87.1250     2.2430    96.4440    24.4360     4.7710     4.2250     4.9540   -39.8590 
   87.2500     2.2390    93.8060    24.3870     4.9970     3.9860     4.7550   -40.0160 
   87.3750     2.2520    92.0250    24.3490     5.2160     3.9110     4.7660   -40.1360 
   87.5000     2.2830    93.1530    24.3310     5.2160     4.0250     5.0020   -40.2970 
   87.6250     2.3210    94.5500    24.3570     5.5170     4.3440     5.4650   -40.3940 
   87.7500     2.3480    92.7480    24.3710     7.1140     4.7850     6.0370   -40.5130 
   87.8750     2.3460    89.9490    24.3410     9.0520     5.2540     6.5780   -40.7140 
   88.0000     2.3180    89.8910    24.2960     8.9160     5.6250     6.9250   -40.8330 
   88.1250     2.2800    91.1450    24.2800     6.4750     5.7610     6.9380   -41.0790 
   88.2500     2.2520    88.5040    24.2700     5.4990     5.7010     6.7270   -41.2450 
   88.3750     2.2390    82.5340    24.2570     5.4800     5.5220     6.4220   -41.4110 
   88.5000     2.2360    77.6680    24.2820     5.6260     5.3140     6.1380   -41.6390 
   88.6250     2.2370    77.6300    24.3690     5.4700     5.1590     5.9530   -41.7130 
   88.7500     2.2350    79.9890    24.4680     5.2890     5.0750     5.8580   -41.8280 
   88.8750     2.2270    81.5120    24.5500     5.2950     5.0630     5.8590   -41.9420 
   89.0000     2.2140    82.1540    24.6240     5.3270     5.1360     5.9790   -42.0290 
   89.1250     2.2010    80.8880    24.6750     5.5350     5.3170     6.2310   -42.0700 
   89.2500     2.1910    77.4370    24.6730     6.0030     5.5470     6.5090   -42.0840 
   89.3750     2.1850    73.4640    24.6330     6.7010     5.7330     6.6870   -42.0840 
   89.5000     2.1870    71.9750    24.6190     7.4030     5.7840     6.6690   -42.0900 
   89.6250     2.1960    76.4770    24.7070     7.5450     5.6330     6.4250   -42.0730 
   89.7500     2.2090    80.8960    24.8670     6.5000     5.3620     6.0910   -42.0590 
   89.8750     2.2200    81.2370    25.0230     5.4270     5.0580     5.7740   -42.0140 
   90.0000     2.2260    78.5820    25.0890     5.1940     4.7950     5.5340   -41.9740 
   90.1250     2.2260    79.1330    25.0270     5.4500     4.6170     5.3860   -41.9770 
   90.2500     2.2260    83.2930    24.9450     5.5050     4.5040     5.2970   -41.9680 
   90.3750     2.2320    84.4730    24.9140     5.1740     4.4580     5.2790   -42.1010 
   90.5000     2.2490    80.0050    24.9280     4.8470     4.5020     5.3720   -42.1270 
   90.6250     2.2800    76.2040    24.9430     4.8690     4.6880     5.6300   -42.2730 
   90.7500     2.3140    78.9310    24.9590     5.3890     4.9940     6.0020   -42.5510 
   90.8750     2.3420    83.4740    25.0090     7.2970     5.3740     6.3990   -42.7500 
   91.0000     2.3480    83.3620    25.1040     9.7480     5.7240     6.6870   -43.0290 
   91.1250     2.3250    79.5440    25.1830     9.2450     5.8660     6.6970   -43.3660 
   91.2500     2.2930    76.9280    25.1970     6.8420     5.7730     6.4750   -43.7250 
   91.3750     2.2690    75.8670    25.1630     5.6560     5.5160     6.1360   -44.0560 
   91.5000     2.2580    76.6930    25.1360     5.4490     5.2000     5.7960   -44.3590 
   91.6250     2.2580    79.3720    25.1260     5.2050     4.9060     5.5170   -44.7570 
