~V
VERS. 2.00: Ver 2.00
~W
STRT.M 60.0000:
STOP.M 249.0000:
STEP.M 0.1250:
NULL. -999.2500:
UWI. DF5060:
~C
DEPT.M :
GR.API :
CALI.CM :
RXO.OHMM :
RI. :
RML.OHMM :
DEN.GM/CC :
SP.MV :
~A
# ...
  206.2500    61.5540    24.8110    40.3490    83.0380    75.6250     2.1570   -22.9270 
  206.3750    64.2530    24.8270    37.8120    75.3290    68.0820     2.1680   -22.8050 
  206.5000    65.0300    24.8210    32.8110    67.7530    61.2540     2.1850   -22.6800 
  206.6250    63.7470    24.8470    29.9160    62.1640    56.6570     2.2070   -22.6040 
  206.7500    61.9300    24.8610    30.3750    58.7930    54.2230     2.2240   -22.5330 
  206.8750    61.4090    24.8230    30.9690    57.5190    53.7190     2.2280   -22.4910 
  207.0000    62.4940    24.7820    30.7120    57.9870    54.7710     2.2180   -22.5210 
  207.1250    63.3420    24.8470    31.8170    60.0290    57.2580     2.2020   -22.4710 
  207.2500    62.9960    24.9650    34.2190    63.2810    60.8960     2.1990   -22.4790 
  207.3750    61.9420    25.0280    35.5700    67.8120    65.7340     2.2140   -22.4630 
  207.5000    61.2020    25.0210    36.4810    73.5890    71.6420     2.2440   -22.4970 
  207.6250    62.1900    24.9940    39.0710    80.1210    77.9750     2.2770   -22.4910 
  207.7500    63.3570    24.9540    41.5820    86.0380    83.3830     2.2920   -22.5300 
  207.8750    61.2560    24.9300    45.0220    89.9620    86.5790     2.2800   -22.5880 
  208.0000    57.4410    24.9550    46.8100    90.9110    86.7650     2.2480   -22.5880 
  208.1250    56.7990    25.0180    45.1040    88.4090    83.7500     2.2190   -22.6680 
  208.2500    59.3630    25.0530    40.6670    83.9800    79.1430     2.2060   -22.7160 
  208.3750    62.1790    25.0650    37.6750    78.7540    73.9950     2.2060   -22.7790 
  208.5000    64.1050    25.0970    37.4750    73.5080    68.9360     2.2130   -22.7960 
  208.6250    64.1800    25.1460    37.3970    68.5650    64.1670     2.2150   -22.8780 
  208.7500    62.9400    25.1760    37.0260    63.8550    59.6130     2.2120   -22.9510 
  208.8750    62.6950    25.1820    35.5810    59.4500    55.3970     2.2070   -23.0290 
  209.0000    64.6140    25.1790    34.0620    55.6420    51.8630     2.2040   -23.1860 
  209.1250    65.7050    25.1800    32.6520    53.0520    49.6680     2.2040   -23.3020 
  209.2500    65.8230    25.1790    31.0760    51.8850    48.9560     2.2020   -23.4240 
  209.3750    66.6840    25.1790    30.4070    52.3170    49.8090     2.1970   -23.5090 
  209.5000    66.8580    25.1840    31.3640    54.3280    52.0870     2.1900   -23.5830 
  209.6250    64.2570    25.2020    33.3160    57.7830    55.5160     2.1820   -23.6480 
  209.7500    63.6240    25.2220    35.1440    61.8370    59.2940     2.1760   -23.7080 
  209.8750    66.7420    25.2330    36.7690    65.7740    62.8020     2.1700   -23.7720 
  210.0000    68.3870    25.2340    37.8000    68.9310    65.5140     2.1640   -23.8510 
  210.1250    64.9540    25.2330    37.9340    70.6480    66.9540     2.1610   -23.9610 
  210.2500    62.6290    25.2340    38.0110    71.0640    67.3650     2.1620   -23.9850 
  210.3750    64.5340    25.2450    37.6890    70.4140    67.0330     2.1670   -24.0230 
  210.5000    66.7690    25.2670    37.8250    69.0890    66.3280     2.1730   -24.0400 
  210.6250    66.5130    25.2800    38.1950    67.5610    65.6450     2.1760   -24.0040 
  210.7500    65.5510    25.2600    38.1340    66.2750    65.2640     2.1740   -23.9820 
  210.8750    66.0900    25.2110    37.2480    65.4550    65.3220     2.1660   -23.9880 
  211.0000    67.7990    25.1670    37.1640    65.1390    65.8220     2.1560   -23.9430 
  211.1250    67.1710    25.1440    38.3810    65.2390    66.6860     2.1460   -23.9410 
  211.2500    64.2860    25.1190    39.2950    65.5970    67.7920     2.1420   -23.9820 
  211.3750    61.5790    25.0840    39.8590    66.3260    69.2870     2.1460   -23.9960 
  211.5000    60.6430    25.0570    40.6260    67.7150    71.5270     2.1580   -23.9850 
  211.6250    61.1230    25.0520    40.5100    70.4300    75.3300     2.1700   -23.9150 
  211.7500    61.7730    25.0540    41.2790    74.8310    81.0980     2.1750   -23.7530 
  211.8750    62.3330    25.0540    45.3100    81.2460    89.1170     2.1700   -23.5550 
  212.0000    61.7690    25.0560    49.6480    89.5650    99.1350     2.1590   -23.3750 
  212.1250    61.3380    25.0560    50.7990    98.9310   109.9810     2.1470   -23.1190 
  212.2500    61.1780    25.0560    52.8510   107.2810   119.2430     2.1410   -22.8720 
  212.3750    61.6940    25.0560    56.2780   112.6700   124.6830     2.1410   -22.6390 
  212.5000    63.2310    25.0560    58.7050   113.9440   125.1150     2.1470   -22.4240 
  212.6250    64.6590    25.0560    57.1390   111.0340   120.8260     2.1550   -22.2530 
  212.7500    65.1200    25.0560    54.0650   106.2850   114.8010     2.1630   -22.0820 
  212.8750    63.8470    25.0560    51.8270   101.2320   108.8310     2.1680   -21.8560 
  213.0000    61.7880    25.0560    51.0620    96.9070   103.9700     2.1700   -21.6120 
  213.1250    59.4810    25.0560    50.8420    93.9930   100.7640     2.1720   -21.2680 
  213.2500    59.5190    25.0550    49.9690    92.1130    98.5680     2.1760   -20.9540 
  213.3750    63.0220    25.0540    49.3150    90.6790    96.6430     2.1830   -20.6440 
  213.5000    65.9340    25.0550    48.7360    88.9680    94.2070     2.1910   -20.3620 
  213.6250    64.9400    25.0540    46.7970    85.9960    90.2540     2.1990   -20.0660 
  213.7500    63.3270    25.0540    45.0290    81.2920    84.4350     2.2070   -19.7880 
  213.8750    63.7120    25.0510    43.6920    74.7180    76.7510     2.2170   -19.5290 
  214.0000    64.9030    25.0360    41.8590    66.7600    67.8810     2.2320   -19.1910 
  214.1250    64.3390    24.9870    40.8280    58.6750    59.3100     2.2500   -19.0080 
  214.2500    64.0770    24.9170    38.1920    51.9430    52.4860     2.2640   -18.8370 
  214.3750    63.9860    24.8530    33.5770    47.5460    48.3230     2.2680   -18.6710 
  214.5000    63.3020    24.8150    29.6930    46.0410    47.2450     2.2600   -18.4830 
  214.6250    64.0270    24.8070    30.7100    48.0940    49.6980     2.2410   -18.3000 
  214.7500    65.1380    24.8220    32.3500    52.9180    54.6300     2.2220   -18.1320 
  214.8750    64.9710    24.8540    37.6370    59.7450    61.0560     2.2150   -17.9970 
  215.0000    63.4090    24.9200    41.2180    67.1420    67.3710     2.2280   -17.9520 
  215.1250    64.6110    25.0460    39.8990    72.0540    70.3550     2.2690   -17.8260 
  215.2500    68.0470    25.1840    34.9230    71.3670    67.4880     2.3290   -17.6900 
  215.3750    68.2760    25.2450    32.9420    63.1550    57.8470     2.4010   -17.5730 
  215.5000    63.1070    25.1780    32.5630    48.9950    43.6070     2.4700   -17.5010 
  215.6250    58.5280    25.0130    29.4400    34.1270    29.4940     2.5110   -17.5050 
  215.7500    59.2280    24.8130    18.9670    22.7050    18.8400     2.5180   -17.5770 
  215.8750    61.6150    24.6070     9.3710    15.3150    12.1290     2.5020   -17.7310 
  216.0000    61.3840    24.4590     5.2630    11.0930     8.4990     2.4790   -17.9770 
  216.1250    60.9400    24.4640     5.1160     9.1470     7.0030     2.4630   -18.3490 
  216.2500    62.1370    24.5790     5.2420     8.3370     6.4970     2.4520   -18.7820 
  216.3750    62.1870    24.7220     5.6650     8.2930     6.6070     2.4440   -19.2560 
  216.5000    62.5610    24.8570     6.4640     8.7710     7.0920     2.4340   -19.7460 
  216.6250    71.0860    24.9740     7.3230     9.5380     7.7220     2.4260   -20.2340 
  216.7500    84.0070    25.0610     7.6290    10.2610     8.2380     2.4200   -20.7160 
  216.8750    91.9970    25.1010     7.6720    10.7280     8.5150     2.4170   -21.1470 
  217.0000    91.8840    25.1060     7.6340    10.8490     8.5420     2.4150   -21.5510 
  217.1250    89.4100    25.1020     7.6010    10.6450     8.3890     2.4100   -21.9420 
  217.2500    90.9130    25.1000     7.5710    10.3360     8.2290     2.4050   -22.3020 
  217.3750    96.8950    25.0980     7.5210    10.0880     8.2070     2.3980   -22.6430 
