~V
VERS. 2.00: Ver 2.00
~W
STRT.M 60.0000:
STOP.M 248.0000:
STEP.M 0.1250:
NULL. -999.2500:
UWI. DF5054:
~C
DEPT.M :
SP.MV :
GR.API :
CALI.CM :
RXO.OHMM :
RI. :
RML.OHMM :
DEN.GM/CC :
~A
   60.0000    26.1370    51.2180    24.5850    -1.0010     0.1740     0.4470     2.0960 
   60.1250    25.0690    51.8130    24.5930    -0.9660     0.1350     0.4020     2.0970 
   60.2500    23.6540    52.4680    24.7540    -0.7760     0.0920     0.3550     2.1040 
   60.3750    21.8440    52.9420    24.9390    -0.5370     0.0520     0.3170     2.1190 
   60.5000    19.6050    54.2890    25.0300    -0.4570     0.0210     0.2940     2.1260 
   60.6250    16.8640    58.9830    24.8300    -0.6140     0.0140     0.2970     2.0900 
   60.7500    13.7250    68.2510    24.4860    -0.7460     0.0480     0.3310     2.0500 
   60.8750    10.2510    82.6610    24.1920    -0.5230     0.1480     0.4070     2.0760 
   61.0000     6.5530   100.8880    24.0280     0.3050     0.3380     0.5550     2.1830 
   61.1250     2.8190   116.7590    23.9170     1.9570     0.6710     0.8400     2.2880 
   61.2500    -0.7410   124.0680    23.7920     3.5940     1.1390     1.2700     2.3160 
   61.3750    -4.0030   122.7200    23.6600     4.6720     1.7180     1.8100     2.2870 
   61.5000    -6.9030   118.2680    23.5770     5.0680     2.3470     2.3670     2.2530 
   61.6250    -9.3530   116.6610    23.5850     4.9200     2.9340     2.8130     2.2440 
   61.7500   -11.4060   116.9430    23.5520     4.6010     3.4250     3.1190     2.2500 
   61.8750   -13.0690   116.4500    23.5110     4.2820     3.8190     3.3330     2.2540 
   62.0000   -14.3900   113.5640    23.5080     4.0930     4.1450     3.5240     2.2460 
   62.1250   -15.4250   108.0530    23.5010     4.2840     4.4030     3.7050     2.2280 
   62.2500   -16.2990   101.3410    23.5050     4.8780     4.5790     3.8500     2.2160 
   62.3750   -17.0370    95.8780    23.5330     5.6080     4.6540     3.9260     2.2180 
   62.5000   -17.6460    94.8920    23.6250     5.9910     4.6380     3.9230     2.2350 
   62.6250   -18.1340   100.7320    23.8090     5.6720     4.5680     3.8700     2.2610 
   62.7500   -18.5580   110.0400    23.9840     4.9520     4.5110     3.8300     2.2860 
   62.8750   -18.9460   118.6770    24.1210     4.3210     4.5130     3.8480     2.3050 
   63.0000   -19.3140   122.4140    24.2240     4.1260     4.6080     3.9580     2.3200 
   63.1250   -19.6820   117.3930    24.1900     4.4940     4.8180     4.1990     2.3330 
   63.2500   -20.0790   107.5000    24.0390     5.2190     5.0990     4.5280     2.3320 
   63.3750   -20.5310    99.1790    23.8940     5.9850     5.4030     4.8980     2.3080 
   63.5000   -21.0420    96.5980    23.8570     6.4080     5.6820     5.2590     2.2740 
   63.6250   -21.5990    98.9780    23.8920     6.3330     5.8950     5.5560     2.2550 
   63.7500   -22.1700   101.3810    23.9160     6.2500     6.0440     5.7850     2.2470 
   63.8750   -22.7320   102.2750    23.8540     6.4110     6.1340     5.9680     2.2350 
   64.0000   -23.2660   101.0910    23.7840     6.7560     6.1710     6.1120     2.2100 
   64.1250   -23.7530    95.5070    23.7590     7.0370     6.1450     6.1960     2.1820 
   64.2500   -24.2010    86.4420    23.7490     7.1440     6.0730     6.2220     2.1670 
   64.3750   -24.6210    77.9040    23.6820     7.2130     5.9980     6.2210     2.1680 
   64.5000   -25.0090    73.9730    23.5520     7.3660     5.9910     6.2590     2.1800 
   64.6250   -25.3170    74.7310    23.4630     7.5940     6.1610     6.4450     2.1920 
   64.7500   -25.5180    75.8300    23.4150     7.7860     6.5390     6.8200     2.2000 
   64.8750   -25.6100    75.6190    23.3520     8.0650     7.1190     7.3810     2.2150 
   65.0000   -25.6280    74.3550    23.2790     9.7460     7.8340     8.0540     2.2520 
   65.1250   -25.6210    73.1310    23.3320    15.9100     8.5140     8.6630     2.3280 
   65.2500   -25.6240    74.2530    23.4410    25.5330     8.9530     9.0090     2.4130 
   65.3750   -25.6490    80.9610    23.4490    31.4010     9.0040     8.9560     2.4580 
   65.5000   -25.7090    91.9400    23.3210    28.3770     8.6440     8.5000     2.4280 
   65.6250   -25.8360    98.0400    23.1700    19.7060     7.9840     7.7900     2.3330 
   65.7500   -26.0360    94.7870    23.0990    12.9490     7.2890     7.1000     2.2370 
   65.8750   -26.3060    86.5630    23.0700     9.4180     6.7160     6.5760     2.1720 
   66.0000   -26.6380    79.9730    23.0820     8.1690     6.3520     6.2860     2.1450 
   66.1250   -27.0160    78.0460    23.1070     8.0050     6.2460     6.2580     2.1510 
   66.2500   -27.3990    78.0990    23.2230     8.0240     6.3070     6.3770     2.1700 
   66.3750   -27.7530    77.8710    23.4140     8.0440     6.4580     6.5500     2.1870 
   66.5000   -28.0520    76.8960    23.6330     8.2130     6.6210     6.7020     2.1920 
   66.6250   -28.2660    77.3960    23.7190     8.5600     6.7240     6.7650     2.1820 
   66.7500   -28.3960    80.0010    23.7350     8.8570     6.7560     6.7490     2.1660 
   66.8750   -28.4290    83.2200    23.7280     8.8560     6.7260     6.6740     2.1530 
   67.0000   -28.3490    84.5750    23.7400     8.5350     6.6520     6.5690     2.1430 
   67.1250   -28.1150    81.6300    23.7260     8.1610     6.5520     6.4540     2.1310 
   67.2500   -27.7480    75.7500    23.7890     7.9670     6.4430     6.3440     2.1220 
   67.3750   -27.2650    70.7190    23.8770     8.0110     6.3290     6.2410     2.1260 
   67.5000   -26.6960    69.8420    23.9440     8.1380     6.2060     6.1350     2.1390 
   67.6250   -26.0620    74.0730    23.9670     8.1010     6.0660     6.0050     2.1490 
   67.7500   -25.4000    81.4310    23.9710     7.7850     5.9160     5.8600     2.1550 
   67.8750   -24.7420    91.7290    23.9370     7.2460     5.7690     5.7260     2.1730 
   68.0000   -24.1250   104.2670    23.9250     6.6640     5.6450     5.6310     2.2150 
   68.1250   -23.6120   115.5750    23.9890     6.2480     5.5720     5.6110     2.2730 
   68.2500   -23.2280   120.4880    24.0340     6.0870     5.5560     5.6650     2.3160 
   68.3750   -22.9830   116.7210    23.9950     6.1570     5.5940     5.7860     2.3250 
   68.5000   -22.8640   107.1090    23.8740     6.3700     5.6780     5.9550     2.3040 
   68.6250   -22.8610    98.0890    23.8000     6.5570     5.7810     6.1250     2.2830 
   68.7500   -22.9360    92.8640    23.7660     6.6840     5.8620     6.2430     2.2730 
   68.8750   -23.0570    90.0670    23.7570     6.8160     5.8860     6.2730     2.2630 
   69.0000   -23.1850    88.0730    23.7540     6.9860     5.8320     6.2030     2.2430 
   69.1250   -23.2880    87.6810    23.7470     7.1230     5.6930     6.0410     2.2280 
   69.2500   -23.3600    89.9100    23.7470     7.0540     5.5120     5.8450     2.2360 
   69.3750   -23.4050    94.3210    23.7570     6.6500     5.3260     5.6640     2.2580 
   69.5000   -23.4350    99.6520    23.7770     5.9400     5.1760     5.5440     2.2710 
   69.6250   -23.4720   103.0720    23.7710     5.3170     5.1090     5.5270     2.2570 
   69.7500   -23.5200   101.4430    23.7090     5.1370     5.1240     5.5990     2.2240 
   69.8750   -23.5730    94.2180    23.5620     5.3760     5.2060     5.7370     2.1840 
   70.0000   -23.6150    85.8980    23.3850     5.7870     5.3230     5.9030     2.1540 
   70.1250   -23.6050    82.8210    23.3260     6.1450     5.4280     6.0360     2.1470 
   70.2500   -23.5300    84.6080    23.3960     6.4370     5.4860     6.0970     2.1610 
   70.3750   -23.3940    89.5010    23.5510     6.5810     5.4790     6.0700     2.1840 
   70.5000   -23.2160    96.9040    23.7360     6.4760     5.4120     5.9730     2.2000 
   70.6250   -23.0220   105.1440    23.7890     6.1110     5.3050     5.8370     2.1980 
   70.7500   -22.8580   110.8580    23.6220     5.6630     5.2000     5.7100     2.1900 
   70.8750   -22.7640   112.8380    23.3680     5.3370     5.1250     5.6210     2.1900 
   71.0000   -22.7660   111.6880    23.1770     5.2600     5.0950     5.5920     2.2010 
   71.1250   -22.8830   107.4730    23.1250     5.4320     5.1240     5.6370     2.2120 
