~V
VERS. 2.00: Ver 2.00
~W
STRT.M 53.0000:
STOP.M 257.0000:
STEP.M 0.1250:
NULL. -999.2500:
UWI. DF5014:
~C
DEPT.M :
GR.API :
RML.OHMM :
RI. :
RXO.OHMM :
CALI.CM :
DEN.GM/CC :
SP.MV :
~A
# ...
  221.7500    56.3680   125.6480   117.8970   107.4510    24.2840     2.1840    -8.1940 
  221.8750    60.6890   124.8190   117.0530   109.8530    24.2530     2.1790    -8.2040 
  222.0000    63.5820   123.9180   116.0540   109.8100    24.2050     2.1810    -8.2280 
  222.1250    63.0890   123.4000   115.3090   105.9390    24.1620     2.1890    -8.2620 
  222.2500    61.6460   124.2090   115.7480    99.7320    24.1510     2.1990    -8.3230 
  222.3750    61.4330   127.9630   119.0200    96.8300    24.1690     2.2090    -8.4600 
  222.5000    62.4440   134.8030   125.3770   102.1620    24.1730     2.2210    -8.6830 
  222.6250    62.6970   144.0830   134.2810   115.0820    24.1400     2.2370    -8.9430 
  222.7500    61.2180   154.0250   144.0710   131.4720    24.0600     2.2570    -9.2210 
  222.8750    59.5750   161.4540   151.7460   140.1870    23.9440     2.2720    -9.4600 
  223.0000    59.6680   164.2160   155.2820   140.0690    23.8860     2.2730    -9.6390 
  223.1250    60.9200   161.6990   153.9910   132.9580    23.9060     2.2580    -9.7630 
  223.2500    62.3980   155.1580   148.6530   124.8470    23.9450     2.2340    -9.8190 
  223.3750    63.7010   146.5270   140.7620   119.3040    23.9320     2.2080    -9.7980 
  223.5000    63.5490   138.2280   132.2200   114.4390    23.8630     2.1880    -9.7220 
  223.6250    60.4530   130.6670   123.6170   108.6510    23.8000     2.1740    -9.6460 
  223.7500    56.0260   123.5430   115.1380   102.8560    23.7720     2.1650    -9.5510 
  223.8750    56.0950   116.5390   107.0190    97.6740    23.7450     2.1630    -9.5030 
  224.0000    60.6730   107.6840    99.5950    91.4450    23.6870     2.1680    -9.5030 
  224.1250    65.0190   100.1580    93.3110    83.9730    23.6330     2.1800    -9.5850 
  224.2500    65.2140    94.3280    88.5090    77.2210    23.6310     2.1970    -9.6860 
  224.3750    62.4930    90.4400    85.5060    73.5690    23.6330     2.2140    -9.7950 
  224.5000    61.0910    87.8720    83.7980    69.1000    23.6130     2.2280    -9.8730 
  224.6250    60.1320    86.2910    83.0400    64.0870    23.5730     2.2360    -9.9140 
  224.7500    59.0940    85.4890    82.9090    57.8040    23.4600     2.2360    -9.9130 
  224.8750    59.3010    85.4140    83.1590    49.4140    23.0880     2.2310    -9.9170 
  225.0000    59.8020    85.6250    83.3730    45.1350    22.6340     2.2260    -9.8950 
  225.1250    59.5360    85.4340    82.9940    53.4460    22.5640     2.2230    -9.8260 
  225.2500    59.3740    83.8560    81.2460    75.4740    22.9560     2.2230    -9.7550 
  225.3750    59.1470    79.5600    77.0200   102.6400    23.3990     2.2210    -9.7300 
  225.5000    57.3520    72.9560    70.7070   121.6930    23.6710     2.2160    -9.7430 
  225.6250    55.4600    65.2950    63.3780   112.6560    23.7000     2.2110    -9.7780 
  225.7500    57.5550    58.6010    56.7930    73.6570    23.6610     2.2080    -9.8470 
  225.8750    63.7360    55.7680    53.5140    46.6260    23.6450     2.2090    -9.9250 
  226.0000    67.9690    57.9310    54.6810    40.0020    23.6400     2.2110    -9.9960 
  226.1250    67.1900    65.7600    61.0660    47.8460    23.6140     2.2090   -10.0730 
  226.2500    62.3980    78.9740    72.5690    64.4140    23.5450     2.2020   -10.1460 
  226.3750    58.3070    96.1000    87.9310    86.0750    23.4490     2.1910   -10.2210 
  226.5000    57.4510   112.6750   102.9420   103.4610    23.3830     2.1800   -10.2260 
  226.6250    57.8690   124.4190   113.6160   110.2820    23.3420     2.1740   -10.1990 
  226.7500    58.1950   128.1000   116.8690   108.5680    23.3170     2.1750   -10.1710 
  226.8750    59.2050   121.6430   110.9960   100.7680    23.3190     2.1850   -10.1440 
  227.0000    62.2420   109.6640   100.0700    89.9990    23.3440     2.1990   -10.0650 
  227.1250    64.3420    95.7020    87.6060    75.6440    23.3770     2.2140    -9.9670 
  227.2500    62.8130    83.1340    76.4490    60.1750    23.3960     2.2260    -9.8540 
  227.3750    60.1080    73.0710    68.7440    53.0900    23.3500     2.2310    -9.7200 
  227.5000    58.8700    66.2530    64.3020    52.4740    23.2990     2.2310    -9.5710 
  227.6250    57.5260    63.7960    62.6430    55.2640    23.2740     2.2280    -9.4170 
  227.7500    55.7940    64.4860    62.9640    56.5430    23.2640     2.2230    -9.2630 
  227.8750    56.2550    66.1190    64.4000    54.1670    23.2120     2.2190    -9.1590 
  228.0000    58.6530    67.7740    65.9230    50.5590    23.1500     2.2150    -9.1320 
  228.1250    61.7580    69.0440    67.0440    48.4770    23.1010     2.2140    -9.1920 
  228.2500    63.9910    69.7590    67.5450    48.3630    23.0620     2.2170    -9.3430 
  228.3750    64.6890    69.7490    67.2730    48.5950    23.0480     2.2260    -9.6480 
  228.5000    64.0950    69.0090    66.3210    48.9000    23.0430     2.2380   -10.0940 
  228.6250    64.2560    67.4730    64.6980    50.0000    23.0550     2.2510   -10.6630 
  228.7500    67.0700    65.3950    62.5740    52.2850    23.1000     2.2630   -11.2840 
  228.8750    68.8960    63.3350    60.4550    54.1220    23.2250     2.2700   -11.8840 
  229.0000    67.2750    62.0960    59.0180    54.3970    23.3720     2.2750   -12.4600 
  229.1250    65.4140    62.0650    58.7980    52.6010    23.5100     2.2830   -12.9570 
  229.2500    67.7920    63.6560    60.1060    53.9130    23.5850     2.2950   -13.3660 
  229.3750    71.9980    66.4960    63.1080    58.9220    23.4930     2.3070   -13.6670 
  229.5000    72.6930    70.1060    67.0110    65.7770    23.2880     2.3150   -13.8670 
  229.6250    69.8770    74.3670    71.0590    72.3710    23.1740     2.3190   -13.9890 
  229.7500    65.3800    78.4070    74.5520    75.9930    23.3170     2.3250   -14.0750 
  229.8750    62.1900    81.1280    77.0130    79.4180    23.6450     2.3360   -14.1180 
  230.0000    63.3520    83.1160    78.8930    77.8530    23.9600     2.3480   -14.1180 
  230.1250    67.5090    85.0800    80.7790    73.1330    24.1440     2.3540   -14.1130 
  230.2500    69.4230    87.5380    83.1460    69.5850    24.2430     2.3530   -14.1180 
  230.3750    67.7890    90.6290    86.1940    75.2360    24.2720     2.3530   -14.0340 
  230.5000    65.9410    94.0240    89.6000    82.5290    24.2660     2.3610   -13.9110 
  230.6250    64.2440    97.5300    93.0660    87.2900    24.2280     2.3750   -13.7000 
  230.7500    61.8540   100.8510    96.1450    87.1080    24.1150     2.3860   -13.4110 
  230.8750    62.2270   102.6720    97.5120    82.7780    23.9220     2.3870   -13.0600 
  231.0000    65.4500   100.9140    95.4930    80.5160    23.8670     2.3850   -12.6780 
  231.1250    68.4050    93.1270    88.1050    81.8660    24.0040     2.3960   -12.2560 
  231.2500    68.2050    78.1590    74.3580    79.5000    24.1140     2.4280   -11.7820 
  231.3750    62.8120    57.9030    55.6270    70.8930    24.0940     2.4780   -11.3150 
  231.5000    59.0720    38.7960    37.5500    55.9450    24.0190     2.5200   -10.8600 
  231.6250    60.2270    24.5250    23.7250    32.2060    23.9630     2.5340   -10.4610 
  231.7500    63.1990    15.6340    14.9330    13.7800    23.9400     2.5190   -10.0980 
  231.8750    63.3330    11.2950    10.4800     7.8020    23.8780     2.4860    -9.7960 
  232.0000    63.0830     9.2630     8.2300     6.5180    23.8510     2.4570    -9.6000 
  232.1250    64.0240     8.5680     7.3130     6.4910    23.9880     2.4370    -9.4780 
  232.2500    62.8730     8.5640     7.1940     6.8040    24.2080     2.4260    -9.4330 
  232.3750    59.4020     8.8300     7.5350     7.1440    24.3090     2.4220    -9.4650 
  232.5000    57.8370     9.0680     7.9690     7.3360    24.3040     2.4200    -9.5800 
  232.6250    57.7920     9.1990     8.3310     7.3850    24.2850     2.4180    -9.7310 
  232.7500    58.1180     9.2200     8.5530     7.3050    24.2420     2.4170    -9.9580 
  232.8750    58.2710     9.1500     8.6320     7.1890    24.1180     2.4150   -10.2070 
