~V
VERS. 2.00: Ver 2.00
~W
STRT.M 64.0000:
STOP.M 271.0000:
STEP.M 0.1250:
NULL. -999.2500:
UWI. DF5037:
~C
DEPT.M :
SP.MV :
GR.API :
RML.OHMM :
RI. :
RXO.OHMM :
CALI.CM :
DEN.GM/CC :
~A
# ...
   75.2500   -26.0990    98.8850     6.6650     6.0620     6.5690    22.4420     2.2410 
   75.3750   -26.0720    97.8540     6.7220     6.1650     6.8020    22.2600     2.2560 
   75.5000   -25.9930   103.7190     6.6680     6.1770     6.7560    22.4310     2.2710 
   75.6250   -25.9360   112.2050     6.5190     6.0880     6.4160    22.8070     2.2830 
   75.7500   -25.9370   115.8850     6.3440     5.9400     6.0710    23.1430     2.2860 
   75.8750   -25.9350   111.9420     6.2230     5.8110     5.8860    23.2960     2.2850 
   76.0000   -25.8600   105.8060     6.1890     5.7440     5.8830    23.2830     2.2830 
   76.1250   -25.7510   103.8380     6.2430     5.7500     5.9820    23.1360     2.2810 
   76.2500   -25.6910   107.0840     6.3810     5.8300     6.1220    22.9590     2.2780 
   76.3750   -25.7200   106.8940     6.5780     5.9580     6.2620    22.9050     2.2710 
   76.5000   -25.8670   102.4300     6.8280     6.1250     6.3720    22.9860     2.2570 
   76.6250   -26.1100    99.9060     7.1110     6.3210     6.5080    22.8990     2.2390 
   76.7500   -26.3850   100.9380     7.3660     6.5120     6.9360    22.4530     2.2270 
   76.8750   -26.6330   102.9980     7.5260     6.6500     7.4380    21.9950     2.2250 
   77.0000   -26.8540   103.5300     7.5500     6.6990     7.7760    21.7370     2.2310 
   77.1250   -27.0960   102.9280     7.4470     6.6540     7.7330    21.6550     2.2440 
   77.2500   -27.3490   103.0500     7.2730     6.5460     7.0890    21.7650     2.2560 
   77.3750   -27.5560   102.3870     7.1330     6.4480     6.8920    21.8780     2.2630 
   77.5000   -27.6400    98.8950     7.1200     6.4270     7.1870    21.6960     2.2620 
   77.6250   -27.5950    92.6040     7.3320     6.5570     7.8400    21.3660     2.2540 
   77.7500   -27.4450    89.2020     7.9180     6.9610     8.5850    21.3320     2.2430 
   77.8750   -27.2580    89.0360     8.8210     7.6290     9.2190    21.4910     2.2400 
   78.0000   -27.0350    87.3010     9.8740     8.4770    10.4500    21.7560     2.2560 
   78.1250   -26.6900    83.9840    10.7500     9.2980    12.5870    22.2960     2.2980 
   78.2500   -26.2250    82.1440    10.9260     9.7060    14.8000    22.9320     2.3560 
   78.3750   -25.7370    84.4810    10.2770     9.5050    15.6060    23.3180     2.4040 
   78.5000   -25.3120    90.3240     8.9520     8.6970    13.3230    23.4140     2.4240 
   78.6250   -24.9360    99.5140     7.3720     7.5210     8.7840    23.4350     2.4130 
   78.7500   -24.6080   108.2940     6.0570     6.3550     5.9290    23.5170     2.3840 
   78.8750   -24.2970   114.6200     5.1790     5.4430     4.8830    23.5990     2.3600 
   79.0000   -24.0380   118.0030     4.6820     4.8280     4.5930    23.5850     2.3460 
   79.1250   -23.9090   119.3380     4.4280     4.4570     4.5180    23.4740     2.3390 
   79.2500   -23.9600   119.3820     4.3180     4.2730     4.5070    23.4080     2.3340 
   79.3750   -24.1370   120.1130     4.3190     4.2080     4.5140    23.3670     2.3260 
   79.5000   -24.3680   122.5490     4.5210     4.2940     4.6120    23.3050     2.3170 
   79.6250   -24.6520   123.5930     5.0630     4.6190     4.9480    23.1230     2.3080 
   79.7500   -25.0260   120.0170     6.1310     5.3390     5.7960    22.7100     2.3050 
   79.8750   -25.4750   113.5280     7.5900     6.3990     7.3780    22.1680     2.3120 
   80.0000   -25.9960    99.6410     9.1840     7.6540     9.5650    21.8690     2.3280 
   80.1250   -26.5780    78.5600    10.5360     8.8390    11.6190    21.8540     2.3460 
   80.2500   -27.1870    64.0790    11.1520     9.5460    12.7970    21.8720     2.3480 
   80.3750   -27.7340    64.5050    11.0350     9.6650    12.3520    21.7340     2.3300 
   80.5000   -28.1940    71.4870    10.4270     9.3030    10.2860    21.5970     2.2930 
   80.6250   -28.6090    72.2000     9.7510     8.7380     8.9530    21.6480     2.2480 
   80.7500   -28.9440    66.1810     9.2800     8.2610     8.7860    21.9660     2.2080 
   80.8750   -29.2000    60.2170     9.0060     7.9690     8.8500    22.2360     2.1810 
   81.0000   -29.3600    59.8580     8.7740     7.8380     8.7860    22.1440     2.1680 
   81.1250   -29.4310    67.9150     8.6260     7.8020     8.6160    21.8130     2.1720 
   81.2500   -29.4550    77.0280     8.6490     7.8030     8.4280    21.5510     2.1870 
   81.3750   -29.5190    80.7080     8.7360     7.8100     8.3360    21.5950     2.2020 
   81.5000   -29.6100    77.4330     8.8610     7.8250     8.4040    22.0970     2.2100 
   81.6250   -29.6490    68.3800     8.9660     7.8450     8.5770    22.9670     2.2070 
   81.7500   -29.6540    56.1720     8.9950     7.8530     8.6660    23.3930     2.1970 
   81.8750   -29.6810    48.4540     8.9630     7.8390     8.5490    23.0500     2.1890 
   82.0000   -29.7590    51.6000     8.8870     7.8040     8.3440    22.2640     2.1850 
   82.1250   -29.8480    61.8970     8.8200     7.7590     8.1710    21.5600     2.1850 
   82.2500   -29.8770    64.4130     8.8610     7.7260     8.1070    21.2420     2.1840 
   82.3750   -29.8290    58.1160     8.8620     7.7180     8.1310    21.1850     2.1790 
   82.5000   -29.7540    54.4680     8.8610     7.7330     8.1890    21.2050     2.1710 
   82.6250   -29.6820    60.4210     8.8600     7.7600     8.2850    21.2060     2.1650 
   82.7500   -29.5960    66.1130     8.8670     7.7810     8.4080    21.1500     2.1620 
   82.8750   -29.5620    66.2140     8.8900     7.7900     8.5500    21.0890     2.1630 
   83.0000   -29.5510    64.2680     8.9410     7.7890     8.6870    21.0690     2.1640 
   83.1250   -29.5330    62.0500     9.0610     7.7900     8.8080    21.1160     2.1670 
   83.2500   -29.4930    58.9940     9.2020     7.8150     8.8760    21.1930     2.1690 
   83.3750   -29.4680    59.6800     9.4230     7.8730     8.9680    21.2630     2.1710 
   83.5000   -29.4850    65.8200     9.6920     7.9640     9.0840    21.3140     2.1730 
   83.6250   -29.5680    70.5550     9.8980     8.0760     9.2140    21.3690     2.1750 
   83.7500   -29.6800    70.7720    10.0390     8.1850     9.3330    21.4330     2.1760 
   83.8750   -29.7440    68.5200    10.1120     8.2670     9.3670    21.5100     2.1780 
   84.0000   -29.7390    64.7900    10.1110     8.3120     9.3820    21.5550     2.1790 
   84.1250   -29.7250    59.8330    10.0510     8.3160     9.4140    21.5620     2.1820 
   84.2500   -29.7590    58.4080     9.9560     8.2840     9.4070    21.5150     2.1850 
   84.3750   -29.7940    60.5780     9.8560     8.2310     9.4090    21.4010     2.1880 
   84.5000   -29.7970    64.2800     9.7730     8.1680     9.4290    21.2630     2.1900 
   84.6250   -29.7170    66.0010     9.7230     8.1060     9.4110    21.1840     2.1910 
   84.7500   -29.5880    65.0620     9.7310     8.0610     9.3210    21.1660     2.1890 
   84.8750   -29.4660    62.5030     9.7990     8.0470     9.2450    21.1680     2.1880 
   85.0000   -29.3980    60.8260     9.9220     8.0730     9.3140    21.1720     2.1910 
   85.1250   -29.3180    61.3340    10.0780     8.1360     9.5420    21.1740     2.1980 
   85.2500   -29.1770    66.8810    10.2190     8.2120     9.7730    21.1850     2.2080 
   85.3750   -28.9880    74.2170    10.2890     8.2590     9.8990    21.2080     2.2160 
   85.5000   -28.7750    75.2180    10.2490     8.2430     9.9060    21.2290     2.2200 
   85.6250   -28.5960    69.0700    10.0900     8.1480     9.7550    21.2370     2.2190 
   85.7500   -28.4490    64.9280     9.8430     7.9830     9.4740    21.2360     2.2180 
   85.8750   -28.3050    69.2220     9.6090     7.8090     9.2600    21.2360     2.2190 
   86.0000   -28.1660    77.5960     9.4620     7.6810     9.1810    21.2360     2.2220 
   86.1250   -28.0510    82.7820     9.4410     7.6350     9.2170    21.2370     2.2260 
   86.2500   -27.9500    80.6340     9.5420     7.6880     9.5090    21.2710     2.2280 
   86.3750   -27.8490    75.2260     9.6700     7.7870    10.0570    21.3540     2.2290 
