~V
VERS. 2.00: Ver 2.00
~W
STRT.M 57.0000:
STOP.M 276.0000:
STEP.M 0.1250:
NULL. -999.2500:
UWI. DF5005:
~C
DEPT.M :
GR.API :
RML.OHMM :
RI. :
RXO.OHMM :
CALI.CM :
DEN.GM/CC :
SP.MV :
~A
# ...
  169.5000    72.3550    57.5740    52.4550    47.8380    24.3420     2.2780   -20.7970 
  169.6250    72.8480    59.1020    53.7240    48.4120    24.2420     2.2750   -20.8020 
  169.7500    76.2640    59.7510    54.5390    47.0890    24.2500     2.2710   -20.8360 
  169.8750    79.3140    59.0100    54.3940    45.2130    24.3060     2.2710   -20.8030 
  170.0000    81.5040    57.4110    53.4920    43.2790    24.3330     2.2740   -20.7530 
  170.1250    83.3500    55.4930    52.1350    41.6950    24.3120     2.2780   -20.7870 
  170.2500    84.0430    53.6760    50.6280    41.2360    24.2550     2.2820   -20.8540 
  170.3750    79.8920    52.2810    49.2700    41.0720    24.1950     2.2820   -20.9250 
  170.5000    74.4070    51.5290    48.3650    40.5930    24.1380     2.2820   -21.0240 
  170.6250    72.8690    51.8390    48.3300    39.9230    24.1180     2.2820   -21.1500 
  170.7500    74.4770    53.7260    49.6470    40.1930    24.1170     2.2820   -21.2920 
  170.8750    75.8160    57.9500    53.0600    43.5030    24.1150     2.2800   -21.4380 
  171.0000    76.2410    64.1180    58.3390    50.4900    24.1120     2.2750   -21.5930 
  171.1250    74.8380    71.6150    65.0510    59.3720    24.1100     2.2690   -21.7260 
  171.2500    71.6230    79.4190    72.3410    67.6510    24.1120     2.2630   -21.8460 
  171.3750    68.3480    86.1570    78.9450    71.9910    24.1270     2.2600   -21.9560 
  171.5000    68.3200    91.2770    84.1380    73.3170    24.1850     2.2590   -22.0590 
  171.6250    71.0100    94.9260    87.8590    73.5680    24.3140     2.2570   -22.1760 
  171.7500    74.2180    97.7790    90.6050    74.8940    24.5160     2.2540   -22.2780 
  171.8750    75.5580   100.6250    93.0890    79.9230    24.6790     2.2520   -22.3570 
  172.0000    75.0950   103.6410    95.7390    84.6650    24.7580     2.2530   -22.4270 
  172.1250    73.8520   106.4250    98.4000    88.7500    24.7790     2.2560   -22.4920 
  172.2500    71.9990   108.3160   100.5610    92.4490    24.7800     2.2590   -22.5150 
  172.3750    70.3190   108.4080   101.2930    94.2440    24.7800     2.2590   -22.5390 
  172.5000    70.7430   106.9890   100.3290    93.7020    24.7780     2.2550   -22.5820 
  172.6250    71.5160   104.5660    97.7320    89.6480    24.7510     2.2500   -22.6060 
  172.7500    71.2580   101.5670    93.9820    81.7040    24.6660     2.2450   -22.5690 
  172.8750    70.9890    98.9890    89.8220    72.3980    24.5070     2.2430   -22.5840 
  173.0000    72.2890    95.7320    86.0590    65.0150    24.3810     2.2450   -22.6290 
  173.1250    74.1330    92.6420    83.0940    61.4040    24.3150     2.2510   -22.6470 
  173.2500    76.1570    90.0190    81.0020    60.2560    24.2840     2.2580   -22.6530 
  173.3750    77.0570    88.1620    79.6050    59.6300    24.2810     2.2630   -22.7170 
  173.5000    75.6910    86.4850    78.3780    59.3240    24.2900     2.2630   -22.8260 
  173.6250    73.5370    84.7600    77.0750    59.4800    24.3020     2.2610   -22.8990 
  173.7500    72.1360    83.0570    75.7010    60.3840    24.3080     2.2600   -22.9570 
  173.8750    71.0780    81.8570    74.6310    58.8510    24.3080     2.2630   -23.0290 
  174.0000    70.4250    81.6400    74.3310    56.5250    24.3080     2.2690   -23.0790 
  174.1250    71.2910    82.8220    75.2230    56.4720    24.3020     2.2770   -23.1010 
  174.2500    72.8580    85.6380    77.5830    59.1500    24.2870     2.2810   -23.1270 
  174.3750    73.8240    90.3890    81.7660    64.2700    24.2560     2.2770   -23.1770 
  174.5000    73.9800    96.6310    87.3850    69.5870    24.2330     2.2660   -23.1570 
  174.6250    72.6160   104.0750    94.1380    74.8600    24.1650     2.2500   -23.0910 
  174.7500    70.5000   112.3060   101.5750    79.7100    24.0020     2.2340   -23.0590 
  174.8750    71.1600   120.6030   109.0320    82.6520    23.8450     2.2220   -23.0350 
  175.0000    72.5070   127.8870   115.6900    85.0840    23.8950     2.2150   -23.0120 
  175.1250    72.1540   133.0370   120.7770    86.2230    24.0790     2.2130   -22.9890 
  175.2500    69.2060   135.1370   123.6590    86.4660    24.2430     2.2140   -22.9960 
  175.3750    65.0900   133.3680   123.6260    86.0900    24.2970     2.2160   -22.9460 
  175.5000    62.7250   128.8710   121.2690    84.5610    24.3080     2.2210   -22.8650 
  175.6250    64.0870   122.5260   116.9730    82.3190    24.3080     2.2260   -22.8430 
  175.7500    67.9340   115.1260   111.1610    79.8310    24.3080     2.2320   -22.8490 
  175.8750    69.7740   107.2380   104.1760    75.9330    24.3080     2.2400   -22.7660 
  176.0000    69.9060    99.4160    96.7750    71.0350    24.3080     2.2500   -22.6410 
  176.1250    70.9960    92.0540    89.5210    65.5270    24.3080     2.2600   -22.5610 
  176.2500    71.6600    85.5440    82.9320    59.6700    24.3010     2.2670   -22.5000 
  176.3750    70.1580    80.4320    77.5940    55.9410    24.2600     2.2690   -22.3830 
  176.5000    69.9670    76.7380    73.5440    53.8730    24.1840     2.2690   -22.2760 
  176.6250    72.8620    74.7110    70.9770    52.0110    24.1260     2.2690   -22.1970 
  176.7500    75.2880    74.8970    70.3430    49.8640    24.1070     2.2700   -22.1440 
  176.8750    73.6990    79.1500    73.2820    50.2790    24.1110     2.2740   -22.1460 
  177.0000    71.6400    88.9750    81.2060    54.1670    24.1270     2.2760   -22.2020 
  177.1250    71.2060   106.5840    96.2350    63.5020    24.1730     2.2740   -22.2810 
  177.2500    70.3840   133.4610   119.9390    80.5300    24.2530     2.2660   -22.3750 
  177.3750    67.0810   169.6620   152.7890   104.1850    24.3590     2.2520   -22.4830 
  177.5000    63.4330   208.1640   188.5990   129.4030    24.4500     2.2350   -22.5970 
  177.6250    59.8800   240.6660   219.9480   152.8010    24.4980     2.2200   -22.6660 
  177.7500    57.9010   258.7100   239.0640   169.3660    24.5100     2.2100   -22.6670 
  177.8750    58.7310   255.1490   238.7470   170.0320    24.5070     2.2070   -22.5710 
  178.0000    60.2670   237.4570   224.4420   158.5520    24.5060     2.2070   -22.4280 
  178.1250    60.5050   213.1220   202.3710   141.5340    24.5050     2.2080   -22.2720 
  178.2500    61.2950   187.7930   178.1660   126.0840    24.4950     2.2100   -22.0490 
  178.3750    64.7920   164.6970   155.6730   118.4470    24.4650     2.2140   -21.8020 
  178.5000    67.4770   144.8710   136.3810   112.6240    24.4280     2.2210   -21.6340 
  178.6250    69.5920   129.5670   121.4440   102.7370    24.4200     2.2320   -21.4930 
  178.7500    72.8270   120.3610   112.2350    90.6740    24.4250     2.2440   -21.3340 
  178.8750    74.6800   120.5640   111.8640    84.3990    24.4280     2.2510   -21.2870 
  179.0000    72.6980   130.4740   120.8350    87.3490    24.4290     2.2510   -21.3060 
  179.1250    69.9030   150.1980   139.6590   100.1090    24.4310     2.2440   -21.3070 
  179.2500    68.6870   177.3330   166.5350   120.8510    24.4290     2.2310   -21.3020 
  179.3750    65.5140   204.9750   195.4860   142.3810    24.4180     2.2170   -21.3630 
  179.5000    59.7800   223.1010   216.6160   155.1200    24.3980     2.2050   -21.3810 
  179.6250    55.9840   224.0980   221.9620   156.3840    24.3780     2.1990   -21.3490 
  179.7500    57.0290   206.0680   208.3720   146.4430    24.3690     2.1990   -21.2890 
  179.8750    61.4630   174.4820   179.0030   126.2720    24.3510     2.2090   -21.2320 
  180.0000    67.3750   142.3600   146.5090   102.6600    24.2920     2.2230   -21.1570 
  180.1250    73.9100   115.9490   118.1430    81.0860    24.1990     2.2390   -21.0410 
  180.2500    79.4690    97.4570    97.2420    65.8760    24.1150     2.2520   -20.9280 
  180.3750    83.0760    88.4830    85.9260    61.5860    24.0660     2.2600   -20.8740 
  180.5000    84.1830    88.0990    83.2640    62.2420    23.9420     2.2610   -20.8260 
  180.6250    81.0220    98.2190    90.9980    67.9110    23.7950     2.2560   -20.7970 
