~V
VERS. 2.00: Ver 2.00
~W
STRT.M 59.0000:
STOP.M 253.0000:
STEP.M 0.1250:
NULL. -999.2500:
UWI. DF5043:
~C
DEPT.M :
SP.MV :
GR.API :
CALI.CM :
RXO.OHMM :
RI. :
RML.OHMM :
DEN.GM/CC :
~A
# ...
   81.5000   -15.3290    75.2760    23.3550     6.3800     7.6130     8.3420     2.1580 
   81.6250   -15.5360    79.5570    23.3420     6.2440     7.6370     8.3660     2.1680 
   81.7500   -15.7320    83.0040    23.3720     6.1720     7.6140     8.3430     2.1810 
   81.8750   -15.9010    83.3520    23.4190     6.1820     7.5300     8.2560     2.1950 
   82.0000   -16.0570    81.5860    23.5090     6.2220     7.4040     8.1270     2.2030 
   82.1250   -16.2110    79.8560    23.5380     6.2250     7.2600     7.9780     2.2000 
   82.2500   -16.3650    79.9970    23.4790     6.1640     7.1200     7.8330     2.1860 
   82.3750   -16.5020    81.3580    23.3920     6.0680     6.9980     7.7080     2.1700 
   82.5000   -16.6040    81.6310    23.3750     6.0200     6.8810     7.5870     2.1620 
   82.6250   -16.6650    80.8500    23.3890     6.0520     6.7440     7.4460     2.1660 
   82.7500   -16.6940    81.5980    23.4670     6.1790     6.5670     7.2640     2.1740 
   82.8750   -16.7110    85.6950    23.5230     6.3440     6.3360     7.0260     2.1740 
   83.0000   -16.7370    91.0970    23.5650     6.3950     6.0770     6.7600     2.1710 
   83.1250   -16.7720    96.5230    23.6390     6.2010     5.8180     6.4930     2.1770 
   83.2500   -16.8060   101.6050    23.8090     5.7140     5.5910     6.2580     2.2010 
   83.3750   -16.8240   104.4790    23.9460     5.2040     5.4260     6.0890     2.2300 
   83.5000   -16.8240   103.7910    23.9420     5.0100     5.3120     5.9720     2.2420 
   83.6250   -16.8200   100.5030    23.8460     5.1640     5.2290     5.8860     2.2310 
   83.7500   -16.8310    97.3160    23.7860     5.4190     5.1500     5.8050     2.2080 
   83.8750   -16.8700    96.5380    23.8500     5.4960     5.0510     5.7030     2.2000 
   84.0000   -16.9200    98.5390    23.9680     5.3990     4.9360     5.5840     2.2160 
   84.1250   -16.9590   103.6650    24.0820     5.2160     4.8240     5.4690     2.2500 
   84.2500   -16.9680   110.0060    24.1300     5.0660     4.7420     5.3840     2.2820 
   84.3750   -16.9360   112.1850    24.1560     5.0640     4.7160     5.3580     2.2890 
   84.5000   -16.8810   108.8370    24.1860     5.2110     4.7440     5.3860     2.2820 
   84.6250   -16.8160   102.7040    24.1870     5.4130     4.8120     5.4560     2.2750 
   84.7500   -16.7440    97.6690    24.1420     5.5440     4.9000     5.5470     2.2720 
   84.8750   -16.6530    96.3030    24.0200     5.6000     4.9860     5.6360     2.2660 
   85.0000   -16.5340    99.0280    23.8280     5.6880     5.0650     5.7170     2.2570 
   85.1250   -16.3860   104.3830    23.7570     5.7580     5.1430     5.7970     2.2520 
   85.2500   -16.2180   108.4310    23.8860     5.7180     5.2320     5.8890     2.2520 
   85.3750   -16.0530   107.7750    24.0330     5.6080     5.3490     6.0100     2.2480 
   85.5000   -15.9160   104.2350    24.0300     5.5240     5.4910     6.1560     2.2360 
   85.6250   -15.8250    98.4430    23.8990     5.5260     5.6450     6.3140     2.2200 
   85.7500   -15.7890    90.1700    23.7400     5.6110     5.7920     6.4650     2.2010 
   85.8750   -15.8270    81.6400    23.6140     5.6720     5.8960     6.5730     2.1790 
   86.0000   -15.9300    76.3860    23.5640     5.6520     5.9330     6.6110     2.1570 
   86.1250   -16.1040    75.0390    23.5680     5.5610     5.8850     6.5610     2.1420 
   86.2500   -16.3500    77.6330    23.5690     5.4570     5.7500     6.4230     2.1370 
   86.3750   -16.6790    86.6990    23.5420     5.3920     5.5350     6.2010     2.1470 
   86.5000   -17.0680    99.9170    23.5550     5.3330     5.2830     5.9420     2.1700 
   86.6250   -17.4990   111.6920    23.6360     5.2290     5.0290     5.6800     2.2020 
   86.7500   -17.9510   117.4960    23.7740     5.1070     4.8060     5.4500     2.2370 
   86.8750   -18.3930   117.3290    23.9260     4.9960     4.6550     5.2950     2.2670 
   87.0000   -18.8030   115.2560    24.0860     4.9230     4.5860     5.2240     2.2880 
   87.1250   -19.1630   112.1710    24.1950     4.8930     4.5990     5.2370     2.2970 
   87.2500   -19.4650   108.3930    24.1890     4.9360     4.6800     5.3210     2.2940 
   87.3750   -19.6930   104.9280    24.0400     5.0930     4.8040     5.4480     2.2730 
   87.5000   -19.8610   102.4950    23.8610     5.2890     4.9290     5.5770     2.2440 
   87.6250   -19.9750   100.7600    23.7290     5.4490     5.0330     5.6840     2.2200 
   87.7500   -20.0460    98.9880    23.6470     5.5200     5.1040     5.7570     2.2120 
   87.8750   -20.0870    96.5040    23.6820     5.5200     5.1360     5.7900     2.2180 
   88.0000   -20.1190    93.7590    23.7790     5.5030     5.1360     5.7900     2.2250 
   88.1250   -20.1500    92.2840    23.8490     5.4700     5.1090     5.7620     2.2280 
   88.2500   -20.1840    93.4380    23.8650     5.4270     5.0580     5.7100     2.2310 
   88.3750   -20.2210    97.1120    23.8450     5.4640     4.9780     5.6270     2.2330 
   88.5000   -20.2550   100.4790    23.8250     5.5110     4.8760     5.5220     2.2330 
   88.6250   -20.2830   103.2880    23.8110     5.4300     4.7580     5.4000     2.2390 
   88.7500   -20.3030   107.0030    23.8330     5.1660     4.6370     5.2760     2.2620 
   88.8750   -20.3190   110.8100    23.8850     4.8610     4.5290     5.1650     2.2950 
   89.0000   -20.3320   111.2810    23.9250     4.6670     4.4420     5.0750     2.3150 
   89.1250   -20.3420   107.9070    23.9160     4.5700     4.3760     5.0070     2.3130 
   89.2500   -20.3460   103.5720    23.9030     4.5510     4.3310     4.9610     2.3020 
   89.3750   -20.3330   100.8210    23.8630     4.6430     4.3080     4.9370     2.2980 
   89.5000   -20.3020    99.5770    23.7120     4.7330     4.3030     4.9330     2.3010 
   89.6250   -20.2520    99.2760    23.4940     4.7110     4.3230     4.9530     2.3090 
   89.7500   -20.1900    98.9860    23.4020     4.5680     4.3700     5.0010     2.3220 
   89.8750   -20.1260    98.3280    23.5350     4.5010     4.4490     5.0830     2.3350 
   90.0000   -20.0710    97.8090    23.7240     4.6570     4.5500     5.1870     2.3340 
   90.1250   -20.0360    97.9920    23.9000     5.0140     4.6650     5.3050     2.3180 
   90.2500   -20.0250    98.5110    24.0740     5.4160     4.7930     5.4370     2.2970 
   90.3750   -20.0370    97.6980    24.1690     5.6830     4.9620     5.6110     2.2780 
   90.5000   -20.0510    94.2280    24.1290     5.8020     5.2220     5.8790     2.2570 
   90.6250   -20.0490    88.3190    23.9780     5.8410     5.6530     6.3230     2.2360 
   90.7500   -20.0140    82.2090    23.8330     5.9530     6.3530     7.0440     2.2250 
   90.8750   -19.9370    79.1320    23.7550     6.5870     7.4710     8.1950     2.2510 
   91.0000   -19.8380    78.5010    23.7780     8.2200     8.9490     9.7180     2.3170 
   91.1250   -19.7390    78.0840    23.8820    11.5210    10.6560    11.4760     2.4150 
   91.2500   -19.6640    76.1780    24.0520    17.1690    12.3170    13.1860     2.5140 
   91.3750   -19.6360    72.8760    24.1800    25.3080    13.4310    14.3340     2.5740 
   91.5000   -19.6530    70.1110    24.2440    32.5820    13.7520    14.6640     2.5820 
   91.6250   -19.7080    69.4210    24.1970    35.2630    13.2730    14.1710     2.5500 
   91.7500   -19.7860    71.4980    24.0660    30.6720    12.2650    13.1330     2.4920 
   91.8750   -19.8580    75.4370    23.8150    21.0470    11.1660    12.0010     2.4160 
   92.0000   -19.8930    79.7760    23.5200    12.6090    10.3420    11.1530     2.3370 
   92.1250   -19.8690    83.8130    23.3380     8.4380     9.9210    10.7180     2.2790 
   92.2500   -19.7820    86.7630    23.3250     7.3640     9.8690    10.6650     2.2730 
   92.3750   -19.6360    88.2750    23.4020     7.5780    10.0510    10.8520     2.3380 
   92.5000   -19.4670    89.7610    23.4070     8.1600    10.2250    11.0320     2.4280 
   92.6250   -19.3030    90.7990    23.3070     8.9200    10.2390    11.0470     2.4820 
