~V
VERS. 2.00: Ver 2.00
~W
STRT.M 59.0000:
STOP.M 277.0000:
STEP.M 0.1250:
NULL. -999.2500:
UWI. DF5027:
~C
DEPT.M :
GR.API :
RML.OHMM :
RI. :
RXO.OHMM :
CALI.CM :
DEN.GM/CC :
SP.MV :
~A
# ...
  261.5000    53.5980    10.0900     9.0900     8.0150    24.6730     2.4520    -7.8890 
  261.6250    54.9580    10.1700     9.1700     8.1450    24.6870     2.4540    -7.9140 
  261.7500    56.3340    10.2750     9.2750     8.3530    24.6700     2.4570    -7.9600 
  261.8750    56.8710    10.4190     9.4190     8.4660    24.6320     2.4610    -7.9960 
  262.0000    56.1810    10.6120     9.6120     8.6540    24.6040     2.4650    -8.0240 
  262.1250    55.7690    10.8530     9.8530     8.8180    24.5970     2.4680    -8.0450 
  262.2500    57.9180    11.1190    10.1190     9.0700    24.5970     2.4650    -8.0940 
  262.3750    62.2500    11.3850    10.3850     9.7630    24.5790     2.4560    -8.1610 
  262.5000    65.5930    11.6230    10.6230    11.1880    24.5100     2.4430    -8.2370 
  262.6250    65.2240    11.7940    10.7940    12.4100    24.5270     2.4340    -8.2660 
  262.7500    64.4070    11.8810    10.8810    12.0540    24.5580     2.4360    -8.2860 
  262.8750    65.7920    11.8780    10.8780    11.7970    24.5600     2.4500    -8.2690 
  263.0000    67.7150    11.7880    10.7880    11.9590    24.5690     2.4700    -8.2250 
  263.1250    67.1570    11.6250    10.6250    12.5090    24.5720     2.4830    -8.1370 
  263.2500    65.7580    11.4350    10.4350    13.2150    24.5980     2.4790    -8.0360 
  263.3750    65.4770    11.2480    10.2480    15.0810    24.6540     2.4580    -7.9170 
  263.5000    66.0640    11.0910    10.0910    16.6930    24.6940     2.4250    -7.7610 
  263.6250    66.7920    10.9890     9.9890    17.9070    24.7020     2.3890    -7.6250 
  263.7500    67.5940    10.9380     9.9380    18.1390    24.6980     2.3640    -7.5050 
  263.8750    67.9540    10.9240     9.9240    17.6510    24.6800     2.3540    -7.4250 
  264.0000    67.0060    10.9310     9.9310    17.0280    24.6410     2.3630    -7.3520 
  264.1250    65.6400    10.9610     9.9610    16.7830    24.6600     2.3850    -7.3490 
  264.2500    64.2980    11.0190    10.0190    17.8530    24.6730     2.4090    -7.2910 
  264.3750    63.6170    11.1160    10.1160    18.4170    24.6830     2.4280    -7.2380 
  264.5000    63.1310    11.2590    10.2590    17.6310    24.6990     2.4390    -7.1570 
  264.6250    61.7830    11.4420    10.4420    16.0710    24.7270     2.4440    -7.1390 
  264.7500    60.6820    11.6370    10.6370    15.5150    24.7640     2.4500    -7.0930 
  264.8750    60.4780    11.8190    10.8190    14.8270    24.8090     2.4610    -7.0520 
  265.0000    60.1520    11.9670    10.9670    13.3010    24.8560     2.4760    -6.9980 
  265.1250    59.3100    12.0600    11.0600    11.5750    24.8960     2.4910    -6.9860 
  265.2500    59.2250    12.1120    11.1120    10.1440    24.9190     2.5010    -6.9460 
  265.3750    60.7050    12.1510    11.1510     9.5460    24.9200     2.5060    -6.9390 
  265.5000    61.9830    12.2000    11.2000     9.8360    24.8930     2.5060    -6.9370 
  265.6250    62.0690    12.2810    11.2810    10.9130    24.8350     2.5040    -6.9310 
  265.7500    62.8430    12.3870    11.3870    12.2610    24.7600     2.5030    -6.8940 
  265.8750    63.4070    12.4940    11.4930    12.7080    24.6720     2.5030    -6.8760 
  266.0000    61.7920    12.5680    11.5690    12.4830    24.5770     2.5040    -6.8400 
  266.1250    60.0460    12.5710    11.5760    11.8390    24.4770     2.5030    -6.7880 
  266.2500    60.9430    12.5050    11.5130    11.5260    24.3780     2.5000    -6.7570 
  266.3750    63.3040    12.3830    11.3830    11.2130    24.2800     2.4920    -6.6950 
  266.5000    64.8950    12.2280    11.2030    10.8710    24.1840     2.4800    -6.6320 
  266.6250    64.9100    12.0750    10.9910    10.6250    24.0910     2.4670    -6.5630 
  266.7500    64.7080    11.9430    10.7810    10.1450    24.0070     2.4560    -6.5010 
  266.8750    64.6270    11.8230    10.6010     9.6740    23.9370     2.4480    -6.4250 
  267.0000    64.6270    11.7130    10.4850     8.9440    23.8850     2.4410    -6.3760 
  267.1250    64.6270    11.6570    10.4640     9.2760    23.8580     2.4340    -6.2750 
  267.2500    64.6270    11.6690    10.5290     9.1150    23.8530     2.4250    -6.1770 
  267.3750    64.6270    11.7450    10.6620    10.0210    23.8670     2.4170    -6.0660 
  267.5000    64.6270    11.8770    10.8360    11.5790    23.8960     2.4140    -5.9970 
  267.6250    64.6270    12.0430    11.0010    13.2750    23.9440     2.4170    -5.9130 
  267.7500    64.6270    12.2050    11.1190    13.7980    24.0210     2.4260    -5.8840 
  267.8750    64.6270    12.3360    11.1670    13.1730    24.1210     2.4380    -5.8420 
  268.0000    64.6270    12.4200    11.1470    12.3180    24.2330     2.4510    -5.8140 
  268.1250    64.6270    12.4370    11.0860    12.5600    24.3420     2.4600    -5.7880 
  268.2500    64.6270    12.4060    11.0340    14.0240    24.4400     2.4650    -5.7870 
  268.3750    64.6270    12.3520    11.0230    15.0370    24.5780     2.4660    -5.7710 
  268.5000    64.6270    12.3030    11.0740    14.0220    24.6080     2.4670    -5.7410 
  268.6250    64.6270    12.2820    11.1980    13.0140    24.6050     2.4670    -5.6690 
  268.7500    64.6270    12.2950    11.3600    13.0480    24.6040     2.4680    -5.6010 
  268.8750    64.6270    12.3420    11.5260    12.8610    24.6020     2.4690    -5.5090 
  269.0000    64.6270    12.4120    11.6590    12.2460    24.5870     2.4720    -5.3990 
  269.1250    64.6270    12.4890    11.7150    11.9970    24.5630     2.4800    -5.2620 
  269.2500    64.6270    12.5340    11.6930    11.9490    24.5470     2.4870    -5.1790 
  269.3750    64.6270    12.5330    11.6060    12.2600    24.5590     2.4900    -5.1020 
  269.5000    64.6270    12.4770    11.4770    12.8610    24.5630     2.4820    -5.0270 
  269.6250    64.6270    12.3330    11.3330    12.9870    24.5520     2.4620    -4.9580 
  269.7500    64.6270    12.2050    11.2050    12.6690    24.5600     2.4370    -4.8350 
  269.8750    64.6270    12.1080    11.1080    12.3020    24.5580     2.4170    -4.7200 
  270.0000    64.6270    12.0490    11.0490    11.9620    24.5760     2.4080    -4.5930 
  270.1250    64.6270    12.0440    11.0440    12.1860    24.5670     2.4110    -4.4910 
  270.2500    64.6270    12.0810    11.0810    12.4600    24.5530     2.4210    -4.3250 
  270.3750    64.6270    12.1570    11.1570    12.3860    24.5770     2.4300    -4.1590 
  270.5000    64.6270    12.2610    11.2610    12.9440    24.6050     2.4350    -3.9650 
  270.6250    64.6270    12.3790    11.3790    13.9000    24.6170     2.4360    -3.8290 
  270.7500    64.6270    12.4960    11.4960    14.2950    24.6330     2.4370    -3.7020 
  270.8750    64.6270    12.6020    11.6020    14.1260    24.6620     2.4400    -3.6080 
  271.0000    64.6270    12.6930    11.6930    13.7080    24.6710     2.4430    -3.4830 
  271.1250    64.6270    12.7560    11.7560    13.6190    24.6380     2.4460    -3.3820 
  271.2500    64.6270    12.7940    11.7940    13.5590    24.6190     2.4510    -3.3420 
  271.3750    64.6270    12.8090    11.8090    13.0080    24.6210     2.4600    -3.3160 
  271.5000    64.6270    12.8090    11.8090    12.1520    24.6410     2.4760    -3.3060 
  271.6250    64.6270    12.8040    11.8040    11.2290    24.6940     2.4990    -3.2600 
  271.7500    64.6270    12.7990    11.7990    11.1090    24.7400     2.5130    -3.2720 
  271.8750    64.6270    12.7940    11.7940    10.5600    24.7720     2.5350    -3.2160 
  272.0000    64.6270    12.7860    11.7860     9.9410    24.7790     2.5290    -3.1290 
  272.1250    64.6270    12.7800    11.7800     9.0850    24.7660     2.5120    -3.1090 
  272.2500    64.6270    12.7760    11.7760     8.5450    24.7330     2.4880    -3.0740 
  272.3750    64.6270    12.7750    11.7750     8.2970    24.6390     2.4630    -3.0020 
  272.5000    64.6270    12.7760    11.7760     8.4720    24.5610     2.4400    -2.8660 
  272.6250    64.6270    12.7780    11.7780     8.6350    24.4920     2.4250    -2.7810 
