~V
VERS. 2.00: Ver 2.00
~W
STRT.M 60.0000:
STOP.M 251.0000:
STEP.M 0.1250:
NULL. -999.2500:
UWI. DF5053:
~C
DEPT.M :
GR.API :
RML.OHMM :
RI. :
RXO.OHMM :
CALI.CM :
DEN.GM/CC :
SP.MV :
~A
# ...
  217.5000    62.3140    49.4660    44.6360    40.9660    24.1170     2.2500   -16.2880 
  217.6250    58.9380    53.8320    48.0890    46.3020    24.1540     2.2370   -16.1380 
  217.7500    63.6900    58.7570    52.0850    50.3180    24.1190     2.2260   -15.9520 
  217.8750    70.2980    64.0610    56.4040    53.2730    23.9630     2.2200   -15.7450 
  218.0000    68.1000    69.8420    61.0510    56.8130    23.7620     2.2150   -15.5600 
  218.1250    60.9490    76.0120    65.9570    63.5500    23.6390     2.2120   -15.3910 
  218.2500    57.7950    82.2250    70.8770    74.0290    23.6040     2.2110   -15.2540 
  218.3750    60.5420    87.7980    75.2970    85.7660    23.6450     2.2130   -15.1720 
  218.5000    61.0180    91.6430    78.3580    92.7060    23.7490     2.2200   -15.1060 
  218.6250    57.4270    93.6040    79.9140    93.2530    23.7830     2.2260   -15.0440 
  218.7500    55.0000    93.9250    80.1570    87.7160    23.7870     2.2310   -14.9900 
  218.8750    54.9890    93.1770    79.5910    79.1060    23.8430     2.2320   -14.9340 
  219.0000    55.2870    91.7750    78.6830    74.5270    24.0460     2.2320   -14.8490 
  219.1250    56.4930    89.8980    77.6300    72.1760    24.1620     2.2390   -14.7300 
  219.2500    61.0020    87.4860    76.3510    72.0550    24.1940     2.2570   -14.5470 
  219.3750    65.9550    84.8610    74.9650    73.5710    24.1780     2.2860   -14.2880 
  219.5000    64.6770    83.5000    74.4720    75.7200    24.1600     2.3170   -13.9610 
  219.6250    59.7230    84.8140    76.0770    77.7630    24.1030     2.3420   -13.5740 
  219.7500    55.4220    88.8950    80.2700    79.8290    24.0060     2.3600   -13.1040 
  219.8750    56.3430    93.9260    85.8340    86.4030    23.7880     2.3810   -12.5910 
  220.0000    61.8120    94.7740    88.4850    95.0260    23.6560     2.4220   -12.0390 
  220.1250    64.3670    87.4100    83.9450   103.5870    23.7190     2.4810   -11.4750 
  220.2500    61.4340    70.8230    70.3270   105.6130    23.7640     2.5410   -10.9510 
  220.3750    56.4800    49.8450    50.4180    98.0190    23.6920     2.5770   -10.4920 
  220.5000    57.4770    32.3320    31.7640    73.1800    23.5190     2.5620   -10.1890 
  220.6250    65.7650    20.6870    18.9600    38.2510    23.3600     2.5160   -10.0650 
  220.7500    79.5980    12.9290    11.7090    15.1280    23.2610     2.4630   -10.1340 
  220.8750    94.0750     9.1920     8.2170     7.4810    23.2000     2.4200   -10.3460 
  221.0000    98.9160     8.0550     7.1540     6.7640    23.2530     2.3990   -10.6940 
  221.1250    94.6560     8.1120     7.2080     7.1990    23.4230     2.3930   -11.1120 
  221.2500    89.2810     8.8330     7.8800     7.8580    23.6370     2.3970   -11.5400 
  221.3750    89.3160     9.7710     8.7500     8.3060    23.8240     2.4060   -11.9520 
  221.5000    97.4610    10.4430     9.3820     8.5540    23.9990     2.4130   -12.2800 
  221.6250   110.8140    10.6520     9.5920     8.7310    24.1020     2.4130   -12.5440 
  221.7500   123.8560    10.4450     9.4270     8.8420    24.1360     2.4060   -12.7670 
  221.8750   129.4000    10.0460     9.0880     8.8440    24.1390     2.3950   -13.0020 
  222.0000   128.7530     9.7630     8.8620     8.8490    24.1390     2.3860   -13.2920 
  222.1250   130.9180     9.8730     8.9650     9.1050    24.1380     2.3820   -13.6710 
  222.2500   133.0760    10.5430     9.5490     9.9240    24.1350     2.3810   -14.1820 
  222.3750   129.7170    11.8280    10.7290    11.6620    24.1290     2.3800   -14.8340 
  222.5000   121.0030    13.9740    12.6660    14.5020    24.1390     2.3740   -15.5980 
  222.6250   114.6110    16.8930    15.1680    18.1660    24.1660     2.3630   -16.3870 
  222.7500   110.8550    20.3880    18.0090    22.1480    24.1950     2.3480   -17.1530 
  222.8750   106.9880    23.8840    20.8500    25.6870    24.2200     2.3330   -17.8550 
  223.0000    98.4110    26.6980    23.2320    28.9210    24.2410     2.3230   -18.4520 
  223.1250    88.3640    28.7320    25.0000    31.3530    24.2280     2.3190   -18.9420 
  223.2500    84.4840    30.1340    26.2060    32.5710    24.1940     2.3200   -19.3040 
  223.3750    86.8330    31.2480    27.0860    32.4640    24.1560     2.3230   -19.5400 
  223.5000    85.7980    32.4790    27.9560    32.0660    24.1420     2.3230   -19.6700 
  223.6250    80.6450    33.9540    28.9940    32.5920    24.1360     2.3200   -19.7420 
  223.7500    78.6930    35.4900    30.1330    34.0730    24.1370     2.3150   -19.7820 
  223.8750    81.6300    36.6670    31.1020    35.8990    24.1380     2.3110   -19.8030 
  224.0000    83.9600    36.8160    31.4050    36.8230    24.1390     2.3100   -19.7670 
  224.1250    83.2320    35.8750    30.9000    36.1090    24.1390     2.3110   -19.7030 
  224.2500    81.4780    34.1290    29.7130    33.6710    24.1370     2.3140   -19.6620 
  224.3750    83.2480    32.1980    28.2570    30.2600    24.1330     2.3180   -19.6080 
  224.5000    88.7760    30.9230    27.1670    27.7550    24.1310     2.3200   -19.5870 
  224.6250    91.7370    30.6690    26.8250    26.9620    24.1300     2.3200   -19.5810 
  224.7500    88.9720    31.4850    27.3590    28.3600    24.1300     2.3180   -19.5570 
  224.8750    83.1120    33.1510    28.6740    31.2500    24.1300     2.3140   -19.5480 
  225.0000    79.6030    35.2820    30.5270    33.9290    24.1310     2.3090   -19.5780 
  225.1250    79.0620    37.3250    32.4300    35.6720    24.1300     2.3040   -19.6700 
  225.2500    82.1150    38.9590    34.0620    36.6680    24.1170     2.2990   -19.7660 
  225.3750    85.7080    40.0180    35.2190    37.2390    24.0890     2.2950   -19.8660 
  225.5000    82.6820    40.3830    35.7310    36.8180    24.0750     2.2910   -19.9940 
  225.6250    77.8300    40.2230    35.7240    36.4990    24.0670     2.2890   -20.1010 
  225.7500    77.1050    39.6490    35.2830    36.4080    24.0530     2.2900   -20.2220 
  225.8750    80.8070    38.8710    34.5800    36.4260    24.0220     2.2930   -20.3610 
  226.0000    83.4400    38.3460    33.9740    35.5400    24.0070     2.2980   -20.5190 
  226.1250    83.2200    38.5730    33.8990    33.9640    24.0010     2.3030   -20.6900 
  226.2500    85.0760    39.9590    34.7220    33.1910    24.0010     2.3060   -20.8610 
  226.3750    90.1500    42.7030    36.6650    34.6120    24.0010     2.3080   -21.0450 
  226.5000    89.0910    46.8200    39.8550    38.8820    23.9960     2.3070   -21.2190 
  226.6250    81.9320    51.5110    43.7020    45.4710    23.9800     2.3040   -21.3710 
  226.7500    79.0760    56.0310    47.6170    51.8290    23.9540     2.3010   -21.5100 
  226.8750    85.0870    59.7180    51.0170    55.6050    23.9370     2.2970   -21.6130 
  227.0000    87.0220    62.1350    53.4410    56.8890    23.9180     2.2950   -21.6770 
  227.1250    78.2270    63.8530    55.2130    57.5720    23.8980     2.2930   -21.7320 
  227.2500    66.8620    65.5680    56.8190    58.8530    23.9230     2.2920   -21.7500 
  227.3750    60.6290    67.9080    58.7540    60.7740    23.9940     2.2920   -21.7290 
  227.5000    58.3250    71.2120    61.3580    62.5770    24.0720     2.2930   -21.6380 
  227.6250    59.3200    74.8530    64.3040    64.0700    24.0420     2.2960   -21.5160 
  227.7500    62.5020    77.9080    66.9900    65.8140    23.9030     2.3040   -21.4030 
  227.8750    66.1190    79.2990    68.5950    67.2700    23.7250     2.3150   -21.2290 
  228.0000    64.0830    77.7330    67.9850    67.7620    23.6350     2.3280   -21.0280 
  228.1250    60.0000    73.6890    65.2730    66.8630    23.6950     2.3350   -20.7650 
  228.2500    60.6690    68.2190    61.0900    63.9440    23.8570     2.3310   -20.4440 
  228.3750    67.0950    62.8870    56.6080    58.5620    24.0010     2.3180   -20.1490 
  228.5000    73.5310    59.4880    53.3650    53.2180    24.0430     2.3030   -19.8240 
  228.6250    77.2330    58.4660    52.0160    51.4880    24.0190     2.2940   -19.4990 
