~V
VERS. 2.00: Ver 2.00
~W
STRT.M 72.0000:
STOP.M 259.0000:
STEP.M 0.1250:
NULL. -999.2500:
UWI. DF5020:
~C
DEPT.M :
DEN.GM/CC :
GR.API :
RML.OHMM :
RI. :
RXO.OHMM :
CALI.CM :
SP.MV :
~A
# ...
  195.7500     2.2370    69.5600   115.9060   104.8130   133.1800    24.5050   -23.6600 
  195.8750     2.2420    67.6750   104.6870    95.2580   120.2430    24.4960   -23.1520 
  196.0000     2.2510    69.6390    94.6290    86.3790   104.7510    24.4820   -22.6870 
  196.1250     2.2670    74.3550    88.0630    80.0990    92.5710    24.4180   -22.2110 
  196.2500     2.2890    77.9820    85.6460    77.1620    82.1030    24.3060   -21.7320 
  196.3750     2.3180    78.5690    87.0320    77.5450    74.7960    24.1580   -21.2620 
  196.5000     2.3520    74.6100    90.2260    79.8040    73.6850    24.0650   -20.7640 
  196.6250     2.3900    67.9290    90.3880    80.3030    79.9230    23.9850   -20.2620 
  196.7500     2.4250    61.9550    83.4600    75.5410    85.8780    24.0900   -19.6960 
  196.8750     2.4560    58.5160    67.9730    64.0190    92.9280    24.3370   -19.1480 
  197.0000     2.4820    58.0380    47.5620    47.5400    99.1950    24.4500   -18.5850 
  197.1250     2.5050    57.5220    29.1050    31.3740   101.7860    24.3770   -18.1080 
  197.2500     2.5280    56.7090    16.2460    19.4710    45.0830    24.1050   -17.6700 
  197.3750     2.5490    58.6070     9.3300    12.1360    14.5210    23.7870   -17.3190 
  197.5000     2.5640    61.6780     6.6620     8.1430     7.4100    23.6380   -16.9860 
  197.6250     2.5650    59.7380     5.6940     6.3800     6.4730    23.7060   -16.7800 
  197.7500     2.5530    53.2870     5.3930     5.6090     6.3700    23.8260   -16.6600 
  197.8750     2.5270    47.9970     5.4020     5.3680     6.1160    23.9190   -16.6170 
  198.0000     2.4910    46.9800     5.4770     5.3580     5.7120    23.9500   -16.6320 
  198.1250     2.4520    48.4690     5.4690     5.3820     5.5020    23.9170   -16.6820 
  198.2500     2.4180    49.1500     5.3820     5.3600     5.4020    23.8780   -16.7940 
  198.3750     2.3940    48.1460     5.2740     5.3110     5.1700    23.8320   -16.9460 
  198.5000     2.3790    47.0890     5.2070     5.2820     4.8920    23.8120   -17.2060 
  198.6250     2.3680    48.3430     5.2220     5.3160     4.7410    23.7720   -17.4830 
  198.7500     2.3550    49.4780     5.3070     5.4030     4.7120    23.6740   -17.8650 
  198.8750     2.3420    49.7860     5.4530     5.5280     4.7080    23.5520   -18.3010 
  199.0000     2.3330    48.8840     5.6520     5.6790     4.7260    23.4990   -18.8660 
  199.1250     2.3340    46.9110     5.9120     5.8500     4.8340    23.5220   -19.4850 
  199.2500     2.3450    46.0900     6.2130     6.0410     5.0040    23.5470   -20.1780 
  199.3750     2.3660    49.0610     6.5300     6.2430     5.2130    23.5700   -20.9300 
  199.5000     2.3930    55.4340     6.8230     6.4340     5.6190    23.6040   -21.7220 
  199.6250     2.4230    62.4140     7.0370     6.5730     6.0640    23.6340   -22.5880 
  199.7500     2.4510    69.2650     7.1760     6.6500     6.4120    23.6820   -23.4710 
  199.8750     2.4700    75.9460     7.2880     6.6900     6.6390    23.7470   -24.3680 
  200.0000     2.4760    81.1550     7.4550     6.7550     6.9520    23.7840   -25.2200 
  200.1250     2.4680    84.2530     7.7960     6.9420     7.2020    23.7630   -26.0650 
  200.2500     2.4540    87.3620     8.3250     7.2800     7.4920    23.8120   -26.8770 
  200.3750     2.4390    90.6800     8.9930     7.7520     8.2230    24.0940   -27.6470 
  200.5000     2.4290    92.6760     9.6920     8.2900     9.2930    24.4930   -28.3690 
  200.6250     2.4250    92.4700    10.2460     8.7630    10.8040    24.8110   -29.0570 
  200.7500     2.4260    92.7300    10.5670     9.0770    11.1010    24.9200   -29.7060 
  200.8750     2.4280    94.5790    10.6500     9.2000    10.9630    24.9390   -30.3360 
  201.0000     2.4310    95.7610    10.5800     9.1720    10.5830    24.9450   -30.9450 
  201.1250     2.4330    93.1670    10.5000     9.0890    11.7300    24.9500   -31.5870 
  201.2500     2.4320    87.6060    10.5310     9.0620    12.0600    24.9430   -32.2330 
  201.3750     2.4280    83.8480    10.7170     9.1450    11.7410    24.9300   -32.8730 
  201.5000     2.4200    83.7100    11.0450     9.3490    11.4520    24.9240   -33.5020 
  201.6250     2.4090    85.2450    11.4570     9.6490    11.4750    24.9280   -34.0530 
  201.7500     2.3950    86.2970    11.8400     9.9570    12.3510    24.9340   -34.5610 
  201.8750     2.3800    86.3850    12.1090    10.2070    13.1490    24.9390   -34.9910 
  202.0000     2.3650    85.8400    12.2240    10.3530    13.6610    24.9430   -35.4000 
  202.1250     2.3550    84.9860    12.2050    10.3930    13.6290    24.9450   -35.6170 
  202.2500     2.3520    84.6780    12.2040    10.4250    13.6020    24.9400   -35.7180 
  202.3750     2.3560    84.5910    12.3800    10.5650    13.5550    24.9260   -35.7180 
  202.5000     2.3670    84.0770    12.8570    10.9170    13.5120    24.9090   -35.6140 
  202.6250     2.3820    84.8800    13.6950    11.5490    13.4870    24.8900   -35.4450 
  202.7500     2.3970    85.7200    14.6580    12.3090    13.7090    24.8740   -35.1870 
  202.8750     2.4110    83.6130    15.4460    12.9810    14.3860    24.8480   -34.8560 
  203.0000     2.4210    79.1110    15.7520    13.3200    15.6550    24.8320   -34.4240 
  203.1250     2.4260    77.3740    15.3270    13.0870    17.4920    24.8220   -33.9690 
  203.2500     2.4250    80.1980    14.4700    12.4490    18.8940    24.7750   -33.5020 
  203.3750     2.4200    84.1700    13.5480    11.6570    17.4060    24.6500   -33.0350 
  203.5000     2.4150    86.4370    12.8980    10.9860    13.3290    24.5290   -32.6230 
  203.6250     2.4120    88.4790    12.7360    10.6740    11.6730    24.6390   -32.2460 
  203.7500     2.4120    91.2740    12.9130    10.6890    12.5540    24.8250   -31.8880 
  203.8750     2.4140    92.5820    13.2680    10.9450    13.9250    24.9320   -31.5520 
  204.0000     2.4160    90.7260    13.6570    11.3290    14.9050    24.9360   -31.2320 
  204.1250     2.4170    88.5830    14.0080    11.7390    15.1530    24.9160   -30.8990 
  204.2500     2.4170    89.5250    14.3370    12.1190    15.2180    24.8910   -30.5850 
  204.3750     2.4160    92.6800    14.6270    12.4340    15.2810    24.8540   -30.2380 
  204.5000     2.4120    96.0170    14.7550    12.6020    15.2920    24.8230   -29.8280 
  204.6250     2.4040    95.6520    14.4140    12.4040    15.0360    24.7860   -29.2940 
  204.7500     2.3950    90.3080    13.5050    11.7510    14.4580    24.7150   -28.6900 
  204.8750     2.3860    80.3510    12.1030    10.6590    13.6770    24.6080   -28.0030 
  205.0000     2.3780    68.6220    10.4880     9.3110    12.3500    24.4490   -27.2950 
  205.1250     2.3720    60.7840     9.0930     8.0260     9.7650    24.2240   -26.5880 
  205.2500     2.3710    56.9520     8.1510     7.0430     6.9750    24.0180   -25.8300 
  205.3750     2.3760    56.0140     7.6980     6.4520     5.6520    23.8910   -25.1130 
  205.5000     2.3850    55.8120     7.6400     6.2320     5.4850    23.8550   -24.4140 
  205.6250     2.3970    57.8260     7.8270     6.3220     5.7810    23.8850   -23.8140 
  205.7500     2.4110    63.5960     8.0380     6.5390     6.1860    23.9340   -23.2480 
  205.8750     2.4220    70.3390     8.1670     6.7690     6.3490    24.0170   -22.7190 
  206.0000     2.4310    74.5420     8.1820     6.9390     6.4150    24.0870   -22.2110 
  206.1250     2.4370    75.8000     8.1110     7.0180     6.4070    24.1030   -21.7540 
  206.2500     2.4400    78.3000     8.0240     7.0390     6.3670    24.0630   -21.3320 
  206.3750     2.4390    82.4040     7.9450     7.0270     6.2220    24.0980   -20.9140 
  206.5000     2.4370    84.2530     7.8720     6.9890     6.1770    24.2920   -20.5200 
  206.6250     2.4340    82.3670     7.7760     6.9120     6.2810    24.4330   -20.1510 
  206.7500     2.4290    81.1870     7.6340     6.7860     6.3590    24.5210   -19.8420 
  206.8750     2.4220    83.7040     7.4460     6.6130     6.5260    24.5830   -19.6120 
