~V
VERS. 2.00: Ver 2.00
~W
STRT.M 55.0000:
STOP.M 274.0000:
STEP.M 0.1250:
NULL. -999.2500:
UWI. DF5018:
~C
DEPT.M :
SP.MV :
GR.API :
CALI.CM :
RXO.OHMM :
RI. :
RML.OHMM :
DEN.GM/CC :
~A
# ...
  246.2500   -21.3630    84.8150    24.6650    39.9110    36.1380    38.6790     2.4320 
  246.3750   -21.4520    84.6960    24.6600    42.5060    40.1130    42.5410     2.4360 
  246.5000   -21.5610    83.3310    24.6580    42.8530    44.2860    46.5870     2.4360 
  246.6250   -21.6700    80.8790    24.6500    47.6150    48.0830    50.2680     2.4290 
  246.7500   -21.7900    77.3130    24.6020    54.7090    51.1790    53.2430     2.4210 
  246.8750   -21.8880    75.5350    24.4910    60.3230    53.4210    55.3210     2.4090 
  247.0000   -21.9460    77.1430    24.3950    60.1120    54.7940    56.4650     2.3960 
  247.1250   -21.8760    78.6680    24.3310    56.2180    55.2730    56.6100     2.3950 
  247.2500   -21.6860    77.5030    24.3080    52.1790    55.2310    56.1280     2.4040 
  247.3750   -21.4560    76.0340    24.3580    50.8440    55.0570    55.4470     2.4150 
  247.5000   -21.1830    77.7130    24.3940    51.0140    55.6270    54.6300     2.4240 
  247.6250   -20.8480    80.2890    24.3280    50.9070    56.1200    55.5310     2.4240 
  247.7500   -20.4630    78.8300    24.1810    51.1430    57.6250    57.3970     2.4080 
  247.8750   -20.0380    74.1240    24.0790    51.1190    60.3970    60.5190     2.3820 
  248.0000   -19.5910    70.4590    24.1160    53.7200    64.6630    65.1840     2.3720 
  248.1250   -19.1920    69.3650    24.3330    63.3990    70.4360    71.5290     2.4110 
  248.2500   -18.8710    68.9340    24.5720    80.5490    76.3830    78.1330     2.4830 
  248.3750   -18.5560    68.5590    24.6430   104.8370    80.9310    83.0170     2.5600 
  248.5000   -18.2430    68.8150    24.5700   128.1030    82.9840    84.6190     2.6120 
  248.6250   -17.9200    69.1320    24.4800   124.0000    82.7760    83.2450     2.6180 
  248.7500   -17.6030    68.5130    24.4450   102.1980    82.8720    82.1820     2.5960 
  248.8750   -17.2900    68.1360    24.4380    90.5520    85.6200    84.0370     2.5720 
  249.0000   -16.9800    67.6230    24.4380   111.0200    92.4110    90.3660     2.5770 
  249.1250   -16.6370    66.4750    24.4380   173.8690   102.0380   100.4530     2.6250 
  249.2500   -16.2450    64.1270    24.4380   219.3460   107.2940   105.7470     2.6780 
  249.3750   -15.8260    58.8740    24.4380   193.7000    99.5970    95.3650     2.6940 
  249.5000   -15.3700    51.0360    24.4380   111.6280    77.2050    69.9840     2.6600 
  249.6250   -14.9350    46.5470    24.4380    46.8870    50.8930    44.8620     2.5980 
  249.7500   -14.4760    49.1470    24.4380    20.5120    31.2750    27.7050     2.5380 
  249.8750   -14.0260    56.5670    24.4380    11.6830    19.2100    17.3300     2.4880 
  250.0000   -13.5770    63.1650    24.4380     8.3660    12.4380    11.3770     2.4490 
  250.1250   -13.1920    65.7810    24.4380     6.9430     9.0330     8.3750     2.4330 
  250.2500   -12.7560    66.1740    24.4380     6.2970     7.1400     6.8050     2.4330 
  250.3750   -12.3240    66.2270    24.4380     6.1790     6.1800     6.1160     2.4260 
  250.5000   -11.9300    65.5760    24.4380     6.3480     5.8010     5.9410     2.3980 
  250.6250   -11.6140    64.3970    24.4380     6.4140     5.7840     6.0330     2.3630 
  250.7500   -11.3680    63.5510    24.4380     6.3030     5.8970     6.1780     2.3430 
  250.8750   -11.1960    62.8400    24.4380     6.0440     6.0470     6.3100     2.3410 
  251.0000   -11.0570    62.4850    24.4380     5.7720     6.1840     6.4090     2.3530 
  251.1250   -10.9760    62.8840    24.4380     5.6980     6.2840     6.4710     2.3750 
  251.2500   -11.0080    63.7160    24.4380     5.9130     6.3540     6.5100     2.4000 
  251.3750   -11.1360    65.0540    24.4380     6.3940     6.4020     6.5410     2.4180 
  251.5000   -11.3320    66.0810    24.4380     7.0610     6.4270     6.5730     2.4220 
  251.6250   -11.5220    65.2340    24.4380     7.7220     6.4090     6.6100     2.4130 
  251.7500   -11.7070    63.2310    24.4380     8.2030     6.3510     6.6470     2.4080 
  251.8750   -11.8320    63.6750    24.4380     8.4200     6.2570     6.6830     2.4140 
  252.0000   -11.9540    65.8520    24.4380     8.5220     6.1410     6.7180     2.4260 
  252.1250   -12.0100    66.6250    24.4380     8.6180     6.0210     6.7540     2.4330 
  252.2500   -12.0480    66.8560    24.4380     8.6550     5.9130     6.7890     2.4300 
  252.3750   -12.0410    66.7840    24.4380     8.4900     5.8160     6.8120     2.4230 
  252.5000   -11.9970    65.5430    24.4380     8.1350     5.7180     6.8050     2.4160 
  252.6250   -11.9010    64.2360    24.4380     7.7830     5.6140     6.7500     2.4090 
  252.7500   -11.7710    64.9810    24.4380     7.5790     5.5110     6.6610     2.3980 
  252.8750   -11.6230    64.9270    24.4380     7.5550     5.4130     6.5620     2.3830 
  253.0000   -11.4540    63.1900    24.4380     7.4950     5.3340     6.4830     2.3650 
  253.1250   -11.2550    62.1510    24.4380     7.0830     5.3110     6.4710     2.3490 
  253.2500   -11.0390    61.0080    24.4380     6.4600     5.3530     6.5460     2.3440 
  253.3750   -10.8410    59.9670    24.4380     5.9510     5.4630     6.7220     2.3520 
  253.5000   -10.6550    60.8770    24.4380     5.7080     5.6320     6.9870     2.3660 
  253.6250   -10.4530    63.4360    24.4380     5.6560     5.8290     7.2900     2.3750 
  253.7500   -10.3190    63.5380    24.4380     5.6520     5.9910     7.5420     2.3790 
  253.8750   -10.2630    61.2860    24.4380     5.7670     6.0800     7.6760     2.3880 
  254.0000   -10.2830    59.2110    24.4380     6.1060     6.0860     7.6730     2.4020 
  254.1250   -10.3420    58.8540    24.4380     6.5460     6.0240     7.5650     2.4110 
  254.2500   -10.4200    59.1600    24.4380     6.8760     5.9410     7.4370     2.4140 
  254.3750   -10.4700    60.2100    24.4380     6.9950     5.8630     7.3330     2.4170 
  254.5000   -10.5510    62.8880    24.4380     6.9660     5.7970     7.2560     2.4240 
  254.6250   -10.6610    65.8930    24.4380     6.9290     5.7190     7.1790     2.4290 
  254.7500   -10.7370    65.9790    24.4380     7.0060     5.6170     7.0780     2.4280 
  254.8750   -10.7490    64.3650    24.4380     7.2640     5.4970     6.9570     2.4250 
  255.0000   -10.6970    65.6660    24.4380     7.5990     5.3830     6.8430     2.4300 
  255.1250   -10.6240    68.1860    24.4390     7.8880     5.3130     6.7750     2.4420 
  255.2500   -10.5360    66.4960    24.4540     7.8400     5.2900     6.7580     2.4420 
  255.3750   -10.4560    63.2420    24.5030     7.4430     5.3000     6.7800     2.4200 
  255.5000   -10.3250    63.2660    24.5880     6.8530     5.3210     6.8180     2.3890 
  255.6250   -10.1970    64.1030    24.6280     6.3060     5.3330     6.8500     2.3770 
  255.7500   -10.0420    63.4570    24.6410     5.9380     5.3340     6.8690     2.3860 
  255.8750    -9.8950    63.5650    24.6410     5.7240     5.3270     6.8720     2.3990 
  256.0000    -9.7520    65.3960    24.6410     5.5940     5.3200     6.8590     2.4030 
  256.1250    -9.6310    65.0970    24.6410     5.4990     5.3140     6.8260     2.3910 
  256.2500    -9.5140    62.5920    24.6390     5.4420     5.2960     6.7750     2.3740 
  256.3750    -9.4380    62.6790    24.6280     5.4010     5.2560     6.7140     2.3580 
  256.5000    -9.3490    65.8330    24.6020     5.3360     5.1910     6.6540     2.3500 
  256.6250    -9.2850    67.0350    24.5790     5.3260     5.1140     6.6140     2.3560 
  256.7500    -9.2300    65.8220    24.5700     5.4230     5.0460     6.6030     2.3680 
  256.8750    -9.2530    65.2880    24.5720     5.6000     5.0150     6.6280     2.3770 
  257.0000    -9.3250    65.9210    24.5790     5.7050     5.0430     6.6920     2.3790 
  257.1250    -9.4040    65.9480    24.5760     5.6150     5.1420     6.7990     2.3760 
  257.2500    -9.4890    66.7620    24.5730     5.4830     5.2890     6.9390     2.3700 
  257.3750    -9.5610    68.9250    24.5630     5.4820     5.4660     7.1090     2.3620 
