~V
VERS. 2.00: Ver 2.00
~W
STRT.M 50.0000:
STOP.M 258.0000:
STEP.M 0.1250:
NULL. -999.2500:
UWI. DF5038:
~C
DEPT.M :
GR.API :
CALI.CM :
RXO.OHMM :
RI. :
RML.OHMM :
DEN.GM/CC :
SP.MV :
~A
# ...
  241.2500    61.5110    25.6620    36.1250    41.2130    42.4590     2.2260   -26.8950 
  241.3750    61.8090    25.6610    33.7290    39.9160    41.1280     2.2300   -26.7680 
  241.5000    61.7360    25.6620    31.5070    39.4540    40.7100     2.2570   -26.6450 
  241.6250    60.2980    25.6610    31.8730    39.4390    40.6670     2.3090   -26.5240 
  241.7500    59.4920    25.6600    34.4730    38.9010    39.9140     2.3570   -26.4950 
  241.8750    60.8620    25.6580    37.0430    37.0680    37.6830     2.3770   -26.3380 
  242.0000    63.4950    25.6580    36.7100    33.7070    33.8480     2.3610   -26.2610 
  242.1250    65.6150    25.6520    30.2140    29.3860    29.1160     2.3250   -26.0560 
  242.2500    66.5360    25.6210    24.1520    25.3230    24.7640     2.2960   -25.8150 
  242.3750    66.3380    25.5700    20.9730    22.1080    21.4040     2.2840   -25.4960 
  242.5000    66.6040    25.5250    19.3500    19.8950    19.1780     2.2830   -25.2240 
  242.6250    67.4430    25.5130    18.3680    18.6950    18.0500     2.2810   -24.9570 
  242.7500    68.3890    25.5140    18.5360    18.1030    17.5230     2.2700   -24.6500 
  242.8750    70.2320    25.5150    18.9790    17.8610    17.2970     2.2580   -24.4630 
  243.0000    72.5440    25.5150    17.9010    17.7700    17.1750     2.2530   -24.2170 
  243.1250    72.0320    25.5150    16.5000    17.7600    17.1180     2.2550   -24.1210 
  243.2500    69.1340    25.5150    16.3780    17.8350    17.1580     2.2560   -24.0370 
  243.3750    67.3840    25.5150    17.0420    18.0260    17.3380     2.2570   -23.9810 
  243.5000    67.8110    25.5150    17.1500    18.3440    17.6790     2.2540   -23.9550 
  243.6250    66.6660    25.5150    17.5730    18.7570    18.1620     2.2500   -23.9200 
  243.7500    64.1870    25.5150    19.1160    19.1630    18.6930     2.2480   -23.9000 
  243.8750    62.1410    25.5150    20.4460    19.5130    19.2300     2.2430   -23.8850 
  244.0000    61.5860    25.5150    20.3750    19.7860    19.7440     2.2360   -23.8880 
  244.1250    63.0830    25.5150    20.1630    19.9230    20.1570     2.2360   -23.8400 
  244.2500    66.2520    25.5150    20.0350    19.8760    20.3860     2.2490   -23.8210 
  244.3750    69.2670    25.5150    21.3020    19.6300    20.3960     2.2680   -23.7820 
  244.5000    69.6300    25.5150    22.8550    19.2740    20.2760     2.2760   -23.7470 
  244.6250    66.2590    25.5150    21.6050    19.1030    20.3760     2.2650   -23.7270 
  244.7500    62.3380    25.5150    19.8060    19.4760    21.1600     2.2470   -23.7230 
  244.8750    60.7030    25.5150    19.9400    20.7670    23.1300     2.2460   -23.7230 
  245.0000    62.5250    25.5150    22.3400    23.4180    26.8450     2.2800   -23.7110 
  245.1250    64.2550    25.5160    27.0500    28.4120    33.3340     2.3570   -23.6990 
  245.2500    62.9320    25.5140    35.1460    35.7420    42.1880     2.4530   -23.6710 
  245.3750    61.0310    25.5000    42.8560    44.1950    51.5860     2.5420   -23.6570 
  245.5000    61.4660    25.4690    45.5690    50.0670    57.1870     2.6060   -23.6310 
  245.6250    62.2950    25.4380    44.6930    47.2810    52.6420     2.6200   -23.5900 
  245.7500    61.6460    25.4240    43.2890    37.8350    40.9910     2.5880   -23.4580 
  245.8750    61.6840    25.4230    35.9140    26.9170    28.2390     2.5220   -23.3570 
  246.0000    63.8240    25.4240    22.4760    18.3090    18.5230     2.4480   -23.1860 
  246.1250    65.7650    25.4230    11.6280    13.2430    13.0860     2.3960   -23.0200 
  246.2500    66.3160    25.4230     7.3400    10.3630    10.2050     2.3690   -22.8720 
  246.3750    66.2920    25.4230     6.8680     8.8830     8.9010     2.3580   -22.7650 
  246.5000    65.5590    25.4230     7.1170     8.3080     8.5300     2.3570   -22.5700 
  246.6250    64.5110    25.4230     7.3290     8.3580     8.6910     2.3660   -22.3310 
  246.7500    62.8860    25.4230     7.4790     8.6240     8.9570     2.3800   -22.2190 
  246.8750    61.0290    25.4240     7.5530     8.8850     9.1430     2.3890   -21.9890 
  247.0000    60.7200    25.4240     7.7060     9.0360     9.2000     2.3880   -21.8500 
  247.1250    62.5990    25.4220     8.4090     9.0730     9.1710     2.3760   -21.6750 
  247.2500    62.5990    25.4190     9.2140     9.0750     9.1350     2.3620   -21.5270 
  247.3750    62.5990    25.4160     9.4260     9.0850     9.1320     2.3540   -21.3470 
  247.5000    62.5990    25.4150     9.1760     9.1180     9.1800     2.3550   -21.2650 
  247.6250    62.5990    25.4170     9.1820     9.1640     9.2820     2.3680   -21.1410 
  247.7500    62.5990    25.4170     9.5360     9.1970     9.4060     2.3820   -21.0180 
  247.8750    62.5990    25.4160     9.3520     9.1990     9.5270     2.3890   -20.9990 
  248.0000    62.5990    25.4140     8.5440     9.1620     9.6200     2.3890   -20.9290 
  248.1250    62.5990    25.4140     8.3230     9.0920     9.6680     2.3900   -20.9640 
  248.2500    62.5990    25.4160     9.1760     9.0090     9.6830     2.3970   -20.9440 
  248.3750    62.5990    25.4170    10.1510     8.9290     9.6820     2.4040   -20.9610 
  248.5000    62.5990    25.4170    10.4010     8.8610     9.6790     2.4060   -20.9350 
  248.6250    62.5990    25.4150     9.6460     8.8120     9.6880     2.4000   -21.0770 
  248.7500    62.5990    25.4140     8.9210     8.7800     9.7110     2.3940   -21.1550 
  248.8750    62.5990    25.4140     8.2990     8.7610     9.7440     2.3950   -21.2190 
  249.0000    62.5990    25.4120     8.0880     8.7490     9.7810     2.4030   -21.3070 
  249.1250    62.5990    25.4090     8.2410     8.7330     9.8130     2.4090   -21.3010 
  249.2500    62.5990    25.4090     8.5190     8.7110     9.8420     2.4040   -21.3320 
  249.3750    62.5990    25.4120     8.7850     8.7000     9.8930     2.3920   -21.4080 
  249.5000    62.5990    25.4140     8.8470     8.7320     9.9960     2.3810   -21.4720 
  249.6250    62.5990    25.4150     8.5460     8.8390    10.1770     2.3820   -21.4690 
  249.7500    62.5990    25.4140     8.4710     8.9940    10.3940     2.3910   -21.4600 
  249.8750    62.5990    25.4140     8.7990     9.1580    10.5940     2.4020   -21.3770 
  250.0000    62.5990    25.4150     9.2150     9.2870    10.7320     2.4090   -21.3740 
  250.1250    62.5990    25.4130     9.2980     9.3390    10.7660     2.4160   -21.5020 
  250.2500    62.5990    25.4170     9.5790     9.3200    10.7200     2.4230   -21.6460 
  250.3750    62.5990    25.4340    10.0980     9.2460    10.6350     2.4270   -21.7980 
  250.5000    62.5990    25.4630    10.5350     9.1490    10.5610     2.4250   -21.9540 
  250.6250    62.5990    25.4830    10.5990     9.0830    10.5560     2.4170   -22.0870 
  250.7500    62.5990    25.4870    10.5850     9.0810    10.6200     2.4150   -22.2650 
  250.8750    62.5990    25.4960    10.6480     9.1410    10.7090     2.4200   -22.4710 
  251.0000    62.5990    25.5340    10.8080     9.2330    10.7700     2.4270   -22.6190 
  251.1250    62.5990    25.5920    11.0610     9.3100    10.7810     2.4270   -22.7730 
  251.2500    62.5990    25.6420    11.4660     9.3570    10.7770     2.4220   -23.0090 
  251.3750    62.5990    25.6880    12.0430     9.3780    10.7780     2.4160   -23.1770 
  251.5000    62.5990    25.7400    12.5600     9.3850    10.7830     2.4060   -23.3510 
  251.6250    62.5990    25.7850    12.6380     9.3830    10.7890     2.3920   -23.5000 
  251.7500    62.5990    25.8050    11.7630     9.3760    10.7950     2.3850   -23.6010 
  251.8750    62.5990    25.8080    10.4940     9.3650    10.8010     2.3910   -23.7240 
  252.0000    62.5990    25.8190     9.6290     9.3550    10.8040     2.4040   -23.8940 
  252.1250    62.5990    25.8200     9.2170     9.3500    10.8030     2.4050   -23.9810 
  252.2500    62.5990    25.7610     8.6960     9.3490    10.8000     2.3940   -23.9490 
  252.3750    62.5990    25.6430     8.4650     9.3510    10.7940     2.3820   -23.7600 
