~V
VERS. 2.00: Ver 2.00
~W
STRT.M 62.0000:
STOP.M 250.0000:
STEP.M 0.1250:
NULL. -999.2500:
UWI. DF5059:
~C
DEPT.M :
SP.MV :
GR.API :
RML.OHMM :
RI. :
RXO.OHMM :
CALI.CM :
DEN.GM/CC :
~A
# ...
  185.7500    -3.5050    41.7990     5.9930     5.3840     5.1540    23.4640     2.3660 
  185.8750    -3.7520    40.5290     6.0930     5.4370     5.2850    23.6310     2.3500 
  186.0000    -4.0140    41.0410     6.2100     5.5240     5.4200    23.4930     2.3490 
  186.1250    -4.3300    44.5430     6.3700     5.6450     5.5880    23.3460     2.3710 
  186.2500    -4.7300    49.4770     6.5200     5.7850     5.7510    23.2840     2.4010 
  186.3750    -5.1750    56.6150     6.6800     5.9340     5.9380    23.2930     2.4270 
  186.5000    -5.6720    65.3050     6.8310     6.0750     6.1320    23.3550     2.4350 
  186.6250    -6.2470    75.9360     6.9490     6.1860     6.2910    23.4930     2.4190 
  186.7500    -6.8640    87.7000     7.0320     6.2640     6.4170    23.5550     2.3900 
  186.8750    -7.5360    97.0160     7.0910     6.3190     6.4870    23.4710     2.3590 
  187.0000    -8.2520    99.3190     7.1570     6.3800     6.5320    23.4000     2.3380 
  187.1250    -8.9770    97.8200     7.2900     6.5040     6.6490    23.4780     2.3360 
  187.2500    -9.7090    99.5800     7.5170     6.7160     6.9690    23.5970     2.3490 
  187.3750   -10.5140   103.5650     7.8340     7.0140     7.5440    23.7000     2.3680 
  187.5000   -11.3680   106.3720     8.1990     7.3560     8.2800    23.7950     2.3830 
  187.6250   -12.1580   108.7520     8.5200     7.6510     9.1310    23.8630     2.3880 
  187.7500   -12.8720   112.8540     8.7070     7.8220     9.5840    23.9390     2.3870 
  187.8750   -13.5760   118.2790     8.7210     7.8290     9.4790    24.0360     2.3810 
  188.0000   -14.2780   121.0780     8.5440     7.6910     9.0970    24.1020     2.3740 
  188.1250   -14.8880   116.4790     8.2600     7.4700     8.8210    24.1250     2.3650 
  188.2500   -15.4060   109.1790     7.9480     7.2630     8.5630    24.1260     2.3570 
  188.3750   -15.7920   103.8460     7.7160     7.1270     8.3240    24.1250     2.3520 
  188.5000   -16.0830   102.3520     7.6810     7.0950     8.2310    24.1230     2.3520 
  188.6250   -16.3430   102.7920     7.8500     7.1890     8.3830    24.1090     2.3590 
  188.7500   -16.6130   106.1770     8.1680     7.3760     8.7330    24.0790     2.3710 
  188.8750   -16.7950   112.4900     8.4880     7.6240     9.0700    24.0330     2.3890 
  189.0000   -16.8430   115.8190     8.7700     7.8880     9.4240    23.9610     2.4090 
  189.1250   -16.7940   113.7570     9.0000     8.1030     9.8110    23.9170     2.4250 
  189.2500   -16.6690   112.2000     9.1410     8.2350     9.9580    23.9080     2.4310 
  189.3750   -16.4970   114.2540     9.1880     8.2770     9.8240    23.9750     2.4240 
  189.5000   -16.1950   114.8840     9.1610     8.2520     9.6120    24.0920     2.4110 
  189.6250   -15.6830   113.3520     9.0870     8.1880     9.4990    24.1950     2.3990 
  189.7500   -15.0090   116.6220     9.0020     8.1110     9.4130    24.2850     2.3930 
  189.8750   -14.2170   124.0830     8.8880     8.0060     9.3160    24.3240     2.3940 
  190.0000   -13.3540   126.6760     8.7340     7.8350     9.2160    24.3370     2.3980 
  190.1250   -12.3730   119.6290     8.4630     7.5460     9.0450    24.3330     2.3970 
  190.2500   -11.3060   113.2380     8.1350     7.1700     8.6960    24.3340     2.3840 
  190.3750   -10.2020   110.3040     7.7880     6.7700     8.0230    24.3370     2.3580 
  190.5000    -9.1470   106.8250     7.4150     6.4300     7.2040    24.2730     2.3260 
  190.6250    -8.1960   102.4950     7.1970     6.2390     6.6360    24.0290     2.3080 
  190.7500    -7.2940   102.2040     7.1170     6.1840     6.6680    23.8030     2.3140 
  190.8750    -6.4920   101.8450     7.1060     6.2190     7.0820    23.7350     2.3420 
  191.0000    -5.8190    94.9190     7.0820     6.2740     7.4940    23.6900     2.3810 
  191.1250    -5.3240    80.7300     6.9760     6.2710     7.3400    23.6100     2.4110 
  191.2500    -4.9690    66.3190     6.8060     6.2010     6.6220    23.5530     2.4250 
  191.3750    -4.6840    56.9660     6.6210     6.0940     5.8720    23.5110     2.4230 
  191.5000    -4.4430    55.1600     6.4750     6.0000     5.5710    23.5060     2.4130 
  191.6250    -4.2840    57.1890     6.4060     5.9670     5.6010    23.5610     2.4010 
  191.7500    -4.2290    57.0510     6.3940     5.9880     5.7330    23.6220     2.3930 
  191.8750    -4.2010    54.3300     6.4160     6.0460     5.8710    23.6690     2.3890 
  192.0000    -4.1610    50.5390     6.4570     6.1220     5.9910    23.6630     2.3890 
  192.1250    -4.1270    48.6770     6.5220     6.2130     6.0210    23.6150     2.3910 
  192.2500    -4.1140    53.1310     6.6120     6.3180     6.0590    23.5960     2.3940 
  192.3750    -4.1700    64.5190     6.7180     6.4340     6.1710    23.6130     2.3960 
  192.5000    -4.2440    77.0630     6.8150     6.5420     6.3750    23.6690     2.3980 
  192.6250    -4.2710    87.3380     6.8570     6.6000     6.5480    23.7170     2.4000 
  192.7500    -4.2710    95.6930     6.8250     6.5870     6.5450    23.7480     2.4020 
  192.8750    -4.3070   101.9370     6.7150     6.4930     6.3760    23.7310     2.4030 
  193.0000    -4.4010   106.9710     6.5510     6.3350     6.1080    23.7030     2.4020 
  193.1250    -4.5090   110.4110     6.3730     6.1440     5.9400    23.6930     2.4000 
  193.2500    -4.5980   111.0900     6.2300     5.9700     5.8860    23.6980     2.3960 
  193.3750    -4.6790   109.8030     6.1550     5.8490     5.9220    23.7210     2.3920 
  193.5000    -4.8080   109.1380     6.1720     5.8100     5.9820    23.7650     2.3880 
  193.6250    -5.0030   108.7710     6.3080     5.8920     6.0760    23.7830     2.3830 
  193.7500    -5.1940   106.6840     6.5380     6.0750     6.2840    23.8020     2.3800 
  193.8750    -5.3770   105.5250     6.8290     6.3350     6.6470    23.8130     2.3780 
  194.0000    -5.5630   106.6340     7.1400     6.6320     7.2360    23.8200     2.3790 
  194.1250    -5.7770   105.4700     7.4310     6.9170     7.8190    23.8280     2.3840 
  194.2500    -6.0010   102.4530     7.6960     7.1720     8.2310    23.8500     2.3880 
  194.3750    -6.1880   101.8630     7.9590     7.4110     8.5030    23.8840     2.3880 
  194.5000    -6.3420   104.1780     8.2580     7.6650     8.7040    23.9030     2.3810 
  194.6250    -6.5260   104.1630     8.6300     7.9670     9.4130    23.9080     2.3700 
  194.7500    -6.7770   101.2870     9.0720     8.3160    10.4710    23.9100     2.3600 
  194.8750    -7.0560    97.9140     9.5930     8.7120    11.8170    23.9100     2.3540 
  195.0000    -7.2980    95.6820    10.2300     9.1750    12.6620    23.9140     2.3530 
  195.1250    -7.5130    97.6050    11.1160     9.7990    12.9090    23.9120     2.3560 
  195.2500    -7.7610    99.1060    12.3210    10.6570    13.4510    23.9100     2.3630 
  195.3750    -8.0600    94.2050    13.8680    11.7930    14.6240    23.9080     2.3680 
  195.5000    -8.4010    87.1910    15.6480    13.1630    16.9980    23.9080     2.3680 
  195.6250    -8.7180    87.3240    17.3780    14.5930    20.0020    23.9120     2.3580 
  195.7500    -8.9830    91.2460    18.8110    15.8490    22.5870    23.9140     2.3390 
  195.8750    -9.2110    92.7070    19.9980    16.8800    23.9810    23.9170     2.3160 
  196.0000    -9.4790    92.2520    21.4560    17.9700    24.2650    23.9190     2.2970 
  196.1250    -9.7900    90.3600    24.6730    20.1630    24.7030    23.9170     2.2900 
  196.2500   -10.0580    84.6650    30.7980    24.4910    28.7510    23.9210     2.2940 
  196.3750   -10.2990    76.7250    40.3410    31.6390    42.1300    23.9210     2.3070 
  196.5000   -10.5460    70.0850    52.4040    41.2800    67.6710    23.9170     2.3210 
  196.6250   -10.7450    66.2250    63.8510    51.3470    97.8880    23.9070     2.3220 
  196.7500   -10.9110    64.8650    70.7280    58.4740   122.3690    23.9050     2.3080 
  196.8750   -11.1040    65.1420    70.6910    60.3020   121.5690    23.9080     2.2820 
