~V
VERS. 2.00: Ver 2.00
~W
STRT.M 55.0000:
STOP.M 268.0000:
STEP.M 0.1250:
NULL. -999.2500:
UWI. DF5025:
~C
DEPT.M :
SP.MV :
GR.API :
CALI.CM :
RXO.OHMM :
RI. :
RML.OHMM :
DEN.GM/CC :
~A
# ...
  246.2500   -10.9790    61.4830    24.3430     8.4530     8.8580    10.3630     2.4670 
  246.3750   -10.8870    61.5760    24.6570     7.6600     8.8600    10.3660     2.4380 
  246.5000   -10.7630    64.7490    25.2850     7.2430     8.8550    10.3590     2.4290 
  246.6250   -10.6160    68.5790    25.4840     7.7940     8.8620    10.3680     2.4390 
  246.7500   -10.4490    69.4870    25.0140     9.0640     8.8940    10.4090     2.4530 
  246.8750   -10.2730    68.6240    24.4430    10.5470     8.9580    10.4920     2.4590 
  247.0000   -10.1180    68.5010    24.2950    11.7950     9.0570    10.6190     2.4530 
  247.1250   -10.0140    67.2460    24.3520    12.5960     9.1880    10.7880     2.4460 
  247.2500    -9.9500    64.0630    24.3420    12.9640     9.3350    10.9760     2.4420 
  247.3750    -9.9020    61.6710    24.3660    12.7780     9.4920    11.1780     2.4370 
  247.5000    -9.8490    62.3320    24.4050    12.0790     9.6630    11.3990     2.4320 
  247.6250    -9.7980    66.0520    24.4300    11.3380     9.8650    11.6580     2.4370 
  247.7500    -9.7660    69.4420    24.4360    11.0630    10.0880    11.9440     2.4520 
  247.8750    -9.7690    70.6510    24.4350    11.2700    10.3040    12.2220     2.4620 
  248.0000    -9.8020    70.0310    24.4360    11.6310    10.4650    12.4300     2.4460 
  248.1250    -9.8590    67.1910    24.4300    11.7650    10.5110    12.4890     2.4150 
  248.2500    -9.9350    64.1630    24.4100    11.6520    10.4600    12.4220     2.3980 
  248.3750   -10.0300    61.6470    24.3720    11.4260    10.3630    12.2980     2.4030 
  248.5000   -10.1350    60.4570    24.3530    11.3120    10.2950    12.2110     2.4170 
  248.6250   -10.2340    61.0680    24.3830    11.9120    10.3230    12.2460     2.4230 
  248.7500   -10.3060    61.9570    24.2610    13.7390    10.4240    12.3770     2.4270 
  248.8750   -10.3310    63.6800    23.9340    16.6960    10.5540    12.5440     2.4410 
  249.0000   -10.3020    66.9170    23.9980    19.5630    10.6750    12.7000     2.4680 
  249.1250   -10.2280    70.7860    25.0140    20.2210    10.7870    12.8430     2.4850 
  249.2500   -10.1350    72.8680    25.8260    18.6550    10.9320    13.0300     2.4700 
  249.3750   -10.0460    71.6390    25.5720    16.2520    11.1480    13.3070     2.4350 
  249.5000    -9.9770    69.1680    24.7200    14.7710    11.4430    13.6870     2.4140 
  249.6250    -9.9700    68.4510    24.3580    15.7950    11.7990    14.1450     2.4340 
  249.7500   -10.0480    68.7390    24.3970    19.0700    12.1650    14.6150     2.4720 
  249.8750   -10.2120    69.2860    24.3970    23.4100    12.5160    15.0660     2.5010 
  250.0000   -10.4560    69.3550    24.3890    26.6390    12.8470    15.4920     2.5170 
  250.1250   -10.7610    70.6970    24.4120    26.7320    13.1680    15.9050     2.5320 
  250.2500   -11.1050    72.8790    24.4330    25.6670    13.4800    16.3060     2.5550 
  250.3750   -11.4710    73.5380    24.4280    26.6090    13.7540    16.6580     2.5720 
  250.5000   -11.8260    72.1830    24.4020    31.2940    13.9400    16.8970     2.5660 
  250.6250   -12.1350    70.1920    24.3720    38.2990    13.9530    16.9140     2.5350 
  250.7500   -12.3730    68.1300    24.3540    43.8580    13.7900    16.7050     2.5030 
  250.8750   -12.5500    66.1430    24.3490    45.8350    13.4840    16.3110     2.4830 
  251.0000   -12.6630    64.7700    24.3480    43.3630    13.1080    15.8270     2.4730 
  251.1250   -12.7220    66.6500    24.3460    36.5320    12.7710    15.3940     2.4660 
  251.2500   -12.7400    70.9550    24.3460    28.5700    12.5490    15.1090     2.4660 
  251.3750   -12.7130    75.6720    24.3460    22.1820    12.4800    15.0200     2.4770 
  251.5000   -12.6760    79.0800    24.3460    18.5650    12.5570    15.1190     2.4950 
  251.6250   -12.6540    79.8910    24.3480    17.3510    12.7440    15.3600     2.5110 
  251.7500   -12.6550    79.0370    24.3450    17.1430    12.9460    15.6200     2.5260 
  251.8750   -12.6720    77.0710    24.3240    17.4900    13.0960    15.8120     2.5420 
  252.0000   -12.7060    74.9280    24.2550    17.9740    13.1490    15.8800     2.5560 
  252.1250   -12.7500    72.8210    24.2300    17.9030    13.0810    15.7920     2.5560 
  252.2500   -12.8020    70.5040    24.4970    17.1900    12.9390    15.6110     2.5430 
  252.3750   -12.8570    69.3960    24.8650    16.3550    12.7670    15.3890     2.5270 
  252.5000   -12.8980    70.6140    24.8590    15.9940    12.5990    15.1730     2.5120 
  252.6250   -12.9010    74.0070    24.4450    16.1240    12.4700    15.0070     2.5000 
  252.7500   -12.8620    76.1340    24.1450    16.0440    12.3870    14.9000     2.4930 
  252.8750   -12.7840    75.1770    24.0570    15.4420    12.3500    14.8530     2.4920 
  253.0000   -12.6760    72.6690    24.0470    14.5240    12.3500    14.8530     2.4900 
  253.1250   -12.5500    72.0060    24.0770    13.7730    12.3650    14.8720     2.4830 
  253.2500   -12.4050    73.3980    24.0610    13.3680    12.3610    14.8670     2.4740 
  253.3750   -12.2500    74.3500    23.8640    13.2260    12.3120    14.8040     2.4700 
  253.5000   -12.1080    72.4820    23.5950    13.1680    12.2090    14.6720     2.4700 
  253.6250   -11.9900    68.1120    23.4280    12.9880    12.0730    14.4970     2.4650 
  253.7500   -11.8990    65.5210    23.2230    12.6600    11.9610    14.3530     2.4540 
  253.8750   -11.8340    66.7720    22.9200    12.2840    11.9110    14.2880     2.4460 
  254.0000   -11.7840    69.7230    22.5350    11.9670    11.9350    14.3190     2.4480 
  254.1250   -11.7430    70.6790    22.0550    11.7250    12.0230    14.4320     2.4570 
  254.2500   -11.7150    70.0780    21.5580    11.4880    12.1320    14.5720     2.4680 
  254.3750   -11.6940    69.8090    21.0620    11.2580    12.2360    14.7070     2.4810 
  254.5000   -11.6600    69.8580    20.5240    11.1310    12.3200    14.8140     2.4920 
  254.6250   -11.6220    70.7460    19.9640    11.3380    12.3650    14.8720     2.4990 
  254.7500   -11.5790    71.9780    19.5780    11.9270    12.3620    14.8680     2.5010 
  254.8750   -11.5250    71.5330    19.5260    12.7560    12.3020    14.7920     2.5040 
  255.0000   -11.4720    69.3890    19.7730    13.5010    12.1880    14.6450     2.5120 
  255.1250   -11.4050    67.4110    20.1930    13.7830    12.0310    14.4420     2.5220 
  255.2500   -11.3180    66.5660    20.7330    13.6970    11.8600    14.2230     2.5250 
  255.3750   -11.2160    66.9410    21.4340    13.5680    11.6960    14.0120     2.5130 
  255.5000   -11.1170    68.4360    22.2200    13.7010    11.5500    13.8250     2.4930 
  255.6250   -11.0260    70.7350    22.8250    14.1340    11.4350    13.6770     2.4870 
  255.7500   -10.9300    71.3010    23.1440    14.5510    11.3450    13.5600     2.4990 
  255.8750   -10.8330    69.9150    23.2560    14.7750    11.2700    13.4650     2.5140 
  256.0000   -10.7460    68.4600    23.2770    14.7560    11.1990    13.3720     2.5170 
  256.1250   -10.6820    68.3580    23.2730    14.4030    11.1130    13.2630     2.5110 
  256.2500   -10.6560    70.0610    23.2720    13.7360    11.0190    13.1420     2.5090 
  256.3750   -10.6790    71.5050    23.2720    12.8590    10.9320    13.0290     2.5140 
  256.5000   -10.7250    70.7190    23.2740    12.0010    10.8590    12.9360     2.5130 
  256.6250   -10.7780    67.3710    23.2740    11.5500    10.7950    12.8540     2.5010 
  256.7500   -10.8590    64.4020    23.2370    11.6260    10.7230    12.7610     2.4820 
  256.8750   -10.9430    62.9080    23.1290    12.0050    10.6400    12.6540     2.4630 
  257.0000   -11.0020    62.1320    22.9730    12.2030    10.5580    12.5490     2.4470 
  257.1250   -11.0220    62.3170    22.8550    11.8540    10.5030    12.4780     2.4450 
  257.2500   -10.9980    64.1540    22.8090    11.2890    10.4820    12.4510     2.4550 
  257.3750   -10.9190    67.6960    22.8040    10.8290    10.4960    12.4690     2.4660 
