~V
VERS. 2.00: Ver 2.00
~W
STRT.M 50.0000:
STOP.M 260.0000:
STEP.M 0.1250:
NULL. -999.2500:
UWI. DF5023:
~C
DEPT.M :
GR.API :
RML.OHMM :
RI. :
RXO.OHMM :
CALI.CM :
DEN.GM/CC :
SP.MV :
~A
# ...
  241.2500    70.6830    52.2680    45.6670    36.5470    23.6930     2.2210   -14.6860 
  241.3750    67.2650    52.3270    45.5970    38.7980    23.7120     2.2210   -14.7340 
  241.5000    67.2610    52.7950    46.0480    43.2570    23.7330     2.2230   -14.7800 
  241.6250    71.1980    53.6480    46.9370    43.0520    23.7550     2.2220   -14.9080 
  241.7500    73.9130    55.0210    48.2530    39.7990    23.7740     2.2170   -14.9720 
  241.8750    73.5340    57.2500    50.2090    39.0100    23.7900     2.2070   -15.0370 
  242.0000    71.0760    60.5480    52.9900    41.6470    23.8040     2.1950   -15.0730 
  242.1250    68.9790    65.0060    56.7120    48.3320    23.8150     2.1840   -15.1080 
  242.2500    67.3140    70.0660    61.0110    56.4290    23.8270     2.1780   -15.1220 
  242.3750    65.2060    75.0870    65.4870    61.0040    23.8420     2.1750   -15.1310 
  242.5000    63.4090    79.2420    69.5330    63.4880    23.8580     2.1730   -15.0850 
  242.6250    64.6280    81.4940    72.1890    70.4320    23.8760     2.1690   -15.0200 
  242.7500    67.3870    81.6690    73.1770    71.6680    23.8940     2.1650   -14.9330 
  242.8750    68.4740    79.7950    72.3380    68.8820    23.9140     2.1650   -14.8550 
  243.0000    67.7860    76.2520    69.8490    67.2100    23.9360     2.1710   -14.7440 
  243.1250    67.9020    71.8960    66.1710    65.9280    23.9620     2.1880   -14.5770 
  243.2500    68.1570    67.7630    62.2840    62.2180    23.9930     2.2120   -14.3960 
  243.3750    67.3820    64.3980    58.8510    57.1940    24.0290     2.2370   -14.1870 
  243.5000    67.8680    62.0620    56.3800    52.6260    24.0690     2.2590   -14.0480 
  243.6250    70.2100    60.8060    55.2310    46.7050    24.1120     2.2680   -13.9100 
  243.7500    71.5910    60.1640    54.9240    42.6570    24.1590     2.2630   -13.8560 
  243.8750    71.0600    59.7250    54.9870    44.0750    24.2060     2.2480   -13.8230 
  244.0000    71.1570    59.0280    54.9100    52.2790    24.2460     2.2280   -13.8460 
  244.1250    72.8710    57.6680    54.1590    64.3840    24.2760     2.2120   -13.9270 
  244.2500    73.0350    55.9920    52.8910    64.7620    24.2930     2.2060   -14.0840 
  244.3750    71.9030    54.6240    51.5970    52.3250    24.2630     2.2100   -14.2830 
  244.5000    70.4710    54.1960    50.9040    42.3130    24.2490     2.2180   -14.4990 
  244.6250    70.1310    55.3120    51.5110    43.9310    24.2480     2.2240   -14.7310 
  244.7500    69.7240    57.7100    53.3840    49.1780    24.2480     2.2240   -14.9880 
  244.8750    68.5910    61.1050    56.3050    53.7680    24.2480     2.2180   -15.2620 
  245.0000    67.2050    65.0620    59.8200    62.1070    24.2480     2.2120   -15.5800 
  245.1250    64.6380    68.8140    63.3460    75.3430    24.2480     2.2080   -15.9030 
  245.2500    63.4010    71.7430    66.5630    84.6680    24.2480     2.2070   -16.1720 
  245.3750    64.2710    74.2870    69.6380    74.3460    24.2840     2.2060   -16.3990 
  245.5000    65.5800    77.0920    73.1090    58.1350    24.3070     2.2010   -16.5440 
  245.6250    66.8640    82.5230    77.6740    58.9720    24.3230     2.1930   -16.6600 
  245.7500    68.0450    90.0350    83.2100    72.2790    24.3420     2.1860   -16.6690 
  245.8750    68.3750    99.6700    89.2380    88.3680    24.3620     2.1840   -16.5910 
  246.0000    67.3180   110.1230    94.8370    99.4230    24.3850     2.1860   -16.3980 
  246.1250    64.1910   114.5850    98.5490   104.4390    24.4130     2.1890   -16.1470 
  246.2500    60.1530   116.2590    99.7710   107.4190    24.4420     2.1890   -15.8270 
  246.3750    56.9160   115.0620    98.5000   106.8460    24.4710     2.1870   -15.4200 
  246.5000    56.7890   111.8710    95.6120   100.6820    24.4950     2.1840   -14.9150 
  246.6250    59.7850   108.5340    92.8680    95.7430    24.5130     2.1850   -14.3180 
  246.7500    63.1990   107.1040    91.9420    91.7820    24.5240     2.1900   -13.6690 
  246.8750    66.0000   108.7040    93.9060    87.2970    24.5300     2.1980   -13.0300 
  247.0000    67.7630   113.6510    99.2550    85.1140    24.5290     2.2030   -12.4430 
  247.1250    65.6490   121.3340   107.6280    91.2870    24.5170     2.2010   -11.8690 
  247.2500    61.5940   128.4540   116.0300   109.6990    24.4990     2.1930   -11.3810 
  247.3750    61.7380   131.3580   121.1670   133.7970    24.4710     2.1870   -10.9840 
  247.5000    67.6780   126.9300   119.9950   158.2320    24.4320     2.1930   -10.7580 
  247.6250    72.4940   112.9490   109.8030   178.7520    24.3820     2.2150   -10.5900 
  247.7500    71.6150    93.6480    93.4480   182.3840    24.3260     2.2480   -10.5440 
  247.8750    70.2350    73.3460    74.4600   150.0350    24.2660     2.2770   -10.5400 
  248.0000    72.2000    55.7310    56.6380    84.5240    24.2050     2.2930   -10.5870 
  248.1250    73.5090    43.2510    43.2010    45.3310    24.1480     2.2900   -10.6890 
  248.2500    72.8720    35.0400    34.1220    28.0810    24.0910     2.2780   -10.8470 
  248.3750    71.6010    30.4460    28.9030    22.8870    24.0390     2.2730   -11.0080 
  248.5000    69.4000    28.8290    26.8220    21.1200    23.9940     2.2860   -11.1670 
  248.6250    65.4730    30.1090    27.7050    21.1040    23.9510     2.3240   -11.3900 
  248.7500    63.9220    33.6180    30.8760    23.5030    23.9080     2.3720   -11.6770 
  248.8750    65.8100    39.2200    36.2050    29.3350    23.8660     2.4060   -11.9590 
  249.0000    67.8910    46.6340    43.4060    40.4470    23.8210     2.4080   -12.2840 
  249.1250    68.2180    55.3580    51.8490    51.7260    23.7700     2.3690   -12.5590 
  249.2500    69.0510    64.0620    60.1010    68.2600    23.7180     2.3140   -12.7600 
  249.3750    70.9020    71.4500    66.8670    76.1800    23.6670     2.2600   -12.8970 
  249.5000    71.5540    76.3120    71.0620    78.9940    23.6210     2.2210   -12.9430 
  249.6250    70.2870    77.5400    71.7210    84.8660    23.5840     2.2030   -12.8710 
  249.7500    69.0060    76.0490    69.8730    87.0810    23.5630     2.2080   -12.6410 
  249.8750    69.0060    72.8310    66.4580    80.4040    23.5580     2.2370   -12.3190 
  250.0000    69.0060    69.1040    62.4620    70.9550    23.5730     2.2850   -11.8750 
  250.1250    69.0060    65.9990    58.8880    67.0400    23.6150     2.3370   -11.3990 
  250.2500    69.0060    63.9240    56.2140    62.6850    23.6700     2.3720   -10.8740 
  250.3750    69.0060    63.0440    54.6610    55.1150    23.7340     2.3830   -10.3770 
  250.5000    69.0060    63.3560    54.2520    51.7310    23.8040     2.3700    -9.9280 
  250.6250    69.0060    64.7250    54.9060    54.2420    23.8740     2.3450    -9.5170 
  250.7500    69.0060    66.5440    56.0680    57.2590    23.9360     2.3270    -9.1500 
  250.8750    69.0060    68.3850    57.3470    55.1220    23.9860     2.3230    -8.8230 
  251.0000    69.0060    69.9830    58.4960    52.5560    24.0250     2.3360    -8.5180 
  251.1250    69.0060    71.5460    59.7000    55.8640    24.0510     2.3600    -8.2160 
  251.2500    69.0060    73.9560    61.6930    60.5910    24.0740     2.3820    -7.9380 
  251.3750    69.0060    78.2470    65.3840    58.9130    24.0960     2.3960    -7.6420 
  251.5000    69.0060    85.2120    71.5180    56.6830    24.1170     2.4040    -7.3890 
  251.6250    69.0060    94.6020    80.1780    62.1680    24.1370     2.4240    -7.1280 
  251.7500    69.0060   103.3090    88.7670    75.3230    24.1510     2.4660    -6.8640 
  251.8750    69.0060   107.5060    93.9350   101.5430    24.1570     2.5280    -6.5950 
  252.0000    69.0060   103.5360    92.5960   144.8400    24.1540     2.5910    -6.3510 
  252.1250    69.0060    89.0820    82.3200   206.0100    24.1370     2.6230    -6.0420 
  252.2500    69.0060    69.5620    66.6240   221.7500    24.1090     2.6120    -5.7810 
  252.3750    69.0060    50.3040    49.5550   143.2110    24.0720     2.5640    -5.5240 
