~V
VERS. 2.00: Ver 2.00
~W
STRT.M 60.0000:
STOP.M 273.0000:
STEP.M 0.1250:
NULL. -999.2500:
UWI. DF5008:
~C
DEPT.M :
GR.API :
CALI.CM :
RXO.OHMM :
RI. :
RML.OHMM :
DEN.GM/CC :
SP.MV :
~A
# ...
  172.5000    66.8440    23.9120   110.1210   135.1340   130.3870     2.2430   -63.8550 
  172.6250    72.0930    23.9120   104.5320   133.5690   129.2830     2.2340   -63.9080 
  172.7500    73.8810    23.9130   108.1810   133.6810   130.3070     2.2240   -63.9710 
  172.8750    73.0200    23.9100   115.5480   135.9620   133.7850     2.2140   -63.9920 
  173.0000    72.5730    23.8940   123.2400   140.6260   139.7080     2.2050   -63.9520 
  173.1250    73.1110    23.8600   124.1440   147.8210   148.0910     2.1950   -63.9420 
  173.2500    72.4050    23.8200   121.0780   156.8660   158.3480     2.1860   -63.9130 
  173.3750    69.2330    23.7820   118.6510   167.9540   170.7780     2.1790   -63.8200 
  173.5000    66.0470    23.7460   125.6930   181.7400   186.0160     2.1730   -63.7570 
  173.6250    63.3200    23.7110   139.0310   199.4430   205.0350     2.1690   -63.6530 
  173.7500    60.9070    23.6760   147.9070   220.4170   226.8510     2.1670   -63.5440 
  173.8750    60.1830    23.6480   144.6350   243.6970   250.1820     2.1680   -63.4480 
  174.0000    60.2910    23.6120   141.7120   267.4240   272.8760     2.1700   -63.3060 
  174.1250    59.7150    23.5560   148.1500   287.3930   290.1360     2.1730   -63.1760 
  174.2500    56.7290    23.5500   153.8070   298.2980   296.6690     2.1770   -63.0500 
  174.3750    53.8980    23.6760   153.1820   294.1420   286.9520     2.1820   -62.9830 
  174.5000    54.9080    23.9140   147.9350   272.4720   260.2420     2.1890   -62.9030 
  174.6250    59.7500    24.1150   139.7480   237.7490   223.8770     2.2000   -62.8530 
  174.7500    63.1880    24.1930   123.6520   203.2540   191.0460     2.2140   -62.7080 
  174.8750    64.0020    24.1870   102.3040   176.6790   167.9850     2.2280   -62.6230 
  175.0000    64.9770    24.1620    85.8150   161.5390   156.6230     2.2380   -62.6160 
  175.1250    68.2580    24.1470    85.1010   160.2260   158.2180     2.2370   -62.6740 
  175.2500    70.4640    24.1420   103.9180   169.2620   169.1570     2.2250   -62.7630 
  175.3750    69.6030    24.1550   116.3560   186.1920   187.1210     2.2060   -62.8240 
  175.5000    66.4220    24.1920   113.6080   207.4930   208.8360     2.1840   -62.8300 
  175.6250    62.4390    24.2540   123.5990   228.1750   229.5480     2.1660   -62.8280 
  175.7500    59.9170    24.3350   133.3450   244.5050   245.8930     2.1550   -62.9030 
  175.8750    59.3640    24.4320   134.6840   255.8350   257.5300     2.1500   -62.9600 
  176.0000    60.4550    24.5190   131.4440   263.2650   265.7090     2.1520   -62.9340 
  176.1250    61.5430    24.5560   139.5600   266.5150   269.9430     2.1590   -62.7980 
  176.2500    60.3640    24.5600   150.3060   264.7450   268.8110     2.1680   -62.6350 
  176.3750    57.3330    24.5720   157.1900   257.1380   261.1410     2.1750   -62.4210 
  176.5000    54.9470    24.6330   162.2980   244.9230   248.2540     2.1800   -62.2380 
  176.6250    55.3480    24.7390   153.1270   231.6860   234.2270     2.1800   -62.0370 
  176.7500    55.6730    24.8280   141.7170   221.7350   223.6190     2.1760   -61.7200 
  176.8750    54.9110    24.8740   138.1210   217.2410   218.3140     2.1690   -61.4390 
  177.0000    54.5550    24.8970   154.8850   218.0670   217.6890     2.1630   -61.1340 
  177.1250    53.6590    24.9160   179.1010   221.4800   218.5090     2.1640   -60.8900 
  177.2500    51.7950    24.9220   194.8030   222.0930   215.6210     2.1730   -60.6340 
  177.3750    50.8970    24.9130   189.1030   215.2170   204.8790     2.1890   -60.4370 
  177.5000    52.7400    24.9000   173.5910   197.8920   184.3450     2.2080   -60.2310 
  177.6250    56.8730    24.8860   157.0580   170.3090   155.7490     2.2250   -60.0360 
  177.7500    61.0330    24.8350   141.7130   140.3380   126.9140     2.2360   -59.9630 
  177.8750    65.4320    24.7290   120.4880   114.0440   103.1470     2.2370   -59.8490 
  178.0000    70.3370    24.6120    94.9520    94.9750    87.0230     2.2280   -59.7310 
  178.1250    72.7660    24.5640    69.5810    85.3370    79.9860     2.2160   -59.6490 
  178.2500    70.9580    24.6070    61.9940    82.9450    79.5810     2.2080   -59.5790 
  178.3750    66.5710    24.7120    78.6500    86.4720    84.3250     2.2100   -59.5410 
  178.5000    63.4370    24.8240   102.5690    94.2220    92.3940     2.2190   -59.3960 
  178.6250    62.8770    24.8460   112.8350   103.9090   101.3760     2.2310   -59.3940 
  178.7500    62.2680    24.7670   112.5290   112.3590   108.6150     2.2400   -59.4080 
  178.8750    62.3980    24.6700   115.0250   117.7240   112.8490     2.2420   -59.4080 
  179.0000    64.5150    24.6340   115.4510   119.7120   114.2840     2.2400   -59.4750 
  179.1250    66.3840    24.6700   112.5070   119.3070   114.1250     2.2360   -59.5020 
  179.2500    66.5120    24.7070   109.6220   118.2890   113.8020     2.2300   -59.5150 
  179.3750    65.9560    24.7150   106.6610   117.1890   113.6150     2.2230   -59.5220 
  179.5000    66.6450    24.7030   102.2240   116.0540   113.4980     2.2190   -59.6700 
  179.6250    67.4520    24.6930    98.3810   114.9210   113.4530     2.2180   -59.6780 
  179.7500    66.4080    24.6900    94.4790   114.0440   113.6910     2.2170   -59.6520 
  179.8750    63.4460    24.6870    89.6570   113.7870   114.5490     2.2140   -59.6580 
  180.0000    60.6690    24.6890    86.6910   114.5190   116.3700     2.2100   -59.6460 
  180.1250    61.0530    24.7310    88.3550   116.6280   119.4590     2.2070   -59.5950 
  180.2500    63.2340    24.7960    96.4860   119.5160   123.1010     2.2070   -59.5700 
  180.3750    64.8210    24.8460   105.7330   122.0930   126.0800     2.2100   -59.4930 
  180.5000    65.9060    24.8630   108.7920   122.8840   126.8460     2.2160   -59.4080 
  180.6250    67.5190    24.8610   109.1460   120.0530   123.5740     2.2260   -59.2390 
  180.7500    69.5260    24.8570   108.5800   114.0050   117.0070     2.2380   -59.1270 
  180.8750    70.3750    24.8530   102.4320   105.8850   108.5950     2.2510   -58.9520 
  181.0000    69.2170    24.8500    91.2700    97.4580   100.2850     2.2640   -58.7430 
  181.1250    67.4000    24.8550    81.1990    90.7830    94.2170     2.2700   -58.5920 
  181.2500    67.0570    24.8580    77.3260    86.7130    91.1130     2.2700   -58.3680 
  181.3750    68.0110    24.8490    78.8540    85.6950    91.3470     2.2630   -58.1760 
  181.5000    68.2930    24.8250    85.8130    87.8370    94.9370     2.2540   -57.9680 
  181.6250    68.1860    24.8080    92.5010    93.3080   101.9670     2.2440   -57.8840 
  181.7500    69.1650    24.8200   103.7500   100.9230   111.1550     2.2370   -57.8010 
  181.8750    70.3460    24.8570   114.4120   109.6950   121.4670     2.2300   -57.7580 
  182.0000    69.4050    24.8850   119.8660   118.4080   131.6820     2.2220   -57.7850 
  182.1250    65.6780    24.8810   125.6630   125.6390   140.4240     2.2140   -57.7810 
  182.2500    62.9280    24.8670   133.7150   131.0900   147.4580     2.2080   -57.8620 
  182.3750    63.2720    24.8590   140.1200   134.9650   153.0360     2.2020   -57.9700 
  182.5000    65.5790    24.8520   143.6070   137.7000   157.5950     2.1980   -58.1390 
  182.6250    64.7790    24.8460   146.3330   139.5780   161.3330     2.1950   -58.2760 
  182.7500    62.6010    24.8440   148.6840   140.9360   164.5090     2.1930   -58.3680 
  182.8750    62.9530    24.8440   147.4420   141.9020   167.2920     2.1940   -58.4180 
  183.0000    65.7190    24.8470   144.4070   142.7300   170.0210     2.1990   -58.4080 
  183.1250    66.6990    24.8530   142.6970   143.7920   173.1180     2.2060   -58.4440 
  183.2500    65.6050    24.8590   144.9810   145.1400   176.4490     2.2110   -58.4080 
  183.3750    63.7580    24.8700   150.9890   146.4770   179.4360     2.2130   -58.3430 
  183.5000    61.6950    24.8810   152.7580   147.2830   181.3060     2.2150   -58.1940 
  183.6250    61.8770    24.8660   147.0220   146.8400   181.1390     2.2190   -58.0370 
