~V
VERS. 2.00: Ver 2.00
~W
STRT.M 55.0000:
STOP.M 268.0000:
STEP.M 0.1250:
NULL. -999.2500:
UWI. DF5025:
~C
DEPT.M :
SP.MV :
GR.API :
CALI.CM :
RXO.OHMM :
RI. :
RML.OHMM :
DEN.GM/CC :
~A
# ...
  111.2500   -12.6610   110.5590    24.6860     4.0880     5.0920     5.3890     2.3460 
  111.3750   -12.5410   110.4370    24.6730     3.9270     5.0300     5.3350     2.3650 
  111.5000   -12.5090   108.6360    24.6620     4.0220     5.1400     5.5490     2.3850 
  111.6250   -12.6160   105.6140    24.6550     4.6640     5.4410     6.0770     2.4070 
  111.7500   -12.8490   101.2820    24.6390     5.7340     5.8380     6.7450     2.4270 
  111.8750   -13.2070    96.6300    24.5910     6.8100     6.2280     7.3400     2.4280 
  112.0000   -13.6670    92.6880    24.5070     7.3380     6.4990     7.6540     2.4000 
  112.1250   -14.1850    93.2660    24.4190     7.0120     6.5500     7.5520     2.3460 
  112.2500   -14.6910    94.6540    24.3580     6.3700     6.4390     7.2220     2.2900 
  112.3750   -15.1210    94.7250    24.3270     5.8500     6.2550     6.8480     2.2530 
  112.5000   -15.4300    92.4580    24.3420     5.5740     6.0880     6.5540     2.2470 
  112.6250   -15.5930    90.6290    24.3860     5.4600     5.9860     6.3990     2.2660 
  112.7500   -15.6440    92.3480    24.3840     5.4420     5.9140     6.3470     2.2840 
  112.8750   -15.5750    95.2590    24.3500     5.4890     5.8320     6.3710     2.2930 
  113.0000   -15.4220    97.2430    24.5940     5.4460     5.7240     6.4390     2.3000 
  113.1250   -15.2450    98.9270    25.1490     5.1750     5.6220     6.5150     2.3020 
  113.2500   -15.1010   100.6850    25.3940     4.9130     5.5780     6.5910     2.2930 
  113.3750   -14.9890    99.7950    25.2920     4.9390     5.6170     6.6830     2.2760 
  113.5000   -14.9010    95.5600    25.2140     5.3150     5.7300     6.8070     2.2640 
  113.6250   -14.7990    93.8260    25.1260     5.8450     5.8730     6.9380     2.2730 
  113.7500   -14.6740    93.8730    24.6820     6.2390     5.9840     7.0090     2.3030 
  113.8750   -14.5490    94.3540    24.1880     6.3320     6.0190     6.9620     2.3440 
  114.0000   -14.4270    96.9720    24.0580     6.0550     5.9610     6.7880     2.3700 
  114.1250   -14.2820   103.9360    24.0730     5.5130     5.8110     6.5290     2.3520 
  114.2500   -14.0980   108.5310    24.0460     5.0410     5.6250     6.2780     2.3070 
  114.3750   -13.8820   105.1270    24.1150     4.7880     5.4530     6.0970     2.2620 
  114.5000   -13.6580    97.9710    24.2100     4.6950     5.3490     6.0310     2.2340 
  114.6250   -13.4420    96.6420    24.1270     4.7320     5.3680     6.1080     2.2380 
  114.7500   -13.2460    97.8210    23.9920     5.0600     5.4840     6.2510     2.2810 
  114.8750   -13.0660    95.7240    23.9490     5.7510     5.6500     6.3490     2.3560 
  115.0000   -12.8940    92.2870    23.9640     6.4510     5.7980     6.2900     2.4250 
  115.1250   -12.7300    94.7020    23.9380     6.4530     5.8680     6.0420     2.4450 
  115.2500   -12.5950    99.5010    23.8810     5.8190     5.8900     5.8210     2.4270 
  115.3750   -12.5230   102.6840    23.8170     5.1430     5.9320     5.8770     2.3980 
  115.5000   -12.5270   103.1260    23.7810     5.0780     6.0730     6.3760     2.3830 
  115.6250   -12.6280    99.7630    23.7760     6.0390     6.3730     7.3300     2.3970 
  115.7500   -12.7870    95.0310    23.7570     7.4850     6.7590     8.3570     2.4230 
  115.8750   -12.9780    92.5320    23.7370     8.6090     7.1050     9.0660     2.4320 
  116.0000   -13.1710    92.7450    23.7850     8.7040     7.2670     9.1570     2.4050 
  116.1250   -13.3600    92.2410    23.8680     7.6850     7.1240     8.5330     2.3520 
  116.2500   -13.5620    91.6970    23.9090     6.4960     6.7820     7.6530     2.3100 
  116.3750   -13.7930    93.6060    23.9800     5.6880     6.3740     6.9140     2.2940 
  116.5000   -14.0720    95.8570    24.1400     5.3530     6.0270     6.5440     2.2910 
  116.6250   -14.3900    96.2000    24.2760     5.3930     5.8450     6.5730     2.2750 
  116.7500   -14.7230    96.1770    24.2770     5.5790     5.8190     6.7490     2.2490 
  116.8750   -15.0630    95.4390    24.2800     5.7450     5.9250     6.9280     2.2310 
  117.0000   -15.4170    91.8150    24.4040     5.7930     6.1220     7.0590     2.2300 
  117.1250   -15.7470    84.9700    24.5150     5.8100     6.3540     7.1490     2.2450 
  117.2500   -15.9980    80.7010    24.4970     5.9280     6.5500     7.2000     2.2540 
  117.3750   -16.1140    81.0920    24.4210     6.1000     6.6580     7.1750     2.2500 
  117.5000   -16.0320    84.2600    24.3890     6.1640     6.6470     7.0410     2.2410 
  117.6250   -15.7370    86.3520    24.4120     5.9610     6.4930     6.7950     2.2450 
  117.7500   -15.3150    88.8630    24.4310     5.5520     6.2420     6.5070     2.2610 
  117.8750   -14.8130    95.3380    24.4700     5.0550     5.9320     6.2230     2.2830 
  118.0000   -14.2470   103.4900    24.5290     4.5990     5.6090     5.9690     2.3070 
  118.1250   -13.6780   108.1230    24.5680     4.2830     5.3280     5.7610     2.3360 
  118.2500   -13.1590   109.6820    24.5750     4.0870     5.1240     5.5940     2.3650 
  118.3750   -12.7320   110.1990    24.5670     3.9970     5.0150     5.4700     2.3850 
  118.5000   -12.4580   108.2620    24.5700     4.0090     5.0010     5.4010     2.3900 
  118.6250   -12.3750   104.5720    24.5860     4.1220     5.0760     5.4410     2.3940 
  118.7500   -12.4240   102.3310    24.5830     4.3540     5.2100     5.6150     2.4020 
  118.8750   -12.5820    99.9160    24.5440     4.7850     5.4010     5.9170     2.4010 
  119.0000   -12.8300    94.4980    24.4830     5.4100     5.6530     6.2720     2.3690 
  119.1250   -13.1250    87.3890    24.4290     5.9740     5.9310     6.5160     2.3090 
  119.2500   -13.4210    82.6500    24.3910     6.2160     6.1380     6.5320     2.2590 
  119.3750   -13.6850    81.2320    24.3600     6.1130     6.1790     6.2980     2.2370 
  119.5000   -13.9060    81.9020    24.3360     5.7930     6.0210     5.9120     2.2370 
  119.6250   -14.0940    84.9520    24.3230     5.3550     5.7410     5.6170     2.2460 
  119.7500   -14.2900    86.5970    24.3280     4.9890     5.5380     5.6300     2.2650 
  119.8750   -14.5120    84.8620    24.3540     5.1140     5.5680     6.0730     2.3060 
  120.0000   -14.7940    80.6240    24.3890     6.3020     5.9340     6.9680     2.3720 
  120.1250   -15.1490    74.7540    24.4040     8.8040     6.7070     8.2390     2.4480 
  120.2500   -15.5580    68.5210    24.3600    11.3250     7.6840     9.5290     2.5040 
  120.3750   -16.0060    64.3210    24.7090    12.4730     8.5980    10.4840     2.5160 
  120.5000   -16.4550    63.6600    25.4470    11.7510     9.1660    10.8510     2.4730 
  120.6250   -16.8290    65.2230    25.7560    10.0460     9.2110    10.5750     2.3910 
  120.7500   -17.0660    66.3490    25.6040     8.8460     8.9850    10.0770     2.3090 
  120.8750   -17.1330    68.2870    25.6450     8.4890     8.7240     9.6690     2.2460 
  121.0000   -16.9930    69.3780    26.1870     8.6330     8.5510     9.4760     2.2050 
  121.1250   -16.6070    68.4190    26.2850     8.7730     8.3920     9.3510     2.1900 
  121.2500   -16.0600    68.1550    25.7370     8.5910     8.0590     8.9890     2.1950 
  121.3750   -15.4080    69.5380    25.1270     7.9190     7.4670     8.2530     2.2190 
  121.5000   -14.7300    72.7860    24.7790     6.7420     6.6920     7.2710     2.2570 
  121.6250   -14.1450    79.1720    24.7560     5.3370     5.9760     6.4760     2.2930 
  121.7500   -13.7140    86.5260    24.8090     4.3980     5.5370     6.2400     2.3220 
  121.8750   -13.4740    90.3760    24.8540     4.8050     5.4920     6.7190     2.3590 
  122.0000   -13.4570    86.7110    24.8510     7.3980     5.8950     7.8810     2.4170 
  122.1250   -13.7160    75.8840    24.7680    11.9740     6.8010     9.6110     2.4810 
  122.2500   -14.1640    66.0120    24.6260    15.6860     7.9810    11.4820     2.5020 
  122.3750   -14.7440    61.1100    24.7520    16.2980     9.1390    13.0800     2.4480 
