~V
VERS. 2.00: Ver 2.00
~W
STRT.M 60.0000:
STOP.M 268.0000:
STEP.M 0.1250:
NULL. -999.2500:
UWI. DF5039:
~C
DEPT.M :
DEN.GM/CC :
GR.API :
CALI.CM :
RXO.OHMM :
RI. :
RML.OHMM :
SP.MV :
~A
# ...
  217.5000     2.2030    65.9100    23.9420    52.4690    93.1480    90.5940   -25.0070 
  217.6250     2.1980    65.4250    23.7410    51.5230    94.1680    92.6980   -25.0160 
  217.7500     2.1840    64.1560    23.6840    53.8550    98.4330    97.8960   -25.1260 
  217.8750     2.1670    63.9280    23.8300    57.7580   105.4090   105.4530   -25.1630 
  218.0000     2.1540    63.3850    24.0550    58.8900   113.5820   113.7230   -25.2170 
  218.1250     2.1500    61.5170    24.1650    60.4870   120.0000   119.6320   -25.2050 
  218.2500     2.1550    60.6760    24.1640    61.1030   122.2920   121.0670   -25.2950 
  218.3750     2.1630    61.0900    24.1220    59.7730   119.6730   117.6130   -25.3150 
  218.5000     2.1700    60.7080    24.0870    56.7640   113.2800   110.7950   -25.3670 
  218.6250     2.1730    60.8660    24.0780    52.8210   105.3570   103.0930   -25.3820 
  218.7500     2.1700    62.5500    24.0810    48.4870    98.1120    96.4620   -25.5070 
  218.8750     2.1650    63.6260    24.0830    45.9040    92.3370    91.4540   -25.6200 
  219.0000     2.1610    62.4910    24.0690    46.7580    88.1210    87.9670   -25.7100 
  219.1250     2.1610    62.1280    24.0160    48.7340    85.3070    85.7360   -25.7050 
  219.2500     2.1650    63.3850    23.9630    49.2660    83.4020    84.3200   -25.6930 
  219.3750     2.1720    63.2870    23.9640    48.3180    82.4540    83.8470   -25.6780 
  219.5000     2.1770    62.3370    24.0190    47.3530    82.7280    84.6430   -25.6580 
  219.6250     2.1780    64.0730    24.0670    46.8760    84.7120    87.1580   -25.5960 
  219.7500     2.1740    66.5030    24.0900    46.2580    87.9060    90.7160   -25.4370 
  219.8750     2.1680    66.7850    24.1180    48.3080    91.3410    94.1570   -25.2540 
  220.0000     2.1650    64.8530    24.1540    51.8870    93.5200    95.9120   -25.1530 
  220.1250     2.1690    62.8060    24.1600    52.0290    92.6880    94.4080   -25.0470 
  220.2500     2.1760    60.3490    24.1130    48.0430    89.4710    90.7560   -24.8970 
  220.3750     2.1820    58.9400    24.0040    42.3900    85.3500    86.7470   -24.7360 
  220.5000     2.1840    60.5970    23.8590    38.1470    82.0500    84.1640   -24.5010 
  220.6250     2.1810    64.4520    23.7440    39.8900    81.1760    84.4970   -24.3700 
  220.7500     2.1740    65.8310    23.6930    43.3380    82.7240    87.4000   -24.1410 
  220.8750     2.1650    65.2970    23.6810    47.5270    86.3890    92.3620   -23.9180 
  221.0000     2.1550    64.1570    23.6790    49.2110    91.5000    98.5960   -23.6220 
  221.1250     2.1440    63.3630    23.7080    46.3020    97.1260   105.1250   -23.4850 
  221.2500     2.1350    63.2170    23.7700    45.6890   102.2390   111.0040   -23.3540 
  221.3750     2.1300    63.2970    23.8040    50.3240   106.2390   115.6770   -23.2960 
  221.5000     2.1270    63.7160    23.7300    55.7160   108.8300   118.8920   -23.1970 
  221.6250     2.1240    63.0570    23.6300    55.5360   109.9260   120.6720   -23.1620 
  221.7500     2.1200    62.0790    23.6960    53.0130   110.3190   121.9880   -23.1370 
  221.8750     2.1160    61.4260    23.9390    51.8350   110.8410   123.8220   -23.1530 
  222.0000     2.1150    60.7660    24.2030    53.1260   112.3010   126.9610   -23.0990 
  222.1250     2.1180    61.9610    24.3390    56.3730   114.8970   131.3390   -22.9970 
  222.2500     2.1250    63.5990    24.4010    59.6510   117.2770   135.1460   -22.9160 
  222.3750     2.1330    64.2320    24.4420    62.4230   118.0670   136.5830   -22.7990 
  222.5000     2.1410    63.7660    24.4640    63.8900   116.6180   134.7470   -22.7500 
  222.6250     2.1480    62.6250    24.4550    62.2080   113.3390   129.9730   -22.5820 
  222.7500     2.1510    62.4980    24.4330    53.8040   110.1170   124.6020   -22.5490 
  222.8750     2.1500    62.9700    24.4200    49.4830   108.3770   120.2530   -22.4510 
  223.0000     2.1460    63.4230    24.4160    55.3060   108.7760   117.7070   -22.4220 
  223.1250     2.1440    63.3940    24.4180    58.5530   111.2810   117.1380   -22.2590 
  223.2500     2.1450    62.9350    24.4200    56.6170   114.6350   117.5770   -22.2420 
  223.3750     2.1490    62.0110    24.4090    54.1940   117.4880   117.7660   -22.2440 
  223.5000     2.1520    60.6850    24.3930    52.5370   117.4920   115.2900   -22.1810 
  223.6250     2.1550    61.2480    24.3940    48.1920   109.8620   105.4610   -22.2650 
  223.7500     2.1630    63.7470    24.4080    44.3860    93.5570    87.8590   -22.2120 
  223.8750     2.1810    65.6980    24.4030    41.8530    71.1780    65.6910   -22.2410 
  224.0000     2.2100    66.3070    24.3620    37.5540    48.7870    44.6260   -22.2010 
  224.1250     2.2460    69.4670    24.2840    26.1730    32.6600    29.8710   -22.2890 
  224.2500     2.2760    73.7200    24.1740    14.8840    22.7800    20.9950   -22.2570 
  224.3750     2.2910    75.4850    24.0470     8.7770    17.6630    16.7470   -22.1190 
  224.5000     2.2900    75.9280    23.9380     7.7830    15.8300    15.9960   -22.0990 
  224.6250     2.2740    78.8040    23.8990     9.1740    17.0250    18.8350   -21.9300 
  224.7500     2.2530    81.0640    23.9320    14.9090    21.1890    25.0500   -21.8560 
  224.8750     2.2290    78.0620    24.0080    26.9050    29.1730    35.0400   -21.6920 
  225.0000     2.2040    70.8630    24.0840    40.9830    41.4690    48.6540   -21.5960 
  225.1250     2.1810    65.8860    24.1230    45.1280    56.8640    64.1850   -21.3930 
  225.2500     2.1630    65.7720    24.1310    44.4190    70.3970    77.2980   -21.2200 
  225.3750     2.1500    67.9310    24.1080    40.2590    78.2300    84.7380   -21.1240 
  225.5000     2.1410    68.2060    24.0650    36.5520    79.9300    86.4240   -20.8860 
  225.6250     2.1330    66.1460    24.0280    37.0090    77.8060    85.0480   -20.7460 
  225.7500     2.1240    66.4900    24.0070    38.8700    75.0370    83.7130   -20.4750 
  225.8750     2.1150    68.0450    23.9740    39.5520    72.4150    83.0050   -20.2640 
  226.0000     2.1080    67.7170    23.8990    39.4600    69.9730    82.6910   -19.9670 
  226.1250     2.1070    67.1810    23.8180    41.3290    67.7460    82.5130   -19.7950 
  226.2500     2.1130    68.2960    23.8060    43.9950    65.9270    82.4880   -19.4970 
  226.3750     2.1230    68.4610    23.8510    42.8460    64.8260    82.9080   -19.1690 
  226.5000     2.1340    65.7000    23.9140    39.8380    64.7280    84.1300   -18.9280 
  226.6250     2.1440    63.8730    24.0220    41.0230    65.9210    86.5180   -18.6170 
  226.7500     2.1500    64.7410    24.1800    43.9610    68.0300    89.7330   -18.4490 
  226.8750     2.1530    65.1690    24.3160    46.8040    70.6830    93.3360   -18.2270 
  227.0000     2.1520    64.4570    24.3680    48.8280    73.4270    96.7550   -18.0870 
  227.1250     2.1480    64.3210    24.3640    49.4880    75.8230    99.3830   -17.8000 
  227.2500     2.1500    65.4980    24.3600    49.1750    77.9660   101.4600   -17.6670 
  227.3750     2.1660    65.5330    24.3670    48.5500    80.3530   103.6740   -17.4980 
  227.5000     2.1960    64.9600    24.3820    47.2400    83.4990   106.6230   -17.2920 
  227.6250     2.2340    65.4740    24.4070    47.1050    87.4090   110.1370   -17.1530 
  227.7500     2.2620    65.6060    24.4610    51.5720    91.2080   113.2970   -16.9320 
  227.8750     2.2740    63.5360    24.4670    59.4220    94.4940   116.0480   -16.7750 
  228.0000     2.2840    60.9180    24.2690    56.0960    97.7950   119.4410   -16.5400 
  228.1250     2.3170    61.4650    23.8840    43.2200   101.9470   124.2260   -16.4400 
  228.2500     2.3770    65.2050    23.6610    35.6320   104.4970   126.0740   -16.1480 
  228.3750     2.4500    70.4390    23.7240    40.8290    98.7770   116.0110   -15.9640 
  228.5000     2.5040    73.7730    23.8830    48.6240    78.9090    88.6450   -15.7840 
  228.6250     2.4970    71.4830    23.8920    45.2690    50.9240    54.4800   -15.5120 
