~V
VERS. 2.00: Ver 2.00
~W
STRT.M 60.0000:
STOP.M 271.0000:
STEP.M 0.1250:
NULL. -999.2500:
UWI. DF5026:
~C
DEPT.M :
SP.MV :
GR.API :
CALI.CM :
RXO.OHMM :
RI. :
RML.OHMM :
DEN.GM/CC :
~A
# ...
  105.0000   -52.2710    62.1950    24.1850    10.2930     7.7830     8.6020     2.1500 
  105.1250   -52.7160    62.1730    24.1850     9.8560     7.7100     8.4500     2.1400 
  105.2500   -53.0880    61.8110    24.1850    10.0700     7.5360     8.2190     2.1340 
  105.3750   -53.3090    61.5710    24.1850    10.4390     7.3680     8.0400     2.1310 
  105.5000   -53.3440    63.6040    24.1860    10.3670     7.2750     7.9890     2.1300 
  105.6250   -53.3060    66.9870    24.1850    10.0180     7.2960     8.0980     2.1330 
  105.7500   -53.2230    67.7150    24.1720     9.8560     7.4010     8.3050     2.1370 
  105.8750   -53.1340    65.9170    24.1490    10.0430     7.5470     8.5400     2.1440 
  106.0000   -52.9480    65.3170    24.1290    10.6060     7.6760     8.7160     2.1540 
  106.1250   -52.6810    66.1990    24.1170    10.5080     7.7210     8.7350     2.1680 
  106.2500   -52.3720    66.3420    24.1030     9.9580     7.6760     8.6180     2.1820 
  106.3750   -52.1350    65.3850    24.0870     9.3820     7.5660     8.4310     2.1940 
  106.5000   -51.9900    64.4620    24.0780     9.1010     7.4410     8.2550     2.2010 
  106.6250   -51.8620    64.1860    24.0740     9.3350     7.3560     8.1680     2.2000 
  106.7500   -51.7800    64.4140    24.0680     9.4800     7.3230     8.1600     2.1910 
  106.8750   -51.6470    67.0890    24.0630     9.3280     7.3300     8.1940     2.1800 
  107.0000   -51.5630    71.8240    24.0620     9.0300     7.3550     8.2270     2.1710 
  107.1250   -51.5340    74.8620    24.0560     8.9280     7.3710     8.2310     2.1710 
  107.2500   -51.5330    74.4450    24.0420     8.7780     7.3730     8.2110     2.1790 
  107.3750   -51.4810    73.2820    24.0280     8.7270     7.3670     8.1880     2.1900 
  107.5000   -51.3990    72.4150    24.0220     8.7490     7.3610     8.1760     2.1970 
  107.6250   -51.3360    69.0320    24.0260     8.8250     7.3570     8.1730     2.1930 
  107.7500   -51.2370    64.6720    24.0290     9.0000     7.3440     8.1630     2.1810 
  107.8750   -51.1330    63.7980    24.0220     9.0720     7.3200     8.1400     2.1670 
  108.0000   -50.9960    65.8350    24.0150     9.0250     7.2880     8.1100     2.1580 
  108.1250   -50.8330    65.6090    24.0000     8.9500     7.2540     8.0830     2.1580 
  108.2500   -50.6540    62.1220    23.9290     9.3110     7.2260     8.0640     2.1640 
  108.3750   -50.4620    58.9650    23.8000    10.1170     7.2010     8.0460     2.1710 
  108.5000   -50.2520    60.1170    23.6830    10.7680     7.1690     8.0120     2.1780 
  108.6250   -49.9820    65.5170    23.6470    10.6190     7.1150     7.9410     2.1780 
  108.7500   -49.6690    69.3760    23.6510    10.5590     7.0400     7.8420     2.1750 
  108.8750   -49.3700    69.2050    23.6530    10.6090     6.9500     7.7290     2.1720 
  109.0000   -49.1420    66.7200    23.6530    10.3170     6.8560     7.6170     2.1690 
  109.1250   -48.9420    65.8570    23.6530    10.1630     6.7810     7.5340     2.1670 
  109.2500   -48.7790    68.0060    23.6520    10.2250     6.7370     7.4880     2.1630 
  109.3750   -48.6340    71.2330    23.6510    10.7070     6.7280     7.4810     2.1590 
  109.5000   -48.5250    72.8840    23.6710    11.6980     6.7460     7.5040     2.1540 
  109.6250   -48.4710    72.7860    23.7890    12.3150     6.7700     7.5370     2.1510 
  109.7500   -48.4950    72.2620    24.0340    11.7740     6.7790     7.5620     2.1490 
  109.8750   -48.4870    71.4450    24.3210    10.8540     6.7650     7.5670     2.1470 
  110.0000   -48.3240    70.0080    24.4950     9.7390     6.7200     7.5340     2.1460 
  110.1250   -48.0970    69.2820    24.4810     8.7990     6.6180     7.4260     2.1500 
  110.2500   -47.8390    70.3260    24.4070     8.6370     6.4570     7.2510     2.1590 
  110.3750   -47.5950    72.6510    24.3520     9.4650     6.2580     7.0410     2.1720 
  110.5000   -47.3240    75.4120    24.3180    10.1170     6.0610     6.8440     2.1840 
  110.6250   -47.0110    76.6660    24.3010     8.8160     5.9200     6.7160     2.1910 
  110.7500   -46.6530    75.5330    24.2960     7.8230     5.8530     6.6670     2.1900 
  110.8750   -46.3360    73.1930    24.3060     8.5500     5.8520     6.6820     2.1830 
  111.0000   -46.0860    71.6830    24.3310     9.0790     5.8880     6.7210     2.1750 
  111.1250   -45.8450    72.2690    24.3590     8.3190     5.9270     6.7390     2.1720 
  111.2500   -45.5640    73.4420    24.3870     7.5840     5.9530     6.7190     2.1730 
  111.3750   -45.2650    73.6770    24.4320     7.2310     5.9700     6.6810     2.1730 
  111.5000   -45.0060    74.0770    24.4960     7.3890     6.0030     6.6730     2.1680 
  111.6250   -44.7390    73.6470    24.5390     8.3230     6.1090     6.7840     2.1590 
  111.7500   -44.4450    70.3910    24.5500     9.3040     6.3140     7.0290     2.1510 
  111.8750   -43.9990    66.6150    24.5470     9.7020     6.6100     7.3670     2.1500 
  112.0000   -43.5300    66.4980    24.5470    10.0300     6.9380     7.6960     2.1540 
  112.1250   -42.9840    70.6180    24.5460    11.5130     7.1570     7.8350     2.1630 
  112.2500   -42.4070    74.5460    24.5620    13.5460     7.1610     7.6960     2.1740 
  112.3750   -41.7440    77.7060    24.6060    12.7890     6.9100     7.2730     2.1900 
  112.5000   -40.9680    81.8890    24.6620     8.8280     6.4510     6.6560     2.2080 
  112.6250   -40.1210    87.5770    24.6920     6.3500     5.8780     5.9740     2.2300 
  112.7500   -39.2660    95.0160    24.6960     5.7170     5.3090     5.3420     2.2500 
  112.8750   -38.5200   101.4550    24.6940     6.2900     4.7940     4.8050     2.2650 
  113.0000   -37.8440   103.2630    24.6970     5.8260     4.3570     4.3810     2.2750 
  113.1250   -37.3090   100.6330    24.7000     4.1420     4.0310     4.1040     2.2830 
  113.2500   -36.8780    99.5430    24.7040     3.1510     3.8120     3.9630     2.2890 
  113.3750   -36.5740   101.9260    24.7140     3.0290     3.7130     3.9620     2.2930 
  113.5000   -36.3800   103.9900    24.7220     3.3530     3.7410     4.0910     2.2950 
  113.6250   -36.3150   101.6040    24.7170     4.0050     3.8970     4.3110     2.2990 
  113.7500   -36.3220    99.5930    24.7080     4.6730     4.1150     4.5510     2.3060 
  113.8750   -36.3710   100.4100    24.7000     5.3210     4.3620     4.7930     2.3150 
  114.0000   -36.4720   101.4490    24.6890     5.7250     4.6360     5.0680     2.3230 
  114.1250   -36.5980   101.1040    24.6640     6.1070     4.9720     5.4400     2.3320 
  114.2500   -36.7460    99.1130    24.6350     6.8100     5.3680     5.8960     2.3440 
  114.3750   -36.8850    95.6240    24.6140     9.6030     5.7810     6.3590     2.3590 
  114.5000   -37.0270    91.7970    24.6080    11.8220     6.1180     6.6930     2.3710 
  114.6250   -37.1800    92.0510    24.6000    10.6590     6.2280     6.7250     2.3630 
  114.7500   -37.3170    94.4000    24.5790     7.5640     6.1100     6.5000     2.3310 
  114.8750   -37.4680    93.9630    24.5430     5.7120     5.8380     6.1370     2.2870 
  115.0000   -37.5700    91.5250    24.4970     4.8590     5.5220     5.7740     2.2450 
  115.1250   -37.6480    89.8800    24.4560     4.7560     5.2650     5.5190     2.2180 
  115.2500   -37.7220    89.1040    24.4330     4.7010     5.0910     5.3650     2.2090 
  115.3750   -37.8060    88.1780    24.4290     4.4940     4.9890     5.2880     2.2130 
  115.5000   -37.8510    88.4460    24.4410     4.2940     4.9480     5.2760     2.2240 
  115.6250   -37.8720    91.9590    24.4880     4.2220     4.9780     5.3380     2.2350 
  115.7500   -37.8810    95.5650    24.5600     4.1810     5.0570     5.4440     2.2450 
  115.8750   -37.9080    97.2560    24.6200     4.5430     5.1500     5.5410     2.2560 
  116.0000   -37.9660    96.3900    24.6430     5.5660     5.2050     5.5680     2.2690 
  116.1250   -38.0440    95.1200    24.6410     6.4650     5.1660     5.4750     2.2810 
