~V
VERS. 2.00: Ver 2.00
~W
STRT.M 58.0000:
STOP.M 261.0000:
STEP.M 0.1250:
NULL. -999.2500:
UWI. DF5035:
~C
DEPT.M :
DEN.GM/CC :
GR.API :
CALI.CM :
RXO.OHMM :
RI. :
RML.OHMM :
SP.MV :
~A
# ...
  226.7500     2.2130    62.3800    24.4340    62.9590   110.1070   122.1390   -46.2560 
  226.8750     2.2160    62.8400    24.6230    65.6570   114.6170   126.6810   -46.2640 
  227.0000     2.2220    60.1940    24.7870    71.6970   120.8720   132.9490   -46.3170 
  227.1250     2.2290    57.4770    24.8620    76.5230   128.1670   139.8630   -46.2010 
  227.2500     2.2330    56.9620    24.8360    74.2250   134.1350   144.5900   -46.1680 
  227.3750     2.2320    57.7250    24.6720    67.1470   135.8570   143.7680   -46.2030 
  227.5000     2.2270    59.3920    24.3930    61.0060   130.8790   135.1080   -46.0060 
  227.6250     2.2210    61.8520    24.1490    61.6790   118.3290   119.1190   -45.8810 
  227.7500     2.2180    62.8470    24.0330    60.1050   102.7040   101.5880   -45.8690 
  227.8750     2.2220    62.1770    23.9930    53.5820    87.7920    86.3870   -45.6050 
  228.0000     2.2300    62.7970    23.9770    44.5840    76.2960    75.6230   -45.3540 
  228.1250     2.2360    64.8820    24.0030    41.3850    70.2710    70.7470   -45.1870 
  228.2500     2.2390    66.2160    24.0430    41.6120    69.0940    70.7080   -44.8440 
  228.3750     2.2400    66.6190    24.0610    43.2600    72.5630    75.0780   -44.6110 
  228.5000     2.2410    67.2270    24.0570    46.7160    80.1870    83.1230   -44.4510 
  228.6250     2.2450    66.9210    24.0590    53.7030    90.6690    93.2170   -44.1180 
  228.7500     2.2540    65.0710    24.0660    60.8010   100.3010   101.6850   -43.8160 
  228.8750     2.2680    63.0560    24.1010    70.9370   105.7200   105.2750   -43.6840 
  229.0000     2.2850    63.7230    24.2130    79.3210   105.0130   102.5470   -43.4080 
  229.1250     2.3030    67.8880    24.4690    74.2610    98.4160    94.7080   -43.2020 
  229.2500     2.3170    73.4810    24.8210    63.8640    90.0120    86.1640   -43.0480 
  229.3750     2.3270    77.2470    25.1470    59.1610    82.5570    79.4180   -42.6240 
  229.5000     2.3330    77.2960    25.3310    59.7590    77.5220    75.4730   -42.3160 
  229.6250     2.3320    75.7820    25.3500    60.0550    75.3860    74.4430   -42.2290 
  229.7500     2.3260    76.0800    25.3360    60.4540    75.0120    75.0400   -41.8890 
  229.8750     2.3160    78.9030    25.3400    65.0160    75.7440    76.6080   -41.4980 
  230.0000     2.3060    81.6280    25.3220    70.4350    77.2590    78.9020   -41.2360 
  230.1250     2.2960    82.0880    25.2670    61.8570    79.9830    82.4930   -40.7570 
  230.2500     2.2850    80.6130    25.1980    54.2030    84.4790    87.9590   -40.3180 
  230.3750     2.2720    77.5420    25.1570    63.6370    91.1560    95.6040   -40.0710 
  230.5000     2.2580    73.7110    25.1600    90.0440    99.5390   104.7820   -39.6380 
  230.6250     2.2460    67.9570    25.1950   112.1080   107.8520   113.3290   -38.9810 
  230.7500     2.2390    61.4560    25.2190   117.3880   113.7740   118.6530   -38.5730 
  230.8750     2.2390    57.4170    25.2200   104.4590   115.7520   119.1820   -38.1480 
  231.0000     2.2460    57.6430    25.2190    85.6740   113.5840   115.1310   -37.5640 
  231.1250     2.2570    59.4600    25.2170    84.7860   108.2450   108.0260   -37.2080 
  231.2500     2.2680    59.6480    25.2210    96.8640   101.5200    99.7080   -36.8070 
  231.3750     2.2760    59.1650    25.2450   101.5520    93.3200    90.0120   -36.2000 
  231.5000     2.2770    59.0660    25.2800    89.7160    83.1180    78.5740   -35.6970 
  231.6250     2.2740    59.5890    25.2930    74.0160    71.0430    65.9520   -35.4650 
  231.7500     2.2740    59.2700    25.2730    61.3920    58.9280    53.9660   -35.0690 
  231.8750     2.2840    59.0890    25.2210    46.4560    48.2460    43.8540   -34.6270 
  232.0000     2.3040    60.2530    25.1420    31.5440    39.8190    36.1130   -34.4100 
  232.1250     2.3250    62.3940    25.0600    25.8740    34.0210    30.8890   -34.0560 
  232.2500     2.3360    63.0050    24.9950    25.6230    30.0030    27.3360   -33.7570 
  232.3750     2.3280    63.6210    24.9270    23.8340    27.3940    25.1370   -33.6960 
  232.5000     2.3070    66.9300    24.8420    21.0020    25.9980    24.1250   -33.5870 
  232.6250     2.2830    69.2110    24.7710    20.2430    25.9010    24.4100   -33.3370 
  232.7500     2.2660    68.7850    24.7390    21.0900    26.8750    25.7410   -33.2760 
  232.8750     2.2560    69.0530    24.7340    23.1800    28.8290    27.9460   -33.2240 
  233.0000     2.2530    70.1560    24.7340    25.3600    31.4840    30.6280   -33.1350 
  233.1250     2.2550    67.8850    24.7290    27.6210    34.1280    32.9980   -33.1630 
  233.2500     2.2600    63.3930    24.7330    30.3500    35.8500    34.3420   -33.0930 
  233.3750     2.2660    61.1780    24.7830    32.4200    36.1610    34.3780   -33.0410 
  233.5000     2.2700    61.7920    24.8880    31.4060    35.1730    33.3550   -33.0990 
  233.6250     2.2680    61.9030    24.9890    27.2830    33.4870    31.9180   -33.0640 
  233.7500     2.2610    62.2210    25.0330    25.2880    31.9290    30.7770   -32.9280 
  233.8750     2.2530    63.4440    25.0360    25.6810    30.8660    30.2080   -32.9340 
  234.0000     2.2460    65.5230    25.0390    26.8050    30.3990    30.2190   -32.8180 
  234.1250     2.2450    65.9260    25.0610    27.7970    30.4780    30.6380   -32.7070 
  234.2500     2.2470    63.8540    25.0960    28.7430    30.7460    31.0670   -32.6900 
  234.3750     2.2500    61.7950    25.1290    29.5970    30.9360    31.2440   -32.4400 
  234.5000     2.2520    63.6100    25.1500    30.1450    30.8730    31.0450   -32.2080 
  234.6250     2.2520    67.5590    25.1540    29.5040    30.4910    30.4730   -32.1680 
  234.7500     2.2500    67.7810    25.1470    28.2410    29.9540    29.7690   -31.9790 
  234.8750     2.2460    65.8800    25.1260    26.3500    29.4120    29.1110   -31.7030 
  235.0000     2.2420    65.9940    25.0840    24.0600    28.9400    28.5580   -31.5610 
  235.1250     2.2420    67.1620    25.0300    23.0080    28.4140    27.9330   -31.2840 
  235.2500     2.2450    66.4360    24.9920    23.1890    27.5560    26.9410   -31.0640 
  235.3750     2.2500    66.4200    24.9690    23.8240    26.1590    25.3970   -31.0510 
  235.5000     2.2520    68.6840    24.9220    23.2550    24.2290    23.3490   -30.8840 
  235.6250     2.2510    70.5170    24.8290    19.9520    22.0360    21.1180   -30.5880 
  235.7500     2.2500    70.2310    24.7590    16.1820    20.0430    19.1770   -30.5520 
  235.8750     2.2520    69.0190    24.7580    14.3600    18.5340    17.8180   -30.4970 
  236.0000     2.2610    68.7500    24.7640    15.0590    17.6720    17.2080   -30.3290 
  236.1250     2.2840    70.6030    24.6330    16.2450    17.6950    17.5930   -30.3870 
  236.2500     2.3200    72.0230    24.4700    16.6650    18.5390    18.8410   -30.3200 
  236.3750     2.3670    70.8460    24.4590    16.7110    20.1580    20.8080   -30.1750 
  236.5000     2.4190    69.5630    24.6140    17.2630    22.3230    23.1350   -30.2380 
  236.6250     2.4570    70.7680    24.6930    21.8210    24.4120    25.0500   -30.3200 
  236.7500     2.4610    71.8670    24.6690    28.8250    25.5560    25.8020   -30.2320 
  236.8750     2.4270    71.8170    24.7420    30.9470    25.1840    25.0240   -30.2710 
  237.0000     2.3710    71.3520    24.9480    25.5500    23.4260    23.0270   -30.4390 
  237.1250     2.3230    70.7820    25.0700    19.4420    21.1400    20.8030   -30.4240 
  237.2500     2.2980    70.4460    25.0390    16.6350    19.4130    19.4560   -30.5180 
  237.3750     2.3020    70.0100    24.9800    15.5800    18.8090    19.5660   -30.7320 
  237.5000     2.3280    69.2600    24.9610    16.6020    19.5940    21.2780   -30.8110 
  237.6250     2.3690    67.5930    24.9280    20.8450    21.9240    24.3680   -30.8810 
  237.7500     2.4110    66.2610    24.8470    31.8850    24.9710    27.6110   -31.1130 
  237.8750     2.4420    67.0870    24.7360    47.3700    27.6180    29.7520   -31.2120 
