~V
VERS. 2.00: Ver 2.00
~W
STRT.M 61.0000:
STOP.M 253.0000:
STEP.M 0.1250:
NULL. -999.2500:
UWI. DF5045:
~C
DEPT.M :
GR.API :
CALI.CM :
RXO.OHMM :
RI. :
RML.OHMM :
DEN.GM/CC :
SP.MV :
~A
# ...
  106.0000    80.7390    21.3610     8.5400     6.9280     7.7890     2.1660   -21.3630 
  106.1250    83.3460    21.3820     8.2850     6.7470     7.5940     2.1770   -21.1270 
  106.2500    85.7360    21.3900     7.9340     6.6080     7.4630     2.1870   -21.0220 
  106.3750    87.1790    21.3830     7.7090     6.5190     7.4060     2.1910   -20.9880 
  106.5000    87.4980    21.3650     7.7160     6.4860     7.4280     2.1910   -20.8030 
  106.6250    86.9440    21.3590     7.8300     6.4900     7.4960     2.1890   -20.7200 
  106.7500    85.9490    21.3810     7.9500     6.5180     7.5780     2.1870   -20.7590 
  106.8750    85.0370    21.4310     8.0820     6.5500     7.6450     2.1860   -20.6730 
  107.0000    84.1050    21.4600     8.3070     6.5710     7.6670     2.1840   -20.5560 
  107.1250    83.3810    21.4420     8.5370     6.5790     7.6510     2.1840   -20.5450 
  107.2500    83.6170    21.3690     8.5940     6.5790     7.6140     2.1900   -20.3910 
  107.3750    85.4730    21.3290     8.4220     6.5890     7.5770     2.2050   -20.1390 
  107.5000    88.2050    21.4020     8.2330     6.6270     7.5720     2.2220   -19.9940 
  107.6250    89.0600    21.5590     8.2080     6.6960     7.6090     2.2310   -19.7360 
  107.7500    86.2060    21.6870     8.3130     6.7940     7.6830     2.2310   -19.3080 
  107.8750    80.6460    21.7370     8.4080     6.9040     7.7660     2.2270   -18.9530 
  108.0000    77.0140    21.7610     8.4060     6.9790     7.7830     2.2220   -18.5540 
  108.1250    77.4550    21.8550     8.3870     6.9650     7.6800     2.2130   -17.9540 
  108.2500    80.8080    21.9660     8.3930     6.8210     7.4210     2.1980   -17.3700 
  108.3750    86.2950    22.0610     8.3270     6.5320     7.0080     2.1790   -16.8450 
  108.5000    94.8800    22.1640     7.9200     6.1140     6.4810     2.1710   -16.1730 
  108.6250   104.7120    22.2870     7.0860     5.6570     5.9510     2.1870   -15.5160 
  108.7500   111.7640    22.4000     5.9340     5.2370     5.5020     2.2300   -15.0570 
  108.8750   114.2830    22.4750     4.8390     4.9140     5.1990     2.2810   -14.6270 
  109.0000   114.7210    22.5920     4.3070     4.7490     5.0950     2.3090   -14.1840 
  109.1250   115.2130    22.8540     4.2780     4.7220     5.1390     2.3200   -13.9900 
  109.2500   114.3390    23.2670     4.6610     4.8100     5.2820     2.3330   -13.9170 
  109.3750   111.2810    23.7050     5.3440     4.9700     5.4580     2.3510   -13.8290 
  109.5000   108.0470    23.9230     6.1290     5.1380     5.5960     2.3520   -13.9490 
  109.6250   106.1290    23.9610     6.4370     5.2610     5.6700     2.3320   -14.1950 
  109.7500   104.6660    23.8030     6.0700     5.3250     5.6930     2.3080   -14.3140 
  109.8750   102.8090    23.3690     5.4650     5.3560     5.7120     2.2970   -14.4580 
  110.0000   100.6750    22.7370     5.3000     5.4000     5.7910     2.2970   -14.7660 
  110.1250    99.0010    22.2310     5.1410     5.4850     5.9410     2.2950   -14.9270 
  110.2500    98.6030    22.0230     4.8950     5.6050     6.1330     2.2980   -15.0550 
  110.3750    99.2430    22.0490     4.7980     5.7300     6.3150     2.3230   -15.3370 
  110.5000    99.6270    22.2870     5.1620     5.8010     6.4050     2.3770   -15.5470 
  110.6250   100.4140    22.6890     5.8120     5.7880     6.3890     2.4290   -15.6840 
  110.7500   103.4260    23.1180     6.2480     5.7000     6.3050     2.4390   -16.0030 
  110.8750   107.9850    23.4870     6.0150     5.5880     6.2360     2.3870   -16.3830 
  111.0000   109.7540    23.8020     5.2940     5.5560     6.3230     2.2950   -16.6710 
  111.1250   107.5090    23.9320     4.8730     5.6830     6.6350     2.2200   -17.1230 
  111.2500   102.6770    23.7270     5.1860     6.0170     7.1890     2.1900   -17.6740 
  111.3750    97.1690    23.1320     6.2840     6.5560     7.9470     2.2050   -18.0670 
  111.5000    92.6230    22.4410     7.6250     7.2570     8.8020     2.2510   -18.4180 
  111.6250    89.9790    22.0650     8.5300     7.9640     9.5590     2.3080   -18.8610 
  111.7500    88.9820    21.9560     8.7490     8.5230    10.0620     2.3610   -19.1780 
  111.8750    88.0350    21.9490     8.4490     8.8090    10.2090     2.3980   -19.3330 
  112.0000    86.0310    21.9420     7.9680     8.7320     9.9530     2.4170   -19.5750 
  112.1250    84.2000    21.9090     7.5990     8.4020     9.4620     2.4220   -19.7580 
  112.2500    83.9380    21.8470     7.4060     7.9310     8.8800     2.4070   -19.7540 
  112.3750    85.6820    21.7690     7.3150     7.4340     8.3340     2.3660   -19.8160 
  112.5000    88.8310    21.6850     7.2760     7.0040     7.9190     2.3070   -20.0160 
  112.6250    92.1560    21.6480     7.3340     6.6700     7.6390     2.2530   -20.0760 
  112.7500    94.6040    21.6400     7.4260     6.4410     7.4880     2.2210   -20.1150 
  112.8750    95.2490    21.6230     7.4440     6.3140     7.4450     2.2140   -20.3140 
  113.0000    93.7360    21.5220     7.4090     6.2810     7.4950     2.2160   -20.4020 
  113.1250    91.2580    21.3330     7.4150     6.3110     7.5980     2.2110   -20.4060 
  113.2500    88.7200    21.1630     7.4460     6.3850     7.7300     2.2000   -20.5630 
  113.3750    86.6820    21.0700     7.4290     6.4850     7.8680     2.1860   -20.7020 
  113.5000    85.5180    21.0520     7.4110     6.5990     7.9970     2.1750   -20.6400 
  113.6250    85.4110    21.0410     7.4980     6.7130     8.1130     2.1700   -20.6800 
  113.7500    85.9580    21.0320     7.7160     6.8150     8.2020     2.1720   -20.7530 
  113.8750    86.0570    21.0250     7.9730     6.8950     8.2550     2.1740   -20.6220 
  114.0000    84.4150    21.0220     8.1740     6.9410     8.2640     2.1710   -20.4880 
  114.1250    82.0400    21.0150     8.2900     6.9480     8.2380     2.1650   -20.3870 
  114.2500    80.4770    21.0050     8.2790     6.9190     8.1830     2.1610   -20.0890 
  114.3750    80.1310    20.9920     8.1130     6.8650     8.1110     2.1630   -19.7210 
  114.5000    79.0670    20.9580     7.8550     6.7970     8.0220     2.1710   -19.4670 
  114.6250    76.4950    20.8740     7.6920     6.7220     7.9250     2.1780   -19.0550 
  114.7500    73.9200    20.8120     7.6290     6.6540     7.8430     2.1780   -18.4680 
  114.8750    72.9510    20.8320     7.5990     6.6210     7.8110     2.1670   -17.9430 
  115.0000    73.5670    20.8960     7.6610     6.6700     7.8780     2.1510   -17.3500 
  115.1250    74.8860    20.9890     7.8460     6.7990     8.0260     2.1370   -16.5630 
  115.2500    77.0360    21.1390     8.0530     6.9750     8.2050     2.1340   -15.8140 
  115.3750    79.9150    21.4060     8.1810     7.1410     8.3340     2.1550   -15.0880 
  115.5000    83.5110    21.8400     8.3180     7.1970     8.2910     2.2140   -14.1710 
  115.6250    87.9190    22.4640     8.7910     7.0830     8.0250     2.2970   -13.2800 
  115.7500    92.8140    23.2290     9.5190     6.7750     7.5330     2.3790   -12.5810 
  115.8750    97.6660    23.9110     9.5680     6.3050     6.8780     2.4330   -11.8820 
  116.0000   102.7320    24.2540     8.0210     5.7510     6.1870     2.4350   -11.2260 
  116.1250   108.2060    24.3210     5.9930     5.2400     5.6000     2.4000   -10.8380 
  116.2500   112.6180    24.2110     4.6780     4.8470     5.1850     2.3480   -10.5220 
  116.3750   113.4560    24.0590     4.2850     4.6050     4.9590     2.3040   -10.1910 
  116.5000   108.9740    23.9790     4.4670     4.5250     4.9080     2.2890   -10.1120 
  116.6250   102.1450    24.0900     4.6480     4.5370     4.9340     2.2930   -10.1650 
  116.7500    96.3430    24.3080     4.6650     4.5840     4.9610     2.3030   -10.1030 
  116.8750    93.7960    24.4600     4.5830     4.6070     4.9320     2.3060   -10.0950 
  117.0000    95.0020    24.4700     4.5520     4.5650     4.8180     2.3010   -10.2090 
  117.1250    97.4910    24.4890     4.5220     4.4750     4.6670     2.3000   -10.1870 
