~V
VERS. 2.00: Ver 2.00
~W
STRT.M 55.0000:
STOP.M 262.0000:
STEP.M 0.1250:
NULL. -999.2500:
UWI. DF5047:
~C
DEPT.M :
GR.API :
CALI.CM :
RXO.OHMM :
RI. :
RML.OHMM :
DEN.GM/CC :
SP.MV :
~A
# ...
   77.5000    93.4620    24.0910     5.7270     5.4690     5.9890     2.2480   -34.1600 
   77.6250    84.4970    24.0630     5.9800     5.6110     6.2790     2.2370   -34.4600 
   77.7500    77.5930    24.0460     6.4950     5.8680     6.7070     2.2280   -34.7910 
   77.8750    73.1970    24.0450     7.2990     6.2300     7.2360     2.2170   -35.1130 
   78.0000    68.2970    24.0790     8.1400     6.6510     7.7940     2.2020   -35.3190 
   78.1250    62.3740    24.1670     9.0000     7.0500     8.2720     2.1830   -35.4380 
   78.2500    58.7910    24.2590     9.2720     7.3500     8.6080     2.1670   -35.5840 
   78.3750    59.1660    24.3010     9.3100     7.5150     8.7930     2.1560   -35.7440 
   78.5000    62.0430    24.2920     9.2910     7.5590     8.8600     2.1520   -35.9050 
   78.6250    64.2860    24.2750     9.2740     7.5190     8.8630     2.1570   -36.0680 
   78.7500    65.3900    24.2800     9.1910     7.4570     8.8560     2.1640   -36.1270 
   78.8750    64.9880    24.3080     9.0670     7.3930     8.8480     2.1710   -36.1230 
   79.0000    63.2920    24.3520     9.1100     7.3260     8.8350     2.1740   -36.2640 
   79.1250    62.6490    24.4070     9.4860     7.2800     8.8480     2.1730   -36.3700 
   79.2500    63.4640    24.4580     9.5410     7.3040     8.9490     2.1700   -36.2610 
   79.3750    64.6640    24.4770     9.2080     7.4410     9.1840     2.1670   -36.2310 
   79.5000    65.9800    24.4380     9.0010     7.7010     9.5470     2.1680   -36.3740 
   79.6250    66.6100    24.3130     9.8420     8.0400     9.9440     2.1750   -36.3360 
   79.7500    66.3810    24.0910    13.1420     8.3280    10.2110     2.1840   -36.2000 
   79.8750    64.4890    23.7880    15.3440     8.4520    10.2320     2.1900   -36.2480 
   80.0000    61.8870    23.5010    13.8290     8.3570     9.9850     2.1900   -36.2400 
   80.1250    61.2800    23.3590     9.8030     8.0690     9.5600     2.1840   -36.0540 
   80.2500    63.1850    23.3260     8.9030     7.7400     9.1530     2.1750   -36.0050 
   80.3750    64.7040    23.3270     8.6010     7.4770     8.8760     2.1680   -36.0430 
   80.5000    63.5620    23.3290     8.4750     7.3400     8.7720     2.1660   -35.9960 
   80.6250    59.7950    23.3270     8.5500     7.3610     8.8360     2.1670   -35.9050 
   80.7500    58.6720    23.3290     8.7470     7.4790     8.9830     2.1680   -35.9380 
   80.8750    60.9250    23.3470     9.1080     7.6470     9.1600     2.1690   -35.9720 
   81.0000    63.0170    23.3960     9.3900     7.8230     9.3270     2.1700   -35.9110 
   81.1250    62.2730    23.4710     9.3320     7.9630     9.4400     2.1720   -35.8890 
   81.2500    60.8620    23.5360     9.3080     8.0460     9.4870     2.1760   -35.8950 
   81.3750    62.2840    23.5720     9.2910     8.0680     9.4750     2.1790   -35.8700 
   81.5000    65.2470    23.5850     9.3010     8.0460     9.4340     2.1810   -35.8500 
   81.6250    66.3870    23.5890     9.2690     8.0120     9.4020     2.1800   -35.8210 
   81.7500    66.7030    23.5270     9.1670     7.9950     9.4040     2.1790   -35.7220 
   81.8750    66.3070    23.3990     9.1860     8.0020     9.4320     2.1780   -35.6040 
   82.0000    65.2640    23.3220     9.3880     8.0190     9.4610     2.1780   -35.5020 
   82.1250    62.6060    23.4010     9.7480     8.0130     9.4440     2.1780   -35.3570 
   82.2500    61.1520    23.5180     9.9610     7.9660     9.3640     2.1760   -35.1850 
   82.3750    63.9210    23.5640     9.9520     7.8800     9.2380     2.1690   -34.9900 
   82.5000    67.7610    23.5590     9.5860     7.7820     9.1140     2.1590   -34.6910 
   82.6250    67.5970    23.5640     9.1700     7.7090     9.0490     2.1510   -34.4510 
   82.7500    65.6580    23.6010     9.0420     7.6670     9.0380     2.1470   -34.3370 
   82.8750    66.0740    23.6790     9.1590     7.6330     9.0340     2.1470   -34.1080 
   83.0000    68.7980    23.7550     9.3370     7.5660     8.9730     2.1500   -33.8310 
   83.1250    67.8680    23.7720     9.3620     7.4270     8.8070     2.1550   -33.7380 
   83.2500    63.7500    23.7570     9.2240     7.2420     8.5790     2.1620   -33.6930 
   83.3750    62.6080    23.7500     8.6310     7.0550     8.3590     2.1680   -33.5260 
   83.5000    66.3710    23.7530     7.7290     6.9160     8.2170     2.1740   -33.3360 
   83.6250    69.7860    23.7520     7.7630     6.8770     8.2110     2.1760   -33.1930 
   83.7500    70.1780    23.7650     8.1950     6.9270     8.3070     2.1750   -33.0740 
   83.8750    70.8720    23.7960     8.4830     7.0430     8.4660     2.1730   -32.9960 
   84.0000    72.6710    23.8300     8.5150     7.1870     8.6370     2.1700   -32.8910 
   84.1250    72.6410    23.8470     8.5940     7.3110     8.7660     2.1670   -32.7040 
   84.2500    71.0060    23.8510     8.7670     7.3880     8.8440     2.1640   -32.5250 
   84.3750    70.0090    23.8530     8.9460     7.4160     8.8750     2.1620   -32.4250 
   84.5000    70.8180    23.8620     8.9410     7.4050     8.8760     2.1630   -32.3240 
   84.6250    74.6250    23.8760     8.7400     7.3750     8.8690     2.1670   -32.1450 
   84.7500    78.1450    23.9020     8.7070     7.3560     8.8780     2.1730   -31.9060 
   84.8750    77.7000    23.9460     8.9280     7.3680     8.9160     2.1800   -31.6440 
   85.0000    75.0620    23.9960     9.1210     7.4160     8.9840     2.1860   -31.4150 
   85.1250    73.4320    24.0290     9.2620     7.5030     9.0820     2.1910   -31.2030 
   85.2500    71.1900    24.0400     9.4840     7.6230     9.2060     2.1930   -30.9850 
   85.3750    68.6390    24.0380     9.6990     7.7770     9.3530     2.1930   -30.7170 
   85.5000    67.3090    24.0350     9.7570     7.9570     9.5060     2.1920   -30.4150 
   85.6250    67.0150    24.0350    10.3000     8.1280     9.6210     2.1900   -30.1770 
   85.7500    66.0720    24.0420    12.6100     8.2420     9.6530     2.1870   -29.9140 
   85.8750    65.6480    24.0270    14.8330     8.2610     9.5770     2.1840   -29.5470 
   86.0000    66.3840    23.9550    14.3990     8.1730     9.3870     2.1800   -29.2680 
   86.1250    66.3140    23.8510    10.5310     7.9610     9.0740     2.1720   -29.0590 
   86.2500    65.2300    23.7850     9.0290     7.6500     8.6610     2.1610   -28.6760 
   86.3750    66.2610    23.7730     8.6080     7.2410     8.1500     2.1520   -28.1740 
   86.5000    70.3520    23.7800     8.4790     6.7470     7.5540     2.1500   -27.8220 
   86.6250    78.1470    23.8500     8.1270     6.1880     6.8970     2.1640   -27.5190 
   86.7500    88.7740    24.0500     7.0940     5.6220     6.2520     2.1880   -27.0470 
   86.8750    99.5460    24.3390     5.8790     5.1160     5.7080     2.2180   -26.7130 
   87.0000   104.7550    24.5940     5.2750     4.7440     5.3580     2.2450   -26.4440 
   87.1250    99.4130    24.7190     5.2770     4.6100     5.3240     2.2600   -26.0350 
   87.2500    93.2330    24.7480     5.3040     4.7260     5.5950     2.2650   -25.6810 
   87.3750    92.0900    24.6780     5.7060     5.1000     6.1380     2.2610   -25.5610 
   87.5000    91.3830    24.4830     6.7360     5.6810     6.8320     2.2460   -25.5280 
   87.6250    86.5830    24.2110     7.8680     6.3010     7.4150     2.2200   -25.4280 
   87.7500    81.5210    23.9930     8.3610     6.7090     7.6520     2.1930   -25.3850 
   87.8750    79.8920    23.8980     8.5380     6.7600     7.4720     2.1750   -25.3930 
   88.0000    80.8800    23.9590     8.3240     6.4780     6.9930     2.1750   -25.3640 
   88.1250    83.8540    24.2270     6.7850     6.0470     6.4830     2.1980   -25.2860 
   88.2500    88.9810    24.5640     5.6850     5.6970     6.1580     2.2300   -25.1500 
   88.3750    93.1850    24.7810     5.6670     5.5140     6.0670     2.2550   -24.9870 
   88.5000    93.3240    24.7870     6.2710     5.4990     6.1590     2.2640   -24.8090 
   88.6250    90.7240    24.7150     6.5960     5.6000     6.3240     2.2580   -24.5890 
