~V
VERS. 2.00: Ver 2.00
~W
STRT.M 60.0000:
STOP.M 273.0000:
STEP.M 0.1250:
NULL. -999.2500:
UWI. DF5003:
~C
DEPT.M :
GR.API :
CALI.CM :
RXO.OHMM :
RI. :
RML.OHMM :
DEN.GM/CC :
SP.MV :
~A
# ...
  172.5000    81.6970    23.5490    17.0820    21.5940    20.5340     2.3730   -29.2130 
  172.6250    86.4380    23.6330    14.6280    19.6120    18.9570     2.3670   -29.2270 
  172.7500    90.3930    23.7660    15.0550    19.4370    19.5420     2.3460   -29.2620 
  172.8750    90.5820    23.9730    19.2760    21.1420    22.3260     2.3170   -29.2920 
  173.0000    86.6370    24.2410    27.2240    24.8930    27.3070     2.2900   -29.3530 
  173.1250    80.4190    24.4540    35.9950    30.9970    34.4440     2.2710   -29.3750 
  173.2500    76.0110    24.5420    43.7710    38.4350    42.4730     2.2590   -29.4110 
  173.3750    74.4390    24.5480    51.7380    45.9620    50.1420     2.2520   -29.4390 
  173.5000    76.1070    24.5430    57.8260    52.2370    56.2900     2.2490   -29.5060 
  173.6250    79.4050    24.5440    56.2060    55.9590    59.8250     2.2480   -29.6340 
  173.7500    80.8560    24.5440    51.2100    57.2240    60.9610     2.2490   -29.7920 
  173.8750    78.1440    24.5440    49.1410    56.2500    59.9410     2.2540   -29.9420 
  174.0000    73.1720    24.5460    54.2180    53.6910    57.4450     2.2600   -30.0360 
  174.1250    73.3140    24.5510    56.5090    50.7800    54.8370     2.2640   -30.1020 
  174.2500    76.5060    24.5470    51.6480    49.0270    53.7580     2.2620   -30.2680 
  174.3750    76.9010    24.5290    46.6330    49.5700    55.4760     2.2550   -30.3470 
  174.5000    72.6390    24.4970    51.8500    53.3410    60.9540     2.2420   -30.4450 
  174.6250    69.4810    24.4590    69.4190    61.6880    71.4270     2.2270   -30.6340 
  174.7500    70.9750    24.4300    98.6460    73.8010    85.5940     2.2150   -30.8020 
  174.8750    72.9540    24.3970   128.2620    87.9040   101.1040     2.2100   -30.9610 
  175.0000    72.2620    24.3270   137.4180   100.2510   113.5480     2.2140   -31.1160 
  175.1250    71.4480    24.2000   129.0650   104.7670   116.1890     2.2250   -31.3630 
  175.2500    73.0340    24.0550   123.6070   100.6800   109.2600     2.2370   -31.5100 
  175.3750    74.4400    23.9290   117.1030    90.4610    96.4580     2.2440   -31.7430 
  175.5000    72.6030    23.8440    99.7380    78.2500    82.5910     2.2450   -31.8480 
  175.6250    68.5740    23.7920    70.3630    67.8460    71.4720     2.2420   -31.9300 
  175.7500    66.0470    23.6750    52.9910    60.4140    63.8000     2.2440   -31.9550 
  175.8750    66.3060    23.4320    47.9530    55.9990    59.4910     2.2490   -32.0300 
  176.0000    68.9150    23.1190    51.8730    54.3490    58.2150     2.2530   -32.1040 
  176.1250    75.0470    22.8850    56.8860    55.5770    59.9810     2.2510   -32.1870 
  176.2500    81.6160    22.7710    59.1000    58.9870    63.9310     2.2440   -32.2350 
  176.3750    82.5370    22.7440    63.4870    64.2830    69.6770     2.2360   -32.2570 
  176.5000    77.8190    22.7960    75.7300    70.9560    76.6500     2.2300   -32.3360 
  176.6250    74.5620    23.0040    87.4700    78.0150    83.8040     2.2260   -32.2570 
  176.7500    74.9500    23.3360    93.8650    83.9800    89.6980     2.2210   -32.2900 
  176.8750    74.8640    23.6640    92.8450    87.6420    93.1530     2.2150   -32.2960 
  177.0000    73.4180    23.8660    90.0240    88.3260    93.5510     2.2120   -32.3420 
  177.1250    72.6450    23.8740    90.1870    85.9490    90.9300     2.2180   -32.2200 
  177.2500    73.1330    23.6910    88.5040    82.2210    87.1210     2.2290   -32.1870 
  177.3750    74.5150    23.3600    83.4820    78.3700    83.4090     2.2420   -32.1390 
  177.5000    75.1290    23.0380    78.7830    75.2360    80.6380     2.2560   -32.0740 
  177.6250    73.1370    22.9400    75.8650    73.5330    79.5340     2.2640   -32.1240 
  177.7500    71.8480    23.0440    76.3740    73.3230    80.0930     2.2650   -32.0220 
  177.8750    72.6330    23.2620    80.0170    74.7310    82.4170     2.2610   -31.9430 
  178.0000    74.4270    23.5640    81.9070    77.8060    86.5490     2.2550   -31.8660 
  178.1250    74.8070    23.9330    79.8500    82.7580    92.7300     2.2470   -31.9720 
  178.2500    73.2090    24.2630    82.5470    89.1410   100.4660     2.2390   -31.9300 
  178.3750    69.5460    24.4650    94.3110    96.5640   109.2740     2.2320   -32.0170 
  178.5000    66.5510    24.5100   111.3970   104.2080   118.1730     2.2260   -32.1170 
  178.6250    66.7440    24.4590   120.9340   110.3380   125.1270     2.2210   -32.1380 
  178.7500    68.2830    24.4120   128.9120   113.8060   128.9260     2.2150   -32.1930 
  178.8750    69.0390    24.3860   142.1310   114.4280   129.5400     2.2080   -32.2160 
  179.0000    68.7090    24.3700   147.2210   112.9600   127.9790     2.2050   -32.2570 
  179.1250    67.7830    24.3350   122.4400   110.3620   125.2980     2.2080   -32.2630 
  179.2500    66.5170    24.2680   108.8290   107.3420   121.9950     2.2170   -32.3150 
  179.3750    66.0580    24.1890   118.7440   103.6610   117.5320     2.2250   -32.2890 
  179.5000    66.6120    24.1350   127.1230    98.9510   111.4430     2.2310   -32.2630 
  179.6250    67.7510    24.1350   108.1830    93.4480   104.2630     2.2330   -32.2860 
  179.7500    69.1760    24.1470    83.7160    88.4400    97.8360     2.2330   -32.3510 
  179.8750    70.7900    24.1110    70.6350    84.9460    93.4310     2.2310   -32.4080 
  180.0000    72.5740    23.9900    66.1740    83.5610    91.6330     2.2270   -32.4150 
  180.1250    73.3440    23.8120    69.4490    84.7340    92.7010     2.2220   -32.4120 
  180.2500    72.6080    23.6760    78.8850    87.4230    95.2070     2.2230   -32.3670 
  180.3750    71.5090    23.6550    86.6160    90.2880    97.5610     2.2290   -32.3350 
  180.5000    70.0130    23.7740    85.1700    91.7100    98.0690     2.2360   -32.3240 
  180.6250    67.0630    23.9570    84.6390    90.0280    95.1950     2.2360   -32.1930 
  180.7500    63.9650    24.0740    86.7960    85.7840    89.8210     2.2300   -32.0890 
  180.8750    62.4930    24.0670    84.8670    80.0960    83.2870     2.2240   -31.9900 
  181.0000    62.9110    23.9680    70.5460    74.3120    77.0110     2.2250   -31.9090 
  181.1250    63.5710    23.8700    57.6080    69.4700    72.0070     2.2350   -31.7250 
  181.2500    64.4910    23.8140    55.0650    65.6130    68.1680     2.2480   -31.7020 
  181.3750    66.5290    23.8020    60.7110    62.7290    65.4180     2.2590   -31.5870 
  181.5000    69.2600    23.8400    64.2440    60.9370    63.8570     2.2660   -31.5370 
  181.6250    72.9910    23.9410    59.6470    60.7760    64.1030     2.2680   -31.5460 
  181.7500    75.6920    24.0470    53.1740    62.4810    66.4690     2.2670   -31.4970 
  181.8750    75.6810    24.0990    61.4860    66.5800    71.5080     2.2620   -31.4120 
  182.0000    73.0420    24.1370    85.3570    73.4190    79.4780     2.2560   -31.3360 
  182.1250    70.4300    24.2480    97.7740    83.1890    90.3840     2.2490   -31.3330 
  182.2500    69.6480    24.3850   100.1440    94.5050   102.6680     2.2420   -31.2140 
  182.3750    69.8290    24.4640   112.3520   106.0180   114.9190     2.2340   -31.2180 
  182.5000    71.0050    24.4730   127.7130   115.9810   125.3240     2.2280   -31.1100 
  182.6250    69.8890    24.4660   139.9230   120.8320   129.9500     2.2260   -31.0630 
  182.7500    65.4750    24.4670   138.7390   118.2740   126.2600     2.2300   -30.9150 
  182.8750    60.8190    24.4670   141.1140   107.7360   113.8120     2.2400   -30.7760 
  183.0000    58.7790    24.4670   145.8440    92.0180    96.1270     2.2530   -30.6590 
  183.1250    60.4810    24.4670   116.3500    76.4590    79.4020     2.2670   -30.5930 
  183.2500    64.4860    24.4670    72.5870    64.8050    67.3460     2.2750   -30.5240 
  183.3750    69.1610    24.4670    50.5170    57.9180    60.5620     2.2780   -30.4010 
  183.5000    71.2660    24.4670    57.7400    55.2200    58.1930     2.2780   -30.3660 
  183.6250    68.7510    24.4670    64.0230    55.9640    59.2560     2.2760   -30.3230 
