~V
VERS. 2.00: Ver 2.00
~W
STRT.M 55.0000:
STOP.M 271.0000:
STEP.M 0.1250:
NULL. -999.2500:
UWI. DF5016:
~C
DEPT.M :
SP.MV :
GR.API :
CALI.CM :
RXO.OHMM :
RI. :
RML.OHMM :
DEN.GM/CC :
~A
# ...
  246.2500   -15.7620    61.9170    23.8960     4.6560     4.9290     5.7640     2.3020 
  246.3750   -15.8580    62.6390    23.8870     4.9260     4.9080     5.7410     2.3130 
  246.5000   -15.9690    64.5930    23.8460     5.1140     4.9040     5.7370     2.3150 
  246.6250   -16.0920    65.3510    23.7250     5.1640     4.9100     5.7440     2.2960 
  246.7500   -16.2170    63.9250    23.5540     5.3410     4.9230     5.7570     2.2730 
  246.8750   -16.3420    61.8090    23.4210     5.8160     4.9430     5.7790     2.2630 
  247.0000   -16.4650    61.1700    23.3310     6.4750     4.9720     5.8090     2.2700 
  247.1250   -16.5860    63.2420    23.1670     6.9370     5.0130     5.8540     2.2920 
  247.2500   -16.7000    65.9100    22.9270     7.1720     5.0710     5.9170     2.3170 
  247.3750   -16.8010    66.7150    22.7390     7.3080     5.1530     6.0040     2.3300 
  247.5000   -16.8790    64.7000    22.7880     7.6050     5.2610     6.1200     2.3250 
  247.6250   -16.9250    61.6110    22.8980     8.8000     5.3920     6.2600     2.3090 
  247.7500   -16.9470    59.4670    22.9830    11.5590     5.5260     6.4040     2.2990 
  247.8750   -16.9550    58.3710    23.0360    15.6950     5.6420     6.5290     2.3020 
  248.0000   -16.9570    58.4120    23.0180    18.8870     5.7260     6.6190     2.3120 
  248.1250   -16.9560    60.4300    23.0110    18.1720     5.7640     6.6590     2.3240 
  248.2500   -16.9490    63.5220    23.0390    14.6520     5.7660     6.6610     2.3350 
  248.3750   -16.9280    65.9390    23.1150    11.0730     5.7370     6.6300     2.3440 
  248.5000   -16.8830    67.0070    23.1730     8.9010     5.6880     6.5770     2.3500 
  248.6250   -16.7940    67.5890    23.2040     8.2560     5.6240     6.5090     2.3520 
  248.7500   -16.6590    67.5700    23.2800     8.1810     5.5590     6.4400     2.3570 
  248.8750   -16.4750    65.7980    23.4090     8.2540     5.5020     6.3790     2.3630 
  249.0000   -16.2460    63.0350    23.4530     8.1640     5.4570     6.3300     2.3680 
  249.1250   -15.9750    62.1110    23.2620     7.7930     5.4260     6.2960     2.3580 
  249.2500   -15.6800    63.2010    22.8910     7.3530     5.4090     6.2790     2.3300 
  249.3750   -15.3700    64.8260    22.5700     6.9780     5.4150     6.2850     2.2930 
  249.5000   -15.0560    65.7910    22.5500     6.6460     5.4440     6.3160     2.2720 
  249.6250   -14.7460    65.4030    22.6790     6.1490     5.4940     6.3700     2.2820 
  249.7500   -14.4500    64.1410    22.6280     5.5200     5.5400     6.4180     2.3060 
  249.8750   -14.1780    62.8300    22.6860     4.9970     5.5570     6.4370     2.3240 
  250.0000   -13.9400    61.9860    23.0280     4.7610     5.5310     6.4100     2.3380 
  250.1250   -13.7540    61.8950    23.3260     4.7400     5.4540     6.3270     2.3510 
  250.2500   -13.6170    63.1560    23.4040     4.7200     5.3460     6.2110     2.3580 
  250.3750   -13.5260    65.0750    23.3770     4.6390     5.2270     6.0830     2.3460 
  250.5000   -13.4680    65.5960    23.4080     4.5390     5.1240     5.9730     2.3230 
  250.6250   -13.4280    64.7420    23.5040     4.6050     5.0680     5.9130     2.3100 
  250.7500   -13.3840    65.1490    23.6210     4.9520     5.0640     5.9080     2.3090 
  250.8750   -13.3250    66.5450    23.6860     5.5600     5.1060     5.9540     2.3100 
  251.0000   -13.2450    66.9790    23.7090     6.2330     5.1770     6.0290     2.3050 
  251.1250   -13.1420    67.0670    23.7110     6.6280     5.2450     6.1020     2.3060 
  251.2500   -13.0230    68.6830    23.7100     6.7170     5.2870     6.1480     2.3200 
  251.3750   -12.8900    70.5640    23.7080     6.4880     5.2890     6.1500     2.3370 
  251.5000   -12.7480    70.7290    23.7090     6.0260     5.2460     6.1040     2.3490 
  251.6250   -12.5980    69.5380    23.7060     5.6480     5.1650     6.0170     2.3490 
  251.7500   -12.4420    69.0880    23.6910     5.5280     5.0780     5.9230     2.3470 
  251.8750   -12.2850    69.3300    23.6500     5.5270     4.9980     5.8380     2.3440 
  252.0000   -12.1290    69.0100    23.5790     5.4800     4.9360     5.7710     2.3380 
  252.1250   -11.9790    67.4430    23.4780     5.3800     4.8990     5.7320     2.3190 
  252.2500   -11.8390    65.3650    23.4230     5.2940     4.8830     5.7150     2.2870 
  252.3750   -11.7120    63.4060    23.4220     5.1560     4.8850     5.7160     2.2560 
  252.5000   -11.6020    62.0790    23.5040     4.9530     4.8960     5.7290     2.2370 
  252.6250   -11.5190    62.2480    23.6750     4.7830     4.9030     5.7360     2.2240 
  252.7500   -11.4620    63.4770    23.8490     4.7170     4.8970     5.7300     2.2030 
  252.8750   -11.4330    64.7450    23.9850     4.6910     4.8750     5.7060     2.1780 
  253.0000   -11.4350    65.5950    24.0480     4.6700     4.8380     5.6660     2.1630 
  253.1250   -11.4710    66.7270    24.0490     4.6730     4.7890     5.6140     2.1660 
  253.2500   -11.5390    68.2390    24.0450     4.6860     4.7380     5.5590     2.1810 
  253.3750   -11.6350    69.6940    24.0580     4.6850     4.6920     5.5100     2.2080 
  253.5000   -11.7540    70.9180    24.0650     4.6690     4.6580     5.4740     2.2450 
  253.6250   -11.8850    72.0000    24.0550     4.6560     4.6450     5.4590     2.2790 
  253.7500   -12.0090    72.1290    24.0400     4.6730     4.6500     5.4650     2.2970 
  253.8750   -12.1150    70.4500    24.0420     4.7020     4.6740     5.4900     2.2950 
  254.0000   -12.1970    67.5570    24.0600     4.7090     4.7080     5.5270     2.2720 
  254.1250   -12.2580    65.7160    24.0550     4.6710     4.7380     5.5590     2.2360 
  254.2500   -12.3120    66.4670    24.0070     4.6210     4.7520     5.5740     2.2030 
  254.3750   -12.3720    69.1570    23.9440     4.5730     4.7520     5.5740     2.1820 
  254.5000   -12.4450    71.9740    23.9100     4.5420     4.7420     5.5640     2.1780 
  254.6250   -12.5360    72.9690    23.9150     4.5640     4.7270     5.5470     2.1890 
  254.7500   -12.6380    73.0440    23.8890     4.6340     4.7070     5.5260     2.2050 
  254.8750   -12.7430    73.2690    23.8550     4.7060     4.6850     5.5020     2.2190 
  255.0000   -12.8420    73.0030    23.8210     4.7320     4.6660     5.4820     2.2320 
  255.1250   -12.9250    71.1980    23.8360     4.6950     4.6590     5.4740     2.2400 
  255.2500   -12.9920    69.8040    23.8550     4.6410     4.6600     5.4750     2.2420 
  255.3750   -13.0500    70.4020    23.8400     4.6070     4.6620     5.4780     2.2470 
  255.5000   -13.1050    71.4590    23.7700     4.6090     4.6630     5.4790     2.2590 
  255.6250   -13.1650    70.1700    23.6930     4.6390     4.6610     5.4770     2.2560 
  255.7500   -13.2290    68.2890    23.6260     4.6500     4.6580     5.4740     2.2150 
  255.8750   -13.2930    68.3450    23.5940     4.6290     4.6490     5.4630     2.1540 
  256.0000   -13.3520    70.4550    23.5910     4.5710     4.6280     5.4410     2.1180 
  256.1250   -13.3990    71.8490    23.5770     4.4810     4.5920     5.4030     2.1330 
  256.2500   -13.4390    71.1510    23.4920     4.3990     4.5460     5.3540     2.1670 
  256.3750   -13.4790    69.2850    23.2840     4.3520     4.5000     5.3050     2.1960 
  256.5000   -13.5320    67.1450    22.9780     4.3250     4.4620     5.2630     2.2130 
  256.6250   -13.6140    64.8110    22.6570     4.2830     4.4420     5.2420     2.2240 
  256.7500   -13.7280    62.4650    22.4330     4.2730     4.4420     5.2420     2.2330 
  256.8750   -13.8680    60.7320    22.4780     4.4010     4.4670     5.2690     2.2390 
  257.0000   -14.0200    59.9360    22.7500     4.6910     4.5210     5.3260     2.2420 
  257.1250   -14.1570    60.0590    23.0550     5.0860     4.6030     5.4140     2.2480 
  257.2500   -14.2560    61.4310    23.1260     5.5240     4.6930     5.5110     2.2570 
  257.3750   -14.3020    64.2450    23.0670     5.9680     4.7780     5.6020     2.2700 
