~V
VERS. 2.00: Ver 2.00
~W
STRT.M 55.0000:
STOP.M 277.0000:
STEP.M 0.1250:
NULL. -999.2500:
UWI. DF5040:
~C
DEPT.M :
GR.API :
CALI.CM :
RXO.OHMM :
RI. :
RML.OHMM :
DEN.GM/CC :
SP.MV :
~A
# ...
  223.7500    62.8000    23.7470   260.9700   102.4950   108.3300     2.1530   -28.5530 
  223.8750    67.3060    23.9100   207.9450    93.8820    99.2510     2.1620   -28.3630 
  224.0000    71.7820    24.1100   139.4700    86.4360    91.4030     2.1820   -28.1290 
  224.1250    72.0680    24.2390   102.8570    81.3380    86.0300     2.2050   -27.8670 
  224.2500    70.1530    24.3200    91.1840    78.2140    82.7380     2.2160   -27.6060 
  224.3750    68.2880    24.3810    89.9020    76.5280    80.9610     2.2160   -27.3680 
  224.5000    66.9310    24.4440    92.8380    75.6140    79.9970     2.2140   -27.1730 
  224.6250    65.9700    24.4460    96.8640    74.9090    79.2540     2.2120   -27.0480 
  224.7500    65.7210    24.4100    96.6580    74.0660    78.3660     2.2090   -26.9930 
  224.8750    65.7280    24.3460    91.6720    73.1540    77.4050     2.2040   -27.0060 
  225.0000    65.3490    24.2860    85.0960    72.4760    76.6900     2.2020   -27.0770 
  225.1250    64.7180    24.2550    80.8720    72.4800    76.6940     2.2050   -27.2020 
  225.2500    65.0150    24.2210    81.3260    73.1840    77.4360     2.2080   -27.3700 
  225.3750    66.7600    24.1350    87.0790    74.4400    78.7600     2.2070   -27.5810 
  225.5000    68.4940    24.0000    95.2400    75.8920    80.2900     2.2030   -27.8350 
  225.6250    67.9930    23.9600   100.8900    76.9840    81.4410     2.2050   -28.1270 
  225.7500    66.4760    24.0770   102.6060    77.3670    81.8450     2.2110   -28.4370 
  225.8750    66.4450    24.2200   100.8070    76.9360    81.3900     2.2150   -28.7510 
  226.0000    68.8200    24.3090    96.0660    75.7840    80.1770     2.2140   -29.0610 
  226.1250    72.0350    24.3470    89.2490    74.2100    78.5170     2.2060   -29.3510 
  226.2500    74.5280    24.3490    82.9240    72.7260    76.9530     2.1950   -29.6140 
  226.3750    76.6690    24.3180    79.9380    71.6230    75.7910     2.1860   -29.8380 
  226.5000    78.6320    24.3210    80.6890    71.0030    75.1370     2.1760   -30.0170 
  226.6250    78.8020    24.3660    82.5090    70.8760    75.0040     2.1660   -30.1450 
  226.7500    76.4460    24.4130    82.8500    70.9800    75.1130     2.1580   -30.2330 
  226.8750    73.0280    24.4290    82.0080    71.1490    75.2910     2.1570   -30.2870 
  227.0000    70.7160    24.3970    81.1690    71.2360    75.3830     2.1630   -30.3100 
  227.1250    70.2570    24.3190    81.8280    71.0900    75.2290     2.1730   -30.3010 
  227.2500    70.2770    24.2710    82.7440    70.7370    74.8560     2.1830   -30.2610 
  227.3750    70.2090    24.2460    82.0400    70.2600    74.3540     2.1900   -30.1850 
  227.5000    70.1120    24.2120    79.2720    69.7680    73.8360     2.1940   -30.0700 
  227.6250    70.2890    24.1780    76.9420    69.3880    73.4350     2.1930   -29.9120 
  227.7500    70.8210    24.1920    76.6970    69.1680    73.2030     2.1870   -29.7230 
  227.8750    71.4760    24.2810    77.8110    69.1060    73.1370     2.1810   -29.5070 
  228.0000    71.7260    24.3450    78.9280    69.1790    73.2150     2.1770   -29.2700 
  228.1250    71.6750    24.3260    78.4300    69.3740    73.4210     2.1800   -29.0190 
  228.2500    71.8660    24.2760    76.4110    69.5950    73.6540     2.1890   -28.7710 
  228.3750    72.2390    24.2540    73.7050    69.7170    73.7820     2.2030   -28.5390 
  228.5000    72.6920    24.2450    71.5980    69.6080    73.6670     2.2150   -28.3350 
  228.6250    73.7190    24.2500    71.1340    69.1100    73.1420     2.2190   -28.1660 
  228.7500    75.1470    24.2710    71.8220    68.2920    72.2800     2.2210   -28.0230 
  228.8750    75.9880    24.3520    73.7470    67.3150    71.2500     2.2280   -27.9010 
  229.0000    75.9020    24.4950    75.2640    66.3870    70.2720     2.2360   -27.7940 
  229.1250    75.4850    24.5660    75.1150    65.7570    69.6080     2.2330   -27.6910 
  229.2500    75.4460    24.5050    74.0260    65.5470    69.3860     2.2240   -27.5760 
  229.3750    75.4790    24.3960    74.4520    65.8670    69.7240     2.2160   -27.4300 
  229.5000    75.4800    24.3010    76.6750    66.7670    70.6720     2.2120   -27.2380 
  229.6250    75.5840    24.2630    80.2910    68.4450    72.4410     2.2070   -26.9770 
  229.7500    75.4800    24.2520    84.3330    71.0660    75.2030     2.2020   -26.6520 
  229.8750    74.7710    24.2570    87.2260    74.8620    79.2040     2.2020   -26.2670 
  230.0000    73.6180    24.2520    87.2410    79.3340    83.9180     2.2070   -25.8360 
  230.1250    72.8550    24.2090    86.1480    81.8380    86.5570     2.2180   -25.3850 
  230.2500    72.3490    24.1690    91.7120    79.4530    84.0440     2.2490   -24.9500 
  230.3750    71.3290    24.1630   115.9530    70.8440    74.9690     2.3170   -24.5640 
  230.5000    70.0950    24.1390   164.4640    57.3200    60.7160     2.4230   -24.2600 
  230.6250    71.0090    24.0130   206.9590    42.3000    44.8840     2.5320   -24.0850 
  230.7500    75.0810    23.8640   189.6380    29.2100    31.0870     2.5950   -24.0360 
  230.8750    80.9290    23.8270   118.9180    19.3130    20.6560     2.5900   -24.1150 
  231.0000    86.4480    23.8050    48.0490    12.7010    13.6870     2.5290   -24.3050 
  231.1250    90.8160    23.7250    15.3290     9.1950     9.9920     2.4550   -24.5880 
  231.2500    94.2030    23.7760     6.6340     7.4720     8.1760     2.4110   -24.9110 
  231.3750    95.7340    24.0500     5.9670     6.8280     7.4970     2.4030   -25.2350 
  231.5000    95.0980    24.3490     6.9190     6.7900     7.4560     2.4090   -25.5320 
  231.6250    93.8920    24.4490     7.6520     7.0950     7.7790     2.4070   -25.7740 
  231.7500    94.3400    24.4520     7.9210     7.4790     8.1830     2.3990   -25.9680 
  231.8750    98.1650    24.4360     7.8490     7.7990     8.5200     2.3980   -26.1240 
  232.0000   106.5170    24.4070     7.7410     7.9830     8.7150     2.4070   -26.2630 
  232.1250   118.2950    24.3480     7.8530     8.0240     8.7580     2.4200   -26.4120 
  232.2500   128.7420    24.3130     8.1520     7.9930     8.7250     2.4210   -26.5940 
  232.3750   134.3950    24.2980     8.4550     7.9190     8.6470     2.4080   -26.8190 
  232.5000   134.5490    24.2930     8.5490     7.8190     8.5420     2.3970   -27.0850 
  232.6250   131.2940    24.2910     8.4170     7.6990     8.4150     2.3970   -27.3880 
  232.7500   128.1770    24.2930     8.2990     7.5670     8.2760     2.3980   -27.7070 
  232.8750   126.2540    24.3050     8.3790     7.4320     8.1330     2.3930   -28.0260 
  233.0000   125.1580    24.3300     8.5600     7.3050     8.0000     2.3840   -28.3350 
  233.1250   125.2190    24.3290     8.6310     7.2110     7.9000     2.3800   -28.6240 
  233.2500   127.5850    24.3200     8.6750     7.1530     7.8390     2.3810   -28.9010 
  233.3750   131.7650    24.3100     8.7600     7.1360     7.8210     2.3810   -29.1800 
  233.5000   133.9660    24.3000     8.8230     7.1630     7.8500     2.3800   -29.4790 
  233.6250   129.7010    24.2940     8.7960     7.2550     7.9470     2.3790   -29.8120 
  233.7500   122.7030    24.2910     8.8360     7.4060     8.1060     2.3740   -30.1720 
  233.8750   118.5310    24.2920     8.9770     7.6130     8.3240     2.3600   -30.5430 
  234.0000   118.9140    24.2880     9.1610     7.8610     8.5860     2.3410   -30.9050 
  234.1250   120.8750    24.2780     9.4470     8.1160     8.8540     2.3330   -31.2180 
  234.2500   121.5160    24.2750     9.9020     8.3270     9.0770     2.3410   -31.4580 
  234.3750   120.6340    24.2870    10.4350     8.4530     9.2090     2.3600   -31.6000 
  234.5000   119.5570    24.3170    10.7040     8.4610     9.2180     2.3850   -31.6330 
  234.6250   120.0440    24.3420    10.4450     8.3360     9.0860     2.4080   -31.5540 
  234.7500   120.5560    24.3500     9.8800     8.1240     8.8630     2.4200   -31.4190 
  234.8750   118.3100    24.3410     9.3940     7.8630     8.5870     2.4190   -31.2750 
