~V
VERS. 2.00: Ver 2.00
~W
STRT.M 58.0000:
STOP.M 250.0000:
STEP.M 0.1250:
NULL. -999.2500:
UWI. DF5046:
~C
DEPT.M :
GR.API :
CALI.CM :
RXO.OHMM :
RI. :
RML.OHMM :
DEN.GM/CC :
SP.MV :
~A
# ...
  114.2500    71.5620    23.6160     7.5290     6.5510     8.8980     2.1780   -20.7120 
  114.3750    70.3680    23.5570     7.7010     6.6260     9.0070     2.1710   -19.8840 
  114.5000    69.9060    23.4500     8.1740     6.6580     9.0290     2.1700   -18.9920 
  114.6250    70.8880    23.3780     8.4960     6.5330     8.7640     2.1750   -18.0980 
  114.7500    74.0580    23.3700     8.2100     6.2310     8.2200     2.1860   -17.2530 
  114.8750    77.9540    23.4420     7.2800     5.7890     7.5150     2.2100   -16.5000 
  115.0000    81.6320    23.6110     6.1070     5.2980     6.8170     2.2500   -15.8930 
  115.1250    85.9380    23.8450     5.2930     4.8690     6.2890     2.2900   -15.4750 
  115.2500    88.4820    24.0280     4.9590     4.5510     5.9490     2.3140   -15.2070 
  115.3750    89.8490    24.1190     4.9050     4.3520     5.7690     2.3230   -15.0890 
  115.5000    91.9650    24.1580     4.8670     4.2580     5.6920     2.3250   -15.0940 
  115.6250    95.9870    24.1750     4.7210     4.2430     5.6570     2.3210   -15.1940 
  115.7500    97.2850    24.1720     4.6050     4.2580     5.6110     2.3120   -15.3440 
  115.8750    93.8410    24.1670     4.6520     4.2800     5.5470     2.3020   -15.5070 
  116.0000    89.3360    24.1770     4.8360     4.3070     5.4860     2.2970   -15.6430 
  116.1250    86.6160    24.1880     4.9420     4.3460     5.4660     2.2950   -15.6960 
  116.2500    86.5720    24.1930     4.9140     4.3990     5.4860     2.2900   -15.6610 
  116.3750    87.7630    24.2010     4.9090     4.4610     5.5260     2.2780   -15.5300 
  116.5000    88.1590    24.2030     5.0670     4.5250     5.5720     2.2650   -15.3130 
  116.6250    89.3350    24.1650     5.2370     4.5790     5.6220     2.2570   -14.9820 
  116.7500    91.4710    24.1130     5.1560     4.6120     5.6570     2.2580   -14.5630 
  116.8750    93.7680    24.1020     4.9650     4.6080     5.6440     2.2660   -14.1120 
  117.0000    94.0240    24.1950     5.0210     4.5470     5.5470     2.2820   -13.6600 
  117.1250    92.8020    24.4050     5.2840     4.4120     5.3330     2.3070   -13.2620 
  117.2500    93.9390    24.6260     5.1780     4.2220     5.0420     2.3380   -12.9500 
  117.3750    97.5150    24.8000     4.5920     4.0010     4.7200     2.3660   -12.7420 
  117.5000    99.7990    24.9210     3.9510     3.7820     4.4170     2.3830   -12.6600 
  117.6250    98.4560    24.9880     3.7210     3.6120     4.2030     2.3890   -12.7510 
  117.7500    96.0380    24.9860     3.7590     3.5190     4.1070     2.3920   -13.0170 
  117.8750    92.2430    24.8970     3.8660     3.5170     4.1490     2.3920   -13.4420 
  118.0000    86.6240    24.7550     4.0110     3.6010     4.3250     2.3850   -14.0140 
  118.1250    81.9890    24.6280     4.2690     3.7610     4.6170     2.3680   -14.7220 
  118.2500    81.7670    24.5670     4.5640     3.9540     4.9360     2.3530   -15.4870 
  118.3750    83.3570    24.5890     4.7940     4.1450     5.2100     2.3490   -16.2710 
  118.5000    81.2250    24.5180     4.9910     4.3170     5.4060     2.3530   -17.0640 
  118.6250    75.7600    23.9090     5.2500     4.4890     5.5790     2.3470   -17.8360 
  118.7500    71.9730    22.9570     5.4530     4.7220     5.8690     2.3330   -18.5520 
  118.8750    71.9750    22.3000     5.5490     5.0720     6.3990     2.3260   -19.1550 
  119.0000    73.6820    22.4090     5.7680     5.5720     7.2300     2.3370   -19.6440 
  119.1250    73.1130    23.0790     6.4100     6.2120     8.3020     2.3660   -20.0180 
  119.2500    69.6030    23.6080     7.1490     6.8430     9.2830     2.3890   -20.3210 
  119.3750    65.9120    23.8180     7.5690     7.3000     9.8290     2.3830   -20.5880 
  119.5000    65.0410    23.8020     7.5890     7.4540     9.7670     2.3400   -20.7910 
  119.6250    67.6830    23.7250     7.4330     7.2740     9.1930     2.2800   -20.9390 
  119.7500    71.5900    23.6660     7.2870     6.9570     8.5450     2.2400   -21.0600 
  119.8750    74.3080    23.6220     7.1530     6.6540     8.0740     2.2250   -21.1710 
  120.0000    73.9830    23.6030     7.0430     6.4560     7.8660     2.2210   -21.2850 
  120.1250    70.7340    23.6040     7.0130     6.3920     7.8960     2.2140   -21.4090 
  120.2500    67.7030    23.6270     7.0520     6.4040     8.0210     2.2040   -21.5290 
  120.3750    66.3270    23.6900     7.0930     6.4530     8.1670     2.1950   -21.6040 
  120.5000    67.5060    23.7730     7.0980     6.5070     8.2730     2.1910   -21.6270 
  120.6250    70.2860    23.8280     7.1520     6.5260     8.2800     2.1950   -21.5450 
  120.7500    71.4510    23.8180     7.3360     6.4800     8.1740     2.2050   -21.3550 
  120.8750    70.1880    23.7200     7.5740     6.3570     7.9580     2.2100   -21.1160 
  121.0000    69.2990    23.5460     7.7190     6.1930     7.7040     2.2030   -20.8460 
  121.1250    68.9940    23.4030     7.7120     6.1240     7.6500     2.1930   -20.5690 
  121.2500    66.2860    23.3730     8.0420     6.3210     8.0470     2.1960   -20.3280 
  121.3750    61.9010    23.4420     9.9390     6.9920     9.1540     2.2280   -20.1550 
  121.5000    58.1360    23.6170    15.2540     8.3950    11.2710     2.3060   -20.0780 
  121.6250    57.5740    23.9680    25.5470    11.0710    15.0580     2.4290   -20.1630 
  121.7500    58.8450    24.3850    37.2110    15.1710    20.6970     2.5470   -20.3820 
  121.8750    59.6860    24.6920    46.4460    20.6890    28.1810     2.6230   -20.7070 
  122.0000    58.5550    24.8140    52.1380    26.8410    36.2980     2.6510   -21.1140 
  122.1250    55.3400    24.8220    55.5800    31.0490    40.7060     2.6570   -21.5670 
  122.2500    51.9880    24.8200    59.0100    31.1720    38.5440     2.6630   -22.0330 
  122.3750    48.5940    24.8170    59.6750    27.1910    31.3060     2.6580   -22.4890 
  122.5000    46.5550    24.7790    50.6420    21.1590    22.9240     2.6200   -22.9020 
  122.6250    49.1080    24.6050    32.2470    15.6050    16.4600     2.5230   -23.2420 
  122.7500    53.5210    24.2770    17.3540    11.5360    12.1640     2.3930   -23.5150 
  122.8750    56.8270    23.8670    10.5030     8.9200     9.6400     2.2720   -23.7190 
  123.0000    59.0020    23.5260     8.8290     7.4200     8.4020     2.2040   -23.8840 
  123.1250    61.5650    23.4000     9.1230     6.7970     8.1380     2.2050   -24.0330 
  123.2500    64.0640    23.4440     9.3300     6.6410     8.3310     2.2310   -24.1640 
  123.3750    65.2340    23.5680     9.1470     6.7400     8.6700     2.2450   -24.2860 
  123.5000    65.8140    23.6820     8.8160     6.9170     8.9050     2.2330   -24.4270 
  123.6250    65.6740    23.7360     8.6010     7.0500     8.9190     2.2100   -24.6070 
  123.7500    62.8500    23.7470     8.5140     7.1250     8.8370     2.1960   -24.8570 
  123.8750    59.6190    23.7420     8.5090     7.1630     8.7650     2.1890   -25.1440 
  124.0000    58.9550    23.7210     8.5580     7.1850     8.7510     2.1830   -25.4270 
  124.1250    59.8550    23.6730     8.6370     7.2050     8.7860     2.1790   -25.6890 
  124.2500    59.2430    23.6260     8.7360     7.2180     8.8090     2.1850   -25.9300 
  124.3750    56.8030    23.6010     8.8450     7.2120     8.7800     2.1970   -26.1620 
  124.5000    55.7700    23.5920     8.9100     7.1790     8.6940     2.2080   -26.3670 
  124.6250    56.8090    23.5900     8.8580     7.1120     8.5810     2.2130   -26.5340 
  124.7500    56.9270    23.6140     8.7220     7.0250     8.4900     2.2130   -26.6560 
  124.8750    54.6570    23.6690     8.5780     6.9310     8.4370     2.2090   -26.7460 
  125.0000    50.8320    23.7240     8.5160     6.8410     8.4100     2.2010   -26.8180 
  125.1250    51.4090    23.7210     8.5860     6.7650     8.3830     2.1930   -26.8700 
  125.2500    54.3880    23.6690     8.6630     6.7050     8.3410     2.1870   -26.9160 
  125.3750    55.3060    23.6150     8.6250     6.6610     8.2950     2.1810   -26.9610 
