~V
VERS. 2.00: Ver 2.00
~W
STRT.M 58.0000:
STOP.M 240.0000:
STEP.M 0.1250:
NULL. -999.2500:
UWI. DF5049:
~C
DEPT.M :
GR.API :
RML.OHMM :
RI. :
RXO.OHMM :
CALI.CM :
DEN.GM/CC :
SP.MV :
~A
# ...
  159.2500    80.4140    26.3290    27.0420    24.5910    25.3170     2.3050   -21.5640 
  159.3750    82.1000    31.2800    31.3800    28.7240    25.4130     2.2780   -21.6660 
  159.5000    80.8970    38.2420    37.8790    42.0360    25.6530     2.2560   -21.7430 
  159.6250    78.4220    46.6840    46.1750    55.7380    25.8990     2.2450   -21.7910 
  159.7500    76.5250    54.8150    54.3910    60.3570    26.0860     2.2440   -21.8400 
  159.8750    75.5040    60.9680    60.7430    60.1930    26.1830     2.2480   -21.8920 
  160.0000    74.8020    64.1220    64.0590    60.1960    26.2200     2.2540   -21.9230 
  160.1250    74.5710    64.3060    64.1620    58.5500    26.2250     2.2580   -21.9290 
  160.2500    74.2860    63.4540    62.9200    56.7230    26.2200     2.2590   -21.8680 
  160.3750    73.1130    62.6860    61.4640    55.9450    26.2100     2.2590   -21.7590 
  160.5000    71.8170    62.4700    60.3650    57.0800    26.1930     2.2580   -21.7180 
  160.6250    70.8260    62.7700    59.7960    58.5470    26.1670     2.2600   -21.7180 
  160.7500    70.4250    62.9750    59.3640    58.3070    26.0910     2.2640   -21.6860 
  160.8750    70.6940    62.4710    58.5740    58.5300    26.0040     2.2680   -21.6440 
  161.0000    70.2600    60.8860    57.0490    65.5630    25.9610     2.2720   -21.6220 
  161.1250    69.3260    58.3160    54.7610    63.0740    25.9790     2.2780   -21.5780 
  161.2500    68.2880    55.7420    52.4300    50.8360    26.0560     2.2810   -21.5220 
  161.3750    67.3450    54.0640    50.7780    38.8130    26.1260     2.2810   -21.4710 
  161.5000    66.9190    53.9640    50.3920    39.6650    26.2130     2.2760   -21.4040 
  161.6250    69.0970    56.0120    51.8490    47.7460    26.2870     2.2660   -21.3440 
  161.7500    72.7200    59.6560    54.8030    54.8630    26.3340     2.2560   -21.3010 
  161.8750    73.5660    64.3290    58.8460    58.4400    26.3480     2.2500   -21.2580 
  162.0000    71.4690    69.3470    63.3620    61.8750    26.3420     2.2460   -21.2110 
  162.1250    71.0770    74.1750    67.7500    65.8770    26.3110     2.2410   -21.1910 
  162.2500    71.8860    78.9420    71.9680    68.0600    26.2750     2.2350   -21.2240 
  162.3750    72.6080    84.1690    76.4220    68.4530    26.2890     2.2270   -21.2720 
  162.5000    73.3710    90.3660    81.5940    71.2780    26.3350     2.2200   -21.3140 
  162.6250    73.2900    97.8640    87.8430    84.8880    26.3830     2.2150   -21.3430 
  162.7500    71.8840   106.0940    94.7070   100.8230    26.4100     2.2150   -21.4010 
  162.8750    70.3850   114.3260   101.5470   111.9710    26.4070     2.2170   -21.4820 
  163.0000    70.4500   121.6600   107.6200   114.1220    26.3780     2.2230   -21.5580 
  163.1250    69.4240   127.0670   112.1310   110.4970    26.3620     2.2320   -21.6420 
  163.2500    66.9050   130.7230   115.2580   108.3250    26.3580     2.2410   -21.7080 
  163.3750    65.6630   132.9980   117.3130   108.3180    26.3580     2.2470   -21.7550 
  163.5000    66.9060   134.2690   118.5960   114.0960    26.3400     2.2480   -21.8330 
  163.6250    68.3400   134.5080   119.0500   119.7320    26.2650     2.2440   -21.9000 
  163.7500    68.0140   133.6880   118.6140   118.6740    26.1080     2.2390   -21.9070 
  163.8750    67.2390   131.5680   117.1380   113.1550    25.9220     2.2360   -21.8700 
  164.0000    67.3010   128.0840   114.6620   106.5350    25.7840     2.2320   -21.7880 
  164.1250    67.1420   123.4370   111.4530   102.8660    25.8020     2.2230   -21.7290 
  164.2500    67.1600   118.4150   108.1450   100.3270    25.8970     2.2070   -21.6660 
  164.3750    68.2060   113.5090   105.0980    96.1240    25.9050     2.1870   -21.5560 
  164.5000    67.5260   109.0120   102.4820    90.3990    25.8010     2.1690   -21.3400 
  164.6250    64.6320   105.1700   100.4470    84.4220    25.5690     2.1620   -21.0700 
  164.7500    63.9540   102.0270    98.9820    78.7670    25.3230     2.1650   -20.8270 
  164.8750    66.7860    99.7380    98.1710    75.8260    25.2050     2.1740   -20.5790 
  165.0000    70.0950    98.3930    98.0660    76.6820    25.3130     2.1850   -20.3720 
  165.1250    70.2660    97.7140    98.4590    82.2520    25.5790     2.1940   -20.1000 
  165.2500    69.5300    96.0830    97.9760    85.7070    25.7960     2.2030   -19.7950 
  165.3750    67.3110    91.2040    94.3690    84.3330    25.8800     2.2140   -19.4910 
  165.5000    64.4620    81.3450    85.6450    79.7110    25.8900     2.2290   -19.1670 
  165.6250    64.3130    66.9260    71.7060    76.7510    25.8700     2.2490   -18.8150 
  165.7500    66.8470    52.2850    56.9980    64.8430    25.8160     2.2690   -18.4560 
  165.8750    71.6970    40.4360    44.8390    44.6910    25.7190     2.2870   -18.0580 
  166.0000    77.7820    32.7970    36.7840    26.4750    25.5350     2.2970   -17.6800 
  166.1250    81.4530    30.0370    33.4200    23.3470    25.3010     2.2960   -17.3330 
  166.2500    81.1930    30.7370    33.4040    26.4010    25.0420     2.2900   -17.0270 
  166.3750    78.1590    34.0950    36.2050    32.8420    24.8150     2.2820   -16.7540 
  166.5000    75.9040    39.0760    41.1430    45.6540    24.6980     2.2740   -16.5780 
  166.6250    76.9810    44.0620    46.8390    56.0160    24.7230     2.2630   -16.5060 
  166.7500    78.4860    47.4830    51.2890    58.2290    24.7390     2.2490   -16.4340 
  166.8750    79.6570    48.8350    53.5620    55.4780    24.7240     2.2320   -16.4670 
  167.0000    78.9370    48.6910    53.9550    50.0510    24.7090     2.2180   -16.4950 
  167.1250    77.5120    48.3090    53.5840    42.2860    24.7310     2.2100   -16.5350 
  167.2500    78.0310    48.8610    53.7680    39.3850    24.7760     2.2100   -16.5720 
  167.3750    78.3310    50.8920    55.1890    43.0860    24.8060     2.2140   -16.6470 
  167.5000    77.5370    54.5960    58.1900    48.6630    24.8130     2.2170   -16.7250 
  167.6250    76.2340    60.2150    63.1180    51.2120    24.7970     2.2150   -16.7830 
  167.7500    77.1270    67.2060    69.4670    52.2340    24.7760     2.2090   -16.9180 
  167.8750    77.9320    75.0110    76.7050    58.7660    24.7620     2.2050   -17.0470 
  168.0000    74.9420    82.7140    84.0100    71.4130    24.7510     2.2060   -17.2570 
  168.1250    72.0510    88.8610    90.1370    78.6650    24.7500     2.2110   -17.5040 
  168.2500    73.1560    92.9510    94.5240    79.4650    24.7460     2.2120   -17.7830 
  168.3750    75.0700    95.2970    97.2730    76.4110    24.7260     2.2050   -18.0180 
  168.5000    73.1950    96.9100    99.1750    71.7140    24.6850     2.1890   -18.2440 
  168.6250    69.5530    98.8660   101.2350    69.2780    24.6570     2.1710   -18.4670 
  168.7500    70.7920   101.0920   103.5560    71.8580    24.7200     2.1600   -18.6420 
  168.8750    74.0350   102.6280   105.3230    81.2870    24.9270     2.1580   -18.7730 
  169.0000    73.2280   102.4910   105.5530    95.3940    25.3010     2.1610   -18.8340 
  169.1250    70.0070   100.4950   103.8300   101.2500    25.6770     2.1620   -18.8660 
  169.2500    70.2080    98.3050   101.6220    91.8590    25.9750     2.1620   -18.8950 
  169.3750    72.9180    97.5480   100.5120    80.8750    26.0870     2.1650   -18.9330 
  169.5000    72.6930    99.4720   101.8340    76.4450    26.0980     2.1760   -19.0130 
  169.6250    68.3240   105.0680   106.7220    91.1620    26.1000     2.1910   -19.1690 
  169.7500    66.4650   113.2870   114.2620   116.4310    26.1030     2.2030   -19.2950 
  169.8750    68.4390   123.1570   123.5340   132.8170    26.1070     2.2050   -19.4410 
  170.0000    69.4110   133.9050   133.7850   134.2750    26.1070     2.1990   -19.5580 
  170.1250    65.7540   145.9900   145.4310   136.9610    26.0910     2.1880   -19.6050 
  170.2500    60.3790   160.7420   159.6750   135.7830    26.0330     2.1790   -19.6700 
  170.3750    57.4060   179.6840   177.9200   135.4480    25.8720     2.1730   -19.6880 
