~V
VERS. 2.00: Ver 2.00
~W
STRT.M 61.0000:
STOP.M 236.0000:
STEP.M 0.1250:
NULL. -999.2500:
UWI. DF5057:
~C
DEPT.M :
GR.API :
RML.OHMM :
RI. :
RXO.OHMM :
CALI.CM :
DEN.GM/CC :
SP.MV :
~A
# ...
  151.0000    63.4020   126.7390   117.2420    68.0710    24.8370     2.1920   -16.1450 
  151.1250    63.1650   128.4550   118.8450    72.4080    24.9160     2.1870   -15.8910 
  151.2500    62.5770   126.7700   117.5380    70.7600    24.9450     2.1870   -15.6640 
  151.3750    60.5170   122.8700   114.1960    64.3870    24.8940     2.1920   -15.4450 
  151.5000    58.4580   118.6450   110.3560    58.3300    24.8030     2.2000   -15.2280 
  151.6250    60.5590   116.2100   107.8910    55.0430    24.7680     2.2100   -15.0310 
  151.7500    64.8110   116.1460   107.4830    54.0330    24.7730     2.2170   -14.9160 
  151.8750    67.1060   118.1330   108.9560    56.4460    24.7810     2.2220   -14.8700 
  152.0000    65.8870   121.0200   111.3690    63.8120    24.7790     2.2230   -14.8050 
  152.1250    65.1890   122.7830   113.0150    70.7500    24.7630     2.2210   -14.8120 
  152.2500    66.3840   122.0480   112.6290    70.0010    24.7290     2.2200   -14.8790 
  152.3750    65.8840   118.4460   109.7630    65.1960    24.7070     2.2200   -14.9460 
  152.5000    63.5140   112.5460   104.7360    59.8400    24.7540     2.2230   -15.0160 
  152.6250    62.3370   105.4370    98.3140    55.8880    24.8390     2.2270   -15.0320 
  152.7500    63.8420    98.5130    91.7680    53.3880    24.8630     2.2290   -14.9850 
  152.8750    65.1890    92.5010    85.8300    50.5130    24.8610     2.2260   -14.9080 
  153.0000    64.9340    87.8280    80.9770    46.9680    24.9600     2.2200   -14.8050 
  153.1250    64.5580    85.0780    77.7950    45.2870    25.0870     2.2120   -14.6710 
  153.2500    64.9770    84.2280    76.3090    45.5680    25.1720     2.2060   -14.4580 
  153.3750    65.4550    85.4080    76.6610    47.1990    25.1620     2.2040   -14.1800 
  153.5000    65.1280    88.5510    78.8230    49.5620    25.0870     2.2060   -13.9340 
  153.6250    64.7920    93.4000    82.6350    50.0500    25.0070     2.2090   -13.7210 
  153.7500    65.7990    98.6570    87.0210    49.4140    24.9090     2.2150   -13.4700 
  153.8750    66.6490   103.1040    91.0380    50.2920    24.8190     2.2240   -13.2190 
  154.0000    64.6800   105.8820    94.0510    51.5720    24.7520     2.2400   -13.0060 
  154.1250    60.2740   106.7260    95.9640    52.5830    24.7270     2.2580   -12.7450 
  154.2500    58.7500   106.1090    97.0680    51.3890    24.7620     2.2690   -12.4880 
  154.3750    60.3260   103.1990    96.4640    49.9380    24.9470     2.2600   -12.2340 
  154.5000    61.3900    96.3470    92.2960    53.0910    25.3330     2.2300   -11.9010 
  154.6250    61.7600    83.8500    82.1940    62.1680    25.7280     2.1910   -11.5940 
  154.7500    63.2290    68.2830    68.1300    66.2010    25.7940     2.1690   -11.3390 
  154.8750    66.6990    52.7470    53.1910    54.7660    25.5860     2.1800   -11.0240 
  155.0000    71.7750    39.7180    40.2660    36.3060    25.3430     2.2250   -10.6980 
  155.1250    77.8730    30.6040    31.1210    26.0540    25.3240     2.2870   -10.4070 
  155.2500    82.9940    24.3500    24.8040    21.4220    25.5010     2.3410   -10.0540 
  155.3750    84.5970    20.2160    20.5570    18.1050    25.7290     2.3750    -9.7170 
  155.5000    84.2840    17.5940    17.7900    14.1400    25.8380     2.3870    -9.4720 
  155.6250    86.3820    16.2850    16.3210    10.8110    25.8540     2.3830    -9.2240 
  155.7500    89.7740    16.0690    15.8770     8.1260    25.8970     2.3730    -8.9910 
  155.8750    91.0360    17.1940    16.5880     7.4430    25.9340     2.3600    -8.8780 
  156.0000    89.1290    20.0420    18.7390     8.3550    25.8980     2.3460    -8.8360 
  156.1250    85.1720    25.3500    23.0920    12.4500    25.8110     2.3280    -8.8440 
  156.2500    79.9470    32.7470    29.5970    21.3680    25.7630     2.3080    -8.9650 
  156.3750    73.9060    41.4840    37.7850    35.8970    25.8200     2.2870    -9.1510 
  156.5000    68.7850    49.9930    46.1340    49.9730    25.9090     2.2680    -9.3690 
  156.6250    65.9530    55.7620    51.8870    55.5090    25.9620     2.2570    -9.6310 
  156.7500    64.5090    58.2040    54.2010    55.3870    25.9700     2.2530    -9.8850 
  156.8750    65.1000    58.1290    53.8270    54.4800    25.9490     2.2570   -10.0610 
  157.0000    68.6480    57.1210    52.3240    54.0170    25.9070     2.2640   -10.1940 
  157.1250    72.7790    56.6820    51.1840    53.1960    25.8960     2.2710   -10.3070 
  157.2500    73.8520    57.1690    50.9240    52.4280    25.8840     2.2720   -10.3770 
  157.3750    72.2850    58.1890    51.3610    54.1330    25.8880     2.2670   -10.4340 
  157.5000    71.7160    58.9770    51.9430    58.5800    25.9210     2.2600   -10.4860 
  157.6250    71.6400    58.5820    51.9080    62.7190    25.9550     2.2600   -10.4620 
  157.7500    69.3800    56.9530    51.0150    63.0730    25.9480     2.2730   -10.4230 
  157.8750    68.3110    54.3810    49.3410    58.4870    25.9070     2.2970   -10.4360 
  158.0000    70.3630    51.2550    47.0840    52.4020    25.9220     2.3220   -10.4630 
  158.1250    72.4950    47.6590    44.2150    49.3340    25.9620     2.3340   -10.5380 
  158.2500    73.2950    43.5500    40.7130    49.8310    25.9830     2.3310   -10.6120 
  158.3750    74.8520    38.9960    36.6720    47.9750    25.9850     2.3200   -10.6350 
  158.5000    78.5260    34.4460    32.5490    40.2810    25.9860     2.3110   -10.6350 
  158.6250    82.7970    30.8190    29.1860    30.1540    25.9910     2.3110   -10.7220 
  158.7500    84.3380    28.7090    27.0730    24.2980    25.9950     2.3160   -10.8380 
  158.8750    81.5500    28.6140    26.5750    23.0180    25.9910     2.3210   -10.9580 
  159.0000    75.7880    30.9030    28.0160    26.8300    25.9860     2.3210   -11.0930 
  159.1250    73.5330    36.2980    32.1700    33.7360    25.9790     2.3120   -11.1900 
  159.2500    75.6870    44.5280    39.0350    41.1630    25.9700     2.2970   -11.3020 
  159.3750    78.1370    55.5470    48.7640    51.2860    25.9520     2.2780   -11.4950 
  159.5000    76.8090    68.8870    61.0030    71.5510    25.9570     2.2550   -11.6890 
  159.6250    73.0580    83.4460    74.6790    90.7430    25.9670     2.2340   -11.8630 
  159.7500    69.8970    97.2970    87.8090   103.9540    26.0010     2.2190   -12.0610 
  159.8750    66.4060   109.0070    98.9830   112.4620    26.0380     2.2130   -12.1980 
  160.0000    62.7310   117.5720   107.2080   119.9290    26.0690     2.2140   -12.3020 
  160.1250    61.8410   121.9740   111.5050   122.9110    26.0590     2.2200   -12.3920 
  160.2500    63.9710   123.1110   112.7770   125.9410    26.0320     2.2240   -12.5190 
  160.3750    66.2870   121.6360   111.7370   130.1790    26.0230     2.2260   -12.5950 
  160.5000    67.8040   118.1080   109.0130   127.1210    26.0180     2.2260   -12.6680 
  160.6250    68.9080   112.3060   104.4990   108.6720    26.0290     2.2260   -12.6950 
  160.7500    69.3910   104.4650    98.2760    94.9080    26.0270     2.2260   -12.6740 
  160.8750    70.1870    95.0150    90.5440    94.9920    25.9910     2.2280   -12.6740 
  161.0000    70.3660    84.9960    82.0630    98.1810    25.8890     2.2330   -12.6620 
  161.1250    68.6040    75.8850    74.0520    80.8380    25.7030     2.2410   -12.6850 
  161.2500    67.9850    68.5240    67.3990    62.0440    25.5420     2.2510   -12.6800 
  161.3750    70.3330    63.3790    62.6170    61.8260    25.4320     2.2590   -12.6570 
  161.5000    73.8520    60.6680    59.9740    74.6640    25.3750     2.2650   -12.6170 
  161.6250    75.2680    60.9690    60.0570    69.8490    25.3550     2.2640   -12.6740 
  161.7500    74.8670    63.9910    62.6960    57.0470    25.3700     2.2580   -12.7680 
  161.8750    73.3460    69.6550    67.9140    56.8650    25.4010     2.2480   -12.8330 
  162.0000    71.5130    77.5190    75.3650    74.8900    25.4310     2.2370   -12.9490 
  162.1250    70.2100    86.7200    84.2870    91.3360    25.4260     2.2280   -13.0400 
