~V
VERS. 2.00: Ver 2.00
~W
STRT.M 55.0000:
STOP.M 253.0000:
STEP.M 0.1250:
NULL. -999.2500:
UWI. DF5051:
~C
DEPT.M :
SP.MV :
GR.API :
RML.OHMM :
RI. :
RXO.OHMM :
CALI.CM :
DEN.GM/CC :
~A
# ...
  145.0000   -12.6190    61.1950    19.2980    17.4730    18.7190    24.5500     2.5230 
  145.1250   -12.6720    61.4370    19.0130    17.2220    18.4080    24.6010     2.5180 
  145.2500   -12.7160    60.6040    18.7860    17.0310    18.2530    24.6240     2.5100 
  145.3750   -12.7100    59.4550    18.6480    16.9210    17.9670    24.6140     2.5020 
  145.5000   -12.7290    58.7190    18.6380    16.9150    17.4540    24.5740     2.4950 
  145.6250   -12.7450    57.8450    18.8060    17.0510    17.2980    24.5200     2.4930 
  145.7500   -12.7470    57.1050    19.0970    17.2830    17.3380    24.4940     2.4970 
  145.8750   -12.7210    57.0920    19.4090    17.5300    17.8250    24.4930     2.5060 
  146.0000   -12.6430    56.8630    19.5860    17.6620    18.5980    24.5330     2.5180 
  146.1250   -12.5620    56.0620    19.3980    17.4780    19.0900    24.5560     2.5270 
  146.2500   -12.4720    56.4800    18.8140    16.9440    18.6950    24.5710     2.5270 
  146.3750   -12.4000    58.0660    17.9040    16.1060    17.5860    24.5900     2.5190 
  146.5000   -12.3130    57.8340    16.8600    15.1220    15.7730    24.6100     2.5050 
  146.6250   -12.2490    53.6420    16.0010    14.2520    13.7820    24.6070     2.4950 
  146.7500   -12.1670    50.1950    15.5360    13.6910    12.8870    24.5930     2.4920 
  146.8750   -12.1210    50.6540    15.5490    13.5340    12.7830    24.5780     2.4970 
  147.0000   -12.1180    53.3820    15.9970    13.7790    13.3830    24.5390     2.5050 
  147.1250   -12.1500    52.1960    16.7450    14.3640    14.9070    24.5350     2.5110 
  147.2500   -12.2010    49.0380    17.5160    15.0620    16.9560    24.5690     2.5120 
  147.3750   -12.2140    49.9850    18.1510    15.7210    18.7570    24.6110     2.5080 
  147.5000   -12.2590    54.7820    18.5910    16.2520    19.5000    24.6180     2.5020 
  147.6250   -12.3180    56.6220    18.8900    16.6500    18.6800    24.5830     2.4990 
  147.7500   -12.4170    54.2370    19.2040    17.0170    16.9310    24.5880     2.4960 
  147.8750   -12.5030    50.5150    19.5980    17.4080    16.9360    24.6250     2.4930 
  148.0000   -12.5580    47.9910    20.0110    17.7890    18.2730    24.6460     2.4880 
  148.1250   -12.6600    48.9090    20.2010    17.9800    19.4000    24.6210     2.4820 
  148.2500   -12.7560    52.1250    19.9770    17.8260    19.5120    24.5510     2.4760 
  148.3750   -12.9160    54.4740    19.2790    17.2650    18.6350    24.4610     2.4700 
  148.5000   -13.0460    53.2580    18.2450    16.3910    17.0280    24.3820     2.4650 
  148.6250   -13.1340    51.7790    17.2020    15.4370    15.2280    24.3140     2.4630 
  148.7500   -13.2170    54.7210    16.4760    14.7030    13.9850    24.2910     2.4650 
  148.8750   -13.2810    58.1970    16.2010    14.3340    13.5000    24.3230     2.4720 
  149.0000   -13.3750    57.7660    16.3430    14.4120    13.8180    24.4310     2.4830 
  149.1250   -13.3920    54.7880    16.7440    14.8460    14.7560    24.5420     2.4940 
  149.2500   -13.4090    53.9800    17.1320    15.4490    15.5780    24.5970     2.5000 
  149.3750   -13.3850    53.9430    17.3670    16.0050    15.9540    24.5870     2.4990 
  149.5000   -13.3880    52.5520    17.4110    16.1700    16.0480    24.5510     2.4910 
  149.6250   -13.3890    52.4920    17.3100    16.0080    15.9660    24.4980     2.4780 
  149.7500   -13.3940    54.5150    17.1830    15.8080    15.7560    24.4540     2.4670 
  149.8750   -13.4350    56.3760    17.0780    15.6810    15.4660    24.4480     2.4630 
  150.0000   -13.4730    56.2550    16.9990    15.6480    15.1530    24.4650     2.4660 
  150.1250   -13.5920    54.1040    16.9260    15.6420    14.8960    24.4080     2.4750 
  150.2500   -13.7020    52.1870    16.8410    15.6140    14.6670    24.2820     2.4850 
  150.3750   -13.8160    51.5500    16.7330    15.5400    14.5300    24.2020     2.4920 
  150.5000   -13.8820    52.4850    16.5900    15.4160    14.6430    24.2580     2.4960 
  150.6250   -13.9830    56.0120    16.3840    15.2490    15.1450    24.3870     2.4970 
  150.7500   -14.0650    60.8120    16.1190    15.0910    15.6390    24.4940     2.4980 
  150.8750   -14.1160    64.5750    15.8220    14.9170    15.7920    24.5790     2.5000 
  151.0000   -14.1630    65.1660    15.5520    14.7410    15.5860    24.6360     2.5020 
  151.1250   -14.1510    62.0990    15.4070    14.6330    15.0400    24.6760     2.5040 
  151.2500   -14.1600    60.0770    15.4110    14.6190    14.6230    24.6840     2.5060 
  151.3750   -14.1870    59.1460    15.5340    14.6790    14.6590    24.6700     2.5080 
  151.5000   -14.2670    57.3720    15.6820    14.7420    14.8650    24.6260     2.5100 
  151.6250   -14.3050    54.3280    15.6910    14.6730    14.9350    24.5650     2.5130 
  151.7500   -14.3340    52.9330    15.4770    14.4030    14.5100    24.4940     2.5160 
  151.8750   -14.3900    54.2420    15.0440    13.9340    13.7660    24.4300     2.5190 
  152.0000   -14.4560    56.5450    14.4720    13.3600    13.1840    24.3550     2.5210 
  152.1250   -14.5670    58.4840    14.0640    12.9050    12.9450    24.2670     2.5200 
  152.2500   -14.6660    59.9950    14.1460    12.8170    13.1310    24.2200     2.5110 
  152.3750   -14.7660    61.0170    15.1250    13.3410    14.1760    24.2680     2.4910 
  152.5000   -14.8280    62.1900    17.2090    14.7030    16.9060    24.3940     2.4580 
  152.6250   -14.9590    64.7880    20.9000    17.2360    21.9260    24.5230     2.4160 
  152.7500   -15.1460    67.7760    25.5930    20.7320    28.6130    24.5980     2.3740 
  152.8750   -15.3180    69.9600    30.4600    24.8810    35.7020    24.6160     2.3400 
  153.0000   -15.4930    70.9420    34.8460    29.1500    40.2760    24.6030     2.3150 
  153.1250   -15.6280    72.4340    38.1900    32.7760    41.8050    24.5730     2.3010 
  153.2500   -15.7890    75.0770    40.3850    35.4280    42.9600    24.5590     2.2930 
  153.3750   -15.9600    75.0480    41.5740    37.0920    44.4710    24.5610     2.2900 
  153.5000   -16.1460    72.0770    42.0500    37.9660    45.4170    24.5760     2.2890 
  153.6250   -16.3140    69.6210    42.0520    38.2440    44.9450    24.6070     2.2910 
  153.7500   -16.4240    69.3780    41.9050    38.2660    44.4440    24.6200     2.2930 
  153.8750   -16.5660    71.8770    41.8550    38.2710    43.4060    24.6240     2.2930 
  154.0000   -16.6900    75.3030    42.1190    38.4870    42.0350    24.6140     2.2900 
  154.1250   -16.8150    77.0860    42.7600    39.0290    41.6660    24.5780     2.2840 
  154.2500   -16.9220    76.2430    43.3710    39.6080    42.9900    24.5310     2.2770 
  154.3750   -16.9920    75.6480    43.4450    39.8100    44.1960    24.5290     2.2720 
  154.5000   -17.0860    76.0110    42.5900    39.2720    43.2870    24.5790     2.2710 
  154.6250   -17.1230    75.0820    40.6860    37.8350    40.5260    24.5950     2.2760 
  154.7500   -17.1810    75.5170    38.4790    36.1010    37.2250    24.5790     2.2850 
  154.8750   -17.1890    77.6110    36.8880    34.7790    35.1100    24.5620     2.2920 
  155.0000   -17.2150    77.2740    36.7200    34.5920    35.0130    24.5640     2.2960 
  155.1250   -17.2590    73.4320    39.1280    36.4030    37.9240    24.5860     2.2950 
  155.2500   -17.2940    71.8670    43.6640    40.0900    43.2320    24.6160     2.2890 
  155.3750   -17.3660    73.5790    49.8890    45.3230    49.2580    24.6400     2.2820 
  155.5000   -17.4040    75.1230    56.7480    51.2890    54.9050    24.6670     2.2730 
  155.6250   -17.4920    74.6290    61.5640    56.4530    62.4090    24.6800     2.2650 
  155.7500   -17.5720    72.4750    63.8970    59.4640    66.0130    24.6860     2.2580 
  155.8750   -17.6830    70.1380    63.1690    59.5630    65.4270    24.6870     2.2540 
  156.0000   -17.7580    70.1720    59.6490    56.8050    61.5490    24.6810     2.2550 
  156.1250   -17.8110    72.7070    54.3140    51.9400    56.1930    24.6410     2.2640 
