~V
VERS. 2.00: Ver 2.00
~W
STRT.M 55.0000:
STOP.M 274.0000:
STEP.M 0.1250:
NULL. -999.2500:
UWI. DF5015:
~C
DEPT.M :
DEN.GM/CC :
GR.API :
CALI.CM :
RXO.OHMM :
RI. :
RML.OHMM :
SP.MV :
~A
# ...
  122.5000     2.3550   102.6920    23.1220    10.2570     6.4980     6.4190   -13.2520 
  122.6250     2.2970   107.5030    23.2160     7.0080     5.5930     5.5570   -13.2120 
  122.7500     2.2790   112.8080    23.3680     5.6040     4.9910     5.0760   -13.1920 
  122.8750     2.2830   116.6400    23.4830     5.0880     4.6830     4.9170   -13.1930 
  123.0000     2.2900   116.4270    23.5500     4.9480     4.6030     4.9660   -13.2180 
  123.1250     2.2830   111.8660    23.5250     5.0620     4.6550     5.0840   -13.2740 
  123.2500     2.2670   106.5230    23.4270     5.3320     4.7120     5.1470   -13.3600 
  123.3750     2.2560   103.1900    23.3120     5.5840     4.7070     5.1170   -13.4740 
  123.5000     2.2650   104.2940    23.2650     5.5680     4.6360     5.0250   -13.6150 
  123.6250     2.2930   110.2540    23.3790     5.2690     4.5620     4.9650   -13.7880 
  123.7500     2.3160   115.8770    23.5580     4.9880     4.5650     5.0180   -13.9860 
  123.8750     2.3230   117.0050    23.7740     4.9350     4.6880     5.2220   -14.2140 
  124.0000     2.3220   112.2480    23.9100     5.1320     4.9410     5.5720   -14.4670 
  124.1250     2.3410   102.4630    23.9780     5.7980     5.3120     6.0210   -14.7500 
  124.2500     2.3870    91.7900    23.9990     7.6630     5.7060     6.4500   -15.0620 
  124.3750     2.4460    84.2760    23.9830    10.9690     6.0300     6.7660   -15.4090 
  124.5000     2.4880    82.6580    23.9490    13.8730     6.2070     6.9080   -15.7840 
  124.6250     2.4820    86.2520    23.8980    13.2230     6.1840     6.8480   -16.1780 
  124.7500     2.4340    89.3330    23.7940    10.1450     6.0470     6.6920   -16.5730 
  124.8750     2.3610    88.6730    23.6550     7.6380     5.8840     6.5350   -16.9570 
  125.0000     2.2850    84.7780    23.4270     7.0050     5.7650     6.4440   -17.3190 
  125.1250     2.2340    82.1250    23.1530     7.6250     5.7420     6.4670   -17.6440 
  125.2500     2.2190    83.3460    22.9490     8.0140     5.8240     6.5960   -17.9350 
  125.3750     2.2320    86.2450    22.8600     7.8310     6.0070     6.8060   -18.1830 
  125.5000     2.2480    87.1980    22.8450     7.4900     6.2600     7.0560   -18.3850 
  125.6250     2.2460    85.5610    22.8340     7.6910     6.5360     7.3010   -18.5360 
  125.7500     2.2440    84.0450    22.7880     8.2700     6.7970     7.5170   -18.6590 
  125.8750     2.2730    83.1690    22.6760     8.9740     7.0180     7.6830   -18.7720 
  126.0000     2.3460    82.1910    22.5600     9.9030     7.1740     7.7800   -18.8910 
  126.1250     2.4270    81.2480    22.5010    10.9160     7.2250     7.7890   -19.0290 
  126.2500     2.4550    80.5820    22.5050    11.0320     7.1800     7.7280   -19.1820 
  126.3750     2.4160    79.8290    22.5210     9.9500     7.0690     7.6330   -19.3490 
  126.5000     2.3420    79.3950    22.5270     8.5620     6.9490     7.5610   -19.5320 
  126.6250     2.2780    80.5000    22.5020     7.9110     6.8940     7.5840   -19.7310 
  126.7500     2.2360    82.0130    22.4320     7.6310     6.9200     7.6970   -19.9340 
  126.8750     2.2110    82.0370    22.3380     7.5270     7.0170     7.8690   -20.1340 
  127.0000     2.1970    80.1460    22.2630     7.6440     7.1600     8.0530   -20.3260 
  127.1250     2.1920    77.8290    22.2400     8.0540     7.3110     8.1940   -20.5070 
  127.2500     2.1960    76.4780    22.2620     8.5070     7.4370     8.2800   -20.6770 
  127.3750     2.2070    76.1220    22.3360     8.7650     7.5350     8.3370   -20.8350 
  127.5000     2.2220    76.1410    22.4730     8.7520     7.6330     8.4120   -20.9830 
  127.6250     2.2370    75.0600    22.6350     8.6010     7.7840     8.5720   -21.1220 
  127.7500     2.2470    72.7220    22.8550     8.7040     8.0090     8.8260   -21.2520 
  127.8750     2.2460    70.4850    23.1010     9.2840     8.3060     9.1610   -21.3690 
  128.0000     2.2240    69.5590    23.3110    10.3720     8.6430     9.5300   -21.4600 
  128.1250     2.1880    69.7460    23.4060    11.5520     8.9580     9.8570   -21.5090 
  128.2500     2.1620    69.9660    23.4920    12.4010     9.1960    10.0820   -21.5200 
  128.3750     2.1600    70.0300    23.6650    12.7730     9.3240    10.1800   -21.4990 
  128.5000     2.1740    70.1530    23.8680    12.7260     9.3390    10.1620   -21.4510 
  128.6250     2.1820    70.4280    23.9450    12.2320     9.2700    10.0740   -21.3830 
  128.7500     2.1810    71.3900    23.8860    11.7350     9.1920    10.0030   -21.3070 
  128.8750     2.1810    73.3180    23.7220    11.6030     9.1590    10.0010   -21.2370 
  129.0000     2.1850    75.7080    23.4500    11.7940     9.2000    10.0920   -21.1850 
  129.1250     2.1940    77.4670    23.1530    11.8400     9.3400    10.2820   -21.1750 
  129.2500     2.2110    78.1250    22.9250    11.6380     9.5570    10.5380   -21.2100 
  129.3750     2.2350    78.0230    22.7770    11.4910     9.8350    10.8350   -21.2900 
  129.5000     2.2550    77.8700    22.6620    11.6120    10.1360    11.1380   -21.4030 
  129.6250     2.2520    77.7150    22.6320    11.9590    10.4090    11.4000   -21.5360 
  129.7500     2.2310    76.4490    22.6390    12.3640    10.6190    11.5970   -21.6770 
  129.8750     2.2010    73.5200    22.6720    12.7230    10.7430    11.7060   -21.8170 
  130.0000     2.1720    70.6680    22.7920    12.9570    10.7710    11.7150   -21.9500 
  130.1250     2.1560    71.0280    22.9750    12.9860    10.6990    11.6250   -22.0680 
  130.2500     2.1540    73.9650    23.2090    12.9250    10.5800    11.4880   -22.1660 
  130.3750     2.1620    77.3340    23.3490    12.9100    10.4560    11.3490   -22.2420 
  130.5000     2.1740    79.6790    23.3590    12.9690    10.3620    11.2400   -22.3020 
  130.6250     2.1860    80.1050    23.2710    12.7200    10.3340    11.1940   -22.3560 
  130.7500     2.1970    78.1730    23.2050    12.1930    10.3710    11.2130   -22.4110 
  130.8750     2.2040    74.0060    23.1740    11.7640    10.4580    11.2810   -22.4720 
  131.0000     2.2040    69.3120    23.1630    11.7400    10.5710    11.3740   -22.5390 
  131.1250     2.1930    66.4650    23.1030    12.0600    10.6790    11.4520   -22.6140 
  131.2500     2.1800    65.1110    23.0070    12.3590    10.7580    11.4900   -22.6870 
  131.3750     2.1770    63.9450    22.9650    12.4820    10.7940    11.4720   -22.7570 
  131.5000     2.1910    62.8170    23.1010    12.4660    10.7840    11.4020   -22.8260 
  131.6250     2.2080    63.0120    23.4410    12.5260    10.7360    11.3010   -22.8900 
  131.7500     2.2100    65.1120    23.8150    12.7540    10.6760    11.2010   -22.9390 
  131.8750     2.1970    68.8550    24.0350    13.0190    10.6330    11.1430   -22.9570 
  132.0000     2.1800    72.9900    23.9990    13.1720    10.6390    11.1580   -22.9320 
  132.1250     2.1700    75.5820    23.8520    13.2270    10.7090    11.2330   -22.8500 
  132.2500     2.1690    76.4970    23.7760    13.1940    10.7670    11.2610   -22.7240 
  132.3750     2.1750    76.4800    23.7600    13.0850    10.7140    11.1280   -22.5560 
  132.5000     2.1780    75.3630    23.7920    13.0240    10.4580    10.7480   -22.3460 
  132.6250     2.1740    73.0720    23.8760    13.1340     9.9030    10.0420   -22.0970 
  132.7500     2.1830    73.1550    23.9090    13.2540     9.1110     9.1060   -21.8400 
  132.8750     2.2190    78.4990    23.7920    12.8760     8.1840     8.0730   -21.6020 
  133.0000     2.2750    87.1420    23.5710    11.3580     7.2670     7.1140   -21.3970 
  133.1250     2.3230    92.9910    23.4690     8.9550     6.5150     6.4000   -21.2400 
  133.2500     2.3380    93.9770    23.4730     7.1430     5.9770     5.9480   -21.1300 
  133.3750     2.3210    92.2400    23.5420     6.5770     5.6640     5.7390   -21.0680 
  133.5000     2.2900    90.4150    23.6440     6.7080     5.5370     5.7060   -21.0500 
  133.6250     2.2660    89.2200    23.7290     7.0040     5.5310     5.7570   -21.0710 
