~V
VERS. 2.00: Ver 2.00
~W
STRT.M 55.0000:
STOP.M 274.0000:
STEP.M 0.1250:
NULL. -999.2500:
UWI. DF5018:
~C
DEPT.M :
SP.MV :
GR.API :
CALI.CM :
RXO.OHMM :
RI. :
RML.OHMM :
DEN.GM/CC :
~A
# ...
  145.0000   -22.7330    62.4800    24.2920     8.4230     6.0820     7.4190     2.1590 
  145.1250   -23.0590    58.1710    24.2920     9.7120     7.0270     8.8410     2.1440 
  145.2500   -23.5010    60.9460    24.2920    10.4990     8.0280    10.2300     2.1350 
  145.3750   -23.9110    64.6450    24.2920    11.0670     8.8580    11.2180     2.1170 
  145.5000   -24.3430    65.1240    24.2920    11.5420     9.3830    11.6620     2.0950 
  145.6250   -24.6390    63.6130    24.2920    11.8660     9.5930    11.6850     2.0890 
  145.7500   -24.8490    63.7790    24.2920    11.9540     9.6490    11.6110     2.0970 
  145.8750   -24.9270    65.1320    24.2920    11.8910     9.6300    11.5570     2.1110 
  146.0000   -24.9350    66.4100    24.2920    11.7840     9.5710    11.5410     2.1210 
  146.1250   -24.9180    68.6240    24.2920    11.5950     9.4760    11.5290     2.1280 
  146.2500   -24.8250    71.9510    24.2920    11.2360     9.3500    11.4850     2.1320 
  146.3750   -24.7590    76.3740    24.2920    10.9150     9.2040    11.4170     2.1310 
  146.5000   -24.6240    80.5630    24.2920    10.8490     9.0690    11.3540     2.1320 
  146.6250   -24.5530    80.9520    24.2920    10.9770     8.9790    11.3400     2.1510 
  146.7500   -24.4380    77.8800    24.2920    11.1190     8.9440    11.3740     2.1810 
  146.8750   -24.3260    73.8120    24.2920    11.2700     8.9620    11.4240     2.1960 
  147.0000   -24.1110    70.1370    24.2920    11.4440     9.0000    11.4290     2.1840 
  147.1250   -23.8630    66.9530    24.2920    11.5640     9.0020    11.3110     2.1580 
  147.2500   -23.5960    65.4610    24.3000    11.6130     8.9870    11.1410     2.1460 
  147.3750   -23.2190    65.7930    24.3290    11.5210     9.0600    11.1000     2.1520 
  147.5000   -22.8240    66.5750    24.3940    11.3190     9.3140    11.3540     2.1670 
  147.6250   -22.2510    65.6590    24.4300    11.5470     9.7360    11.9140     2.1940 
  147.7500   -21.6470    64.6730    24.4750    13.1510    10.0810    12.4000     2.2410 
  147.8750   -20.9470    67.2220    24.5820    16.1390    10.0610    12.3570     2.3050 
  148.0000   -20.2800    74.1240    24.7660    17.2510     9.4850    11.4870     2.3630 
  148.1250   -19.6020    81.5440    24.9310    13.6490     8.3930     9.9040     2.3840 
  148.2500   -18.9600    86.5230    25.0320     9.1910     7.2240     8.3040     2.3770 
  148.3750   -18.4410    90.9850    25.0650     7.0990     6.2580     7.0870     2.3660 
  148.5000   -17.9560    95.2810    25.0700     6.6100     5.6180     6.3870     2.3650 
  148.6250   -17.6640    94.7330    25.0700     6.4640     5.3540     6.2070     2.3600 
  148.7500   -17.4160    91.3210    25.0700     6.3600     5.3110     6.2790     2.3360 
  148.8750   -17.3070    88.8210    25.0670     6.4230     5.3470     6.3840     2.2950 
  149.0000   -17.2300    89.4810    25.0420     6.5920     5.3340     6.3540     2.2620 
  149.1250   -17.1920    92.3350    24.9660     6.5720     5.2130     6.1320     2.2680 
  149.2500   -17.1330    94.7860    24.8680     6.2140     5.0300     5.8360     2.3020 
  149.3750   -17.0000    96.2040    24.8100     5.6900     4.8290     5.5530     2.3350 
  149.5000   -16.8710    97.9860    24.7940     5.3760     4.6460     5.3440     2.3470 
  149.6250   -16.7180   101.0070    24.7940     5.4170     4.5170     5.2380     2.3410 
  149.7500   -16.6080   101.9690    24.7940     5.5470     4.4270     5.1820     2.3330 
  149.8750   -16.4660   101.7480    24.7940     5.4580     4.3310     5.1100     2.3300 
  150.0000   -16.3700   102.7020    24.7930     5.1860     4.1800     4.9560     2.3330 
  150.1250   -16.2540   103.0870    24.7920     4.9880     3.9600     4.6920     2.3430 
  150.2500   -16.2210   101.5750    24.7930     4.9170     3.7380     4.4100     2.3500 
  150.3750   -16.2100   102.2470    24.7890     4.8340     3.5930     4.2250     2.3550 
  150.5000   -16.2850   103.6080    24.7730     4.7360     3.5810     4.2360     2.3670 
  150.6250   -16.4430    98.4910    24.7390     4.9610     3.7440     4.5240     2.3900 
  150.7500   -16.6200    91.6210    24.7160     5.6160     4.0130     4.9860     2.4070 
  150.8750   -16.9030    92.7160    24.6810     6.3390     4.3040     5.4730     2.4010 
  151.0000   -17.2120    99.2720    24.6180     6.7240     4.5140     5.8000     2.3720 
  151.1250   -17.6910    98.7720    24.5550     6.4940     4.5620     5.8160     2.3340 
  151.2500   -18.1730    92.1880    24.5210     6.0990     4.5160     5.6630     2.3110 
  151.3750   -18.7510    88.5810    24.5120     5.6860     4.4770     5.5440     2.3090 
  151.5000   -19.3470    90.3840    24.5110     5.7300     4.5450     5.6340     2.3140 
  151.6250   -19.9400    91.0330    24.5110     6.4740     4.8120     6.0640     2.2980 
  151.7500   -20.5490    88.3430    24.5110     7.4760     5.2530     6.7510     2.2590 
  151.8750   -21.0840    86.7010    24.5180     8.2730     5.8320     7.6010     2.2180 
  152.0000   -21.6040    86.8890    24.5380     8.7450     6.4910     8.5070     2.1920 
  152.1250   -21.9580    85.0340    24.5810     9.3020     7.1560     9.3620     2.1900 
  152.2500   -22.2780    82.1480    24.5980    11.0670     7.7520    10.1080     2.1980 
  152.3750   -22.4700    81.9380    24.5800    15.5090     8.2150    10.6890     2.2030 
  152.5000   -22.5800    84.3220    24.5130    20.4920     8.4800    11.0140     2.2020 
  152.6250   -22.5950    83.5320    24.4370    19.6790     8.4550    10.9460     2.1940 
  152.7500   -22.5400    78.5980    24.3730    14.5910     8.1970    10.5690     2.1890 
  152.8750   -22.4630    74.8630    24.3360    10.4380     7.7940    10.0140     2.1930 
  153.0000   -22.3180    77.0980    24.3160     8.7330     7.3590     9.4440     2.2040 
  153.1250   -22.2230    82.4450    24.3050     8.3250     7.0070     9.0080     2.2130 
  153.2500   -22.0620    84.2190    24.2960     8.1470     6.7570     8.7190     2.2150 
  153.3750   -21.9460    84.1800    24.2930     7.9960     6.5930     8.5370     2.2140 
  153.5000   -21.8050    85.9020    24.2920     7.8700     6.4840     8.4120     2.2150 
  153.6250   -21.7180    87.4270    24.2920     7.8410     6.4240     8.3340     2.2220 
  153.7500   -21.6250    85.5700    24.2920     7.8430     6.4170     8.3160     2.2310 
  153.8750   -21.5690    83.9280    24.2920     7.7880     6.4740     8.3760     2.2330 
  154.0000   -21.5860    85.4580    24.2920     7.7330     6.5740     8.4930     2.2290 
  154.1250   -21.5430    86.0210    24.2920     7.7940     6.6510     8.5770     2.2290 
  154.2500   -21.5860    84.8120    24.2920     7.8250     6.6430     8.5340     2.2380 
  154.3750   -21.6190    85.0890    24.2920     7.5940     6.5250     8.3190     2.2550 
  154.5000   -21.6960    87.8510    24.2920     7.0810     6.3050     7.9470     2.2770 
  154.6250   -21.8020    88.3580    24.2920     6.5850     6.0180     7.4880     2.3030 
  154.7500   -21.9910    86.7670    24.2920     6.3000     5.7370     7.0620     2.3260 
  154.8750   -22.2350    88.4630    24.2920     6.1890     5.5150     6.7500     2.3390 
  155.0000   -22.4580    93.5890    24.2920     6.1560     5.3910     6.6080     2.3370 
  155.1250   -22.7940    97.2860    24.2940     6.1040     5.4220     6.7050     2.3160 
  155.2500   -23.0830    96.9610    24.3050     6.1570     5.5860     6.9960     2.2860 
  155.3750   -23.3910    93.5860    24.3310     6.4870     5.8410     7.4120     2.2620 
  155.5000   -23.6540    90.0560    24.3510     7.0530     6.0890     7.8070     2.2630 
  155.6250   -23.8120    89.8560    24.3570     7.3730     6.1770     7.9170     2.2900 
  155.7500   -23.8310    92.0920    24.3570     7.2910     6.0520     7.6400     2.3160 
  155.8750   -23.7300    92.4970    24.3570     6.9090     5.7730     7.0940     2.3280 
  156.0000   -23.5870    89.2780    24.3570     6.4650     5.5080     6.5970     2.3360 
  156.1250   -23.3720    85.0870    24.3570     6.3000     5.5130     6.5850     2.3620 
