~V
VERS. 2.00: Ver 2.00
~W
STRT.M 55.0000:
STOP.M 277.0000:
STEP.M 0.1250:
NULL. -999.2500:
UWI. DF5040:
~C
DEPT.M :
GR.API :
CALI.CM :
RXO.OHMM :
RI. :
RML.OHMM :
DEN.GM/CC :
SP.MV :
~A
   55.0000    46.0870    25.2680     0.4820     0.0630 510023.5310  -999.2500  -999.2500 
   55.1250    48.3310    25.2680     0.4550     0.0660 510023.5310  -999.2500  -999.2500 
   55.2500    51.3800    25.2680     0.4300     0.0670 510023.5310  -999.2500  -999.2500 
   55.3750    53.3000    25.2680     0.4200     0.0690 510023.5310  -999.2500    59.4770 
   55.5000    53.6860    25.2680     0.4230     0.0750 510023.5310  -999.2500    59.4770 
   55.6250    53.7690    25.2680     0.4150     0.0810 510023.5310  -999.2500    59.3220 
   55.7500    53.6320    25.2680     0.3880     0.0850 510023.5310  -999.2500    59.2180 
   55.8750    52.4510    25.2680     0.3630     0.0860 510023.5310  -999.2500    59.2110 
   56.0000    50.0610    25.2680     0.4090     0.0820 510023.5310  -999.2500    59.3270 
   56.1250    46.9840    25.2680     0.6490     0.0750 510023.5310  -999.2500    59.5850 
   56.2500    44.6940    25.2680     1.0670     0.0690 510023.5310  -999.2500    59.9290 
   56.3750    44.6990    25.2680     1.4870     0.0650 510023.5310  -999.2500    60.3110 
   56.5000    46.9030    25.2680     1.6800     0.0610 510023.5310  -999.2500    60.6890 
   56.6250    48.8120    25.2680     1.5580     0.0570 510023.5310  -999.2500    61.0320 
   56.7500    49.4330    25.2680     1.2760     0.0510 510023.5310  -999.2500    61.3470 
   56.8750    49.4850    25.2670     0.9930     0.0400 510023.5310  -999.2500    61.6550 
   57.0000    49.2100    25.2540     0.8160     0.0260 510023.5310     2.2380    61.9830 
   57.1250    48.3730    25.2040     0.8190     0.0130 510023.5310     2.2380    62.3730 
   57.2500    47.7790    25.1370     0.9360     0.0000 510023.5310     2.2230    62.8390 
   57.3750    47.7850    25.1060     1.0790    -0.0100 510023.5310     2.2010    63.3820 
   57.5000    47.6870    25.0970     1.1760    -0.0130 510023.5310     2.2050    63.9700 
   57.6250    46.5880    25.0660     1.1920    -0.0060 510023.5310     2.2180    64.5320 
   57.7500    45.5260    25.0440     1.1550     0.0060 510023.5310     2.2120    64.9890 
   57.8750    45.4420    25.0080     1.0760     0.0240 510023.5310     2.1850    65.2740 
   58.0000    45.7600    24.9850     0.9510     0.0450 510023.5310     2.1530    65.3420 
   58.1250    44.9320    24.9690     0.7900     0.0630 510023.5310     2.1290    65.1350 
   58.2500    42.8930    24.9640     0.6550     0.0780 510023.5310     2.1130    64.7090 
   58.3750    40.8400    24.9610     0.5860     0.0900 510023.5310     2.1010    64.1010 
   58.5000    40.2390    24.9580     0.5710     0.1020 510023.5310     2.0930    63.3680 
   58.6250    42.1510    24.9590     0.5720     0.1090 510023.5310     2.0910    62.5620 
   58.7500    45.1810    24.9380     0.5650     0.1070 510023.5310     2.0940    61.7340 
   58.8750    47.1000    24.9200     0.5490     0.0970 471772.2810     2.0910    60.8810 
   59.0000    46.8910    24.8800     0.5250     0.0830 357017.9690     2.0770    59.9640 
   59.1250    45.6800    24.8330     0.4820     0.0660 127508.6410     2.0740    58.8700 
   59.2500    45.3120    24.7590     0.4230     0.0440 25502.8130     2.0930    57.5020 
   59.3750    45.9320    24.7070     0.3660     0.0160     0.7050     2.1270    55.7270 
   59.5000    47.0130    24.6750     0.3410    -0.0090     0.4210     2.1690    53.3950 
   59.6250    48.6010    24.6260     0.3410    -0.0240     0.3960     2.2130    50.1950 
   59.7500    50.5190    24.5620     0.3400    -0.0250     0.3900     2.2300    46.0890 
   59.8750    52.9900    24.4750     0.3560    -0.0020     0.3930     2.2150    41.0060 
   60.0000    57.1780    24.3330     0.5290     0.0710     0.4140     2.2160    34.9740 
   60.1250    64.3800    23.9410     1.3460     0.2680     0.4870     2.2870    28.0350 
   60.2500    71.6250    23.3500     3.3280     0.6370     0.6600     2.3750    20.5910 
   60.3750    74.8460    22.9030     6.7430     1.2180     1.0140     2.4120    12.9290 
   60.5000    72.6630    22.8970    11.1590     2.0010     1.6150     2.3840     5.3490 
   60.6250    68.2720    23.0490    13.5520     2.9000     2.4480     2.3160    -1.7490 
   60.7500    66.5830    23.0350    12.7130     3.7400     3.2280     2.2470    -8.1380 
   60.8750    68.6990    22.8730    10.1080     4.3900     3.7160     2.2020   -13.6350 
   61.0000    72.3770    22.6950     8.1390     4.7920     3.8930     2.1880   -18.1650 
   61.1250    73.8580    22.6340     7.4200     4.9560     3.9080     2.1880   -21.6190 
   61.2500    72.9690    22.7120     7.1890     5.0190     3.9320     2.1770   -24.2960 
   61.3750    72.1510    22.8110     7.0500     5.0500     4.0040     2.1540   -26.3500 
   61.5000    72.9330    22.8500     6.9320     5.0850     4.1150     2.1380   -27.9250 
   61.6250    74.1040    22.8450     6.8900     5.1250     4.2470     2.1340   -29.0950 
   61.7500    73.6270    22.8300     6.9210     5.1560     4.3870     2.1290   -30.0190 
   61.8750    71.3910    22.8230     6.9930     5.1750     4.5430     2.1190   -30.7640 
   62.0000    68.4470    22.7990     7.0320     5.1870     4.7060     2.1140   -31.3800 
   62.1250    65.3710    22.7550     6.9740     5.2080     4.8420     2.1250   -31.8940 
   62.2500    62.2130    22.6690     6.8520     5.2530     4.9800     2.1480   -32.3460 
   62.3750    59.7330    22.5930     6.8060     5.3410     5.1540     2.1770   -32.7480 
   62.5000    58.9730    22.5450     6.9130     5.4810     5.3660     2.2040   -33.1070 
   62.6250    60.1100    22.5900     7.2200     5.6690     5.5810     2.2130   -33.4160 
   62.7500    61.8870    22.6970     7.6700     5.8770     5.7320     2.2100   -33.6850 
   62.8750    63.7030    22.8430     8.2350     6.0680     5.7980     2.2180   -33.9110 
   63.0000    65.2540    22.9310     8.9370     6.1930     5.7600     2.2530   -34.0950 
   63.1250    66.2570    22.8390     9.6750     6.1960     5.6090     2.2880   -34.2280 
   63.2500    67.1150    22.6260     9.9030     6.0910     5.4160     2.2850   -34.3170 
   63.3750    67.7410    22.4180     9.3400     5.9060     5.2270     2.2430   -34.3600 
   63.5000    67.4810    22.3040     8.3820     5.6860     5.0780     2.1870   -34.3530 
   63.6250    66.4340    22.3480     7.8000     5.4890     5.0200     2.1480   -34.2820 
   63.7500    65.8400    22.4460     7.5600     5.3470     5.0370     2.1300   -34.1460 
   63.8750    65.8140    22.5740     7.5360     5.2670     5.0990     2.1290   -33.9330 
   64.0000    65.9030    22.6890     7.6550     5.2390     5.1780     2.1380   -33.6340 
   64.1250    66.0770    22.7420     7.9090     5.2430     5.2340     2.1500   -33.2210 
   64.2500    66.8230    22.7690     8.2310     5.2520     5.2520     2.1600   -32.7090 
   64.3750    68.2770    22.7820     8.5290     5.2820     5.2700     2.1620   -32.0960 
   64.5000    70.0380    22.7330     8.7200     5.3520     5.3380     2.1500   -31.3880 
   64.6250    71.6060    22.6250     8.7210     5.4780     5.4890     2.1310   -30.5770 
   64.7500    73.1300    22.5050     8.5890     5.6420     5.6840     2.1220   -29.6960 
   64.8750    75.4320    22.4620     8.6220     5.8300     5.8880     2.1380   -28.7710 
   65.0000    78.9350    22.5190     9.5790     6.0090     6.0530     2.1880   -27.8360 
   65.1250    82.6620    22.7380    11.7230     6.1320     6.1460     2.2610   -26.9320 
   65.2500    85.5170    23.1000    13.1560     6.1890     6.1810     2.3160   -26.0860 
   65.3750    87.5720    23.4590    11.8660     6.1790     6.1560     2.3260   -25.3150 
   65.5000    88.7450    23.6470     8.6050     6.1220     6.0830     2.2980   -24.6180 
   65.6250    88.8980    23.4900     6.8650     6.0460     5.9800     2.2600   -23.9920 
   65.7500    89.6250    23.1880     6.5220     5.9650     5.8590     2.2280   -23.4030 
   65.8750    92.8370    22.8730     6.8860     5.8670     5.7200     2.2050   -22.8320 
   66.0000    98.2740    22.7130     7.1370     5.7470     5.5630     2.1990   -22.2700 
   66.1250   104.0870    22.9070     6.7760     5.5960     5.3980     2.2200   -21.7200 
