~V
VERS. 2.00: Ver 2.00
~W
STRT.M 60.0000:
STOP.M 261.0000:
STEP.M 0.1250:
NULL. -999.2500:
UWI. DF5055:
~C
DEPT.M :
SP.MV :
GR.API :
RML.OHMM :
RI. :
RXO.OHMM :
CALI.CM :
DEN.GM/CC :
~A
# ...
  161.2500   -16.3140    62.7750    96.9260    92.4920    86.4690    25.5690     2.2300 
  161.3750   -16.4070    64.0900    93.7240    89.7510    81.8830    25.6900     2.2330 
  161.5000   -16.5110    63.5800    89.5580    86.0180    76.7930    25.8150     2.2350 
  161.6250   -16.6300    64.0390    85.6120    82.3050    70.9220    25.7990     2.2380 
  161.7500   -16.8160    68.5890    83.4370    80.0270    64.7050    25.6760     2.2430 
  161.8750   -16.9650    72.9340    84.4860    80.5240    61.3620    25.5370     2.2480 
  162.0000   -17.0020    71.9290    89.8120    84.8530    64.6060    25.4430     2.2500 
  162.1250   -17.0390    66.8660   100.0070    93.7720    75.7600    25.3570     2.2470 
  162.2500   -17.2270    63.3300   112.1530   104.8590    97.4530    25.1800     2.2390 
  162.3750   -17.4410    62.1880   122.2560   114.7210   143.4360    24.7080     2.2280 
  162.5000   -17.6060    61.6210   125.9750   119.5140   161.2530    23.8160     2.2180 
  162.6250   -17.8010    62.3170   120.6710   116.4100   101.3600    22.8930     2.2170 
  162.7500   -17.9780    64.1690   111.2260   108.9840    55.2950    22.4400     2.2220 
  162.8750   -18.1130    63.9160   102.0280   100.9340    42.7670    22.7310     2.2280 
  163.0000   -18.3080    63.0050    95.6940    94.8740    44.9010    23.6080     2.2280 
  163.1250   -18.4950    64.7390    93.1860    92.0850    59.8520    24.6520     2.2190 
  163.2500   -18.5250    66.8410    92.7810    91.3260    75.5990    25.2860     2.2080 
  163.3750   -18.5550    67.7260    92.9220    91.2540    80.2040    25.4990     2.2000 
  163.5000   -18.6450    68.5590    92.3570    90.6560    74.9960    25.5050     2.2020 
  163.6250   -18.6430    69.1600    90.5670    88.8950    68.7290    25.4010     2.2130 
  163.7500   -18.5710    67.3870    88.3740    86.6210    70.1310    25.3080     2.2260 
  163.8750   -18.5460    64.0350    86.7290    84.6880    71.5780    25.2160     2.2370 
  164.0000   -18.5460    62.2460    86.6770    84.0660    68.6830    25.1280     2.2470 
  164.1250   -18.5660    62.8940    90.0510    86.3950    65.9910    25.0130     2.2550 
  164.2500   -18.6240    64.8610    97.9570    92.6970    72.7310    24.9220     2.2580 
  164.3750   -18.6340    66.4930   111.9960   104.4940    86.3070    24.8380     2.2530 
  164.5000   -18.5960    65.9830   133.5030   123.0930   111.7720    24.7190     2.2340 
  164.6250   -18.6340    62.6920   163.1470   149.0140   160.4000    24.5620     2.2060 
  164.7500   -18.7570    59.6450   194.8470   176.7010   240.7160    24.5790     2.1800 
  164.8750   -18.8110    58.8110   220.0150   198.9020   306.6660    24.8280     2.1690 
  165.0000   -18.7780    59.7820   230.7890   209.1680   289.7860    25.1710     2.1720 
  165.1250   -18.7940    61.0690   225.0920   205.1920   195.0380    25.3810     2.1830 
  165.2500   -18.8900    61.2610   213.4830   195.2670   141.1280    25.4680     2.1890 
  165.3750   -19.0030    59.2210   202.4290   185.0850   142.8150    25.5270     2.1860 
  165.5000   -19.0870    57.8700   194.1350   177.1040   191.0530    25.5920     2.1810 
  165.6250   -19.1520    61.0650   187.9970   171.2410   179.5590    25.5470     2.1830 
  165.7500   -19.1820    63.9670   182.3550   166.0780   131.9630    25.4370     2.1930 
  165.8750   -19.1900    62.0850   176.9080   161.2260   101.7140    25.3080     2.2090 
  166.0000   -19.2130    58.7220   172.2730   157.0600    90.4770    25.1740     2.2230 
  166.1250   -19.2520    57.9970   169.9820   154.8710    97.5660    25.0870     2.2310 
  166.2500   -19.2450    58.0520   170.3160   155.0480   105.4870    25.0770     2.2310 
  166.3750   -19.2060    58.0800   173.1060   157.5360   117.3690    25.1210     2.2260 
  166.5000   -19.1990    58.5420   178.1780   162.1740   133.6590    25.2040     2.2170 
  166.6250   -19.1240    58.8380   186.2230   169.4930   126.6360    25.2920     2.2020 
  166.7500   -19.0130    59.5620   196.8450   179.0600   115.8030    25.4320     2.1740 
  166.8750   -19.0080    60.7280   208.5030   189.5500   118.7660    25.6040     2.1310 
  167.0000   -19.0730    61.1670   216.8590   197.4040   180.8140    25.7460     2.0850 
  167.1250   -19.0100    60.2670   212.3670   194.8370   252.4270    25.8710     2.0820 
  167.2500   -18.8870    60.5490   192.7380   179.5030   218.4330    25.8420     2.1500 
  167.3750   -18.8430    63.0530   162.6280   154.3390   175.0870    25.5940     2.2790 
  167.5000   -18.8760    66.1850   131.0430   126.4450   115.6800    25.2350     2.4180 
  167.6250   -18.9760    68.7290   106.5570   103.6360    68.5390    25.0390     2.4910 
  167.7500   -19.1460    70.5880    90.4310    88.0890    52.4730    24.9570     2.4780 
  167.8750   -19.3110    72.1070    81.6570    79.3510    46.0500    24.8910     2.4050 
  168.0000   -19.4030    73.1680    78.3400    75.8550    40.8770    24.8360     2.3200 
  168.1250   -19.5200    71.3080    78.7870    76.1930    42.2430    24.7930     2.2650 
  168.2500   -19.7120    69.1370    80.4110    78.0180    56.4830    24.7750     2.2410 
  168.3750   -19.9240    69.9830    81.6350    79.8540    67.7830    24.7680     2.2330 
  168.5000   -20.0060    71.0600    81.4450    80.5820    60.6090    24.7670     2.2330 
  168.6250   -19.9610    67.8200    79.5900    79.6500    52.0970    24.7690     2.2370 
  168.7500   -19.9470    63.7340    77.1530    77.8730    49.9680    24.7690     2.2440 
  168.8750   -19.9270    63.0830    75.0330    76.0680    47.8030    24.7570     2.2520 
  169.0000   -19.9290    64.4420    73.9040    74.9160    43.7850    24.7320     2.2570 
  169.1250   -19.9890    63.7690    74.4850    75.1030    42.3260    24.7070     2.2570 
  169.2500   -20.0100    65.1310    76.6360    76.6050    44.7320    24.6680     2.2530 
  169.3750   -19.9620    69.6170    79.5450    78.7950    46.3790    24.6100     2.2460 
  169.5000   -19.9780    73.0090    81.3020    80.0080    46.5980    24.5260     2.2410 
  169.6250   -20.0980    72.2400    79.0760    77.6640    44.4000    24.4280     2.2420 
  169.7500   -20.1400    71.6250    73.2890    72.0480    43.4660    24.3000     2.2490 
  169.8750   -20.1400    73.9090    66.2370    65.1280    40.6920    24.1470     2.2630 
  170.0000   -20.1400    76.6350    61.0580    59.6090    35.0690    23.9650     2.2800 
  170.1250   -20.1430    75.2080    61.5120    58.7220    30.8670    23.8250     2.2930 
  170.2500   -20.1850    72.3640    68.4590    63.3760    33.6180    23.7200     2.2940 
  170.3750   -20.2750    70.4340    82.4800    74.2390    39.9460    23.7410     2.2810 
  170.5000   -20.3080    69.5250   103.4430    91.3430    50.6800    24.0060     2.2530 
  170.6250   -20.2700    68.6850   115.6980   113.5320    71.9730    24.5170     2.2150 
  170.7500   -20.3220    66.8680   138.3740   135.3000    86.7070    25.1310     2.1780 
  170.8750   -20.4270    65.2350   155.0760   151.7390    90.7960    25.6540     2.1460 
  171.0000   -20.4910    63.3890   164.0000   160.8490   104.0270    26.0020     2.1230 
  171.1250   -20.4820    62.5640   167.0730   163.8870   132.7970    26.1940     2.1140 
  171.2500   -20.4700    62.4200   168.6580   164.9580   140.4040    26.2250     2.1150 
  171.3750   -20.4730    62.0200   170.7820   166.1740   136.7850    26.1500     2.1220 
  171.5000   -20.5610    61.0170   174.4190   168.6780   143.1200    26.0000     2.1310 
  171.6250   -20.6430    60.7660   179.4870   172.5990   150.0250    25.9220     2.1370 
  171.7500   -20.6060    63.7620   184.4790   176.6780   162.9850    25.8950     2.1390 
  171.8750   -20.5640    66.2740   187.7650   179.5600   169.4110    25.8690     2.1410 
  172.0000   -20.5960    65.5580   187.7910   179.9330   180.2330    25.8010     2.1490 
  172.1250   -20.5960    65.2190   183.0290   176.4300   183.1770    25.7990     2.1620 
  172.2500   -20.4980    67.7730   174.5390   169.6980   177.4700    25.8450     2.1780 
  172.3750   -20.3730    70.7200   163.5490   160.5300   160.2150    25.8590     2.1920 
