~V
VERS. 2.00: Ver 2.00
~W
STRT.M 55.0000:
STOP.M 273.0000:
STEP.M 0.1250:
NULL. -999.2500:
UWI. DF5004:
~C
DEPT.M :
GR.API :
CALI.CM :
RXO.OHMM :
RI. :
RML.OHMM :
DEN.GM/CC :
SP.MV :
~A
# ...
  246.2500    79.1720    24.0920   125.9820   100.9980   112.4360     2.5500   -16.9550 
  246.3750    81.4870    24.1640   122.4450   107.4340   121.4010     2.5440   -16.8020 
  246.5000    82.8070    24.0170   118.6050   109.9490   125.4440     2.5100   -16.6900 
  246.6250    82.5100    23.8780   109.0150   106.9020   121.8590     2.4590   -16.5460 
  246.7500    83.1070    23.5830    93.5590   100.6300   114.1900     2.4150   -16.4820 
  246.8750    84.4620    23.3960    77.5390    93.3840   105.7550     2.3940   -16.4140 
  247.0000    84.4140    23.4520    67.8560    86.9520    98.6750     2.3950   -16.3540 
  247.1250    82.2610    23.6240    62.9960    82.9230    94.4780     2.4080   -16.3050 
  247.2500    81.3670    23.5750    58.4630    81.8160    93.4160     2.4280   -16.2500 
  247.3750    83.2840    23.5120    62.8060    84.2220    95.8540     2.4630   -16.1820 
  247.5000    85.0060    23.5260    87.8530    90.4630   101.9350     2.5160   -16.0370 
  247.6250    82.1700    23.9090   150.9260   100.4860   111.6570     2.5750   -15.8480 
  247.7500    75.5680    24.4990   209.5290   111.5450   122.4610     2.6260   -15.6500 
  247.8750    68.4100    25.2860   234.1070   120.2920   130.7440     2.6610   -15.4240 
  248.0000    63.9910    25.7050   233.0030   123.2270   132.2690     2.6840   -15.2130 
  248.1250    63.8440    25.5340   220.3480   116.7920   122.7390     2.6970   -15.0080 
  248.2500    65.1920    25.1820   193.9710   102.2850   104.3790     2.7020   -14.7890 
  248.3750    65.0200    24.9080   153.4040    81.4790    80.4960     2.6940   -14.5670 
  248.5000    61.0790    24.7580   105.6790    58.4260    56.2780     2.6700   -14.4390 
  248.6250    52.5850    24.7820    65.3170    39.0990    37.2590     2.6260   -14.3200 
  248.7500    43.8060    24.7520    33.6300    25.3870    23.9570     2.5670   -14.1400 
  248.8750    39.5440    24.8450    16.7050    16.6010    15.3820     2.5000   -14.0280 
  249.0000    42.4840    24.9360     9.3980    11.3010    10.1860     2.4380   -13.8840 
  249.1250    49.6680    24.9390     7.4480     8.4690     7.4850     2.3970   -13.6900 
  249.2500    54.7340    24.8760     6.9510     6.8880     6.0870     2.3770   -13.5240 
  249.3750    56.3160    24.8170     6.9110     6.1210     5.5210     2.3660   -13.3800 
  249.5000    56.6300    24.7560     6.9030     5.8730     5.4460     2.3590   -13.2000 
  249.6250    58.1470    24.5930     6.8130     5.9340     5.6040     2.3550   -13.0650 
  249.7500    59.7650    24.5540     6.7620     6.0710     5.7600     2.3550   -13.0080 
  249.8750    60.2940    24.7000     7.0330     6.1810     5.8390     2.3560   -12.8970 
  250.0000    60.6650    24.8540     7.4290     6.2160     5.8330     2.3530   -12.8280 
  250.1250    61.2250    24.8750     7.4080     6.1540     5.7500     2.3480   -12.7980 
  250.2500    61.7000    24.8570     6.8470     6.0280     5.6280     2.3440   -12.7760 
  250.3750    61.3170    24.8380     6.2560     5.8690     5.4900     2.3420   -12.7640 
  250.5000    59.8300    24.7330     5.9270     5.7080     5.3640     2.3430   -12.7610 
  250.6250    60.0360    24.4370     5.7420     5.5590     5.2650     2.3500   -12.7510 
  250.7500    62.1380    24.1600     5.5610     5.4130     5.1840     2.3590   -12.7190 
  250.8750    63.2740    24.2490     5.4610     5.2590     5.1030     2.3650   -12.7600 
  251.0000    60.7480    24.6480     5.5360     5.0980     5.0090     2.3670   -12.7670 
  251.1250    57.0050    24.9350     5.7200     4.9530     4.9140     2.3640   -12.7340 
  251.2500    55.9920    25.0310     5.7210     4.8600     4.8640     2.3530   -12.8040 
  251.3750    57.7770    25.0430     5.6030     4.8430     4.9130     2.3350   -12.8600 
  251.5000    60.6300    25.0360     5.6160     4.9110     5.0940     2.3180   -12.8890 
  251.6250    61.9600    25.0260     5.8210     5.0670     5.4210     2.3200   -13.0330 
  251.7500    61.2710    24.9860     5.9770     5.2710     5.8180     2.3340   -13.1240 
  251.8750    60.3690    24.9520     6.0850     5.4910     6.2060     2.3490   -13.1420 
  252.0000    60.7340    24.9750     6.2740     5.6850     6.5090     2.3540   -13.2490 
  252.1250    61.3230    25.0320     6.5920     5.8020     6.6570     2.3520   -13.3530 
  252.2500    61.2870    25.0510     6.9850     5.8350     6.6820     2.3520   -13.3350 
  252.3750    61.0140    25.0570     7.3900     5.7940     6.6280     2.3580   -13.3390 
  252.5000    60.6400    25.0640     7.5180     5.7130     6.5470     2.3640   -13.3530 
  252.6250    61.0990    25.0630     7.1830     5.6350     6.4900     2.3580   -13.2350 
  252.7500    63.1040    25.0450     6.7200     5.5830     6.4720     2.3510   -13.1790 
  252.8750    65.4580    25.0170     6.4290     5.5580     6.4930     2.3530   -13.1640 
  253.0000    66.3170    25.0230     6.2920     5.5530     6.5390     2.3580   -13.0600 
  253.1250    64.9950    24.9860     6.3370     5.5620     6.5980     2.3490   -12.9750 
  253.2500    63.2410    24.9240     6.6030     5.5790     6.6590     2.3390   -12.9930 
  253.3750    61.5630    24.8510     6.9390     5.5990     6.7260     2.3430   -12.9980 
  253.5000    61.2440    24.8050     7.1160     5.6210     6.8080     2.3610   -13.0110 
  253.6250    62.7620    24.8270     7.1010     5.6480     6.9210     2.3760   -13.1640 
  253.7500    64.9590    24.8360     7.0410     5.6880     7.0610     2.3850   -13.2430 
  253.8750    66.7300    24.8400     6.9870     5.7430     7.2100     2.3950   -13.3130 
  254.0000    67.6660    24.8350     7.0810     5.8080     7.3500     2.4070   -13.5110 
  254.1250    67.2960    24.8140     7.5750     5.8630     7.4520     2.4100   -13.6500 
  254.2500    65.8920    24.7790     8.0190     5.8970     7.5160     2.3990   -13.7190 
  254.3750    64.7240    24.7490     8.1820     5.9160     7.5550     2.3790   -13.8650 
  254.5000    64.4260    24.7310     8.1690     5.9420     7.5860     2.3630   -13.9810 
  254.6250    64.0410    24.7190     8.0350     5.9850     7.6230     2.3630   -13.9370 
  254.7500    64.7920    24.7350     7.8620     6.0360     7.6760     2.3720   -13.9780 
  254.8750    66.3940    24.7450     7.7740     6.0850     7.7470     2.3790   -14.0380 
  255.0000    67.0530    24.7470     7.8400     6.1250     7.8340     2.3790   -13.9320 
  255.1250    66.7280    24.7450     8.0080     6.1580     7.9160     2.3770   -13.8360 
  255.2500    67.2210    24.7310     8.0430     6.1880     7.9760     2.3780   -13.8470 
  255.3750    67.3680    24.6960     7.9960     6.2120     8.0010     2.3820   -13.7750 
  255.5000    65.2230    24.6670     8.0100     6.2160     7.9890     2.3890   -13.6270 
  255.6250    63.6240    24.6560     8.0350     6.1820     7.9410     2.3950   -13.6120 
  255.7500    65.7280    24.6550     7.9670     6.1230     7.8640     2.3950   -13.5420 
  255.8750    69.4990    24.6550     7.9500     6.0520     7.7690     2.3890   -13.3990 
  256.0000    70.7740    24.6550     7.9740     5.9890     7.6780     2.3770   -13.3770 
  256.1250    68.7030    24.6550     7.6940     5.9560     7.6330     2.3640   -13.3560 
  256.2500    67.2120    24.6550     6.9120     5.9590     7.6470     2.3580   -13.2100 
  256.3750    66.8650    24.6550     6.2370     5.9910     7.7140     2.3690   -13.1360 
  256.5000    65.7700    24.6550     6.1900     6.0380     7.8160     2.3880   -13.1700 
  256.6250    63.5780    24.6550     6.9060     6.0820     7.9240     2.3990   -13.1270 
  256.7500    62.8610    24.6550     8.0860     6.1100     8.0070     2.3980   -13.1120 
  256.8750    62.5730    24.6550     9.1480     6.1100     8.0330     2.3970   -13.1840 
  257.0000    60.9960    24.6550     9.4190     6.0780     7.9780     2.3980   -13.1820 
  257.1250    59.9110    24.6550     8.5600     6.0070     7.8310     2.3910   -13.2080 
  257.2500    61.5100    24.6550     7.7410     5.9180     7.6470     2.3780   -13.3380 
  257.3750    64.4200    24.6550     7.1280     5.8420     7.4930     2.3690   -13.4030 
