~V
VERS. 2.00: Ver 2.00
~W
STRT.M 55.0000:
STOP.M 262.0000:
STEP.M 0.1250:
NULL. -999.2500:
UWI. DF5047:
~C
DEPT.M :
GR.API :
CALI.CM :
RXO.OHMM :
RI. :
RML.OHMM :
DEN.GM/CC :
SP.MV :
~A
# ...
  223.7500    71.3950    24.0290     8.9400    10.6140    10.0670     2.3860   -31.0550 
  223.8750    73.2300    24.2680     8.7270    10.4500     9.7050     2.3850   -31.1850 
  224.0000    75.2830    24.3810     8.9400    10.1640     9.3220     2.3890   -31.1340 
  224.1250    78.5140    24.4220     9.0310     9.8150     8.9750     2.3960   -31.0920 
  224.2500    82.9090    24.4170     8.4550     9.4650     8.7050     2.4020   -30.8970 
  224.3750    89.3150    24.3210     7.7130     9.1710     8.5610     2.4040   -30.7610 
  224.5000    97.1370    24.1560     7.5010     8.9890     8.5880     2.4000   -30.5180 
  224.6250   101.6080    23.9370     7.5880     9.0000     8.8450     2.3900   -30.2330 
  224.7500   101.2980    23.7020     8.1200     9.2030     9.2930     2.3810   -30.1190 
  224.8750    97.8910    23.5430     8.7070     9.5850     9.8870     2.3770   -29.9680 
  225.0000    93.5130    23.5700     9.3520    10.0890    10.5430     2.3780   -29.7620 
  225.1250    89.6430    23.7800     9.8590    10.5980    11.1180     2.3820   -29.6310 
  225.2500    86.7650    24.0120    10.3990    10.9840    11.5140     2.3820   -29.6460 
  225.3750    85.2370    24.2190    10.7470    11.1890    11.7100     2.3780   -29.7300 
  225.5000    84.0850    24.3840    10.7670    11.2400    11.7800     2.3710   -29.8230 
  225.6250    84.4390    24.4740    10.9360    11.2440    11.8790     2.3670   -29.9280 
  225.7500    86.5290    24.4970    11.0220    11.3420    12.1460     2.3630   -29.9420 
  225.8750    88.6740    24.4910    11.9920    11.6130    12.6420     2.3560   -29.9370 
  226.0000    88.2770    24.4980    14.7260    12.0660    13.3230     2.3470   -30.0910 
  226.1250    85.6060    24.5060    17.1440    12.6030    14.0210     2.3400   -30.1570 
  226.2500    85.5710    24.4700    17.4710    13.0260    14.5230     2.3390   -30.2740 
  226.3750    88.5530    24.3670    16.6580    13.2020    14.7220     2.3420   -30.3600 
  226.5000    91.1560    24.2460    14.9480    13.1160    14.6510     2.3480   -30.4150 
  226.6250    93.5500    24.0930    13.3930    12.8920    14.5180     2.3510   -30.6020 
  226.7500    95.7400    23.7930    11.5880    12.7950    14.6610     2.3480   -30.7740 
  226.8750    93.7490    23.3870    11.0290    13.0620    15.3950     2.3430   -30.9610 
  227.0000    87.2000    23.0870    12.9920    13.9270    17.0180     2.3370   -31.2010 
  227.1250    82.3590    23.1190    15.7350    15.8140    20.0090     2.3320   -31.4200 
  227.2500    81.9200    23.3340    19.7800    18.8560    24.3380     2.3280   -31.5640 
  227.3750    80.3300    23.5390    25.4770    23.1940    29.9310     2.3230   -31.7600 
  227.5000    73.6390    23.7160    35.3770    28.6880    36.3870     2.3160   -32.0190 
  227.6250    67.4610    23.9650    44.4660    34.7140    42.7980     2.3080   -32.2520 
  227.7500    66.9280    24.2540    47.7350    40.1620    48.1400     2.3010   -32.4670 
  227.8750    68.5370    24.4550    47.3410    44.3350    51.9030     2.2960   -32.6180 
  228.0000    66.6360    24.5140    48.6380    47.0980    54.1940     2.2950   -32.7200 
  228.1250    63.1800    24.4920    50.6910    48.7290    55.4830     2.2960   -32.9370 
  228.2500    64.5840    24.4640    52.0980    49.8500    56.3600     2.2980   -33.0350 
  228.3750    68.9060    24.4400    52.3960    50.5130    56.7600     2.2980   -33.0730 
  228.5000    71.6850    24.4310    51.5410    50.5110    56.3820     2.2950   -33.1470 
  228.6250    70.5270    24.4350    51.7800    49.5700    54.9440     2.2900   -33.0740 
  228.7500    69.0800    24.4360    50.6090    48.0540    52.9420     2.2840   -33.1020 
  228.8750    70.4470    24.4360    45.8830    46.3980    50.9170     2.2800   -33.1750 
  229.0000    72.2360    24.4360    40.0200    45.0270    49.3450     2.2790   -33.0860 
  229.1250    70.2930    24.4310    38.2860    44.3200    48.6020     2.2830   -32.9740 
  229.2500    66.2230    24.4280    39.4120    44.2180    48.5230     2.2890   -32.9610 
  229.3750    63.3940    24.4280    41.0410    44.5790    48.8990     2.2920   -32.9900 
  229.5000    62.9550    24.4220    41.4770    45.2020    49.5170     2.2910   -32.9400 
  229.6250    64.7740    24.4000    41.7530    45.9870    50.3540     2.2830   -32.8810 
  229.7500    67.9530    24.3720    42.0000    47.0430    51.6040     2.2700   -32.7480 
  229.8750    69.9600    24.3640    42.6530    48.6420    53.5580     2.2520   -32.5830 
  230.0000    68.7710    24.3770    44.4530    50.9520    56.3100     2.2290   -32.5620 
  230.1250    66.8900    24.3730    48.1600    53.8030    59.5430     2.2070   -32.4790 
  230.2500    67.1240    24.3400    55.3880    56.5090    62.4820     2.1950   -32.3850 
  230.3750    67.8330    24.3000    61.9120    58.6320    64.7110     2.1960   -32.2080 
  230.5000    65.7160    24.2330    63.0730    60.1760    66.3580     2.2080   -31.9760 
  230.6250    62.4190    23.9540    57.3830    61.7300    68.2410     2.2240   -31.8680 
  230.7500    64.0280    23.5260    51.7130    64.1210    71.2340     2.2340   -31.6500 
  230.8750    69.0580    23.1820    58.9410    67.8080    75.6940     2.2360   -31.4960 
  231.0000    71.6120    23.0770    77.9680    72.6070    81.2250     2.2340   -31.3420 
  231.1250    67.6870    23.1650    85.2660    77.3970    86.3840     2.2350   -31.0490 
  231.2500    63.0800    23.2880    79.6540    80.6920    89.5900     2.2420   -30.7590 
  231.3750    61.1310    23.4630    70.8650    81.7330    90.2310     2.2520   -30.4510 
  231.5000    61.8260    23.7060    68.4450    80.8590    89.0170     2.2620   -30.2380 
  231.6250    63.0850    23.9900    70.0920    79.4750    87.7510     2.2660   -29.9920 
  231.7500    63.5940    24.2270    70.6300    79.0730    87.8260     2.2640   -29.6640 
  231.8750    63.7210    24.3560    70.0620    80.0090    89.3280     2.2610   -29.3090 
  232.0000    63.1730    24.3770    73.0250    81.7660    91.4220     2.2610   -28.8960 
  232.1250    62.5140    24.3390    80.3690    83.0520    92.4180     2.2690   -28.4500 
  232.2500    62.6940    24.3000    88.1280    82.6690    91.1290     2.2810   -28.0300 
  232.3750    64.4710    24.2730    85.5250    80.2130    87.4170     2.2960   -27.5720 
  232.5000    66.4890    24.2710    76.3330    76.3510    82.3770     2.3170   -27.1270 
  232.6250    66.7680    24.3130    65.4820    72.5770    77.8240     2.3470   -26.4590 
  232.7500    67.8310    24.3720    61.5500    69.7700    74.4150     2.3880   -25.8550 
  232.8750    73.2520    24.3980    58.8080    67.4800    71.3680     2.4360   -25.3100 
  233.0000    81.1880    24.3620    60.0550    64.3020    67.0650     2.4770   -24.6070 
  233.1250    83.6770    24.3000    67.3160    58.2740    59.6610     2.4880   -24.0580 
  233.2500    81.6700    24.2640    66.1720    49.8390    50.1000     2.4650   -23.5030 
  233.3750    79.0700    24.2490    49.8170    40.6430    40.2740     2.4200   -22.9120 
  233.5000    76.3140    24.2480    30.2230    32.5090    31.9490     2.3690   -22.2770 
  233.6250    71.4620    24.2800    20.1910    26.7480    26.2960     2.3250   -21.7140 
  233.7500    66.9910    24.3380    18.1970    22.9630    22.7460     2.2910   -21.3290 
  233.8750    65.0120    24.4000    17.6580    20.7350    20.8010     2.2700   -20.8600 
  234.0000    65.3030    24.4370    17.7250    19.6200    19.9380     2.2630   -20.5270 
  234.1250    66.9620    24.4380    17.1580    19.3240    19.7960     2.2660   -20.2630 
  234.2500    67.2210    24.4250    16.5260    19.4480    20.0020     2.2700   -19.8950 
  234.3750    64.1920    24.4230    16.5700    19.8620    20.4700     2.2690   -19.6560 
  234.5000    61.9210    24.4440    17.7750    20.4910    21.1400     2.2630   -19.4650 
  234.6250    64.4520    24.4600    18.5080    21.2020    21.8280     2.2570   -19.2840 
  234.7500    68.2550    24.4500    19.7010    21.6680    22.1720     2.2560   -19.0750 
  234.8750    69.9530    24.4430    20.8850    21.5220    21.8250     2.2600   -19.0170 
