~V
VERS. 2.00: Ver 2.00
~W
STRT.M 59.0000:
STOP.M 275.0000:
STEP.M 0.1250:
NULL. -999.2500:
UWI. DF5021:
~C
DEPT.M :
SP.MV :
GR.API :
CALI.CM :
RXO.OHMM :
RI. :
RML.OHMM :
DEN.GM/CC :
~A
# ...
  250.2500   -15.2030    75.0340    23.9340    10.8610    10.2620    11.2290     2.4440 
  250.3750   -15.2480    76.3310    23.8460    10.7810    10.2580    11.2250     2.4540 
  250.5000   -15.2130    77.4560    23.8360    10.8910    10.2830    11.2520     2.4630 
  250.6250   -15.1760    77.4740    23.8850    11.3180    10.3230    11.2940     2.4670 
  250.7500   -15.1360    76.4840    23.8990    11.8740    10.3610    11.3340     2.4610 
  250.8750   -15.0430    75.5950    23.8450    12.1960    10.3770    11.3510     2.4450 
  251.0000   -14.9680    75.1740    23.8550    12.1180    10.3650    11.3390     2.4230 
  251.1250   -14.8500    74.3450    23.9500    11.8250    10.3280    11.2990     2.4030 
  251.2500   -14.7260    72.9200    24.0410    11.6650    10.2700    11.2380     2.3920 
  251.3750   -14.6120    72.4330    24.0760    11.8140    10.2000    11.1630     2.3960 
  251.5000   -14.5190    73.4220    24.0780    11.9620    10.1310    11.0900     2.4070 
  251.6250   -14.4190    74.9010    24.0800    12.0020    10.0700    11.0250     2.4190 
  251.7500   -14.3290    75.7780    24.0860    11.9620    10.0260    10.9780     2.4290 
  251.8750   -14.2870    74.7380    24.0890    11.7210    10.0090    10.9600     2.4360 
  252.0000   -14.1890    72.4270    24.0860    11.2210    10.0210    10.9720     2.4360 
  252.1250   -14.1240    70.8890    24.0710    10.6430    10.0640    11.0180     2.4280 
  252.2500   -14.1220    72.5980    24.0470    10.2210    10.1440    11.1040     2.4170 
  252.3750   -14.0100    77.2360    24.0210    10.0790    10.2650    11.2320     2.4150 
  252.5000   -13.9500    80.8210    24.0360    10.1550    10.4050    11.3810     2.4200 
  252.6250   -14.0080    81.3660    24.0960    10.3140    10.5460    11.5320     2.4290 
  252.7500   -13.9360    79.5110    24.1980    10.4450    10.6730    11.6670     2.4390 
  252.8750   -13.8590    78.1500    24.2320    10.3630    10.7660    11.7660     2.4470 
  253.0000   -13.9220    78.8450    24.1970    10.1030    10.8260    11.8290     2.4510 
  253.1250   -13.8910    80.3040    24.1570     9.8210    10.8560    11.8620     2.4480 
  253.2500   -13.8030    80.5350    24.1720     9.7080    10.8640    11.8700     2.4400 
  253.3750   -13.8420    79.1490    24.2330     9.7860    10.8560    11.8620     2.4340 
  253.5000   -13.8800    77.7200    24.2040     9.8450    10.8480    11.8530     2.4350 
  253.6250   -13.7960    76.4600    24.0750     9.9620    10.8360    11.8410     2.4400 
  253.7500   -13.7080    75.6560    23.9580    10.2480    10.8140    11.8170     2.4400 
  253.8750   -13.6680    76.1810    23.9790    10.6260    10.7800    11.7810     2.4320 
  254.0000   -13.6140    77.7780    24.1270    11.0640    10.7430    11.7410     2.4240 
  254.1250   -13.5170    79.8690    24.3000    11.5130    10.7170    11.7140     2.4200 
  254.2500   -13.4280    82.7400    24.4370    11.9110    10.7170    11.7130     2.4180 
  254.3750   -13.3440    86.4620    24.5240    12.0300    10.7530    11.7520     2.4160 
  254.5000   -13.2350    88.8150    24.5720    11.9710    10.8140    11.8170     2.4160 
  254.6250   -13.0980    88.6580    24.5610    11.9110    10.8870    11.8950     2.4220 
  254.7500   -12.9960    87.5260    24.4950    12.0440    10.9500    11.9610     2.4310 
  254.8750   -12.9260    87.3380    24.4060    12.3350    10.9770    11.9910     2.4350 
  255.0000   -12.8070    86.3740    24.3240    12.4230    10.9730    11.9860     2.4370 
  255.1250   -12.6580    83.5630    24.2300    12.1100    10.9530    11.9650     2.4410 
  255.2500   -12.5580    80.7810    24.1100    11.6100    10.9450    11.9570     2.4440 
  255.3750   -12.4840    80.8670    24.0590    11.4020    10.9830    11.9960     2.4410 
  255.5000   -12.4140    83.0260    24.0470    11.6330    11.0770    12.0970     2.4360 
  255.6250   -12.3620    85.8720    24.0320    12.2260    11.2270    12.2570     2.4380 
  255.7500   -12.3090    88.4800    24.0140    12.8960    11.4120    12.4540     2.4470 
  255.8750   -12.2770    89.8930    24.0450    13.5330    11.5900    12.6430     2.4490 
  256.0000   -12.2670    89.7200    24.1290    14.0670    11.7080    12.7700     2.4480 
  256.1250   -12.2650    88.3580    24.2070    14.6680    11.7360    12.7990     2.4530 
  256.2500   -12.3050    86.3990    24.2500    15.6540    11.6620    12.7200     2.4630 
  256.3750   -12.3510    84.5740    24.2730    16.9830    11.4950    12.5420     2.4550 
  256.5000   -12.3440    84.0160    24.2910    17.3990    11.2900    12.3240     2.4240 
  256.6250   -12.3400    85.1050    24.2990    16.5280    11.0940    12.1150     2.3860 
  256.7500   -12.4140    86.3810    24.2970    15.5030    10.9410    11.9520     2.3580 
  256.8750   -12.4770    85.3800    24.2840    15.1240    10.8640    11.8700     2.3460 
  257.0000   -12.4700    83.1860    24.2460    15.3470    10.8600    11.8660     2.3450 
  257.1250   -12.4540    81.4120    24.1870    15.5860    10.9210    11.9300     2.3560 
  257.2500   -12.3860    80.5270    24.1730    15.7320    11.0230    12.0400     2.3790 
  257.3750   -12.2860    80.8740    24.1560    16.2190    11.1310    12.1550     2.4110 
  257.5000   -12.2390    82.7960    24.1900    16.4920    11.2040    12.2330     2.4320 
  257.6250   -12.2050    84.7620    24.2440    16.6810    11.2220    12.2520     2.4300 
  257.7500   -12.0630    84.4350    24.2800    16.6100    11.1860    12.2130     2.4020 
  257.8750   -11.8580    81.7560    24.2990    15.0580    11.1050    12.1270     2.3590 
  258.0000   -11.7550    78.9740    24.3390    12.6260    11.0090    12.0250     2.3190 
  258.1250   -11.8300    76.8030    24.4150    10.6100    10.9270    11.9370     2.2940 
  258.2500   -11.9480    75.6770    24.5160     9.8240    10.8870    11.8950     2.2920 
  258.3750   -11.9970    76.4100    24.5390    10.2640    10.9300    11.9410     2.3160 
  258.5000   -11.9930    78.7440    24.5040    11.1850    11.0520    12.0700     2.3490 
  258.6250   -12.0180    82.1280    24.4740    12.0800    11.2370    12.2680     2.3760 
  258.7500   -12.1230    85.9870    24.4940    12.5280    11.4590    12.5040     2.3890 
  258.8750   -12.2280    88.7580    24.5460    12.4630    11.6810    12.7400     2.3850 
  259.0000   -12.2950    89.1360    24.5250    12.0450    11.8590    12.9300     2.3730 
  259.1250   -12.3070    87.1920    24.4160    10.9860    11.9660    13.0440     2.3630 
  259.2500   -12.3230    84.1640    24.2690     9.5290    11.9970    13.0760     2.3620 
  259.3750   -12.3970    82.2390    24.1710     8.9950    11.9520    13.0280     2.3670 
  259.5000   -12.5330    81.7240    24.1330    10.0430    11.8650    12.9360     2.3760 
  259.6250   -12.7740    81.1190    24.0810    12.4040    11.7540    12.8180     2.3930 
  259.7500   -12.9510    78.8490    24.0240    14.6800    11.6250    12.6810     2.4160 
  259.8750   -13.0230    75.7170    24.0180    16.0300    11.4910    12.5380     2.4320 
  260.0000   -13.0950    74.4970    24.0830    16.9320    11.3750    12.4150     2.4370 
  260.1250   -13.2160    76.0260    24.1860    17.8440    11.2920    12.3260     2.4350 
  260.2500   -13.2310    79.3870    24.2540    17.8150    11.2490    12.2800     2.4200 
  260.3750   -13.1840    83.0480    24.2590    16.7240    11.2590    12.2910     2.3790 
  260.5000   -13.0520    85.4310    24.2340    15.7200    11.3060    12.3410     2.3340 
  260.6250   -12.8120    86.2380    24.2220    15.4220    11.3650    12.4040     2.3110 
  260.7500   -12.5580    86.6520    24.2480    15.0440    11.4010    12.4420     2.3140 
  260.8750   -12.3980    88.0800    24.2800    14.3320    11.3650    12.4040     2.3300 
  261.0000   -12.2460    89.0860    24.2940    14.1580    11.2460    12.2770     2.3420 
  261.1250   -12.0700    87.4070    24.2770    14.4310    11.0650    12.0840     2.3460 
  261.2500   -11.9340    82.6380    24.2570    14.4030    10.8650    11.8720     2.3440 
  261.3750   -11.7860    76.7400    24.3600    13.3830    10.7130    11.7090     2.3450 
