~V
VERS. 2.00: Ver 2.00
~W
STRT.M 55.0000:
STOP.M 268.0000:
STEP.M 0.1250:
NULL. -999.2500:
UWI. DF5025:
~C
DEPT.M :
SP.MV :
GR.API :
CALI.CM :
RXO.OHMM :
RI. :
RML.OHMM :
DEN.GM/CC :
~A
# ...
  178.7500   -30.0340    73.0270    25.2550   159.2700   108.0490   136.8270     2.2390 
  178.8750   -30.1680    74.6460    25.2990   120.2160    97.2700   121.8940     2.2390 
  179.0000   -30.3150    76.4650    25.3640    81.9950    86.4370   108.6700     2.2450 
  179.1250   -30.5060    75.7210    25.4090    60.6090    79.5700   101.7770     2.2520 
  179.2500   -30.7550    72.4650    25.3780    58.1730    77.5140   101.0720     2.2580 
  179.3750   -31.0680    70.9740    25.2760    71.4300    80.1420   105.8250     2.2640 
  179.5000   -31.4380    72.4810    25.1730    91.1750    86.7330   115.0080     2.2720 
  179.6250   -31.8530    73.5580    25.1430   106.6720    96.6360   128.0320     2.2820 
  179.7500   -32.3090    71.7520    25.1530   118.3180   108.2280   143.2740     2.2870 
  179.8750   -32.7730    68.9490    25.1620   131.7490   120.6460   159.7640     2.2830 
  180.0000   -33.2490    66.3050    25.1610   148.4590   133.1790   176.4810     2.2690 
  180.1250   -33.7190    61.5900    25.1740   163.3150   144.9670   192.1020     2.2550 
  180.2500   -34.1580    57.9570    25.2170   173.7050   155.3530   205.7900     2.2470 
  180.3750   -34.5690    58.8250    25.2360   181.7250   163.8750   217.1050     2.2460 
  180.5000   -34.9480    63.9170    25.1890   189.5300   170.5590   226.2200     2.2510 
  180.6250   -35.2900    68.0770    25.1120   196.7930   175.8610   233.7480     2.2550 
  180.7500   -35.5950    67.2890    25.0700   203.3030   180.7670   240.8590     2.2520 
  180.8750   -35.8590    64.2530    25.0490   210.2590   185.6670   248.0410     2.2430 
  181.0000   -36.0800    61.8550    25.0180   218.0330   190.6550   255.4130     2.2360 
  181.1250   -36.2290    61.6220    24.9980   223.8840   195.8420   262.9800     2.2380 
  181.2500   -36.3190    63.6070    24.9880   225.8680   201.5740   270.9530     2.2480 
  181.3750   -36.3480    66.8460    24.9760   225.8330   208.4360   279.9360     2.2580 
  181.5000   -36.3280    68.4690    24.9620   229.4810   216.9610   290.6360     2.2630 
  181.6250   -36.2740    66.8520    24.9780   247.6080   227.3600   303.3860     2.2600 
  181.7500   -36.2080    64.1950    25.0350   282.0500   238.1400   316.2900     2.2540 
  181.8750   -36.1770    62.9570    25.1070   323.0120   247.2820   326.5980     2.2440 
  182.0000   -36.1650    63.6590    25.1560   349.1930   252.6840   331.5610     2.2370 
  182.1250   -36.1820    65.3450    25.1670   338.1560   252.4540   328.9320     2.2370 
  182.2500   -36.2310    64.2970    25.1690   304.3810   248.4330   321.4300     2.2400 
  182.3750   -36.3220    60.1660    25.1840   271.0690   243.0530   312.2130     2.2400 
  182.5000   -36.4810    57.1100    25.2070   254.4790   239.1550   304.6990     2.2350 
  182.6250   -36.7030    57.9700    25.2260   256.9450   240.0280   302.5750     2.2330 
  182.7500   -36.9680    60.8480    25.2330   266.9440   246.2080   306.2340     2.2350 
  182.8750   -37.2360    63.5920    25.2350   281.2130   257.0180   314.5470     2.2380 
  183.0000   -37.5150    64.6940    25.2350   302.8860   269.6530   323.8410     2.2370 
  183.1250   -37.8290    62.9720    25.2350   333.4650   277.7110   326.2730     2.2300 
  183.2500   -38.0850    60.0880    25.2360   355.3410   276.0640   316.8000     2.2210 
  183.3750   -38.2500    57.7920    25.2290   346.2920   263.1480   294.9530     2.2160 
  183.5000   -38.5390    56.5260    25.2050   299.0050   242.1790   265.6690     2.2180 
  183.6250   -38.8010    56.5700    25.1770   232.0650   220.5310   237.8980     2.2200 
  183.7500   -39.0260    57.8540    25.1790   177.5740   205.2930   218.2910     2.2200 
  183.8750   -39.2000    59.2940    25.2150   147.8160   199.7630   209.3550     2.2190 
  184.0000   -39.3630    59.2890    25.2600   143.4230   204.4790   211.0600     2.2190 
  184.1250   -39.5170    58.4060    25.2740   151.0180   211.0720   216.3390     2.2180 
  184.2500   -39.6900    57.3580    25.2780   163.7110   221.8490   225.5120     2.2180 
  184.3750   -39.9400    57.3310    25.2740   178.9000   238.8660   240.9240     2.2240 
  184.5000   -40.2520    59.5240    25.3260   176.2460   252.4880   253.7380     2.2310 
  184.6250   -40.6520    59.9960    25.3150   151.2390   256.4150   257.5300     2.2330 
  184.7500   -41.1330    58.3020    25.0940   120.2010   251.4890   252.9720     2.2280 
  184.8750   -41.6470    58.0510    24.6590    93.6710   241.2780   243.6830     2.2210 
  185.0000   -42.1480    60.3920    24.1310    76.6430   230.9110   234.6180     2.2190 
  185.1250   -42.5340    61.4310    23.7060    78.3480   226.0350   230.7670     2.2210 
  185.2500   -42.7260    60.2750    23.5470   105.9650   228.3840   233.2820     2.2290 
  185.3750   -42.6680    59.0680    23.7780   161.1650   238.1450   242.1780     2.2450 
  185.5000   -42.3480    59.2170    24.3420   230.6480   254.0650   256.3970     2.2650 
  185.6250   -41.7160    60.1800    25.0000   290.0630   273.8190   273.9710     2.2730 
  185.7500   -40.7790    60.8440    25.5050   334.4310   293.1160   291.1270     2.2560 
  185.8750   -39.6340    59.7340    25.7370   374.2730   308.8420   305.1810     2.2230 
  186.0000   -38.3390    57.5310    25.7030   412.4010   319.1130   314.7340     2.1970 
  186.1250   -37.0340    57.3540    25.5250   427.1880   323.3810   319.9000     2.1950 
  186.2500   -35.7720    58.7990    25.3750   410.2140   324.9750   323.9340     2.2030 
  186.3750   -34.5550    59.0730    25.3060   379.8380   326.8030   329.7680     2.2090 
  186.5000   -33.4240    57.7550    25.3010   367.7080   331.1450   339.7710     2.2060 
  186.6250   -32.4170    57.1440    25.3040   395.0740   338.8720   354.8960     2.1970 
  186.7500   -31.5320    57.1370    25.3050   438.3160   347.1240   370.7990     2.1890 
  186.8750   -30.6920    57.1010    25.3070   468.9580   352.1560   381.5760     2.1860 
  187.0000   -29.8460    56.7350    25.3120   469.4030   350.5060   381.7310     2.1850 
  187.1250   -28.9340    55.7520    25.2990   439.6990   339.6070   367.7170     2.1880 
  187.2500   -28.0270    54.8970    25.3460   401.7170   322.9170   345.4720     2.1940 
  187.3750   -27.1830    55.9630    25.5590   367.5780   303.8890   320.2030     2.2020 
  187.5000   -26.3740    59.0900    25.8790   341.7360   285.2480   295.5070     2.2090 
  187.6250   -25.5400    61.6960    25.9450   324.4850   267.6010   272.6350     2.2110 
  187.7500   -24.6410    62.2020    25.6710   310.9730   249.2520   250.8250     2.2110 
  187.8750   -23.7120    60.2510    25.5430   296.4950   229.2230   230.2410     2.2130 
  188.0000   -22.8090    57.2070    25.7590   275.9930   208.5280   212.2820     2.2180 
  188.1250   -21.8920    56.5450    25.8250   245.7080   190.4180   199.0070     2.2410 
  188.2500   -20.8910    57.5710    25.4810   212.6490   175.4210   186.9430     2.2980 
  188.3750   -19.7500    57.9080    25.0550   190.5440   159.6550   168.7910     2.3930 
  188.5000   -18.5130    56.9830    24.8610   191.5130   136.9240   138.5390     2.5090 
  188.6250   -17.2190    56.5340    24.7700   203.6450   103.8600    98.4820     2.6090 
  188.7500   -15.9340    57.0370    24.6610   188.7600    68.8480    61.7090     2.6730 
  188.8750   -14.7130    58.2190    24.5970   134.5570    40.1880    35.7520     2.7000 
  189.0000   -13.5680    59.0290    24.5420    66.0380    21.6130    20.8450     2.6920 
  189.1250   -12.5820    58.8520    24.5180    23.4670    12.5360    13.5770     2.6480 
  189.2500   -11.7730    59.0390    24.5490     7.9210     8.0110     9.2370     2.5890 
  189.3750   -11.1690    60.2290    24.6200     4.8340     5.8960     6.6320     2.5470 
  189.5000   -10.7370    60.5130    24.6920     4.4070     4.9950     5.3770     2.5430 
  189.6250   -10.4790    59.5490    24.7240     4.4720     4.7670     5.1030     2.5760 
  189.7500   -10.3530    59.0560    24.7170     4.6940     4.8380     5.1950     2.6030 
  189.8750   -10.3100    58.9570    24.6630     5.0600     5.0500     5.4670     2.5970 
