~V
VERS. 2.00: Ver 2.00
~W
STRT.M 50.0000:
STOP.M 277.0000:
STEP.M 0.1250:
NULL. -999.2500:
UWI. DF5031:
~C
DEPT.M :
DEN.GM/CC :
GR.API :
CALI.CM :
RXO.OHMM :
RI. :
RML.OHMM :
SP.MV :
~A
# ...
  173.7500     2.2130    70.8490    24.3050   114.6170   101.5080    99.2010   -27.1690 
  173.8750     2.2140    69.6680    24.3200   129.6470   102.9320   100.4480   -27.1180 
  174.0000     2.2180    68.4150    24.4270   106.1730    98.3800    96.5870   -27.0960 
  174.1250     2.2300    69.6950    24.5790    72.3020    89.8050    88.9970   -27.1310 
  174.2500     2.2420    73.1290    24.8440    58.9770    80.9580    80.7750   -27.1210 
  174.3750     2.2490    76.4830    24.9620    58.1400    73.5670    73.5500   -27.1190 
  174.5000     2.2500    77.9870    24.9820    58.3960    68.3810    68.2390   -27.1510 
  174.6250     2.2450    78.0740    24.9840    58.0570    65.6490    65.3430   -27.2530 
  174.7500     2.2400    78.7730    24.9880    56.9210    64.3580    64.0050   -27.2880 
  174.8750     2.2390    80.4750    24.9890    55.5850    64.0200    63.7680   -27.2550 
  175.0000     2.2440    81.4080    24.9890    56.9160    64.4410    64.3980   -27.2550 
  175.1250     2.2510    78.6600    24.9830    61.4650    65.4480    65.6360   -27.2990 
  175.2500     2.2500    74.0950    24.9690    63.4510    66.4180    66.8060   -27.3490 
  175.3750     2.2420    70.7110    24.9550    62.6720    66.8590    67.3960   -27.3130 
  175.5000     2.2360    71.4430    24.9490    61.2350    66.4850    67.1300   -27.3400 
  175.6250     2.2430    75.4280    24.9490    59.4980    65.2140    65.9290   -27.3310 
  175.7500     2.2520    77.4600    24.9490    56.2860    63.5850    64.3020   -27.3620 
  175.8750     2.2550    76.9420    24.9490    52.9330    62.0800    62.6990   -27.3920 
  176.0000     2.2490    75.8550    24.9490    51.6600    61.0530    61.4630   -27.3400 
  176.1250     2.2440    76.2750    24.9500    52.1000    60.8530    60.9460   -27.2240 
  176.2500     2.2500    76.2180    24.9530    52.2860    61.4740    61.2020   -27.1540 
  176.3750     2.2640    73.8200    24.9570    52.2760    62.9060    62.2680   -27.1210 
  176.5000     2.2760    70.1630    24.9630    53.8760    65.2130    64.2280   -27.0050 
  176.6250     2.2740    69.1070    24.8660    58.7520    69.0340    67.7170   -26.8460 
  176.7500     2.2590    70.8920    24.6210    63.8890    74.7960    73.0760   -26.7420 
  176.8750     2.2430    71.7770    24.3680    67.7480    82.7480    80.3580   -26.6800 
  177.0000     2.2340    70.3760    24.2550    74.0220    92.2670    88.7710   -26.6690 
  177.1250     2.2250    68.3870    24.2600    92.8630    94.3850    98.5980   -26.6040 
  177.2500     2.2140    67.7690    24.2780   105.7310    98.2240   103.1170   -26.5170 
  177.3750     2.2110    67.4750    24.2870    94.5600    97.7980   102.3110   -26.4760 
  177.5000     2.2240    66.3580    24.2850    69.2040    94.0350    97.5330   -26.4680 
  177.6250     2.2470    65.6060    24.2780    58.9070    89.3400    92.0880   -26.4400 
  177.7500     2.2620    65.1180    24.2790    63.1040    86.0900    88.6730   -26.3640 
  177.8750     2.2630    64.2740    24.2820    71.8920    85.2210    88.1110   -26.2650 
  178.0000     2.2530    63.9350    24.2850    78.6130    86.7840    90.2470   -26.1750 
  178.1250     2.2390    65.5650    24.3060    81.2780    90.4960    94.6200   -26.1510 
  178.2500     2.2260    67.9580    24.4740    82.8180    95.7930   100.4950   -26.0930 
  178.3750     2.2200    68.3380    24.8680    85.9520   103.4090   108.5370   -26.0530 
  178.5000     2.2200    67.4220    25.1790    92.2000   114.9610   120.3690   -26.0410 
  178.6250     2.2200    66.5680    25.2560   107.3010   133.8410   139.6050   -26.1670 
  178.7500     2.2120    65.4610    25.2160   137.2760   160.7140   167.6780   -26.3030 
  178.8750     2.1910    64.7500    25.1960   180.6460   195.1280   205.5970   -26.4710 
  179.0000     2.1700    65.5270    25.1410   221.8920   233.4880   251.0790   -26.6870 
  179.1250     2.1630    67.8330    25.1780   239.3840   266.5970   293.7900   -27.0610 
  179.2500     2.1690    68.2820    25.2170   246.2510   286.0450   320.2240   -27.5140 
  179.3750     2.1750    65.4890    25.2770   254.0420   288.7820   324.8570   -27.9580 
  179.5000     2.1760    61.7590    25.2780   256.1570   278.3380   312.8360   -28.4080 
  179.6250     2.1720    61.4140    25.1300   233.9020   261.6340   293.8480   -28.9230 
  179.7500     2.1680    63.4830    24.9250   200.3380   246.1780   276.7310   -29.5090 
  179.8750     2.1700    66.1560    24.8180   174.8630   235.2980   264.9360   -30.1030 
  180.0000     2.1760    69.1610    24.7980   165.5980   229.8010   258.9910   -30.5670 
  180.1250     2.1840    70.6120    24.8790   171.3070   228.0440   256.6260   -30.8570 
  180.2500     2.1860    68.3300    25.0280   182.5030   226.3040   253.5970   -31.1190 
  180.3750     2.1840    64.0320    25.1250   203.9310   223.1930   248.4630   -31.3630 
  180.5000     2.1840    61.2290    25.1070   216.7560   219.3800   242.2620   -31.5000 
  180.6250     2.1880    61.6810    24.9450   205.2540   216.2710   236.5240   -31.4460 
  180.7500     2.1930    62.2680    24.6880   186.8770   212.0730   228.5060   -31.2720 
  180.8750     2.1980    63.4170    24.4490   195.8310   211.7670   208.5440   -31.0250 
  181.0000     2.2030    65.7010    24.3150   224.5410   186.9290   185.5760   -30.7930 
  181.1250     2.2080    67.6130    24.2750   218.5770   149.5460   155.4580   -30.4730 
  181.2500     2.2120    69.1510    24.2810   173.9020   116.1360   124.6890   -30.0460 
  181.3750     2.2180    70.8800    24.2840   114.5140    91.3790    99.4990   -29.5730 
  181.5000     2.2320    73.4810    24.2840    74.1920    75.5370    82.4850   -29.2190 
  181.6250     2.2500    76.0820    24.2870    61.5130    67.9730    74.2760   -28.8180 
  181.7500     2.2630    77.8750    24.2940    58.3690    65.4260    71.5600   -28.4260 
  181.8750     2.2620    78.5660    24.3040    58.6120    65.6740    71.8720   -28.0520 
  182.0000     2.2480    78.3340    24.3080    60.0530    65.4740    71.6750   -27.7250 
  182.1250     2.2340    78.0670    24.2840    61.8690    60.3190    66.0810   -27.4410 
  182.2500     2.2350    79.6720    24.2600    60.7540    50.6920    55.5800   -27.1660 
  182.3750     2.2600    84.5530    24.2580    51.7400    39.9670    43.8470   -26.8740 
  182.5000     2.3030    92.0590    24.3320    35.6610    31.3310    34.4160   -26.5660 
  182.6250     2.3420    94.8220    24.5540    23.2670    26.7340    29.3400   -26.3540 
  182.7500     2.3500    90.5410    24.7700    19.7620    25.6490    27.8890   -26.1540 
  182.8750     2.3220    84.5170    24.7660    25.2890    27.9600    29.8830   -25.9680 
  183.0000     2.2780    82.1020    24.7930    36.9700    33.7490    35.4970   -25.8090 
  183.1250     2.2490    83.9470    25.0320    48.8180    43.5970    45.5740   -25.7340 
  183.2500     2.2370    84.8950    25.1180    57.6510    55.9110    58.4710   -25.7630 
  183.3750     2.2320    83.5670    25.0290    64.8680    68.3460    71.6020   -25.8330 
  183.5000     2.2280    81.0260    24.9350    71.6120    78.3480    82.1050   -25.8760 
  183.6250     2.2250    78.1270    24.9180    77.9860    84.6040    88.3120   -26.0090 
  183.7500     2.2240    76.5240    24.9730    83.3940    88.6860    91.7320   -26.1930 
  183.8750     2.2230    75.8600    25.0300    87.9100    91.4930    93.3940   -26.4050 
  184.0000     2.2190    74.7360    25.1090    89.7150    93.4670    94.0110   -26.5650 
  184.1250     2.2200    72.2080    25.1280    89.5670    94.9060    94.0650   -26.6340 
  184.2500     2.2260    70.4640    25.1120    90.5110    96.2600    94.0190   -26.6810 
  184.3750     2.2300    72.3830    25.0040    92.6730    97.7090    94.1090   -26.7840 
  184.5000     2.2260    76.8080    24.8770    94.2490    99.1820    94.4440   -26.8640 
  184.6250     2.2190    79.5930    24.8150    95.2720   100.3550    94.9830   -26.8930 
  184.7500     2.2170    80.4900    24.8750    97.6400   100.9940    95.4640   -26.8740 
  184.8750     2.2210    79.0480    24.8930    99.2570   100.9180    95.6130   -26.8630 
