~V
VERS. 2.00: Ver 2.00
~W
STRT.M 55.0000:
STOP.M 274.0000:
STEP.M 0.1250:
NULL. -999.2500:
UWI. DF5015:
~C
DEPT.M :
DEN.GM/CC :
GR.API :
CALI.CM :
RXO.OHMM :
RI. :
RML.OHMM :
SP.MV :
~A
# ...
  145.0000     2.2720    91.9960    24.0500     5.5710     5.3600     6.5460   -26.9190 
  145.1250     2.2480    86.4540    23.9690     6.5000     5.9940     7.3140   -27.1280 
  145.2500     2.2130    84.1500    23.9190     7.8600     6.7760     8.2080   -27.2410 
  145.3750     2.1660    83.0100    23.8730     9.3070     7.6340     9.1200   -27.2380 
  145.5000     2.1270    79.7320    23.8030    10.4340     8.4480     9.9040   -27.1060 
  145.6250     2.1220    74.4730    23.7180    11.2890     9.0110    10.3310   -26.8210 
  145.7500     2.1550    71.4360    23.7240    12.4900     9.2070    10.3250   -26.4270 
  145.8750     2.2190    72.9680    23.7740    14.5120     8.9780     9.8660   -25.9640 
  146.0000     2.3010    78.6510    23.7770    16.8310     8.3740     9.0580   -25.4810 
  146.1250     2.3700    86.3050    23.7080    16.6890     7.5290     8.0900   -25.0320 
  146.2500     2.3980    93.4670    23.6740    13.4330     6.6560     7.1690   -24.6450 
  146.3750     2.3820    98.9520    23.6320     9.3130     5.8680     6.4060   -24.3390 
  146.5000     2.3420   101.6890    23.5380     6.8710     5.2410     5.8540   -24.1230 
  146.6250     2.3100   101.3570    23.4390     6.2870     4.8690     5.5870   -24.0090 
  146.7500     2.2960   100.4670    23.4290     6.3780     4.7580     5.5950   -23.9680 
  146.8750     2.2890   101.1680    23.4350     6.6310     4.9180     5.8800   -23.9790 
  147.0000     2.2830   103.9270    23.3840     6.8490     5.3380     6.4120   -24.0220 
  147.1250     2.2930   106.9580    23.3760     7.1460     6.0010     7.1430   -24.0770 
  147.2500     2.3310   106.8250    23.4450     8.2560     6.7800     7.9180   -24.1290 
  147.3750     2.3910   101.6110    23.5400    10.9460     7.5410     8.5930   -24.1760 
  147.5000     2.4520    93.4560    23.5930    14.7850     8.1270     9.0290   -24.2180 
  147.6250     2.4760    89.2230    23.6050    16.7390     8.3370     9.0610   -24.2550 
  147.7500     2.4520    91.4510    23.5970    15.1240     8.1860     8.7510   -24.2820 
  147.8750     2.3930    96.8490    23.5630    11.5500     7.7640     8.2080   -24.2920 
  148.0000     2.3320   100.7020    23.5120     8.6950     7.2190     7.6000   -24.2810 
  148.1250     2.3080   100.1800    23.5550     7.7920     6.7220     7.1180   -24.2480 
  148.2500     2.3200    97.9550    23.5920     7.7670     6.3790     6.8510   -24.1990 
  148.3750     2.3470    96.9280    23.5870     7.8840     6.2410     6.8320   -24.1350 
  148.5000     2.3620    98.2790    23.5010     7.8390     6.3280     7.0600   -24.0540 
  148.6250     2.3590   100.2420    23.3010     7.6560     6.6880     7.5830   -23.9540 
  148.7500     2.3610    99.6280    23.0750     7.8130     7.3030     8.3810   -23.8420 
  148.8750     2.3880    94.5370    22.9530     8.8110     8.2040     9.4880   -23.7220 
  149.0000     2.4350    84.9820    22.9770    10.9880     9.4130    10.9110   -23.5980 
  149.1250     2.4880    73.5560    23.1670    13.8100    10.9470    12.6200   -23.4740 
  149.2500     2.5330    64.3300    23.4090    16.8840    12.6500    14.4290   -23.3530 
  149.3750     2.5650    58.9610    23.6740    19.4940    14.3560    16.1560   -23.2340 
  149.5000     2.5750    56.5960    23.9030    21.1050    15.8670    17.6050   -23.1130 
  149.6250     2.5620    55.6240    24.0030    22.0250    16.9350    18.5460   -22.9910 
  149.7500     2.5510    55.2210    24.0440    22.9560    17.5650    19.0440   -22.8730 
  149.8750     2.5600    55.6180    24.0760    23.5700    17.8400    19.2220   -22.7660 
  150.0000     2.5880    57.0650    24.1050    23.3740    17.8970    19.2410   -22.6690 
  150.1250     2.6120    58.9570    24.0820    22.7490    17.8970    19.3060   -22.5840 
  150.2500     2.6190    59.7710    24.0630    22.3020    17.9850    19.5350   -22.5070 
  150.3750     2.6090    58.4270    24.0550    22.1360    18.2240    19.9530   -22.4450 
  150.5000     2.5890    55.4220    24.0510    22.2990    18.6120    20.5180   -22.4030 
  150.6250     2.5690    53.1410    24.0510    23.3250    19.1180    21.1510   -22.3930 
  150.7500     2.5560    52.1490    24.0600    24.8420    19.6450    21.7340   -22.4090 
  150.8750     2.5520    51.4200    24.0570    26.0200    20.1180    22.1860   -22.4460 
  151.0000     2.5570    51.0040    24.0490    26.4580    20.4960    22.4850   -22.5050 
  151.1250     2.5630    52.0470    24.0420    26.3280    20.7890    22.6880   -22.5920 
  151.2500     2.5630    53.7610    24.0430    26.0090    21.0740    22.9220   -22.7010 
  151.3750     2.5540    54.6040    24.0320    25.5880    21.4190    23.2850   -22.8260 
  151.5000     2.5410    54.4810    24.0030    25.3500    21.8910    23.8390   -22.9640 
  151.6250     2.5340    55.0840    23.9950    25.5640    22.5320    24.5770   -23.1180 
  151.7500     2.5390    56.7140    24.0080    26.4690    23.2540    25.3380   -23.2900 
  151.8750     2.5500    58.2630    24.0200    27.8480    23.9450    25.9680   -23.4790 
  152.0000     2.5590    59.1820    24.0000    29.2490    24.4850    26.3270   -23.6800 
  152.1250     2.5550    59.4090    23.9220    29.3560    24.7340    26.2750   -23.8860 
  152.2500     2.5490    59.0140    23.7770    27.8450    24.7250    25.9240   -24.0920 
  152.3750     2.5420    58.4680    23.6020    25.3430    24.5330    25.4210   -24.2970 
  152.5000     2.5300    59.1350    23.4690    23.3060    24.2730    24.9390   -24.4950 
  152.6250     2.5080    60.9020    23.3780    22.5650    24.0790    24.6510   -24.6730 
  152.7500     2.4940    61.2980    23.3610    23.1750    24.0010    24.5540   -24.8250 
  152.8750     2.5000    59.9130    23.4870    25.2500    23.9910    24.5500   -24.9510 
  153.0000     2.5250    58.2030    23.7350    28.7500    23.9300    24.4710   -25.0550 
  153.1250     2.5530    57.2570    23.9390    31.9890    23.6280    24.0940   -25.1430 
  153.2500     2.5610    56.9930    24.0280    33.2270    23.0040    23.3550   -25.2200 
  153.3750     2.5360    58.1720    24.0440    31.9580    22.0610    22.2930   -25.2880 
  153.5000     2.4950    61.3820    24.0420    28.8600    20.9140    21.0690   -25.3520 
  153.6250     2.4770    65.9500    24.0770    25.6190    19.7880    19.9450   -25.4230 
  153.7500     2.4910    69.9970    24.1650    23.5550    18.8800    19.1190   -25.5050 
  153.8750     2.5150    72.5280    24.2200    22.5010    18.3070    18.6960   -25.5990 
  154.0000     2.5240    73.0030    24.1710    21.7910    18.1280    18.7080   -25.6970 
  154.1250     2.5150    71.4680    24.1070    21.3920    18.3890    19.1600   -25.7890 
  154.2500     2.5030    69.8520    24.0170    21.9030    18.9450    19.8710   -25.8740 
  154.3750     2.4930    69.5020    23.9240    23.0730    19.6950    20.7120   -25.9540 
  154.5000     2.4880    70.3560    23.8780    23.9130    20.5120    21.5420   -26.0270 
  154.6250     2.4920    70.7970    23.8820    24.3740    21.1890    22.1380   -26.0880 
  154.7500     2.5000    69.9420    23.9190    25.0720    21.5550    22.3580   -26.1400 
  154.8750     2.5090    68.8580    23.9570    25.6480    21.4900    22.1110   -26.1830 
  155.0000     2.5160    69.4750    23.9580    25.2790    20.9400    21.3850   -26.2270 
  155.1250     2.5180    72.2620    23.9180    24.3490    19.9040    20.2210   -26.2800 
  155.2500     2.5180    74.7080    23.8940    23.2130    18.6150    18.8580   -26.3460 
  155.3750     2.5230    75.5790    23.8690    21.1120    17.2460    17.4720   -26.4260 
  155.5000     2.5310    75.2720    23.8350    17.8400    15.9520    16.2140   -26.5220 
  155.6250     2.5300    74.2120    23.7900    14.9360    14.9000    15.2390   -26.6390 
  155.7500     2.5150    71.9600    23.7390    13.6350    14.1120    14.5400   -26.7750 
  155.8750     2.5010    68.6270    23.6530    13.5420    13.5780    14.0870   -26.9320 
  156.0000     2.5010    65.5370    23.5150    13.5650    13.2590    13.8330   -27.1070 
  156.1250     2.5130    63.8260    23.2810    13.2700    13.1320    13.7460   -27.2970 
