~V
VERS. 2.00: Ver 2.00
~W
STRT.M 64.0000:
STOP.M 271.0000:
STEP.M 0.1250:
NULL. -999.2500:
UWI. DF5037:
~C
DEPT.M :
SP.MV :
GR.API :
RML.OHMM :
RI. :
RXO.OHMM :
CALI.CM :
DEN.GM/CC :
~A
# ...
  131.5000   -19.0790   103.9140     4.9290     4.8710     5.2500    23.8900     2.2970 
  131.6250   -19.0580   101.6260     4.9400     4.8930     5.2640    23.8860     2.2950 
  131.7500   -19.0610   103.0660     4.8830     4.8640     5.0940    23.9490     2.3000 
  131.8750   -19.0450   108.1020     4.7750     4.7730     4.8700    23.9110     2.3100 
  132.0000   -18.9840   112.0460     4.6400     4.6640     4.7230    23.7100     2.3240 
  132.1250   -18.8920   112.7280     4.5670     4.5900     4.7050    23.5080     2.3360 
  132.2500   -18.8150   112.7910     4.5990     4.5990     4.7200    23.6210     2.3430 
  132.3750   -18.7690   114.3060     4.6480     4.6770     4.6700    23.8270     2.3420 
  132.5000   -18.7590   116.0720     4.7180     4.7880     4.7770    23.8880     2.3360 
  132.6250   -18.7620   116.7670     4.7930     4.8830     5.0070    23.8080     2.3300 
  132.7500   -18.7790   114.1300     4.7860     4.8980     5.2000    23.6940     2.3310 
  132.8750   -18.7880   110.4310     4.7270     4.8210     5.2610    23.6240     2.3410 
  133.0000   -18.7920   107.1490     4.5940     4.6630     5.1410    23.6030     2.3590 
  133.1250   -18.7900   106.5730     4.4160     4.4510     4.7210    23.6220     2.3800 
  133.2500   -18.7680   109.3320     4.2350     4.2250     4.4680    23.6370     2.3970 
  133.3750   -18.7310   113.2880     4.0830     4.0220     4.3910    23.6410     2.4070 
  133.5000   -18.6900   117.2630     3.9870     3.8650     4.4750    23.6360     2.4070 
  133.6250   -18.6420   118.8980     3.9940     3.7880     4.6800    23.6300     2.3970 
  133.7500   -18.6020   117.0670     4.3040     3.9130     5.1030    23.6300     2.3820 
  133.8750   -18.5710   111.1290     5.1940     4.4280     6.0700    23.6300     2.3750 
  134.0000   -18.5400   100.9000     7.0290     5.6240     8.1280    23.6290     2.3850 
  134.1250   -18.4810    90.7260    10.0130     7.7340    11.7850    23.6330     2.4200 
  134.2500   -18.3910    89.5280    13.9290    10.7840    18.1710    23.6510     2.4770 
  134.3750   -18.2760    95.8200    17.5450    13.9360    25.5750    23.6900     2.5360 
  134.5000   -18.1330    99.1800    19.5170    16.1480    31.0530    23.7350     2.5780 
  134.6250   -17.9970    93.3130    18.8140    16.4190    32.7660    23.7670     2.5870 
  134.7500   -17.8780    88.7090    15.3290    14.2500    26.7960    23.7670     2.5550 
  134.8750   -17.8070    93.5700    11.2100    11.1390    15.9150    23.7610     2.4980 
  135.0000   -17.8000   103.2350     7.8830     8.2910     8.3460    23.7420     2.4350 
  135.1250   -17.8430   110.7900     5.7780     6.2410     5.5930    23.6980     2.3810 
  135.2500   -17.9440   114.4830     4.7510     5.0610     4.9210    23.6590     2.3480 
  135.3750   -18.0770   116.1400     4.2330     4.3770     4.5810    23.6430     2.3340 
  135.5000   -18.2410   115.7590     3.9830     4.0030     4.3240    23.6410     2.3340 
  135.6250   -18.4690   114.3420     3.9000     3.8300     4.2080    23.6390     2.3420 
  135.7500   -18.7850   115.6570     4.0470     3.8760     4.2000    23.5990     2.3550 
  135.8750   -19.1760   118.6100     4.4980     4.1740     4.4910    23.4850     2.3710 
  136.0000   -19.6460   116.9120     5.3240     4.7860     5.2910    23.3130     2.3850 
  136.1250   -20.2190   108.0760     6.5040     5.7080     6.5830    23.1130     2.3860 
  136.2500   -20.8640    95.5950     7.8700     6.8440     8.3490    22.9160     2.3560 
  136.3750   -21.5400    84.9960     9.0650     7.9140     9.9060    22.7170     2.2970 
  136.5000   -22.1740    76.5620     9.8090     8.6760    10.3350    22.6380     2.2280 
  136.6250   -22.6950    70.5960     9.9810     8.9830     9.7300    22.6060     2.1700 
  136.7500   -23.0560    71.3790     9.6720     8.8270     9.0190    22.5000     2.1460 
  136.8750   -23.2770    75.1550     9.2750     8.4990     8.6890    22.1790     2.1490 
  137.0000   -23.3740    76.1040     9.0210     8.1970     8.5760    21.6470     2.1680 
  137.1250   -23.3530    73.8490     9.0050     8.0350     8.5000    21.1390     2.1870 
  137.2500   -23.2030    71.5810     9.2300     8.0580     8.3580    20.8840     2.1950 
  137.3750   -22.9760    70.2890     9.5640     8.1960     8.2520    20.7970     2.1940 
  137.5000   -22.7360    68.0610     9.9020     8.3820     8.1470    20.7900     2.1870 
  137.6250   -22.4900    66.8420    10.1260     8.5330     8.0090    20.7620     2.1810 
  137.7500   -22.2320    69.8620    10.0640     8.5210     7.8680    20.6660     2.1810 
  137.8750   -21.9430    74.3990     9.6840     8.2930     7.7230    20.6070     2.1890 
  138.0000   -21.5850    78.3750     9.0160     7.8450     7.5170    20.6740     2.2060 
  138.1250   -21.1520    83.5100     8.1810     7.2420     7.1420    20.9190     2.2320 
  138.2500   -20.7040    91.7730     7.3680     6.6020     6.4160    21.2740     2.2610 
  138.3750   -20.3020   100.9600     6.7190     6.0450     5.7200    21.5620     2.2850 
  138.5000   -19.9780   106.0240     6.2800     5.6280     5.3900    21.6990     2.2980 
  138.6250   -19.7340   102.2560     6.0340     5.3580     5.3290    21.7260     2.2980 
  138.7500   -19.5940    92.8760     5.9490     5.2320     5.3500    21.6900     2.2870 
  138.8750   -19.5590    89.0680     5.9570     5.1970     5.3910    21.6150     2.2740 
  139.0000   -19.6280    92.1150     6.0430     5.2390     5.4310    21.4710     2.2630 
  139.1250   -19.8050    96.1210     6.2190     5.3570     5.5300    21.1970     2.2520 
  139.2500   -20.0750    95.5890     6.5240     5.5790     5.7900    20.6770     2.2380 
  139.3750   -20.3780    93.8240     6.9340     5.8910     6.1930    20.1470     2.2160 
  139.5000   -20.6950    94.8910     7.4120     6.2720     6.6560    19.6920     2.1910 
  139.6250   -20.9990    97.0630     7.9060     6.6820     7.0880    19.2740     2.1690 
  139.7500   -21.2430    95.1080     8.3530     7.0690     7.5130    18.8890     2.1600 
  139.8750   -21.4100    92.2140     8.7280     7.3990     7.9000    18.7640     2.1640 
  140.0000   -21.5090    89.9280     9.0190     7.6600     8.1440    18.9510     2.1760 
  140.1250   -21.5350    87.8390     9.2090     7.8390     8.2270    19.3970     2.1880 
  140.2500   -21.4180    86.4180     9.2140     7.8860     8.5030    20.0280     2.1890 
  140.3750   -21.1610    88.7860     8.9870     7.7720     8.7640    20.8220     2.1830 
  140.5000   -20.7490    92.4360     8.5000     7.4690     8.8450    21.6780     2.1760 
  140.6250   -20.2260    93.6000     7.7890     6.9860     8.5220    22.4790     2.1760 
  140.7500   -19.6690    92.6720     6.9720     6.3880     7.6720    23.1130     2.1880 
  140.8750   -19.1420    91.3280     6.2250     5.8040     6.5780    23.5820     2.2060 
  141.0000   -18.6790    93.1810     5.6460     5.3240     5.6560    23.8170     2.2260 
  141.1250   -18.2840    99.3680     5.2690     4.9980     5.2110    23.8690     2.2440 
  141.2500   -17.9660   102.1380     5.1000     4.8570     5.1560    23.8430     2.2590 
  141.3750   -17.7330   100.5900     5.0600     4.8480     5.1720    23.8160     2.2750 
  141.5000   -17.5830   101.7640     5.1010     4.9370     5.1550    23.7900     2.2900 
  141.6250   -17.5130   108.8810     5.1780     5.0830     5.1270    23.8350     2.3010 
  141.7500   -17.5140   112.1740     5.2390     5.2410     5.1330    23.9520     2.3040 
  141.8750   -17.5300   109.3430     5.2460     5.3520     5.1420    23.9980     2.3010 
  142.0000   -17.5370   106.3060     5.1710     5.3650     5.1980    23.9190     2.2990 
  142.1250   -17.5470   108.0770     5.0240     5.2450     5.2190    23.7740     2.3030 
  142.2500   -17.5760   114.8960     4.8010     4.9700     5.1010    23.6650     2.3170 
  142.3750   -17.6110   122.3160     4.5650     4.6170     4.8460    23.6220     2.3340 
  142.5000   -17.6450   126.3950     4.3120     4.2600     4.4880    23.5810     2.3490 
  142.6250   -17.6610   126.3310     4.0490     3.9740     4.1690    23.5170     2.3560 
