~V
VERS. 2.00: Ver 2.00
~W
STRT.M 65.0000:
STOP.M 272.0000:
STEP.M 0.1250:
NULL. -999.2500:
UWI. DF5002:
~C
DEPT.M :
DEN.GM/CC :
GR.API :
CALI.CM :
RXO.OHMM :
RI. :
RML.OHMM :
SP.MV :
~A
# ...
  200.0000     2.4590   113.6600    23.7430     7.3480     7.2520     8.2190    -9.6320 
  200.1250     2.4500   114.8550    23.7480     7.4700     7.3640     8.6250   -10.0470 
  200.2500     2.4270   113.0110    23.7480     7.9680     7.6620     9.2180   -10.4250 
  200.3750     2.4070   111.0270    23.8060     8.7480     8.0560     9.8720   -10.8260 
  200.5000     2.3970   110.3780    24.0590     9.6710     8.4370    10.4470   -11.2240 
  200.6250     2.3870   107.7360    24.3000    10.3640     8.6950    10.8150   -11.6940 
  200.7500     2.3750   101.4340    24.4130    10.6420     8.8510    11.0300   -12.1420 
  200.8750     2.3720    95.9920    24.4440    10.7890     8.9740    11.2010   -12.5540 
  201.0000     2.3850    94.4520    24.4730    11.1090     9.1450    11.4450   -12.8770 
  201.1250     2.4000    96.4700    24.5380    11.6090     9.4300    11.8530   -13.1790 
  201.2500     2.4060    96.2400    24.6210    12.0930     9.8010    12.3890   -13.4410 
  201.3750     2.4040    93.8050    24.6570    12.7580    10.2190    12.9920   -13.6080 
  201.5000     2.3930    92.1680    24.6290    13.4480    10.6370    13.5900   -13.6580 
  201.6250     2.3720    93.4130    24.6090    13.6240    11.0080    14.1170   -13.5910 
  201.7500     2.3560    93.4470    24.6010    13.8490    11.3030    14.5510   -13.5020 
  201.8750     2.3580    91.8830    24.5950    14.4980    11.4700    14.8250   -13.4090 
  202.0000     2.3780    93.5450    24.5760    15.8530    11.4230    14.8150   -13.2680 
  202.1250     2.4000   100.6130    24.5440    16.4600    11.0610    14.3550   -13.0100 
  202.2500     2.4050   106.2780    24.5450    15.8300    10.4950    13.5940   -12.6970 
  202.3750     2.3980   108.1810    24.5720    14.0970     9.8950    12.7970   -12.4030 
  202.5000     2.3940   108.2650    24.5940    12.1810     9.4580    12.2630   -12.1510 
  202.6250     2.4020   108.5810    24.6020    11.5760     9.4100    12.2970   -11.9380 
  202.7500     2.4130   108.6550    24.6150    12.3530     9.7580    12.8600   -11.7120 
  202.8750     2.4200   106.5040    24.6460    14.1220    10.4230    13.7860   -11.4540 
  203.0000     2.4260   102.1030    24.6700    15.5900    11.1940    14.7410   -11.2000 
  203.1250     2.4310    96.9470    24.6820    15.7750    11.7270    15.2280   -10.9690 
  203.2500     2.4310    94.0920    24.6810    15.2580    11.8620    15.1290   -10.7090 
  203.3750     2.4250    95.8660    24.6770    14.3360    11.6150    14.5850   -10.3700 
  203.5000     2.4230    99.2140    24.6740    13.1430    11.0990    13.8180    -9.9130 
  203.6250     2.4340    97.7780    24.6720    12.1150    10.3990    12.9550    -9.3800 
  203.7500     2.4450    92.1220    24.6550    11.7230     9.5960    12.0110    -8.8080 
  203.8750     2.4440    85.1310    24.5990    11.4260     8.7230    10.9670    -8.2050 
  204.0000     2.4350    78.1440    24.5140    10.3880     7.8350     9.8720    -7.5210 
  204.1250     2.4350    69.3830    24.4050     8.5470     7.0270     8.8780    -6.8020 
  204.2500     2.4440    60.9360    24.3030     7.1720     6.3640     8.0980    -6.1180 
  204.3750     2.4470    54.7610    24.1980     6.5610     5.8790     7.5770    -5.5130 
  204.5000     2.4340    53.0230    24.1150     6.3390     5.5810     7.3020    -5.0390 
  204.6250     2.4080    55.9890    24.0430     6.1190     5.4800     7.2380    -4.6280 
  204.7500     2.3810    59.8580    23.9410     5.8330     5.5060     7.2670    -4.2670 
  204.8750     2.3640    63.1780    23.8430     5.6540     5.6140     7.3350    -3.9470 
  205.0000     2.3640    67.7930    23.7990     5.6780     5.7730     7.4300    -3.7700 
  205.1250     2.3810    75.2570    23.8330     5.8940     5.9640     7.5770    -3.7130 
  205.2500     2.4020    82.6270    23.8910     6.1260     6.1590     7.7620    -3.7550 
  205.3750     2.4150    87.6410    23.9370     6.2500     6.3220     7.9360    -3.8230 
  205.5000     2.4180    89.4760    23.9570     6.2940     6.4160     8.0340    -3.9160 
  205.6250     2.4120    88.3910    23.9830     6.4080     6.3930     7.9830    -4.0670 
  205.7500     2.4040    87.0670    24.0310     6.5570     6.2660     7.8090    -4.3100 
  205.8750     2.4000    86.3420    24.0800     6.5260     6.0630     7.5590    -4.6340 
  206.0000     2.4010    85.7930    24.0890     6.3200     5.8410     7.3020    -4.9780 
  206.1250     2.4070    83.7320    24.1330     6.2670     5.6870     7.1440    -5.3270 
  206.2500     2.4110    80.5370    24.2500     6.4500     5.6640     7.1640    -5.6970 
  206.3750     2.4080    80.4640    24.4450     6.7250     5.8040     7.4200    -6.1550 
  206.5000     2.4010    84.7560    24.5240     7.0960     6.1090     7.9120    -6.6670 
  206.6250     2.3980    88.5760    24.5340     7.7800     6.5420     8.5580    -7.2060 
  206.7500     2.4000    88.6950    24.5200     8.7290     6.9910     9.1570    -7.7470 
  206.8750     2.4000    87.9210    24.5200     9.7250     7.3600     9.5510    -8.3710 
  207.0000     2.3920    89.6890    24.5200    10.3570     7.5890     9.6740    -9.0650 
  207.1250     2.3810    89.9560    24.5200    10.2420     7.7250     9.6620    -9.8580 
  207.2500     2.3740    84.1320    24.5200     9.9490     7.9800     9.8560   -10.6290 
  207.3750     2.3790    75.0540    24.5200    10.0670     8.5350    10.5090   -11.4190 
  207.5000     2.4010    68.5780    24.5130    10.8170     9.5180    11.7710   -12.2300 
  207.6250     2.4460    67.3440    24.4930    13.0840    11.0110    13.6990   -13.0460 
  207.7500     2.4910    67.9410    24.4610    17.9960    12.7260    15.8290   -13.8260 
  207.8750     2.5090    70.2630    24.4310    22.5670    14.2820    17.5730   -14.5040 
  208.0000     2.4890    74.6780    24.4090    23.0630    15.3680    18.5230   -15.1100 
  208.1250     2.4410    78.0540    24.4490    20.3780    16.0130    18.8480   -15.6510 
  208.2500     2.4020    79.4580    24.5310    20.3940    16.7070    19.3230   -16.1530 
  208.3750     2.3860    79.9590    24.5790    24.5260    17.8700    20.5060   -16.5680 
  208.5000     2.3840    78.0960    24.5760    31.6810    19.8800    22.7920   -16.8850 
  208.6250     2.3720    74.2060    24.5400    37.3800    23.2360    26.6320   -17.1870 
  208.7500     2.3440    73.6240    24.5240    38.4140    27.8930    31.8310   -17.4890 
  208.8750     2.3140    77.2230    24.5200    39.8470    33.8630    38.3430   -17.8320 
  209.0000     2.2930    78.3480    24.5200    47.0210    41.0910    46.1120   -18.1660 
  209.1250     2.2820    72.4400    24.5200    58.8430    49.5860    55.1700   -18.4830 
  209.2500     2.2710    69.1890    24.5200    69.5120    58.8650    65.0030   -18.8090 
  209.3750     2.2520    71.2630    24.5190    77.3510    68.5650    75.1680   -19.1590 
  209.5000     2.2240    72.3430    24.5110    83.4410    78.3010    85.2020   -19.5380 
  209.6250     2.2010    68.7390    24.4880    92.4410    87.6860    94.7770   -19.8520 
  209.7500     2.1900    66.0210    24.4650   108.3190    96.5450   103.9780   -20.1570 
  209.8750     2.1880    66.0610    24.4690   129.5780   104.3120   112.2680   -20.4490 
  210.0000     2.1890    67.1430    24.5070   144.5300   109.8070   118.0200   -20.7700 
  210.1250     2.1870    66.9860    24.5470   140.5960   111.0780   118.4970   -21.0500 
  210.2500     2.1820    66.8470    24.5840   129.3650   108.6310   114.4770   -21.3410 
  210.3750     2.1770    67.8470    24.5990   117.8450   103.8570   108.0810   -21.6050 
  210.5000     2.1760    70.9450    24.6010   106.9080    98.6240   101.6750   -21.9050 
  210.6250     2.1870    73.0100    24.6000    98.0750    94.4630    96.7830   -22.2410 
  210.7500     2.2040    71.8500    24.5940    94.4410    91.4980    93.2090   -22.5610 
  210.8750     2.2170    69.7430    24.5750    95.5900    90.0690    89.7310   -22.8220 
  211.0000     2.2180    70.5480    24.5330    97.4020    87.9000    87.5490   -23.0400 
  211.1250     2.2110    74.2070    24.4940    92.3780    85.2090    85.6420   -23.2750 
