~V
VERS. 2.00: Ver 2.00
~W
STRT.M 60.0000:
STOP.M 259.0000:
STEP.M 0.1250:
NULL. -999.2500:
UWI. DF5006:
~C
DEPT.M :
SP.MV :
GR.API :
RML.OHMM :
RI. :
RXO.OHMM :
CALI.CM :
DEN.GM/CC :
~A
# ...
  138.7500   -21.7710    61.7890    13.7420    11.3700    12.2330    23.3660     2.2120 
  138.8750   -21.8260    62.8930    13.8440    11.4440    12.1550    23.3760     2.2110 
  139.0000   -21.8630    64.2520    13.9470    11.5380    12.1470    23.3820     2.2090 
  139.1250   -21.8510    63.2820    14.0190    11.6290    12.2950    23.3820     2.2070 
  139.2500   -21.7420    61.8400    13.9770    11.6760    12.4590    23.3580     2.2040 
  139.3750   -21.5880    61.8460    13.7830    11.6600    12.6040    23.3300     2.2020 
  139.5000   -21.3840    63.8700    13.4770    11.5820    12.7510    23.3470     2.2030 
  139.6250   -21.1060    65.2830    13.1800    11.4710    13.0030    23.3430     2.2050 
  139.7500   -20.8070    66.1780    13.0570    11.3830    13.3690    23.2820     2.2070 
  139.8750   -20.4770    68.4400    13.1230    11.3430    13.6940    23.1910     2.2070 
  140.0000   -20.0970    69.0850    13.2880    11.3270    13.7990    23.1420     2.2040 
  140.1250   -19.6900    65.2220    13.3930    11.2700    13.4480    23.1540     2.2020 
  140.2500   -19.2720    60.7830    13.2440    11.0460    12.4850    23.2460     2.2030 
  140.3750   -18.8750    62.4190    12.8120    10.6130    11.3200    23.3700     2.2110 
  140.5000   -18.4780    71.0400    12.1280     9.9710    10.2160    23.4830     2.2270 
  140.6250   -18.1640    80.0680    11.2800     9.1900     9.0630    23.5700     2.2510 
  140.7500   -17.8970    83.9630    10.4260     8.4040     8.3280    23.6740     2.2800 
  140.8750   -17.7670    84.9130     9.7400     7.7620     7.8380    23.7670     2.3050 
  141.0000   -17.7790    86.2240     9.3430     7.3700     7.5410    23.8630     2.3180 
  141.1250   -18.0240    87.9820     9.3160     7.2970     7.6340    23.8940     2.3130 
  141.2500   -18.4720    85.2560     9.7420     7.6160     8.2200    23.7580     2.2870 
  141.3750   -19.0640    79.2730    10.4930     8.2190     9.0780    23.5600     2.2500 
  141.5000   -19.7430    73.2230    11.4390     8.9990    10.1070    23.4210     2.2140 
  141.6250   -20.4220    68.6030    12.3970     9.8110    11.0320    23.3620     2.1860 
  141.7500   -21.0710    65.3570    13.1270    10.4600    11.4810    23.3330     2.1710 
  141.8750   -21.6000    62.7680    13.5290    10.8560    11.7030    23.3320     2.1640 
  142.0000   -21.9920    61.3250    13.5880    10.9760    11.8660    23.3550     2.1640 
  142.1250   -22.1430    62.3090    13.3730    10.8710    11.9840    23.3760     2.1670 
  142.2500   -22.0470    63.9700    12.9910    10.6380    11.9220    23.3820     2.1730 
  142.3750   -21.7740    64.6510    12.6060    10.4150    11.7300    23.3820     2.1770 
  142.5000   -21.4190    64.0170    12.3390    10.2820    11.4590    23.3820     2.1780 
  142.6250   -20.9840    64.5020    12.2850    10.2760    11.2480    23.3780     2.1770 
  142.7500   -20.4470    67.2850    12.4830    10.3730    11.1450    23.3620     2.1750 
  142.8750   -19.8030    68.8860    12.7380    10.4380    11.2510    23.3360     2.1750 
  143.0000   -19.0900    68.0080    12.8220    10.3400    11.1730    23.3250     2.1790 
  143.1250   -18.3230    68.4610    12.5400     9.9860    10.9050    23.3520     2.1890 
  143.2500   -17.5580    72.9370    11.7820     9.3370    10.3370    23.4590     2.2050 
  143.3750   -16.8000    78.2630    10.7890     8.5510     9.3210    23.6260     2.2260 
  143.5000   -16.0550    83.1560     9.7940     7.7770     8.1230    23.8070     2.2480 
  143.6250   -15.3990    86.6900     8.9820     7.1340     7.3410    23.9540     2.2680 
  143.7500   -14.8320    87.6740     8.4860     6.7250     7.1530    24.0250     2.2810 
  143.8750   -14.4160    88.7460     8.2730     6.5350     7.1520    24.0240     2.2880 
  144.0000   -14.1300    92.6320     8.3220     6.5500     7.2130    24.0070     2.2900 
  144.1250   -14.0200    97.3870     8.5840     6.7360     7.2900    23.9980     2.2860 
  144.2500   -14.0350    98.4220     8.9700     7.0350     7.2940    23.9270     2.2750 
  144.3750   -14.1080    94.9320     9.3150     7.3270     7.5700    23.7670     2.2610 
  144.5000   -14.1810    89.2980     9.4930     7.5180     7.9480    23.6220     2.2500 
  144.6250   -14.1850    87.1090     9.4310     7.5370     8.0580    23.5770     2.2460 
  144.7500   -14.1690    92.0790     9.1250     7.3470     7.6580    23.5940     2.2520 
  144.8750   -14.1230    96.6320     8.7260     7.0430     7.1020    23.6230     2.2640 
  145.0000   -14.0500    98.3100     8.3370     6.7110     6.8340    23.6350     2.2780 
  145.1250   -13.8980   100.8200     8.0100     6.4170     6.8010    23.6520     2.2900 
  145.2500   -13.6730   104.6200     7.7220     6.1990     6.7570    23.7030     2.3010 
  145.3750   -13.4520   104.7060     7.4740     6.0390     6.5760    23.7630     2.3090 
  145.5000   -13.2860   102.2300     7.2940     5.9180     6.3580    23.7750     2.3150 
  145.6250   -13.1840   103.0010     7.2010     5.8280     6.2670    23.7500     2.3190 
  145.7500   -13.1880   106.0190     7.2670     5.7810     6.2920    23.7030     2.3190 
  145.8750   -13.2080   106.4620     7.3880     5.7860     6.4170    23.6720     2.3140 
  146.0000   -13.2690   102.7860     7.5540     5.8630     6.6320    23.6660     2.3050 
  146.1250   -13.3910    96.8840     7.7520     6.0350     6.8680    23.7070     2.2920 
  146.2500   -13.6230    92.7960     8.0300     6.3400     6.8330    23.7570     2.2750 
  146.3750   -13.9040    90.6560     8.4800     6.7500     7.0080    23.7550     2.2590 
  146.5000   -14.1430    88.3410     9.0000     7.2160     7.3970    23.6690     2.2450 
  146.6250   -14.3310    85.3970     9.4620     7.6450     7.9130    23.5220     2.2350 
  146.7500   -14.3190    86.5280     9.6890     7.8900     8.2310    23.4520     2.2300 
  146.8750   -14.2150    91.9780     9.6210     7.8840     8.3630    23.5210     2.2340 
  147.0000   -13.9880    96.3100     9.2480     7.6080     8.1000    23.6710     2.2460 
  147.1250   -13.6960    96.8160     8.6290     7.1090     7.4900    23.7470     2.2660 
  147.2500   -13.2800    97.9230     7.8750     6.4810     6.8390    23.6900     2.2880 
  147.3750   -12.8230   103.3120     7.1540     5.8630     6.3710    23.6510     2.3060 
  147.5000   -12.3630   109.8210     6.6070     5.3620     5.8440    23.7370     2.3180 
  147.6250   -11.9260   113.4390     6.3840     5.0850     5.3920    23.9390     2.3260 
  147.7500   -11.6330   113.3580     6.6900     5.1830     5.4020    24.1290     2.3390 
  147.8750   -11.4440   109.1760     7.4400     5.6270     6.0600    24.1660     2.3650 
  148.0000   -11.3880    99.9980     8.4530     6.3330     7.2380    24.0970     2.4030 
  148.1250   -11.4200    89.1610     9.4060     7.1190     8.7150    23.9990     2.4370 
  148.2500   -11.5660    83.1370     9.8180     7.6710     9.7170    23.9520     2.4450 
  148.3750   -11.7340    83.2990     9.5650     7.8170     9.4620    23.9490     2.4210 
  148.5000   -11.9430    88.0960     8.8240     7.5790     8.2800    23.9180     2.3760 
  148.6250   -12.1640    93.0860     8.0450     7.1920     7.7160    23.8520     2.3290 
  148.7500   -12.3700    93.8420     7.8940     7.0870     8.0010    23.7820     2.2980 
  148.8750   -12.5300    90.0180     8.6660     7.5660     8.8410    23.7320     2.2890 
  149.0000   -12.6500    83.9620    10.4320     8.7930    10.4030    23.7570     2.3050 
  149.1250   -12.6890    79.5980    12.9750    10.7190    13.0320    23.8900     2.3440 
  149.2500   -12.6910    77.6580    15.6810    12.9840    16.1230    24.0630     2.3940 
  149.3750   -12.6770    75.9670    17.6310    14.8140    18.8370    24.1310     2.4370 
  149.5000   -12.6500    72.7000    18.1300    15.5400    19.7130    24.0820     2.4560 
  149.6250   -12.6100    70.6450    16.9440    14.8240    18.3560    23.9280     2.4440 
  149.7500   -12.5210    73.8210    14.4340    12.8540    15.1100    23.7490     2.4090 
  149.8750   -12.4630    79.5510    11.7880    10.6380    11.5190    23.6450     2.3740 
