~V
VERS. 2.00: Ver 2.00
~W
STRT.M 53.0000:
STOP.M 257.0000:
STEP.M 0.1250:
NULL. -999.2500:
UWI. DF5014:
~C
DEPT.M :
GR.API :
RML.OHMM :
RI. :
RXO.OHMM :
CALI.CM :
DEN.GM/CC :
SP.MV :
~A
# ...
  210.5000    95.6650    10.6480     9.6870    10.8260    23.7730     2.3560   -12.9180 
  210.6250    92.2980    11.3340    10.2650    12.4090    23.7200     2.3450   -12.7790 
  210.7500    89.9590    12.1210    11.0010    14.2790    23.6870     2.3380   -12.6500 
  210.8750    85.9390    13.0520    11.8710    15.6150    23.7010     2.3420   -12.4970 
  211.0000    81.1300    14.1990    12.9430    16.5570    23.7270     2.3580   -12.3020 
  211.1250    77.9970    15.7390    14.3820    17.3000    23.7800     2.3830   -12.0610 
  211.2500    79.4760    17.7570    16.2690    18.2650    23.8860     2.4110   -11.7470 
  211.3750    84.0060    19.9950    18.3620    20.2240    23.9820     2.4410   -11.2760 
  211.5000    83.8350    21.6730    19.9220    22.9020    24.0610     2.4710   -10.6490 
  211.6250    78.7160    21.9500    20.1760    26.1130    24.1170     2.4980    -9.9210 
  211.7500    74.6010    20.3280    18.6590    28.1320    24.1450     2.5180    -9.1230 
  211.8750    76.3380    16.9330    15.5360    25.5200    24.0780     2.5170    -8.3020 
  212.0000    78.2630    13.2630    12.1610    18.5130    23.9310     2.4960    -7.4690 
  212.1250    76.7900    10.2430     9.3820    11.4150    23.7830     2.4610    -6.6680 
  212.2500    73.8750     8.2540     7.5170     7.0590    23.6830     2.4260    -5.9190 
  212.3750    70.8500     7.5930     6.6240     5.9020    23.6520     2.4010    -5.2850 
  212.5000    70.5060     7.6510     6.3310     5.6510    23.6330     2.3900    -4.7450 
  212.6250    76.1810     8.0280     6.4140     5.6820    23.6100     2.3890    -4.3240 
  212.7500    86.0630     8.4220     6.6620     5.7530    23.5930     2.3930    -4.0220 
  212.8750    91.3380     8.6200     6.8920     5.7870    23.5990     2.3960    -3.8370 
  213.0000    90.8920     8.6170     7.0170     5.7750    23.6360     2.3970    -3.7470 
  213.1250    88.8640     8.4710     7.0440     5.8250    23.7040     2.3960    -3.7530 
  213.2500    88.9470     8.2740     7.0310     6.0350    23.7900     2.3930    -3.8330 
  213.3750    90.6740     8.1680     7.0710     6.3180    23.8890     2.3890    -3.9870 
  213.5000    91.7990     8.2710     7.2340     6.5450    23.9830     2.3850    -4.1990 
  213.6250    92.0940     8.6310     7.5440     6.8590    24.0340     2.3820    -4.4440 
  213.7500    90.9390     9.1940     7.9680     7.4180    24.0480     2.3820    -4.7000 
  213.8750    88.7900     9.7900     8.3980     8.1110    24.0370     2.3850    -4.9930 
  214.0000    87.6070    10.2120     8.7120     8.8280    24.0140     2.3880    -5.3110 
  214.1250    88.7340    10.3680     8.8590     9.2740    23.9900     2.3900    -5.6150 
  214.2500    90.9820    10.3190     8.8850     8.9870    23.9800     2.3900    -5.8850 
  214.3750    90.4790    10.3270     8.9630     8.6620    23.9800     2.3860    -6.1730 
  214.5000    89.2910    10.6570     9.2610     9.2680    23.9800     2.3770    -6.4710 
  214.6250    88.8070    11.4020     9.8430    10.5750    23.9750     2.3650    -6.7550 
  214.7500    88.8020    12.4580    10.6490    12.2280    23.9550     2.3550    -6.9960 
  214.8750    89.0550    13.5250    11.4890    13.5650    23.9040     2.3510    -7.2250 
  215.0000    87.7580    14.2910    12.1300    14.1220    23.8500     2.3580    -7.4330 
  215.1250    86.5760    14.6300    12.4540    13.9790    23.8080     2.3720    -7.6360 
  215.2500    87.4340    14.5890    12.4940    14.1340    23.7850     2.3900    -7.7960 
  215.3750    88.5460    14.4700    12.4470    14.5250    23.7630     2.4030    -7.8900 
  215.5000    85.5790    14.6710    12.6030    15.4900    23.7330     2.4070    -7.9130 
  215.6250    80.1450    15.6200    13.2050    16.7280    23.7000     2.4060    -7.8990 
  215.7500    76.0260    17.6760    14.5370    17.7180    23.6320     2.4050    -7.8760 
  215.8750    73.1000    21.8650    17.3180    20.8140    23.5630     2.4130    -7.8350 
  216.0000    69.2740    28.4420    22.0830    27.2840    23.5620     2.4290    -7.7790 
  216.1250    66.3530    37.6600    29.5330    37.2820    23.6700     2.4420    -7.7130 
  216.2500    64.1130    49.6310    40.0290    49.2180    23.7620     2.4380    -7.6880 
  216.3750    61.9190    63.8990    53.2810    66.6410    23.8160     2.4060    -7.7240 
  216.5000    60.9230    77.8150    66.7800    83.2950    23.8990     2.3580    -7.8040 
  216.6250    61.4900    88.6820    77.8950    92.5920    24.0290     2.3080    -7.9150 
  216.7500    62.1190    94.3750    84.4470    95.2870    24.1960     2.2680    -8.0480 
  216.8750    59.9740    93.8920    85.1260    92.6830    24.3060     2.2450    -8.2010 
  217.0000    57.7870    90.4790    82.5480    85.8450    24.3300     2.2350    -8.3570 
  217.1250    59.0170    86.9660    79.1960    75.9230    24.3190     2.2310    -8.4990 
  217.2500    63.1450    85.3140    77.0880    68.5260    24.3170     2.2260    -8.6290 
  217.3750    64.7340    86.6060    77.6180    67.9080    24.3320     2.2200    -8.7390 
  217.5000    61.9350    90.0170    80.3510    71.7650    24.3520     2.2140    -8.8330 
  217.6250    58.0340    94.6900    84.6230    77.6390    24.3610     2.2120    -8.9100 
  217.7500    56.2850    99.5720    89.4530    82.7510    24.3630     2.2140    -8.9890 
  217.8750    58.2890   103.4050    93.5870    85.5640    24.3640     2.2180    -9.0660 
  218.0000    60.7600   105.6770    96.3350    86.3870    24.3630     2.2220    -9.1570 
  218.1250    60.1500   106.3200    97.5270    86.6180    24.3540     2.2230    -9.2490 
  218.2500    58.0290   105.6270    97.3950    86.1540    24.3240     2.2220    -9.3380 
  218.3750    58.9810   104.0270    96.3420    84.7880    24.2840     2.2210    -9.3760 
  218.5000    61.8610   102.1990    95.0590    82.9800    24.2400     2.2200    -9.3810 
  218.6250    63.2420   100.4890    93.9140    81.9150    24.1870     2.2180    -9.3530 
  218.7500    61.8690    99.0930    93.1270    82.3340    24.1150     2.2160    -9.3200 
  218.8750    61.5070    98.1930    92.8670    82.5780    24.0440     2.2130    -9.2650 
  219.0000    62.9840    97.7700    93.0500    81.7670    24.0100     2.2090    -9.1680 
  219.1250    64.4430    97.7720    93.5760    80.1980    24.0170     2.2060    -9.0520 
  219.2500    64.7450    97.9730    94.2360    79.1250    24.0140     2.2040    -8.9360 
  219.3750    63.5680    97.7890    94.5510    78.8420    23.9690     2.2040    -8.8200 
  219.5000    61.3060    96.6150    93.9900    79.5160    23.9280     2.2040    -8.7040 
  219.6250    59.5300    94.0320    92.0970    80.0380    23.9090     2.2050    -8.5840 
  219.7500    59.5300    90.0250    88.7160    79.3920    23.8930     2.2070    -8.4480 
  219.8750    59.6970    85.0370    84.1180    75.5710    23.8630     2.2110    -8.2850 
  220.0000    59.7980    80.2480    79.5060    69.5450    23.8450     2.2170    -8.1500 
  220.1250    61.5870    76.8790    76.0070    64.0660    23.8260     2.2220    -8.0230 
  220.2500    66.5260    75.8350    74.6340    61.2410    23.7790     2.2250    -7.9180 
  220.3750    69.4360    78.8550    76.6020    59.7810    23.6500     2.2250    -7.7960 
  220.5000    67.6150    85.2810    81.6000    59.5230    23.3330     2.2220    -7.7260 
  220.6250    62.2260    94.8210    89.1770    60.9190    22.8670     2.2170    -7.7150 
  220.7500    57.5340   106.2850    98.3280    64.9720    22.5660     2.2120    -7.7540 
  220.8750    58.5830   115.7440   107.3830    74.8670    22.7840     2.2070    -7.7950 
  221.0000    62.6390   123.2030   114.6780    87.4490    23.3870     2.2030    -7.8580 
  221.1250    63.8640   127.7440   119.2930    98.9640    23.9960     2.2030    -7.9390 
  221.2500    60.3950   129.3750   121.1490   105.2520    24.2890     2.2040    -8.0350 
  221.3750    56.3870   128.7930   120.7970   105.5430    24.3140     2.2050    -8.1210 
  221.5000    54.2030   127.5940   119.7440   105.6090    24.2990     2.2020    -8.1760 
  221.6250    54.3200   126.4940   118.7140   106.0360    24.2930     2.1940    -8.1940 
