~V
VERS. 2.00: Ver 2.00
~W
STRT.M 62.0000:
STOP.M 250.0000:
STEP.M 0.1250:
NULL. -999.2500:
UWI. DF5059:
~C
DEPT.M :
SP.MV :
GR.API :
RML.OHMM :
RI. :
RXO.OHMM :
CALI.CM :
DEN.GM/CC :
~A
# ...
   84.5000   -24.2850    60.7850     7.0480     6.5860     8.6760    21.7300     2.1780 
   84.6250   -23.4010    70.6510     6.5480     6.1120     7.7780    21.9210     2.2100 
   84.7500   -22.6090    87.3530     6.0820     5.6250     6.6170    22.3590     2.2380 
   84.8750   -21.9860   103.5680     5.7540     5.2250     5.5040    22.9880     2.2540 
   85.0000   -21.6040   112.5390     5.6270     4.9920     4.9160    23.5550     2.2560 
   85.1250   -21.4860   113.3440     5.7400     5.0000     4.9780    23.7970     2.2490 
   85.2500   -21.5510   109.5790     6.0080     5.1930     5.4850    23.6700     2.2420 
   85.3750   -21.7810   104.5050     6.3520     5.5110     6.1800    23.1670     2.2400 
   85.5000   -22.0900   101.6980     6.6840     5.8710     7.0220    22.7660     2.2420 
   85.6250   -22.4080   101.3150     6.9140     6.1760     7.6320    22.6840     2.2460 
   85.7500   -22.7180    98.5990     7.0300     6.3800     7.9760    22.6480     2.2460 
   85.8750   -22.9350    94.6670     7.0530     6.4810     8.0970    22.5620     2.2410 
   86.0000   -23.0160    92.7030     7.0240     6.5050     7.6710    22.4940     2.2320 
   86.1250   -23.0470    92.6370     6.9860     6.4860     7.4020    22.4740     2.2230 
   86.2500   -23.0700    89.8920     6.9620     6.4570     7.2830    22.4730     2.2170 
   86.3750   -22.9870    85.7810     6.9490     6.4230     7.2340    22.4570     2.2170 
   86.5000   -22.8730    84.7530     6.9300     6.3750     7.1120    22.4180     2.2220 
   86.6250   -22.8010    85.2610     6.8730     6.2890     6.9100    22.3900     2.2270 
   86.7500   -22.6890    83.6340     6.7690     6.1570     6.7440    22.3890     2.2320 
   86.8750   -22.6100    80.9970     6.6330     5.9890     6.6750    22.4290     2.2370 
   87.0000   -22.6580    81.4360     6.5070     5.8180     6.5390    22.5790     2.2460 
   87.1250   -22.8560    85.5140     6.4910     5.7260     6.4380    22.8370     2.2600 
   87.2500   -23.1730    89.9980     6.6640     5.7850     6.7380    23.1330     2.2740 
   87.3750   -23.6270    93.8790     7.0790     6.0490     8.1000    23.3130     2.2800 
   87.5000   -24.1940    97.0730     7.7330     6.5300    10.8390    23.4360     2.2710 
   87.6250   -24.8540    98.2870     8.5630     7.1970    14.4010    23.2750     2.2460 
   87.7500   -25.5480    95.4080     9.3790     7.9000    17.3830    22.9730     2.2160 
   87.8750   -26.2190    87.8890    10.0300     8.5090    17.8690    22.6350     2.1950 
   88.0000   -26.8160    78.2540    10.4180     8.9230    15.1400    22.3270     2.1920 
   88.1250   -27.3330    74.2450    10.5050     9.0780    11.7410    22.0380     2.2090 
   88.2500   -27.7550    78.3230    10.4300     9.0660    10.4090    21.8800     2.2300 
   88.3750   -28.0540    85.8310    10.2890     8.9670    10.1800    21.8280     2.2410 
   88.5000   -28.2490    89.0140    10.1440     8.8430    10.1680    21.8140     2.2340 
   88.6250   -28.3570    83.5550    10.0230     8.7270    10.1510    21.7830     2.2120 
   88.7500   -28.4030    75.0300     9.9340     8.6330    10.0920    21.7210     2.1890 
   88.8750   -28.4230    71.0410     9.8990     8.5780    10.0110    21.6260     2.1740 
   89.0000   -28.4730    73.3330     9.9420     8.5790     9.9690    21.4850     2.1710 
   89.1250   -28.4950    73.6050    10.0620     8.6510    10.0960    21.4210     2.1780 
   89.2500   -28.4840    72.0060    10.1890     8.7490    10.4550    21.4000     2.1890 
   89.3750   -28.5640    74.2600    10.2540     8.8220    10.9410    21.3790     2.2010 
   89.5000   -28.7270    81.6370    10.2020     8.8200    11.4360    21.2970     2.2120 
   89.6250   -28.9160    87.9460    10.0090     8.7040    11.4750    21.1250     2.2170 
   89.7500   -29.1720    90.0760     9.7530     8.5170    10.8410    21.0140     2.2170 
   89.8750   -29.5140    91.1940     9.5000     8.3070    10.0480    20.9770     2.2130 
   90.0000   -29.8730    89.0560     9.2990     8.1190     9.7810    20.9820     2.2050 
   90.1250   -30.1830    81.2480     9.1630     7.9790     9.9210    21.0110     2.1960 
   90.2500   -30.5090    71.5590     9.0500     7.8690    10.0230    21.0670     2.1860 
   90.3750   -30.8170    64.0600     8.9280     7.7680    10.0230    21.1370     2.1750 
   90.5000   -31.0240    61.9310     8.7830     7.6590     9.9150    21.2220     2.1650 
   90.6250   -31.1180    62.8690     8.6340     7.5510     9.7170    21.3130     2.1590 
   90.7500   -31.0990    61.5380     8.5160     7.4650     9.5780    21.3730     2.1580 
   90.8750   -30.9480    57.8180     8.4510     7.4190     9.5300    21.3920     2.1630 
   91.0000   -30.7170    55.1320     8.4410     7.4190     9.5790    21.3920     2.1710 
   91.1250   -30.4490    53.3230     8.4840     7.4660     9.6990    21.3510     2.1790 
   91.2500   -30.0840    51.3370     8.5550     7.5390     9.8100    21.2370     2.1850 
   91.3750   -29.6090    55.1490     8.6360     7.6210     9.8350    21.0780     2.1890 
   91.5000   -29.1280    64.4450     8.7050     7.6930     9.7130    20.9770     2.1910 
   91.6250   -28.6650    65.9300     8.7070     7.7070     9.4390    20.9630     2.1900 
   91.7500   -28.2080    59.2700     8.5860     7.6210     9.1880    20.9880     2.1860 
   91.8750   -27.8020    60.0990     8.2930     7.3910     8.9770    21.0260     2.1810 
   92.0000   -27.4420    72.4960     7.8260     7.0090     8.7530    21.0980     2.1780 
   92.1250   -27.1850    81.8460     7.2530     6.5120     8.3390    21.2420     2.1820 
   92.2500   -27.1110    86.0510     6.7390     6.0290     7.6970    21.4710     2.1940 
   92.3750   -27.1840    91.5450     6.4150     5.6740     6.9150    21.6820     2.2080 
   92.5000   -27.2690    94.3840     6.3650     5.5310     6.3180    21.7510     2.2160 
   92.6250   -27.3860    86.6640     6.6340     5.6680     6.5360    21.6720     2.2120 
   92.7500   -27.6090    76.1820     7.0880     5.9970     7.2560    21.5270     2.2010 
   92.8750   -27.8290    71.7600     7.5960     6.4190     8.0930    21.4180     2.1880 
   93.0000   -27.9810    71.5240     8.0160     6.8160     8.6130    21.4370     2.1800 
   93.1250   -28.0960    71.8370     8.2110     7.0600     8.7020    21.5920     2.1800 
   93.2500   -28.1230    72.5500     8.2030     7.1380     8.5840    21.7160     2.1830 
   93.3750   -28.0310    73.8190     8.0650     7.0880     8.3610    21.7890     2.1850 
   93.5000   -27.9060    75.1390     7.8830     6.9750     8.1660    21.8190     2.1800 
   93.6250   -27.7680    75.7210     7.7350     6.8590     8.0400    21.8400     2.1670 
   93.7500   -27.6120    74.8480     7.6220     6.7630     7.9350    21.8530     2.1510 
   93.8750   -27.4550    73.4930     7.5250     6.6800     7.8340    21.8260     2.1370 
   94.0000   -27.2870    71.5070     7.4320     6.5950     7.6780    21.7320     2.1290 
   94.1250   -27.0640    71.0070     7.3890     6.5050     7.5010    21.6530     2.1300 
   94.2500   -26.8340    74.7680     7.3960     6.4350     7.3130    21.6450     2.1320 
   94.3750   -26.6690    81.7000     7.5190     6.4370     7.2140    21.7500     2.1320 
   94.5000   -26.5220    86.2310     7.8110     6.5760     7.2790    21.8840     2.1300 
   94.6250   -26.3520    85.2830     8.3120     6.9350     7.5250    22.0580     2.1400 
   94.7500   -26.1950    83.4190     8.9830     7.4670     8.0480    22.2480     2.1700 
   94.8750   -26.0600    82.9520     9.6630     8.0750     8.8720    22.3790     2.2260 
   95.0000   -25.9530    82.8840    10.1380     8.5980     9.7890    22.5110     2.2940 
   95.1250   -25.8450    80.6740    10.1510     8.8090    10.5310    22.5780     2.3480 
   95.2500   -25.7410    76.0930     9.7450     8.6710    10.7550    22.3450     2.3650 
   95.3750   -25.5640    70.8460     9.0740     8.2510    10.1780    22.0140     2.3410 
   95.5000   -25.2980    69.8940     8.3680     7.7080     9.2080    21.8550     2.2910 
   95.6250   -24.9740    74.4610     7.8410     7.2270     8.6660    21.8800     2.2390 
