~V
VERS. 2.00: Ver 2.00
~W
STRT.M 59.0000:
STOP.M 243.0000:
STEP.M 0.1250:
NULL. -999.2500:
UWI. DF5058:
~C
DEPT.M :
GR.API :
CALI.CM :
RXO.OHMM :
RI. :
RML.OHMM :
DEN.GM/CC :
SP.MV :
~A
# ...
  149.0000    45.6800    24.7210    10.3380    10.9970    12.5510     2.4280   -29.7730 
  149.1250    46.7870    24.6280    11.5570    11.2140    12.9090     2.4220   -30.0360 
  149.2500    50.8740    24.4940    11.8750    11.5180    13.3380     2.4150   -30.2220 
  149.3750    53.8100    24.4220    11.0720    11.8640    13.7710     2.4120   -30.5240 
  149.5000    52.6350    24.4710    11.0680    12.1670    14.0980     2.4130   -30.7150 
  149.6250    48.1320    24.5760    12.3900    12.2910    14.1660     2.4120   -31.0060 
  149.7500    46.7530    24.6400    12.7840    12.2220    14.0100     2.4040   -31.2430 
  149.8750    50.3790    24.6430    11.6820    12.0340    13.7590     2.3900   -31.4330 
  150.0000    56.7520    24.6350     9.9830    11.8620    13.6090     2.3730   -31.7260 
  150.1250    61.3880    24.6220    10.1020    11.8770    13.7720     2.3600   -31.8660 
  150.2500    61.9820    24.5730    11.2320    12.1130    14.2100     2.3520   -32.0570 
  150.3750    60.0120    24.4750    12.5780    12.5100    14.7650     2.3490   -32.2020 
  150.5000    58.3530    24.3560    13.2240    12.9120    15.2050     2.3520   -32.4220 
  150.6250    57.9640    24.2960    12.9500    13.1010    15.2840     2.3630   -32.6140 
  150.7500    57.3980    24.2810    12.9950    13.0340    15.0510     2.3810   -32.7550 
  150.8750    57.3340    24.2790    11.9040    12.7790    14.6480     2.4020   -33.0010 
  151.0000    59.1420    24.2700    10.0140    12.4660    14.2570     2.4230   -33.0560 
  151.1250    61.4470    24.2490     9.5710    12.2290    14.0120     2.4400   -33.2570 
  151.2500    61.0370    24.2340    11.4100    12.0830    13.8750     2.4510   -33.4130 
  151.3750    58.3720    24.2280    12.9510    11.9870    13.7700     2.4540   -33.5440 
  151.5000    55.1700    24.2190    12.5270    11.8840    13.6340     2.4520   -33.6250 
  151.6250    52.0210    24.2630    10.3140    11.7420    13.4430     2.4460   -33.5800 
  151.7500    50.1460    24.4290     9.8090    11.5860    13.2540     2.4410   -33.5590 
  151.8750    50.8490    24.6720     9.5090    11.4610    13.1270     2.4330   -33.3670 
  152.0000    52.7210    24.8420     9.2760    11.4010    13.0910     2.4240   -33.1750 
  152.1250    54.1200    24.8010     9.6400    11.4120    13.1400     2.4120   -32.8760 
  152.2500    56.0810    24.6690    10.3720    11.4470    13.2210     2.4050   -32.4900 
  152.3750    57.8840    24.6010    10.1330    11.4780    13.3080     2.4060   -32.0800 
  152.5000    57.1040    24.6240     9.1190    11.5070    13.4140     2.4180   -31.4740 
  152.6250    54.8870    24.6150     9.2500    11.5900    13.6030     2.4420   -30.8900 
  152.7500    54.9240    24.5090    10.3020    11.7750    13.9230     2.4660   -30.2330 
  152.8750    56.1410    24.3890    11.1500    12.1020    14.4050     2.4870   -29.5420 
  153.0000    57.0940    24.3510    11.3910    12.5830    15.0390     2.4990   -28.9200 
  153.1250    56.5840    24.4330    11.7470    13.1910    15.7460     2.5040   -28.1790 
  153.2500    54.6600    24.5670    12.3410    13.7970    16.3570     2.5040   -27.4970 
  153.3750    52.5130    24.7340    13.8820    14.2830    16.7320     2.5010   -26.8100 
  153.5000    52.4280    24.9170    15.0580    14.5570    16.7810     2.4980   -26.1630 
  153.6250    54.1060    25.0490    15.1870    14.5280    16.4350     2.4960   -25.6630 
  153.7500    54.5370    25.0720    13.1880    14.2490    15.8140     2.4940   -25.2040 
  153.8750    54.2990    25.0240    11.4340    13.7700    15.0070     2.4960   -24.8510 
  154.0000    54.9870    25.0010    10.3070    13.1500    14.1070     2.4990   -24.5250 
  154.1250    55.2130    25.0240     9.8390    12.4580    13.2230     2.5040   -24.3330 
  154.2500    53.5510    25.0170     8.9040    11.8030    12.4750     2.5060   -24.2460 
  154.3750    51.3940    24.9700     7.8220    11.2730    11.9540     2.5040   -24.1870 
  154.5000    50.9210    24.9190     7.2150    10.9290    11.7060     2.5010   -24.3480 
  154.6250    50.1120    24.8740     7.2060    10.8140    11.7570     2.4970   -24.3940 
  154.7500    48.0900    24.8140     7.5350    10.8600    11.9890     2.4940   -24.5680 
  154.8750    48.3490    24.7590     7.8380    10.9930    12.2910     2.4880   -24.7780 
  155.0000    52.0630    24.7410     7.9770    11.1190    12.5480     2.4760   -25.0130 
  155.1250    55.6270    24.7500     7.6410    11.1550    12.6990     2.4600   -25.3060 
  155.2500    55.7300    24.7040     7.2980    11.1540    12.8710     2.4450   -25.5620 
  155.3750    54.4820    24.5360     7.4650    11.2670    13.3410     2.4360   -25.9190 
  155.5000    55.3440    24.2730     8.0440    11.7400    14.5370     2.4290   -26.1830 
  155.6250    59.1050    24.0280     8.4970    13.1200    17.3730     2.4180   -26.6080 
  155.7500    62.6110    23.9060     9.1830    15.9340    22.5020     2.3940   -26.9650 
  155.8750    62.7020    23.9500    13.1480    21.1200    30.8870     2.3560   -27.3220 
  156.0000    59.8520    24.1030    25.0810    29.9250    43.5700     2.3090   -27.7730 
  156.1250    59.7160    24.2340    47.0820    44.3610    62.1910     2.2670   -28.1820 
  156.2500    63.5890    24.2750    69.0180    63.1480    84.9680     2.2410   -28.6550 
  156.3750    67.6560    24.2900    88.2610    83.0710   107.8980     2.2310   -29.0180 
  156.5000    68.4980    24.3210   106.5120    98.9560   124.3120     2.2300   -29.4920 
  156.6250    66.3600    24.2980   115.5730   105.1430   127.2600     2.2280   -29.8020 
  156.7500    63.1300    24.2060   112.0040   103.7030   121.2970     2.2180   -30.0880 
  156.8750    59.6620    24.1060    94.1600    98.4710   112.3460     2.2040   -30.4080 
  157.0000    58.3070    24.0530    76.2660    92.9980   104.4150     2.1920   -30.4890 
  157.1250    61.0770    24.0470    58.8020    88.9250    98.2560     2.1920   -30.6250 
  157.2500    63.9300    24.0780    57.5980    84.7030    91.1960     2.1960   -30.6780 
  157.3750    63.9980    24.1410    73.3530    77.9280    80.7390     2.2010   -30.7560 
  157.5000    62.3580    24.2010    89.7150    67.2770    66.5560     2.2050   -30.6490 
  157.6250    63.2180    24.2400    74.6180    54.0090    51.3690     2.2150   -30.6710 
  157.7500    67.8050    24.2960    46.2420    41.7190    38.5570     2.2330   -30.6600 
  157.8750    74.4160    24.3660    24.8540    32.1730    29.2370     2.2580   -30.5490 
  158.0000    80.2160    24.3880    13.5530    25.6060    23.1420     2.2860   -30.5870 
  158.1250    82.9280    24.3250    11.6300    21.6730    19.6860     2.3110   -30.5240 
  158.2500    84.0430    24.2550    10.3890    19.1400    17.5530     2.3290   -30.4890 
  158.3750    85.4000    24.2370     9.3860    17.4810    16.2140     2.3420   -30.3840 
  158.5000    88.5880    24.2420     8.4300    16.4570    15.4740     2.3490   -30.4590 
  158.6250    90.8760    24.1570     7.8260    16.1650    15.5370     2.3480   -30.3660 
  158.7500    88.8460    23.9980     7.7540    16.6490    16.5270     2.3420   -30.3090 
  158.8750    84.3900    23.8990     8.8490    18.1250    18.7070     2.3330   -30.3540 
  159.0000    81.1300    23.9730    12.8960    20.8800    22.3370     2.3200   -30.2540 
  159.1250    80.8860    24.1810    20.6110    25.5000    27.8940     2.3030   -30.3020 
  159.2500    79.4930    24.3750    26.1260    31.8690    35.1360     2.2840   -30.2940 
  159.3750    75.0930    24.5310    29.3590    39.8350    43.8650     2.2620   -30.3780 
  159.5000    69.9290    24.6930    36.8920    48.8980    53.5790     2.2410   -30.4130 
  159.6250    67.6620    24.8640    50.9510    57.9920    63.2130     2.2230   -30.4480 
  159.7500    66.6980    24.9820    58.8380    65.8570    71.4650     2.2110   -30.5200 
  159.8750    64.6190    25.0270    59.7600    71.6310    77.3610     2.2050   -30.5370 
  160.0000    63.6860    25.0370    59.9690    74.7880    80.3580     2.2030   -30.6620 
  160.1250    66.6380    25.0860    58.1490    74.8470    80.0600     2.2060   -30.7260 
