~V
VERS. 2.00: Ver 2.00
~W
STRT.M 50.0000:
STOP.M 277.0000:
STEP.M 0.1250:
NULL. -999.2500:
UWI. DF5031:
~C
DEPT.M :
DEN.GM/CC :
GR.API :
CALI.CM :
RXO.OHMM :
RI. :
RML.OHMM :
SP.MV :
~A
# ...
  230.0000     2.4230    84.5730    24.2160    32.6980    12.6520    12.0370   -10.8340 
  230.1250     2.3200    93.7450    24.2710    11.3180     7.7570     7.8810   -10.3210 
  230.2500     2.2650   102.5770    24.3340     5.4010     5.5790     6.0700    -9.9310 
  230.3750     2.2610   107.4980    24.3770     5.0670     4.8300     5.6920    -9.6410 
  230.5000     2.2920   105.4790    24.3440     6.3340     4.9500     6.2330    -9.4490 
  230.6250     2.3330   100.8760    24.2370     7.5090     5.6740     7.3030    -9.3920 
  230.7500     2.3730   101.5500    24.2250     7.7560     6.5540     8.3160    -9.3300 
  230.8750     2.4060   105.9210    24.2390     7.4440     7.2700     8.8970    -9.3540 
  231.0000     2.4200   109.8760    24.1900     7.1640     7.6340     8.9640    -9.3820 
  231.1250     2.4090   111.5840    24.0250     7.2660     7.6460     8.7150    -9.5330 
  231.2500     2.3930   113.9920    23.9540     7.5620     7.5390     8.4640    -9.6470 
  231.3750     2.3920   115.5390    23.9440     7.7880     7.4340     8.3210    -9.7800 
  231.5000     2.4050   114.8460    23.9440     7.8680     7.3780     8.3110    -9.9920 
  231.6250     2.4200   115.4500    23.9360     7.8600     7.3640     8.4300   -10.2370 
  231.7500     2.4290   118.2020    23.9380     7.9750     7.3490     8.6140   -10.5930 
  231.8750     2.4350   120.7320    23.9490     8.1150     7.3050     8.8070   -10.9570 
  232.0000     2.4350   121.1660    23.9580     8.1690     7.2340     8.9680   -11.3950 
  232.1250     2.4230   120.8380    23.9630     8.1820     7.1700     9.0840   -11.7790 
  232.2500     2.4040   121.0400    23.9670     8.2720     7.1460     9.1870   -12.1180 
  232.3750     2.3820   122.9810    23.9670     8.4260     7.1860     9.3010   -12.3560 
  232.5000     2.3660   124.1900    23.9680     8.5870     7.2830     9.4290   -12.4440 
  232.6250     2.3580   121.8560    24.0510     8.7570     7.4050     9.5330   -12.4880 
  232.7500     2.3510   119.8920    24.1560     8.8420     7.5090     9.5770   -12.4650 
  232.8750     2.3400   120.7740    24.1470     8.7560     7.5760     9.5590   -12.4380 
  233.0000     2.3300   122.5760    24.1540     8.5310     7.6110     9.5220   -12.3280 
  233.1250     2.3330   123.8650    24.2230     8.3690     7.6530     9.5520   -12.2430 
  233.2500     2.3500   124.3420    24.2230     8.4600     7.7350     9.6990   -12.1540 
  233.3750     2.3730   121.1620    24.1780     8.8640     7.8650     9.9640   -12.1440 
  233.5000     2.3950   114.2340    24.1910     9.4020     8.0110    10.2860   -12.1210 
  233.6250     2.4050   111.7180    24.3370     9.5600     8.0980    10.5370   -12.0410 
  233.7500     2.4020   113.9350    24.3410     9.2850     8.0740    10.6220   -11.9290 
  233.8750     2.3910   117.3630    24.0900     8.7990     7.9220    10.5150   -11.7330 
  234.0000     2.3850   120.7490    23.6930     8.3180     7.6650    10.2520   -11.5720 
  234.1250     2.3910   122.3230    23.4760     8.0260     7.3680     9.9190   -11.3230 
  234.2500     2.3950   119.7890    23.3450     8.0020     7.1390     9.6640   -11.1390 
  234.3750     2.3930   116.7920    23.2750     8.1350     7.1130     9.6660   -10.9590 
  234.5000     2.3870   115.1160    23.2550     8.4480     7.4750    10.1810   -10.8820 
  234.6250     2.3820   108.4300    23.2580     9.5310     8.6270    11.7640   -10.9710 
  234.7500     2.3770    96.7530    23.2660    12.2510    10.9220    14.8460   -11.0810 
  234.8750     2.3640    86.4690    23.2770    18.9440    15.0570    20.1960   -11.3140 
  235.0000     2.3420    81.0160    23.3350    32.1390    22.0380    28.8930   -11.6020 
  235.1250     2.3170    77.5980    23.4830    52.3550    33.7040    43.0300   -11.8930 
  235.2500     2.2950    73.8520    23.6350    69.9090    49.2470    61.8290   -12.1940 
  235.3750     2.2770    69.7880    23.6020    82.8370    66.1880    82.2480   -12.4710 
  235.5000     2.2590    66.6270    23.4370    93.1270    80.9510    99.3130   -12.6270 
  235.6250     2.2390    66.2520    23.2760   101.4810    90.8740   109.4870   -12.7250 
  235.7500     2.2180    68.3740    23.1040   103.4780    97.2950   115.5290   -12.8340 
  235.8750     2.2030    70.3520    23.0460    98.5040   101.0570   119.0560   -12.9120 
  236.0000     2.1980    69.3890    23.1200    92.9310   102.3350   120.1420   -13.0170 
  236.1250     2.2040    67.3080    23.3370    93.1410   100.6100   117.7390   -13.1530 
  236.2500     2.2120    66.7980    23.5780    91.2370    96.3260   112.0920   -13.3070 
  236.3750     2.2170    68.0710    23.6040    84.5960    89.8360   103.6790   -13.5570 
  236.5000     2.2210    69.7500    23.4870    77.6600    81.9170    93.6570   -13.8590 
  236.6250     2.2250    70.6370    23.5240    69.7460    73.8380    83.7870   -14.1380 
  236.7500     2.2290    69.6780    23.6610    59.4650    67.0270    75.6540   -14.4840 
  236.8750     2.2300    68.0710    23.6750    50.2270    62.4520    70.1980   -14.8030 
  237.0000     2.2260    68.3060    23.4770    45.5680    60.6490    67.8730   -15.0730 
  237.1250     2.2210    72.5680    23.3870    46.5260    62.4490    69.4500   -15.4480 
  237.2500     2.2200    76.4610    23.3600    52.4700    67.6300    74.5990   -15.7410 
  237.3750     2.2180    75.1260    23.4440    64.8080    76.2280    83.4040   -15.9610 
  237.5000     2.2090    70.8590    23.7210    81.7090    87.4690    95.2550   -16.3240 
  237.6250     2.1960    68.5370    23.9030    97.0500    98.9530   107.7310   -16.7400 
  237.7500     2.1900    68.8230    23.9710   107.7880   107.2970   116.5500   -17.0370 
  237.8750     2.1930    68.3880    23.9850   111.4750   109.9170   118.1350   -17.3670 
  238.0000     2.1960    66.2560    24.0490   105.7510   105.6090   111.1290   -17.7080 
  238.1250     2.1980    65.2020    24.1720    93.3110    95.0520    97.7220   -17.8730 
  238.2500     2.2040    65.4050    24.1640    81.2980    82.9450    84.0750   -18.0250 
  238.3750     2.2140    67.5150    24.0120    70.2000    72.4070    73.2260   -18.2190 
  238.5000     2.2180    71.6510    23.8900    59.1460    65.1040    66.2030   -18.2820 
  238.6250     2.2130    74.8790    23.9120    51.8880    64.9130    62.8930   -18.1870 
  238.7500     2.2140    74.1660    24.0300    56.1280    64.6210    62.2300   -18.1410 
  238.8750     2.2270    70.2230    24.1610    68.0580    65.6170    62.9520   -18.1690 
  239.0000     2.2450    68.7260    24.2640    74.2410    66.7620    64.0620   -18.2690 
  239.1250     2.2550    71.7890    24.2920    67.3370    67.7760    65.3960   -18.5350 
  239.2500     2.2550    74.1930    24.2380    58.1070    69.6010    67.7320   -18.8430 
  239.3750     2.2500    71.9730    24.1430    57.5860    73.6720    72.3910   -19.1510 
  239.5000     2.2400    66.8810    24.0920    75.2290    81.2770    80.4680   -19.5810 
  239.6250     2.2250    64.1350    24.0890   109.3540    92.8390    91.8280   -20.1710 
  239.7500     2.2090    65.4190    24.0760   139.6130   104.2320   102.4760   -20.7340 
  239.8750     2.1910    69.1120    24.0470   148.7920   110.0250   108.0460   -21.1180 
  240.0000     2.1720    70.8180    24.0200   137.0260   107.4680   106.4120   -21.2770 
  240.1250     2.1630    67.9020    24.0060   113.4520    99.5870    99.4760   -21.3230 
  240.2500     2.1670    65.3330    24.0000    91.2160    92.8170    92.8420   -21.3560 
  240.3750     2.1740    66.4220    24.0010    79.7360    89.5750    89.2390   -21.2980 
  240.5000     2.1750    69.8080    24.0070    84.4470    89.9270    89.0900   -21.0820 
  240.6250     2.1740    71.8290    23.9960    98.8120    92.4420    91.1750   -20.7320 
  240.7500     2.1780    72.5780    23.9700   108.5320    94.1870    92.8970   -20.4260 
  240.8750     2.1830    73.9920    23.9800   107.1360    93.2100    92.5830   -20.2430 
  241.0000     2.1860    76.0510    24.0040    98.1750    89.1760    89.7550   -20.2400 
  241.1250     2.1970    78.0830    23.9850    89.1350    83.6880    85.4280   -20.3570 
