~V
VERS. 2.00: Ver 2.00
~W
STRT.M 60.0000:
STOP.M 249.0000:
STEP.M 0.1250:
NULL. -999.2500:
UWI. DF5060:
~C
DEPT.M :
GR.API :
CALI.CM :
RXO.OHMM :
RI. :
RML.OHMM :
DEN.GM/CC :
SP.MV :
~A
# ...
  105.0000   106.0260    22.4170     5.0570     4.5600     4.8700     2.2970   -18.5440 
  105.1250   100.1920    22.8690     5.2190     4.5630     4.9350     2.3030   -18.3720 
  105.2500    96.0990    23.5260     5.4630     4.6790     5.0860     2.3010   -18.3580 
  105.3750    94.8100    24.1490     5.7060     4.8430     5.2460     2.2940   -18.3900 
  105.5000    93.3840    24.5210     5.9180     4.9970     5.3600     2.2840   -18.4890 
  105.6250    91.7830    24.6120     6.0270     5.0900     5.3910     2.2750   -18.6140 
  105.7500    93.5320    24.6190     5.8800     5.1220     5.3630     2.2730   -18.8180 
  105.8750    96.3590    24.6130     5.6890     5.1180     5.3190     2.2730   -19.0500 
  106.0000    95.8700    24.6000     5.8160     5.1170     5.3200     2.2720   -19.2880 
  106.1250    94.1220    24.5810     5.9640     5.1760     5.4360     2.2660   -19.5660 
  106.2500    93.8490    24.5690     5.9930     5.3140     5.6610     2.2630   -19.7730 
  106.3750    93.9710    24.5780     6.2100     5.5160     5.9480     2.2690   -20.0220 
  106.5000    93.3820    24.6050     7.4550     5.7210     6.2040     2.2860   -20.2950 
  106.6250    92.2500    24.5920     8.8000     5.8120     6.2870     2.3120   -20.6680 
  106.7500    91.9260    24.4920     8.9310     5.7350     6.1690     2.3330   -21.0270 
  106.8750    92.3180    24.3260     7.6450     5.5300     5.9340     2.3380   -21.3670 
  107.0000    94.1640    24.1620     6.3260     5.3240     5.7720     2.3240   -21.7590 
  107.1250    96.1840    24.0700     6.0460     5.3350     5.9860     2.3000   -22.1870 
  107.2500    95.9040    24.0340     6.2370     5.6730     6.6860     2.2770   -22.6000 
  107.3750    92.8450    24.0300     6.9010     6.3910     7.8730     2.2680   -23.0550 
  107.5000    87.7530    24.0540     9.0880     7.4290     9.3520     2.2790   -23.5340 
  107.6250    82.7690    24.1090    13.1880     8.5020    10.5840     2.3060   -23.9970 
  107.7500    80.5290    24.1700    14.8680     9.1410    11.0360     2.3250   -24.4520 
  107.8750    80.1210    24.2030    12.9820     9.0900    10.5530     2.3160   -24.8880 
  108.0000    78.8460    24.1840    10.3400     8.4660     9.4530     2.2740   -25.2910 
  108.1250    78.5010    24.1170     8.7200     7.6400     8.3250     2.2190   -25.5970 
  108.2500    81.4420    24.0550     8.1890     6.9610     7.5600     2.1750   -25.9400 
  108.3750    85.4930    24.0200     8.1580     6.5280     7.1970     2.1520   -26.2010 
  108.5000    86.6480    23.9920     8.1650     6.3120     7.1050     2.1480   -26.4430 
  108.6250    87.6130    23.9490     7.9880     6.2290     7.1110     2.1520   -26.6300 
  108.7500    91.4590    23.9120     7.9120     6.1910     7.1320     2.1580   -26.7670 
  108.8750    92.9090    23.8990     7.7830     6.2240     7.2490     2.1630   -26.8950 
  109.0000    88.7360    23.8990     7.6970     6.4120     7.6090     2.1690   -26.9860 
  109.1250    83.7630    23.9040     7.7320     6.8870     8.3690     2.1780   -27.1450 
  109.2500    81.0240    23.9220     9.1110     7.6090     9.4060     2.1930   -27.3400 
  109.3750    77.3250    23.9120    13.4790     8.4520    10.4750     2.2150   -27.5630 
  109.5000    71.3400    23.8180    19.6000     9.1540    11.2140     2.2360   -27.7250 
  109.6250    67.8340    23.6640    20.6200     9.3430    11.2010     2.2410   -27.8970 
  109.7500    67.0880    23.5420    15.5560     9.0440    10.6000     2.2270   -28.0660 
  109.8750    66.2800    23.4360    10.5080     8.4660     9.7550     2.1980   -28.2450 
  110.0000    64.7300    23.2940     9.2460     7.8730     9.0220     2.1670   -28.4200 
  110.1250    63.1920    23.1450     9.1660     7.4760     8.6540     2.1440   -28.5460 
  110.2500    63.0460    23.0730     8.9140     7.2890     8.5790     2.1320   -28.6000 
  110.3750    63.7610    23.1000     8.7610     7.2570     8.6700     2.1270   -28.6120 
  110.5000    63.5010    23.2040     8.9330     7.3040     8.7990     2.1270   -28.5970 
  110.6250    62.6240    23.3160     9.2280     7.3660     8.8750     2.1310   -28.5370 
  110.7500    62.4980    23.3350     9.2630     7.4030     8.8850     2.1330   -28.4200 
  110.8750    63.2290    23.2440     9.2000     7.4100     8.8670     2.1320   -28.2980 
  111.0000    63.0540    23.1200     9.2260     7.4260     8.8990     2.1310   -28.0840 
  111.1250    62.3870    23.0590     9.3260     7.5320     9.0790     2.1330   -27.7950 
  111.2500    62.4490    23.0460     9.3530     7.7440     9.3750     2.1430   -27.5350 
  111.3750    63.5400    23.0720     9.4350     8.0220     9.6930     2.1650   -27.2080 
  111.5000    67.6630    23.1440    10.5550     8.2720     9.9020     2.1980   -26.8460 
  111.6250    72.8380    23.2330    11.6860     8.3580     9.8520     2.2330   -26.4510 
  111.7500    73.0030    23.2830    11.1200     8.2660     9.5940     2.2570   -26.0440 
  111.8750    67.6640    23.2870     9.5550     8.0670     9.2490     2.2570   -25.5860 
  112.0000    61.4710    23.2650     8.7890     7.8590     8.9350     2.2350   -25.0830 
  112.1250    60.1070    23.2260     8.6830     7.6900     8.6930     2.2060   -24.6590 
  112.2500    62.4430    23.1900     8.6360     7.5220     8.4480     2.1900   -24.0980 
  112.3750    66.3990    23.1910     8.3250     7.2840     8.0950     2.1940   -23.5410 
  112.5000    71.7090    23.2870     7.6270     6.9130     7.5620     2.2140   -23.0150 
  112.6250    75.5430    23.3940     7.2230     6.6600     7.2170     2.2400   -22.5380 
  112.7500    80.8940    23.5640     6.7140     6.2820     6.7200     2.2560   -22.1280 
  112.8750    87.0090    23.8210     6.1920     5.7240     6.0300     2.2600   -21.7680 
  113.0000    89.3530    24.0510     5.8570     5.2200     5.4530     2.2560   -21.5880 
  113.1250    91.1240    24.3090     5.6580     4.8550     5.0730     2.2530   -21.3760 
  113.2500    95.9030    24.5950     5.4560     4.6450     4.8720     2.2590   -21.3320 
  113.3750   101.2370    24.8480     5.2540     4.5970     4.8400     2.2710   -21.3880 
  113.5000   101.8730    25.0070     5.1470     4.6920     4.9520     2.2840   -21.4960 
  113.6250    96.6840    24.9370     5.4520     4.9020     5.1800     2.2850   -21.5850 
  113.7500    89.7340    24.6720     6.0070     5.1470     5.4330     2.2750   -21.6790 
  113.8750    85.7080    24.3840     6.3640     5.3620     5.6260     2.2570   -21.8150 
  114.0000    85.1480    24.2870     6.3410     5.4860     5.6880     2.2420   -21.9170 
  114.1250    85.4330    24.4420     6.3300     5.4620     5.5720     2.2380   -22.0840 
  114.2500    86.2880    24.6330     6.0690     5.3140     5.3410     2.2450   -22.2380 
  114.3750    89.2040    24.7590     5.7920     5.0820     5.0540     2.2580   -22.4010 
  114.5000    94.0620    24.8500     5.6160     4.8190     4.7690     2.2720   -22.5580 
  114.6250    97.3710    24.9030     5.4710     4.5710     4.5320     2.2840   -22.8370 
  114.7500    97.4910    24.8560     5.3170     4.3580     4.3500     2.2970   -23.1340 
  114.8750    96.5220    24.7100     5.1650     4.1830     4.2230     2.3110   -23.4820 
  115.0000    96.6240    24.5700     5.0710     4.0460     4.1470     2.3250   -23.8390 
  115.1250    99.5710    24.5100     5.1150     3.9710     4.1500     2.3370   -24.2640 
  115.2500   103.1550    24.4470     5.1610     3.9880     4.2720     2.3440   -24.6470 
  115.3750   104.2190    24.3550     5.1330     4.1410     4.5670     2.3440   -25.1260 
  115.5000    99.9700    24.2320     5.3020     4.4530     5.0710     2.3410   -25.6380 
  115.6250    90.5290    24.0370     6.1230     4.9430     5.7900     2.3390   -26.1320 
  115.7500    82.5750    23.8050     8.1450     5.5370     6.5930     2.3370   -26.6170 
  115.8750    77.9800    23.6110    10.1940     6.1540     7.3370     2.3300   -27.0570 
  116.0000    75.3810    23.4910    10.5780     6.7060     7.9040     2.3080   -27.4930 
  116.1250    73.5400    23.3690     9.1590     7.1190     8.2380     2.2740   -27.8530 
