~V
VERS. 2.00: Ver 2.00
~W
STRT.M 55.0000:
STOP.M 263.0000:
STEP.M 0.1250:
NULL. -999.2500:
UWI. DF5056:
~C
DEPT.M :
GR.API :
CALI.CM :
RXO.OHMM :
RI. :
RML.OHMM :
DEN.GM/CC :
SP.MV :
~A
# ...
  201.2500    86.7110    26.0030     5.9170     5.5460     6.8170     2.3900   -25.8730 
  201.3750    87.9870    26.2090     6.4930     5.6530     6.9790     2.3930   -26.1030 
  201.5000    84.9290    26.7610     6.6980     5.8820     7.3120     2.3950   -26.3460 
  201.6250    80.6240    27.1000     6.6200     6.2700     7.8540     2.3920   -26.6070 
  201.7500    76.0150    27.1560     6.9060     6.7890     8.5570     2.3820   -26.8670 
  201.8750    72.6310    27.2200     8.0980     7.4100     9.3620     2.3670   -27.1560 
  202.0000    73.4800    27.3400     9.2120     8.0740    10.1640     2.3490   -27.4130 
  202.1250    78.3990    27.4490    10.3320     8.6680    10.7820     2.3320   -27.7240 
  202.2500    81.0290    27.5210    10.9150     9.0910    11.1240     2.3200   -28.0110 
  202.3750    80.2230    27.5900    11.0680     9.3030    11.2100     2.3120   -28.3300 
  202.5000    78.7840    27.6980    11.3520     9.3800    11.2190     2.3090   -28.6460 
  202.6250    77.9360    27.8750    11.1900     9.5400    11.5390     2.3100   -28.9690 
  202.7500    76.3880    28.0720    10.6570    10.0200    12.4870     2.3130   -29.3140 
  202.8750    73.5350    28.2510    11.2040    11.0340    14.3090     2.3210   -29.6760 
  203.0000    71.3470    28.4080    14.2730    12.7630    17.0890     2.3330   -30.0240 
  203.1250    71.9560    28.5620    19.7500    15.3410    20.6090     2.3460   -30.3870 
  203.2500    71.8780    28.7220    25.9290    18.1510    23.7970     2.3550   -30.7350 
  203.3750    70.0980    28.8880    31.7870    20.1750    25.4270     2.3550   -31.0730 
  203.5000    68.9630    29.0600    33.4130    20.4850    24.7860     2.3470   -31.4520 
  203.6250    71.2520    29.2270    29.7520    19.1340    22.5160     2.3370   -31.8790 
  203.7500    74.9330    29.3640    23.6130    17.6950    20.7970     2.3280   -32.3450 
  203.8750    77.4440    29.4740    18.0230    17.2770    21.1410     2.3190   -32.7840 
  204.0000    77.3330    29.5920    15.4350    18.8160    24.6080     2.3030   -33.2630 
  204.1250    72.8250    29.7750    36.0000    24.0030    32.7670     2.2790   -33.7130 
  204.2500    67.3180    30.0090    71.9530    33.4660    45.5370     2.2540   -34.2300 
  204.3750    63.9610    30.2350   100.3490    47.2210    62.3320     2.2340   -34.7520 
  204.5000    62.1020    30.4010   104.1860    62.8800    80.0500     2.2210   -35.2880 
  204.6250    59.3980    30.5070    95.4460    74.5640    91.6850     2.2140   -35.8210 
  204.7500    56.9710    30.6170    88.6690    79.9190    95.4710     2.2060   -36.3250 
  204.8750    55.8230    30.7590    84.4250    80.9220    94.7560     2.1940   -36.8530 
  205.0000    56.6720    30.9310    81.2060    80.6790    93.5360     2.1800   -37.3500 
  205.1250    58.9840    31.0940    84.2890    80.7460    93.3230     2.1690   -37.8430 
  205.2500    60.3710    31.1910    87.7100    80.8370    93.2950     2.1630   -38.2840 
  205.3750    59.7940    31.1960    86.9430    80.5170    92.8400     2.1620   -38.7110 
  205.5000    58.7240    31.1560    82.8400    79.8070    92.0120     2.1650   -39.0950 
  205.6250    58.5360    31.1500    80.2180    79.4380    91.7100     2.1680   -39.4260 
  205.7500    58.0780    31.1990    78.5850    80.2220    92.7570     2.1680   -39.7570 
  205.8750    57.2920    31.2930    78.6750    82.5280    95.3820     2.1640   -40.0560 
  206.0000    56.4900    31.4200    83.2100    86.0880    99.0880     2.1580   -40.3450 
  206.1250    54.9940    31.5420    94.8080    89.9070   102.5170     2.1540   -40.6120 
  206.2500    52.9040    31.5670   100.9000    92.6250   104.2460     2.1540   -40.8730 
  206.3750    50.9510    31.4590   102.3530    93.4280   103.6650     2.1600   -41.1060 
  206.5000    50.2550    31.2930    95.9540    92.3000   101.1770     2.1660   -41.3270 
  206.6250    52.5160    31.1880    91.0160    89.9810    97.9590     2.1700   -41.4830 
  206.7500    57.3100    31.1610    89.8620    87.7620    95.2390     2.1670   -41.5410 
  206.8750    61.3010    31.1630    87.8450    86.2240    93.3960     2.1600   -41.6170 
  207.0000    60.7630    31.1630    81.5770    85.4550    92.3200     2.1510   -41.7000 
  207.1250    57.9340    31.1510    80.5400    85.1890    91.6790     2.1450   -41.7910 
  207.2500    56.7860    31.1320    82.0080    85.0110    91.1750     2.1430   -41.8920 
  207.3750    57.4780    31.1120    72.6480    84.9450    90.9370     2.1450   -41.9010 
  207.5000    58.8550    31.0990    62.1850    85.2590    91.2630     2.1500   -41.8890 
  207.6250    59.2310    31.0970    63.1760    86.4240    92.6550     2.1550   -41.9420 
  207.7500    56.9750    31.0990    67.7730    88.6920    95.3720     2.1590   -42.0590 
  207.8750    52.3350    31.0940    71.6270    92.4420    99.8100     2.1620   -42.1770 
  208.0000    49.3100    31.0770    77.5160    97.8920   106.1720     2.1650   -42.2850 
  208.1250    50.9760    31.0540    81.5420   105.0600   114.4500     2.1680   -42.3840 
  208.2500    53.0510    31.0270    81.9400   113.1110   123.6680     2.1690   -42.3740 
  208.3750    53.2740    30.9790    88.8480   121.4550   133.1280     2.1670   -42.4450 
  208.5000    54.1240    30.8980   102.9340   129.7190   142.4430     2.1640   -42.5110 
  208.6250    58.2970    30.8080   117.8700   138.1670   151.9810     2.1610   -42.5060 
  208.7500    61.2790    30.7240   116.8580   147.4730   162.4710     2.1600   -42.4710 
  208.8750    59.0140    30.6330   123.2050   157.9320   174.1450     2.1590   -42.3720 
  209.0000    52.9780    30.5260   149.5070   169.1070   186.3390     2.1560   -42.2000 
  209.1250    49.7500    30.4160   201.4910   179.1640   196.5010     2.1510   -41.9590 
  209.2500    49.9520    30.3140   246.4090   184.8180   200.6080     2.1490   -41.7820 
  209.3750    51.5350    30.2210   243.8180   182.3340   194.6090     2.1500   -41.5870 
  209.5000    53.4920    30.1300   182.0650   170.2980   178.1500     2.1540   -41.3890 
  209.6250    54.6730    30.0080   143.5120   151.3040   156.1890     2.1590   -41.2340 
  209.7500    55.1360    29.8580   131.9470   132.5570   136.6410     2.1630   -41.0380 
  209.8750    55.5450    29.7230   107.5370   118.3560   123.1600     2.1660   -40.7860 
  210.0000    56.3200    29.6190    77.9040   110.7650   116.8540     2.1650   -40.5220 
  210.1250    56.5550    29.4930    72.7130   110.8710   118.1540     2.1590   -40.2480 
  210.2500    57.4500    29.3130    81.5520   116.1460   124.3220     2.1450   -39.9030 
  210.3750    60.3760    29.1340   105.8150   124.5980   133.1960     2.1140   -39.5360 
  210.5000    62.2540    28.9840   143.1560   133.4720   141.7320     2.0800   -39.1320 
  210.6250    60.1540    28.7520   153.3590   138.3030   145.2630     2.0610   -38.6760 
  210.7500    57.9170    28.5560   145.5310   138.7970   144.6740     2.0630   -38.2500 
  210.8750    55.1420    28.2150   124.6650   136.1550   140.0410     2.0820   -37.8930 
  211.0000    54.5640    27.8880    92.8560   127.3980   128.7900     2.1080   -37.5640 
  211.1250    55.4680    27.8020    77.8890   114.1490   113.8920     2.1290   -37.2360 
  211.2500    54.4270    27.7610    66.6320   100.5030    99.6940     2.1410   -36.9170 
  211.3750    52.4500    27.6160    57.7070    89.1750    88.7500     2.1480   -36.5890 
  211.5000    52.5870    27.3810    49.4590    81.7630    82.1900     2.1520   -36.2580 
  211.6250    54.8740    27.1360    46.5410    78.8980    80.0330     2.1560   -35.9170 
  211.7500    56.0460    26.9290    49.6110    78.3120    79.6420     2.1600   -35.6030 
  211.8750    55.7350    26.7510    62.2590    77.9180    78.8530     2.1620   -35.2660 
  212.0000    55.5440    26.5790    83.5180    76.0270    76.1830     2.1610   -34.9530 
  212.1250    57.5220    26.4190    90.5700    72.0860    71.5820     2.1580   -34.6950 
  212.2500    60.3490    26.2930    72.5300    67.7320    67.0130     2.1560   -34.4740 
  212.3750    62.5070    26.1970    48.2650    64.3390    63.7980     2.1570   -34.2850 
