~V
VERS. 2.00: Ver 2.00
~W
STRT.M 55.0000:
STOP.M 278.0000:
STEP.M 0.1250:
NULL. -999.2500:
UWI. DF5019:
~C
DEPT.M :
DEN.GM/CC :
GR.API :
CALI.CM :
RXO.OHMM :
RI. :
RML.OHMM :
SP.MV :
~A
   55.0000     2.1520    46.7630    25.3040    10.4450     0.2020     9.0260   106.6280 
   55.1250     2.2350    47.9110    25.2360     6.8460     0.2120    11.3720   106.5610 
   55.2500     2.2730    51.0250    25.1780     5.7060     0.2220    14.4400   106.4880 
   55.3750     2.2440    55.0090    25.1480     5.1770     0.2300    18.6380   106.4740 
   55.5000     2.1580    56.9380    25.1780     4.7460     0.2380    22.8300   106.4450 
   55.6250     2.0620    55.2610    25.2190     4.3470     0.2460    21.9420   106.3210 
   55.7500     1.9890    52.5900    25.1250     4.2270     0.2480    17.4180   106.0700 
   55.8750     1.9450    51.0410    25.0300     4.4840     0.2430    13.3550   105.6170 
   56.0000     1.9330    51.2760    24.9650     5.0150     0.2270    10.8750   104.9380 
   56.1250     1.9540    53.6710    24.9640     5.4390     0.2060     9.4340   104.1010 
   56.2500     1.9840    55.6550    24.9690     5.5380     0.1880     8.3140   103.2000 
   56.3750     1.9980    55.1350    24.9700     5.3190     0.1780     7.3450   102.1610 
   56.5000     1.9900    52.7940    24.9740     4.9540     0.1760     6.5800   101.1080 
   56.6250     1.9810    50.4970    24.9930     4.6120     0.1790     6.1700   100.1280 
   56.7500     1.9840    48.8930    25.0480     4.4030     0.1810     5.9680    99.1830 
   56.8750     2.0050    48.0510    25.0870     4.3880     0.1810     5.8000    98.4620 
   57.0000     2.0450    48.6660    24.9990     4.2850     0.1800     5.6590    97.9840 
   57.1250     2.1020    50.3670    24.8120     3.7640     0.1780     5.5900    97.6290 
   57.2500     2.1650    51.1220    24.6790     3.2750     0.1770     5.5730    97.3770 
   57.3750     2.2290    50.7890    24.6530     3.7440     0.1770     5.5610    97.1760 
   57.5000     2.2910    49.5000    24.6330     4.5740     0.1780     5.5020    96.8800 
   57.6250     2.3390    47.6900    24.5170     4.3220     0.1780     5.3570    96.4150 
   57.7500     2.3620    46.9570    24.4010     3.1840     0.1790     5.1720    95.8400 
   57.8750     2.3600    47.7850    24.5570     2.3380     0.1780     5.0010    94.9360 
   58.0000     2.3320    49.2340    24.9350     1.9960     0.1780     4.8620    93.7810 
   58.1250     2.2640    50.1600    25.1910     1.9400     0.1790     4.7240    92.4740 
   58.2500     2.1650    49.8530    25.2520     1.8680     0.1810     4.5720    90.9850 
   58.3750     2.0620    47.8960    25.2440     1.6370     0.1820     4.4480    89.5130 
   58.5000     1.9850    45.3480    25.2010     1.3040     0.1790     4.4090    88.1020 
   58.6250     1.9480    45.2490    25.1970     1.0960     0.1730     4.5090    86.7770 
   58.7500     1.9330    46.4530    25.2220     1.0340     0.1660     4.7270    85.5040 
   58.8750     1.9300    45.8430    25.2240     1.0170     0.1620     5.0280    84.2810 
   59.0000     1.9330    43.8480    25.2200     1.0110     0.1600     5.3500    83.0450 
   59.1250     1.9460    42.9480    25.2800     1.1350     0.1550     5.4620    81.6810 
   59.2500     1.9670    42.8340    25.2440     1.4880     0.1450     4.8980    80.1300 
   59.3750     1.9950    42.6320    25.2310     2.0120     0.1290     3.4630    78.3410 
   59.5000     2.0240    44.1780    25.2250     2.4420     0.1130     1.9160    76.1770 
   59.6250     2.0290    48.5480    25.2140     2.6040     0.1070     1.0110    73.3780 
   59.7500     2.0270    52.3770    25.2110     2.4550     0.1080     0.5650    69.7230 
   59.8750     2.0650    55.5460    25.2140     2.1270     0.1150     0.3940    64.7770 
   60.0000     2.1660    60.6620    24.9950     2.0320     0.1380     0.4090    58.2370 
   60.1250     2.2590    66.5160    24.7520     3.0940     0.2250     0.6440    49.7530 
   60.2500     2.2660    69.9120    24.4380     5.0800     0.4410     1.1730    40.0980 
   60.3750     2.2040    72.6440    24.2720     6.9470     0.8800     2.1920    29.8440 
   60.5000     2.1420    77.3430    24.2360     7.7560     1.6120     3.8390    19.4470 
   60.6250     2.1250    80.1450    24.2290     7.7430     2.5760     5.4800     9.5080 
   60.7500     2.1310    78.4700    24.0650     7.7830     3.4620     6.1050     0.6100 
   60.8750     2.1400    74.4550    24.0090     8.2300     4.1200     5.9850    -6.3300 
   61.0000     2.1510    70.9650    24.1100     8.8150     4.5840     5.8000   -11.3400 
   61.1250     2.1600    69.7320    24.2810     8.8810     4.9530     5.8660   -15.0820 
   61.2500     2.1580    70.6160    24.3820     8.8550     5.3090     6.1410   -17.5920 
   61.3750     2.1420    71.1620    24.3200     9.1630     5.6790     6.5730   -19.3430 
   61.5000     2.1240    69.4060    24.3840     9.6540     6.0710     7.0990   -20.6420 
   61.6250     2.1210    66.8480    24.5700     9.9020     6.4600     7.6260   -21.6580 
   61.7500     2.1300    67.7520    24.6310    10.0580     6.7900     8.0600   -22.7800 
   61.8750     2.1370    71.3310    24.6360    10.2900     6.9880     8.3170   -24.3830 
   62.0000     2.1360    74.8840    24.7130    10.3370     6.9960     8.3450   -25.9550 
   62.1250     2.1400    79.6630    24.9290     9.8210     6.7760     8.1520   -26.3630 
   62.2500     2.1600    86.1090    25.1460     8.9840     6.4360     7.8680   -26.4370 
   62.3750     2.1870    91.3040    25.2620     7.9870     6.0720     7.5800   -26.3290 
   62.5000     2.1990    91.3920    25.2400     7.1530     5.7730     7.3550   -26.0840 
   62.6250     2.1840    85.0950    25.1610     6.9070     5.6150     7.2490   -25.9920 
   62.7500     2.1590    77.9110    24.9850     7.2000     5.5910     7.2580   -26.1020 
   62.8750     2.1420    72.6900    24.9290     7.7300     5.7250     7.4240   -26.3440 
   63.0000     2.1400    70.5560    25.0390     8.2800     6.0700     7.8290   -26.8030 
   63.1250     2.1620    68.3910    25.1780     8.9260     6.7130     8.6030   -27.5170 
   63.2500     2.1990    65.5500    25.1840    10.3920     7.5670     9.6820   -28.1940 
   63.3750     2.2360    64.2580    25.2860    15.0140     8.4740    10.8940   -28.8530 
   63.5000     2.2560    65.1020    25.2910    23.0200     9.1650    11.8270   -29.5610 
   63.6250     2.2440    66.7570    24.9560    25.3520     9.2540    11.7950   -30.1080 
   63.7500     2.2080    67.5520    24.5740    19.9410     8.8020    10.9670   -30.4790 
   63.8750     2.1650    68.7010    24.3640    13.5740     8.0560     9.8740   -30.8680 
   64.0000     2.1340    70.7000    24.4140    11.0850     7.2990     8.9620   -31.2930 
   64.1250     2.1330    72.5910    24.7780    10.7250     6.7670     8.4690   -31.7340 
   64.2500     2.1460    72.3560    25.2810    10.7680     6.4930     8.2960   -32.3360 
   64.3750     2.1500    70.1240    25.6680    10.8020     6.4280     8.3210   -33.0160 
   64.5000     2.1340    67.5170    25.9790    10.7850     6.4740     8.4060   -33.7090 
   64.6250     2.1120    66.0870    26.2580    10.7930     6.5420     8.4660   -34.4410 
   64.7500     2.0980    66.2160    26.5780    10.8170     6.5900     8.5050   -35.0840 
   64.8750     2.0890    66.7810    26.8860    10.8440     6.6110     8.5230   -35.5860 
   65.0000     2.0740    66.2180    27.1440    10.8260     6.6080     8.4980   -36.0080 
   65.1250     2.0530    66.3410    27.3640    10.7530     6.5960     8.4230   -36.2660 
   65.2500     2.0440    67.9490    27.5650    10.6320     6.5980     8.3640   -36.3870 
   65.3750     2.0480    69.6020    27.7170    10.5430     6.6310     8.3830   -36.4750 
   65.5000     2.0510    70.1960    27.7760    10.5640     6.7000     8.5070   -36.4110 
   65.6250     2.0520    70.0430    27.6970    10.7150     6.7930     8.7110   -36.1680 
   65.7500     2.0640    69.0700    27.4170    10.7120     6.8790     8.8960   -35.9320 
   65.8750     2.0900    68.0770    26.9050    10.5620     6.9340     8.9870   -35.6090 
   66.0000     2.1170    69.3970    26.3230    10.5870     6.9460     8.9660   -35.1540 
   66.1250     2.1270    71.8320    25.7740    10.8060     6.9190     8.8820   -34.7070 
