~V
VERS. 2.00: Ver 2.00
~W
STRT.M 60.0000:
STOP.M 256.0000:
STEP.M 0.1250:
NULL. -999.2500:
UWI. DF5048:
~C
DEPT.M :
GR.API :
CALI.CM :
RXO.OHMM :
RI. :
RML.OHMM :
DEN.GM/CC :
SP.MV :
~A
# ...
  217.5000    63.8480    24.9400    91.2940    91.8250    87.9820     2.1550   -25.1630 
  217.6250    65.6500    24.9330    95.4970    91.1130    87.4490     2.1500   -25.0080 
  217.7500    67.8200    24.9260    89.8410    89.5060    86.3840     2.1480   -24.8510 
  217.8750    69.2880    24.9210    78.7600    88.2670    86.0290     2.1470   -24.7360 
  218.0000    69.9760    24.9230    75.5660    88.5350    87.3020     2.1470   -24.6260 
  218.1250    69.4490    24.9530    89.2740    90.6840    90.2460     2.1470   -24.4660 
  218.2500    67.8650    25.0100   112.3240    93.2520    93.2280     2.1490   -24.2480 
  218.3750    64.4410    25.0690   125.5670    94.6550    94.6310     2.1500   -24.0430 
  218.5000    60.4880    25.1020   114.9760    93.6760    93.3800     2.1500   -23.9180 
  218.6250    59.3150    25.1070    92.6890    89.9560    89.4490     2.1480   -23.7670 
  218.7500    61.5140    25.1040    78.6710    85.2850    84.8790     2.1430   -23.6740 
  218.8750    64.3160    25.1090    75.0800    81.1640    81.1510     2.1350   -23.5670 
  219.0000    64.8480    25.1340    77.8180    78.4950    78.9730     2.1270   -23.4730 
  219.1250    62.8660    25.1740    78.1580    77.5430    78.3610     2.1210   -23.3630 
  219.2500    62.1750    25.1980    77.5870    77.4030    78.3390     2.1190   -23.3330 
  219.3750    64.6500    25.1870    77.4610    77.3750    78.2530     2.1230   -23.3070 
  219.5000    67.7750    25.1510    76.5690    77.0020    77.7490     2.1310   -23.2590 
  219.6250    66.5840    25.1220    72.3870    76.1430    76.7830     2.1390   -23.3260 
  219.7500    62.1670    25.1050    69.0650    75.1020    75.6830     2.1450   -23.3600 
  219.8750    58.2260    25.0880    67.9310    74.1120    74.6740     2.1470   -23.4120 
  220.0000    57.4280    25.0650    66.9220    73.2810    73.8510     2.1480   -23.4420 
  220.1250    59.9160    25.0470    64.6790    72.5710    73.1810     2.1490   -23.5580 
  220.2500    63.9410    25.0410    64.9670    71.8330    72.5220     2.1520   -23.6650 
  220.3750    66.1940    25.0390    65.8990    71.0060    71.8160     2.1580   -23.7580 
  220.5000    64.8140    25.0370    64.4640    70.1180    71.0980     2.1680   -23.8630 
  220.6250    62.4020    25.0350    61.7900    69.2930    70.4890     2.1790   -23.8970 
  220.7500    62.5690    25.0320    60.4850    68.6350    70.0590     2.1860   -23.9880 
  220.8750    64.4770    25.0290    62.0390    68.1730    69.8030     2.1860   -24.0480 
  221.0000    64.9230    25.0290    65.4110    67.8600    69.6410     2.1820   -24.1440 
  221.1250    64.6240    25.0280    66.4560    67.6060    69.4730     2.1790   -24.1540 
  221.2500    65.6890    25.0210    66.8460    67.3450    69.2750     2.1810   -24.1560 
  221.3750    67.6880    25.0050    65.9220    67.1120    69.1170     2.1890   -24.1440 
  221.5000    69.2100    24.9880    64.0070    67.0030    69.1130     2.2000   -24.1250 
  221.6250    70.7160    24.9790    64.3540    67.1240    69.3630     2.2120   -24.1360 
  221.7500    70.8990    24.9760    65.7420    67.3890    69.7390     2.2210   -24.1160 
  221.8750    68.5820    24.9750    66.4330    67.6020    69.9840     2.2270   -24.1330 
  222.0000    64.9390    24.9760    65.8910    67.4330    69.7150     2.2280   -24.1190 
  222.1250    62.7400    24.9850    64.4530    66.4120    68.4500     2.2250   -24.1010 
  222.2500    62.6600    24.9940    61.9730    64.6290    66.3750     2.2170   -24.0370 
  222.3750    64.9550    24.9950    57.3200    62.3430    63.8160     2.2080   -23.9550 
  222.5000    68.6400    24.9990    53.3100    59.8200    61.0670     2.2010   -23.8820 
  222.6250    69.8220    25.0120    50.7410    57.0770    58.1500     2.1970   -23.7180 
  222.7500    67.5590    25.0050    51.8630    53.9710    54.8940     2.1980   -23.5340 
  222.8750    63.8000    24.9720    52.6650    50.3300    51.1610     2.2040   -23.2940 
  223.0000    60.5600    24.9570    50.0610    46.2730    47.1550     2.2140   -23.0280 
  223.1250    60.0660    25.0010    43.7460    42.4950    43.7120     2.2260   -22.7930 
  223.2500    62.3570    25.0610    38.7650    39.7940    41.6370     2.2360   -22.5970 
  223.3750    64.9210    25.0930    39.9020    38.6970    41.4540     2.2400   -22.4210 
  223.5000    66.3290    25.1000    40.5080    39.4920    43.3910     2.2330   -22.1670 
  223.6250    66.8930    25.1000    40.3460    42.5680    47.6780     2.2190   -21.9360 
  223.7500    66.8200    25.0960    49.8400    47.2890    53.4650     2.2060   -21.6610 
  223.8750    65.0290    25.0790    60.5040    52.9700    59.9830     2.2000   -21.4050 
  224.0000    62.9470    25.0540    63.3670    58.7250    66.3890     2.2000   -21.1790 
  224.1250    63.6010    25.0410    64.0920    63.6360    71.8970     2.2000   -20.9340 
  224.2500    64.8480    25.0300    71.8490    67.6270    76.5510     2.1970   -20.6670 
  224.3750    63.5520    24.9670    78.4070    70.9960    80.6680     2.1920   -20.3950 
  224.5000    60.3310    24.8120    78.2110    74.1200    84.5770     2.1890   -20.1850 
  224.6250    61.4790    24.6140    77.8290    77.0710    88.2570     2.1880   -19.9960 
  224.7500    65.9240    24.4800    81.5910    79.6150    91.4020     2.1880   -19.8770 
  224.8750    67.8390    24.4340    86.4750    81.4330    93.6300     2.1890   -19.7440 
  225.0000    66.1900    24.4330    87.4570    82.2580    94.5880     2.1900   -19.6180 
  225.1250    65.5060    24.4350    81.0360    81.7020    93.7260     2.1950   -19.4740 
  225.2500    65.4760    24.4350    73.2730    79.9440    91.2310     2.2040   -19.3550 
  225.3750    62.6400    24.4360    69.7270    77.1270    87.2740     2.2130   -19.2550 
  225.5000    57.4690    24.4390    68.1390    73.4800    82.1720     2.2210   -19.1540 
  225.6250    55.4020    24.4400    65.9530    69.2510    76.3360     2.2220   -19.1170 
  225.7500    58.1240    24.4370    63.1220    64.9870    70.5850     2.2180   -19.0290 
  225.8750    62.2240    24.4310    57.0690    61.2570    65.7340     2.2110   -18.9770 
  226.0000    63.5570    24.4470    51.3690    58.7400    62.6790     2.2120   -18.8670 
  226.1250    62.3830    24.5540    45.9970    58.6420    62.8840     2.2360   -18.8000 
  226.2500    62.6240    24.7390    50.7570    61.4960    66.5420     2.2830   -18.7480 
  226.3750    64.4280    24.9440    62.8690    67.3950    73.0890     2.3490   -18.7290 
  226.5000    67.2930    25.0980    73.7580    74.1440    79.4140     2.4270   -18.7700 
  226.6250    69.7700    25.1310    82.1560    73.8190    76.7890     2.4970   -18.7420 
  226.7500    69.8930    25.0670   101.0360    61.6390    61.7070     2.5370   -18.7970 
  226.8750    68.0040    24.9670   105.8540    42.2850    40.2590     2.5370   -18.8660 
  227.0000    67.8090    24.8850    73.4640    24.9190    22.2010     2.5050   -19.0440 
  227.1250    71.2980    24.8030    34.5590    14.6980    12.4360     2.4580   -19.2670 
  227.2500    73.6350    24.7100    10.3430     9.3080     7.7500     2.4190   -19.5320 
  227.3750    75.5700    24.6430     5.1700     6.8160     5.8600     2.4000   -19.8200 
  227.5000    80.8560    24.6350     5.4880     5.9230     5.3980     2.3990   -20.0690 
  227.6250    89.5350    24.7180     7.0140     6.1000     5.8170     2.4070   -20.4490 
  227.7500    93.0090    24.8650     8.4640     6.8440     6.6450     2.4090   -20.7770 
  227.8750    88.4810    25.0120     9.0130     7.8370     7.5610     2.4010   -21.1090 
  228.0000    82.2290    25.1000     8.8410     8.7080     8.2220     2.3880   -21.3740 
  228.1250    81.6760    25.1270     8.6000     9.0990     8.3810     2.3770   -21.6200 
  228.2500    85.5310    25.1560     8.3840     9.0850     8.2250     2.3700   -21.8470 
  228.3750    89.2030    25.1850     8.1800     8.8400     7.9470     2.3670   -22.0880 
  228.5000    91.2570    25.1830     8.2180     8.5300     7.6940     2.3660   -22.3560 
  228.6250    93.1290    25.1490     8.3630     8.2700     7.5700     2.3680   -22.5750 
