~V
VERS. 2.00: Ver 2.00
~W
STRT.M 50.0000:
STOP.M 258.0000:
STEP.M 0.1250:
NULL. -999.2500:
UWI. DF5038:
~C
DEPT.M :
GR.API :
CALI.CM :
RXO.OHMM :
RI. :
RML.OHMM :
DEN.GM/CC :
SP.MV :
~A
# ...
  230.0000   102.9920    26.4030     9.0120     8.4800     8.9970     2.4370   -27.2240 
  230.1250   106.5170    26.4030     9.1260     8.4710     9.0990     2.4360   -27.3100 
  230.2500   105.5510    26.4030     9.2570     8.4090     9.1420     2.4340   -27.4410 
  230.3750   103.6050    26.4030     9.3510     8.2660     9.0860     2.4310   -27.5580 
  230.5000   103.5050    26.4030     9.4380     8.0520     8.9390     2.4280   -27.7430 
  230.6250   103.5220    26.4030     9.6170     7.8590     8.8300     2.4260   -27.9720 
  230.7500   103.1990    26.4030     9.8930     7.8620     9.0110     2.4250   -28.2520 
  230.8750   104.7640    26.4030    10.4990     8.2680     9.8010     2.4230   -28.5780 
  231.0000   106.3090    26.4030    11.2990     9.3440    11.6310     2.4220   -28.9020 
  231.1250   102.2180    26.4030    14.8790    11.7680    15.5220     2.4260   -29.3010 
  231.2500    93.0980    26.4030    27.1090    16.1430    22.1010     2.4290   -29.7070 
  231.3750    82.5970    26.4030    46.9100    23.3410    32.0700     2.4190   -30.2410 
  231.5000    73.4280    26.4030    60.7060    33.9320    45.5630     2.3910   -30.7740 
  231.6250    67.2310    26.4030    65.6260    47.5530    61.5900     2.3530   -31.3720 
  231.7500    63.1230    26.4030    71.2450    61.0920    76.8240     2.3210   -31.9550 
  231.8750    60.7090    26.4030    78.6810    71.8750    88.5890     2.2990   -32.4960 
  232.0000    59.7620    26.4030    83.7180    78.7950    95.9690     2.2860   -33.0620 
  232.1250    60.9240    26.4030    82.7880    82.2360    99.7840     2.2790   -33.5150 
  232.2500    62.8720    26.4030    89.7560    84.2580   102.4650     2.2740   -33.9680 
  232.3750    64.3380    26.4030    94.7650    85.9810   105.2010     2.2690   -34.2560 
  232.5000    64.8350    26.4030    89.1210    88.2450   108.7740     2.2640   -34.5750 
  232.6250    63.7240    26.4030    89.3320    91.6780   113.6350     2.2620   -34.8430 
  232.7500    62.1470    26.4030    94.7990    95.8410   119.0370     2.2620   -35.0110 
  232.8750    61.5550    26.4030   100.2010   100.1080   124.1390     2.2600   -35.2610 
  233.0000    62.6950    26.4030   102.4620   103.8940   128.2630     2.2530   -35.3860 
  233.1250    63.4360    26.4020   102.6690   106.7260   130.9270     2.2400   -35.5800 
  233.2500    62.5020    26.3990   101.0660   108.7560   132.5220     2.2300   -35.7250 
  233.3750    61.5790    26.3960    98.6210   110.2100   133.4380     2.2260   -35.9790 
  233.5000    62.3230    26.3920    97.9610   111.2880   133.9500     2.2310   -36.0880 
  233.6250    63.5420    26.3770    99.0860   111.8040   133.7860     2.2430   -36.2480 
  233.7500    63.6670    26.3520   103.8060   111.4620   132.5370     2.2540   -36.4350 
  233.8750    63.0100    26.3240   106.7640   109.9800   129.8700     2.2580   -36.5270 
  234.0000    62.2980    26.2960   102.1140   107.3410   125.8210     2.2570   -36.6980 
  234.1250    62.3340    26.2660    90.9540   103.8310   120.8530     2.2570   -36.8740 
  234.2500    63.1730    26.2360    81.4630   100.2700   115.9900     2.2600   -37.1120 
  234.3750    63.9950    26.2110    74.9630    97.2020   111.8380     2.2640   -37.2630 
  234.5000    63.5770    26.1860    71.7610    94.8690   108.5860     2.2660   -37.5270 
  234.6250    64.1290    26.1480    71.1660    93.2040   106.0330     2.2640   -37.6400 
  234.7500    66.2760    26.1010    71.8540    91.6960   103.5640     2.2580   -37.8720 
  234.8750    67.9940    26.0320    72.6580    90.0690   100.9300     2.2510   -38.1220 
  235.0000    67.2470    25.9310    71.5040    88.3720    98.3120     2.2480   -38.3990 
  235.1250    66.4100    25.8300    67.4460    87.1370    96.4460     2.2500   -38.6390 
  235.2500    66.1900    25.7550    65.2640    86.8420    95.8240     2.2570   -38.8510 
  235.3750    63.8280    25.6830    66.0620    87.6950    96.5780     2.2660   -39.0810 
  235.5000    61.0090    25.5970    68.1340    89.4720    98.3210     2.2720   -39.3750 
  235.6250    62.2470    25.5360    68.3700    91.3590    99.9870     2.2740   -39.7670 
  235.7500    65.6880    25.5210    65.7750    92.2680   100.3610     2.2790   -39.9820 
  235.8750    67.5460    25.5240    61.9640    91.5670    98.8380     2.2960   -40.2890 
  236.0000    67.9210    25.5210    57.8500    89.2490    95.5920     2.3290   -40.4250 
  236.1250    69.7450    25.5180    54.3020    85.8910    91.4800     2.3700   -40.5620 
  236.2500    72.4880    25.5150    49.5860    82.6350    87.7650     2.3970   -40.6080 
  236.3750    76.0770    25.5150    45.6770    80.1720    85.1410     2.3980   -40.6670 
  236.5000    79.9950    25.5150    42.6280    78.8550    83.9000     2.3740   -40.5470 
  236.6250    81.6580    25.5150    38.9580    78.8980    84.2010     2.3450   -40.3670 
  236.7500    80.8970    25.5140    37.6010    79.9130    85.5670     2.3320   -40.2050 
  236.8750    79.8140    25.5080    40.0030    81.6950    87.7670     2.3370   -39.8970 
  237.0000    80.5880    25.5280    45.2880    84.0440    90.5580     2.3500   -39.6130 
  237.1250    81.7720    25.6610    49.8730    86.5850    93.4910     2.3560   -39.2520 
  237.2500    81.7950    25.8690    53.2170    88.6900    95.8710     2.3540   -38.9030 
  237.3750    79.8420    26.0390    54.2750    89.8820    97.1870     2.3460   -38.4990 
  237.5000    75.8610    26.1020    53.8810    89.9880    97.2840     2.3370   -38.0760 
  237.6250    71.7950    26.0940    51.4190    89.1260    96.3370     2.3270   -37.6660 
  237.7500    70.5740    26.0910    47.5610    87.9260    95.0470     2.3110   -37.1860 
  237.8750    72.1690    26.0920    45.6960    86.6950    93.7060     2.2880   -36.7560 
  238.0000    72.4160    26.0920    46.5380    85.4190    92.2320     2.2640   -36.3190 
  238.1250    67.7740    26.0920    47.4990    83.8410    90.2850     2.2470   -35.8880 
  238.2500    63.1770    26.0920    48.4660    81.9420    87.8890     2.2400   -35.4680 
  238.3750    62.7340    26.0930    48.3420    79.8360    85.2330     2.2350   -35.0220 
  238.5000    65.4890    26.0940    47.2820    77.7420    82.6470     2.2270   -34.5810 
  238.6250    66.7790    26.0650    45.7670    76.0920    80.6630     2.2190   -34.0460 
  238.7500    66.1930    26.0070    46.0160    74.9710    79.2660     2.2280   -33.5990 
  238.8750    65.1980    25.9500    47.9240    73.9530    77.8680     2.2650   -33.0470 
  239.0000    63.9660    25.9240    48.3290    72.2260    75.5510     2.3230   -32.5440 
  239.1250    60.9690    25.9260    48.7210    68.8900    71.4480     2.3710   -31.9910 
  239.2500    57.7190    25.9270    51.0420    64.3230    66.1600     2.3830   -31.4790 
  239.3750    55.4550    25.9270    51.0930    59.3410    60.6710     2.3560   -30.9580 
  239.5000    54.1720    25.9270    45.3940    54.9560    56.0650     2.3090   -30.5370 
  239.6250    54.3890    25.9270    39.1320    52.1540    53.3120     2.2680   -30.1020 
  239.7500    56.6590    25.9270    39.5290    50.8140    52.1430     2.2420   -29.7010 
  239.8750    59.9360    25.9260    42.7950    50.6010    52.1260     2.2280   -29.4230 
  240.0000    60.6490    25.9280    45.1010    51.0200    52.6870     2.2210   -29.0420 
  240.1250    56.9400    25.9300    45.8510    51.4870    53.1900     2.2180   -28.8180 
  240.2500    53.3110    25.9200    45.6920    51.5740    53.2630     2.2210   -28.5330 
  240.3750    53.2580    25.8990    45.1790    51.2120    52.9050     2.2310   -28.3250 
  240.5000    55.7970    25.8720    44.7630    50.5410    52.2920     2.2430   -28.0600 
  240.6250    56.1010    25.8210    44.3390    49.6820    51.5150     2.2540   -27.8970 
  240.7500    54.9820    25.7480    42.9640    48.6230    50.4840     2.2610   -27.6390 
  240.8750    56.3970    25.6840    40.4570    47.2160    49.0060     2.2590   -27.4000 
  241.0000    60.2010    25.6580    38.2380    45.3680    46.9840     2.2490   -27.2490 
  241.1250    61.7660    25.6600    37.8990    43.1890    44.5860     2.2350   -27.0630 
