~V
VERS. 2.00: Ver 2.00
~W
STRT.M 64.0000:
STOP.M 271.0000:
STEP.M 0.1250:
NULL. -999.2500:
UWI. DF5037:
~C
DEPT.M :
SP.MV :
GR.API :
RML.OHMM :
RI. :
RXO.OHMM :
CALI.CM :
DEN.GM/CC :
~A
# ...
  244.0000   -11.1170    74.7920     9.4100     9.0330     9.8260    23.4720     2.3290 
  244.1250   -11.2090    72.9140     9.2030     8.8040    10.5270    23.4090     2.3200 
  244.2500   -11.3590    73.1990     9.2910     8.8750    10.6870    23.2940     2.3230 
  244.3750   -11.5620    71.5360     9.4810     9.0690    10.5180    23.2250     2.3330 
  244.5000   -11.7780    68.6670     9.6650     9.2810    10.3590    23.2040     2.3420 
  244.6250   -11.9700    69.6420     9.7910     9.4420    10.3300    23.2000     2.3480 
  244.7500   -12.1710    77.0820     9.8490     9.5210    10.3900    23.1950     2.3490 
  244.8750   -12.4170    83.5680     9.8860     9.5410    10.4910    23.1200     2.3490 
  245.0000   -12.7100    82.0010     9.9180     9.5150    10.7280    22.9200     2.3510 
  245.1250   -12.9990    78.9420     9.9350     9.4470    11.0800    22.6680     2.3570 
  245.2500   -13.1880    81.8790     9.8960     9.3250    11.3530    22.6940     2.3660 
  245.3750   -13.2580    84.9220     9.7760     9.1620    11.2760    22.8030     2.3740 
  245.5000   -13.2590    82.8910     9.5840     8.9790    10.7060    22.9330     2.3780 
  245.6250   -13.2290    77.2950     9.3610     8.8050    10.2340    23.1400     2.3790 
  245.7500   -13.1460    72.1110     9.1920     8.6840    10.1560    23.3630     2.3810 
  245.8750   -12.9810    65.6950     9.1570     8.6250    10.3500    23.4890     2.3840 
  246.0000   -12.7150    62.5260     9.1930     8.6270    10.5270    23.5240     2.3850 
  246.1250   -12.3970    68.0010     9.2820     8.6760    10.7160    23.5280     2.3830 
  246.2500   -12.0640    75.7060     9.4250     8.7590    10.7950    23.5320     2.3780 
  246.3750   -11.7830    80.4030     9.5760     8.8610    10.8660    23.5360     2.3730 
  246.5000   -11.5750    83.1050     9.7370     8.9810    10.9400    23.5300     2.3690 
  246.6250   -11.4130    84.2560     9.9190     9.1240    11.0420    23.5130     2.3700 
  246.7500   -11.2550    81.7640    10.1220     9.2880    11.2440    23.5120     2.3770 
  246.8750   -11.1000    77.0780    10.3240     9.4570    11.4820    23.5280     2.3880 
  247.0000   -10.9870    70.3560    10.5100     9.6170    11.6500    23.5320     2.3990 
  247.1250   -10.9410    62.2250    10.6700     9.7540    11.7500    23.5230     2.4050 
  247.2500   -10.9680    58.4460    10.8060     9.8700    11.7540    23.4900     2.4030 
  247.3750   -10.9730    61.7030    10.9530     9.9940    11.6690    23.4300     2.3970 
  247.5000   -10.9240    68.7070    11.1520    10.1670    11.6930    23.3890     2.3900 
  247.6250   -10.8530    73.7060    11.4420    10.4250    11.9300    23.4240     2.3850 
  247.7500   -10.8300    72.6540    11.8520    10.7950    12.2460    23.5580     2.3830 
  247.8750   -10.8590    68.9160    12.3170    11.2210    12.7270    23.6460     2.3810 
  248.0000   -10.8830    66.0000    12.7530    11.6300    13.2050    23.6400     2.3760 
  248.1250   -10.8390    66.1500    13.0640    11.9420    13.5510    23.6280     2.3700 
  248.2500   -10.7380    67.7380    13.1490    12.0680    13.8420    23.5640     2.3660 
  248.3750   -10.7010    71.0590    13.0470    12.0320    13.4650    23.4750     2.3690 
  248.5000   -10.7140    75.6770    12.8290    11.8790    13.1370    23.4430     2.3790 
  248.6250   -10.7150    78.5950    12.5780    11.6770    12.9810    23.5420     2.3940 
  248.7500   -10.6490    76.7920    12.3810    11.4940    12.7270    23.6610     2.4060 
  248.8750   -10.5470    72.1980    12.2820    11.3810    12.5710    23.7110     2.4110 
  249.0000   -10.4670    70.5380    12.3290    11.3790    12.4970    23.7190     2.4100 
  249.1250   -10.4330    72.7620    12.5800    11.5380    12.5850    23.7190     2.4050 
  249.2500   -10.4190    78.7000    13.1290    11.9430    12.8290    23.7120     2.4050 
  249.3750   -10.3340    84.8360    13.9110    12.5600    13.4750    23.6980     2.4140 
  249.5000   -10.2040    84.8190    14.8070    13.3140    14.8110    23.6840     2.4350 
  249.6250   -10.0950    76.2450    15.6350    14.0700    16.7610    23.6660     2.4630 
  249.7500   -10.0430    64.9250    16.1630    14.6320    19.2010    23.6260     2.4850 
  249.8750   -10.0450    60.1440    16.3610    14.9240    21.2760    23.6380     2.4940 
  250.0000   -10.0340    61.3030    16.3070    14.9690    21.6210    23.6820     2.4910 
  250.1250    -9.9890    63.6150    16.1550    14.8710    19.6990    23.7130     2.4800 
  250.2500    -9.9520    66.8180    16.0770    14.7740    17.4440    23.7220     2.4700 
  250.3750    -9.9790    69.0440    16.1290    14.7650    16.7280    23.7220     2.4630 
  250.5000   -10.0200    69.1380    16.2980    14.8550    16.7110    23.7160     2.4590 
  250.6250   -10.0360    69.2630    16.5370    15.0150    16.6910    23.7000     2.4570 
  250.7500   -10.0370    72.8260    16.8030    15.2060    16.6620    23.6840     2.4580 
  250.8750   -10.0230    77.2920    17.0620    15.3950    16.7220    23.7120     2.4600 
  251.0000   -10.0000    77.6850    17.2920    15.5680    16.6500    23.7760     2.4640 
  251.1250    -9.9670    75.1600    17.4610    15.7080    16.5810    23.8340     2.4700 
  251.2500    -9.9410    72.8530    17.5060    15.7720    16.6830    23.8520     2.4760 
  251.3750    -9.9270    69.6470    17.4160    15.7400    16.9150    23.8580     2.4810 
  251.5000    -9.9400    65.0500    17.2110    15.6120    17.1490    23.8590     2.4840 
  251.6250    -9.9470    64.1870    16.9540    15.4190    17.1180    23.8580     2.4840 
  251.7500    -9.9220    70.1690    16.7610    15.2400    16.7880    23.8430     2.4830 
  251.8750    -9.8730    73.3420    16.7270    15.1650    16.2020    23.7900     2.4820 
  252.0000    -9.8560    69.9790    16.9080    15.2540    15.6580    23.7060     2.4820 
  252.1250    -9.8960    67.5660    17.3060    15.5260    15.3750    23.6520     2.4830 
  252.2500    -9.9430    74.4590    17.8800    15.9620    15.9260    23.7000     2.4800 
  252.3750    -9.9260    80.0490    18.4840    16.4430    17.3760    23.7610     2.4750 
  252.5000    -9.8900    80.4790    19.0130    16.8770    19.0400    23.8090     2.4680 
  252.6250    -9.8880    79.0380    19.3960    17.1930    20.2800    23.7920     2.4630 
  252.7500    -9.9020    78.1230    19.6190    17.3570    20.5410    23.6930     2.4620 
  252.8750    -9.9180    77.7120    19.7920    17.4410    20.2180    23.5930     2.4630 
  253.0000    -9.9160    77.8840    20.0120    17.5210    19.9030    23.5460     2.4670 
  253.1250    -9.8870    78.6570    20.3550    17.6700    19.7340    23.5100     2.4720 
  253.2500    -9.8140    75.9740    20.8910    17.9690    19.7230    23.3920     2.4770 
  253.3750    -9.7510    72.0600    21.5920    18.4320    19.9140    23.2930     2.4810 
  253.5000    -9.7070    72.3210    22.4400    19.0630    20.0110    23.3610     2.4810 
  253.6250    -9.6650    73.6830    23.3980    19.8410    20.0540    23.4870     2.4760 
  253.7500    -9.5850    70.6480    24.4150    20.7320    20.2620    23.6190     2.4640 
  253.8750    -9.5140    67.8950    25.4210    21.6530    20.6260    23.6970     2.4520 
  254.0000    -9.4350    71.7310    26.3840    22.5620    21.3500    23.7550     2.4450 
  254.1250    -9.3460    79.1750    27.2650    23.4210    22.5380    23.7830     2.4490 
  254.2500    -9.2690    77.6950    27.8660    24.1150    24.4010    23.7890     2.4660 
  254.3750    -9.1830    70.0640    27.9850    24.4440    26.5030    23.7890     2.4920 
  254.5000    -9.0920    64.8220    27.2490    24.1000    28.8620    23.7890     2.5200 
  254.6250    -8.9840    64.9690    25.5080    22.7930    30.8230    23.7890     2.5380 
  254.7500    -8.9210    66.8310    22.5060    20.3190    30.5670    23.7890     2.5360 
  254.8750    -8.8330    67.2940    19.1170    17.2320    26.6900    23.7930     2.5180 
  255.0000    -8.7690    68.5240    15.8790    14.1060    18.9520    23.8070     2.4910 
  255.1250    -8.7190    69.8140    12.7960    11.4320    11.5550    23.8380     2.4670 
