~V
VERS. 2.00: Ver 2.00
~W
STRT.M 55.0000:
STOP.M 268.0000:
STEP.M 0.1250:
NULL. -999.2500:
UWI. DF5025:
~C
DEPT.M :
SP.MV :
GR.API :
CALI.CM :
RXO.OHMM :
RI. :
RML.OHMM :
DEN.GM/CC :
~A
# ...
  145.0000   -14.8960    91.6380    24.3140     5.5010     5.4440     5.9740     2.3230 
  145.1250   -14.7640    91.5360    24.3050     5.3980     5.4190     5.9410     2.3280 
  145.2500   -14.6700    91.2710    24.3170     5.3310     5.3860     5.8990     2.3310 
  145.3750   -14.6110    92.5420    24.3510     5.3300     5.3440     5.8450     2.3340 
  145.5000   -14.5720    94.9940    24.3830     5.3590     5.3090     5.8000     2.3410 
  145.6250   -14.5470    96.7310    24.3900     5.3530     5.2930     5.7800     2.3580 
  145.7500   -14.5270    94.6720    24.3830     5.3430     5.2820     5.7660     2.3790 
  145.8750   -14.4910    90.1090    24.3750     5.4310     5.2680     5.7480     2.3940 
  146.0000   -14.4400    86.7190    24.3690     5.6540     5.2830     5.7660     2.3980 
  146.1250   -14.3630    87.0830    24.3600     5.9060     5.4310     5.9560     2.3980 
  146.2500   -14.2750    86.7140    24.3500     6.2950     5.7890     6.4170     2.4080 
  146.3750   -14.1840    83.5970    24.3440     7.5340     6.3940     7.1950     2.4280 
  146.5000   -14.1110    79.4570    24.3410    10.4180     7.1930     8.2230     2.4580 
  146.6250   -14.0860    75.3160    24.3350    14.3190     7.9860     9.2420     2.4940 
  146.7500   -14.1130    71.3030    24.3220    16.4430     8.5000     9.9030     2.5190 
  146.8750   -14.2100    69.4410    24.3090    15.1950     8.5800    10.0060     2.5120 
  147.0000   -14.3670    71.3820    24.3170    11.5400     8.2430     9.5720     2.4640 
  147.1250   -14.5610    74.1470    24.2210     8.3780     7.6490     8.8080     2.3980 
  147.2500   -14.7600    75.0990    24.4170     7.1020     7.0540     8.0440     2.3520 
  147.3750   -14.9490    76.3890    25.6290     7.0700     6.5640     7.4140     2.3440 
  147.5000   -15.1310    78.4780    27.1580     7.1460     6.2040     6.9510     2.3690 
  147.6250   -15.2730    81.0830    27.0290     6.6880     5.9810     6.6640     2.3920 
  147.7500   -15.3660    83.3710    25.5470     6.0090     5.8730     6.5250     2.3890 
  147.8750   -15.3920    83.4280    24.3400     5.5600     5.8930     6.5510     2.3660 
  148.0000   -15.3490    81.4080    24.1690     5.7740     6.0500     6.7480     2.3490 
  148.1250   -15.2770    78.8530    24.2630     7.2100     6.3300     7.1330     2.3670 
  148.2500   -15.1970    76.9930    24.2530     9.3810     6.7650     7.6270     2.4130 
  148.3750   -15.1170    75.7060    24.2410    11.1310     7.4710     8.2120     2.4660 
  148.5000   -15.0200    74.7200    24.2780    11.5780     8.4630     9.0260     2.5010 
  148.6250   -14.9400    73.9270    24.5980    11.6840     9.6860    10.4430     2.5070 
  148.7500   -14.8960    72.7810    25.0430    13.4520    11.0880    12.4300     2.5080 
  148.8750   -14.9100    69.9900    25.1960    16.8090    12.5950    14.5440     2.5280 
  149.0000   -14.9900    64.7890    25.0210    19.5330    13.8000    15.9680     2.5710 
  149.1250   -15.1140    61.5420    25.3250    18.8510    13.9580    15.7410     2.6090 
  149.2500   -15.2830    64.4310    26.1640    15.2960    12.7210    13.8480     2.6070 
  149.3750   -15.5030    71.8170    26.4670    10.6340    10.1870    10.8090     2.5560 
  149.5000   -15.7670    79.2790    25.6570     6.9320     7.4140     7.8940     2.4790 
  149.6250   -16.0570    99.9860    23.9610     5.7430     6.0740     6.6810     2.4120 
  149.7500   -16.3480    92.6080    23.6160     6.2800     6.2690     7.0650     2.3650 
  149.8750   -16.6200    85.9450    23.2870     7.6930     7.3420     8.4160     2.3370 
  150.0000   -16.8560    83.1530    23.0800     9.7940     8.8430    10.3440     2.3280 
  150.1250   -17.0590    80.2620    22.9810    12.9530    10.8320    12.9020     2.3390 
  150.2500   -17.2260    76.7060    22.9350    16.3820    12.9610    15.6390     2.3710 
  150.3750   -17.3440    73.4650    22.9080    18.9910    14.8330    18.0450     2.4250 
  150.5000   -17.4070    69.3970    22.9790    20.0500    16.0980    19.6720     2.4930 
  150.6250   -17.4050    64.8400    23.3470    19.5760    16.5680    20.2750     2.5520 
  150.7500   -17.3670    61.8660    23.8750    18.6340    16.6100    20.3300     2.5830 
  150.8750   -17.3190    61.3960    24.2970    17.9500    16.5370    20.2360     2.5870 
  151.0000   -17.2710    61.6480    24.4770    18.0450    16.5490    20.2520     2.5760 
  151.1250   -17.2250    61.4570    24.5370    19.1550    16.7080    20.4560     2.5640 
  151.2500   -17.1870    61.6420    24.6100    20.5360    16.9240    20.7340     2.5620 
  151.3750   -17.1530    62.4120    24.6420    21.4190    17.1320    21.0010     2.5800 
  151.5000   -17.1340    62.5390    24.6340    21.4270    17.3110    21.2310     2.6150 
  151.6250   -17.1430    61.3000    24.6370    20.8400    17.4990    21.4730     2.6420 
  151.7500   -17.1720    60.9350    24.6400    20.4580    17.7380    21.7800     2.6440 
  151.8750   -17.2010    60.8030    24.5830    20.6810    18.0150    22.1360     2.6280 
  152.0000   -17.2280    59.4150    24.4950    21.5040    18.2460    22.4340     2.6160 
  152.1250   -17.2410    57.1580    24.4830    22.4980    18.2670    22.4600     2.6150 
  152.2500   -17.2360    57.0880    24.4840    22.9560    18.0300    22.1560     2.6070 
  152.3750   -17.2190    60.1860    24.4460    22.4700    17.5920    21.5930     2.5820 
  152.5000   -17.1890    64.2150    24.4470    21.2110    17.1090    20.9710     2.5510 
  152.6250   -17.1470    64.8510    24.5900    20.1050    16.8100    20.5870     2.5390 
  152.7500   -17.0950    62.3770    24.7680    19.9610    16.7880    20.5590     2.5410 
  152.8750   -17.0250    59.7200    24.8570    20.7450    17.0210    20.8580     2.5440 
  153.0000   -16.9550    59.8750    24.8440    21.7680    17.3690    21.3060     2.5480 
  153.1250   -16.8990    61.1710    24.7370    22.1110    17.5740    21.5690     2.5600 
  153.2500   -16.8540    59.4480    24.6110    21.5970    17.4450    21.4030     2.5780 
  153.3750   -16.8030    55.3990    24.5130    20.4000    16.9310    20.7420     2.5890 
  153.5000   -16.7580    52.8070    24.4660    18.7640    16.1340    19.7170     2.5850 
  153.6250   -16.7260    54.0820    24.3910    16.9570    15.2940    18.6380     2.5700 
  153.7500   -16.7070    55.3440    24.4720    15.4410    14.6680    17.8340     2.5560 
  153.8750   -16.7260    54.3420    24.9580    14.6970    14.3880    17.4730     2.5430 
  154.0000   -16.7670    53.5020    25.8920    15.0180    14.4710    17.5800     2.5290 
  154.1250   -16.8210    55.7880    26.6820    16.2620    14.8380    18.0520     2.5200 
  154.2500   -16.8900    58.3610    26.5000    17.5230    15.2200    18.5420     2.5200 
  154.3750   -16.9920    59.8120    25.4260    18.1280    15.3900    18.7620     2.5280 
  154.5000   -17.1080    60.9060    24.3140    17.7500    15.1930    18.5080     2.5430 
  154.6250   -17.2200    62.3890    23.9940    16.4310    14.5490    17.6810     2.5540 
  154.7500   -17.3240    62.0800    24.1460    14.9280    13.6650    16.5430     2.5530 
  154.8750   -17.3860    60.3460    24.2670    13.8270    12.7200    15.3280     2.5400 
  155.0000   -17.4030    60.5610    24.3460    13.2830    11.8660    14.2310     2.5300 
  155.1250   -17.3800    60.3890    24.4580    12.8570    11.2220    13.4030     2.5370 
  155.2500   -17.3170    56.6420    24.5370    12.1050    10.7710    12.8220     2.5520 
  155.3750   -17.2060    53.1870    24.5450    11.1710    10.4920    12.4640     2.5600 
  155.5000   -17.0570    54.2250    24.5760    10.4690    10.3670    12.3040     2.5570 
  155.6250   -16.8880    56.3560    24.7380    10.3380    10.4070    12.3550     2.5510 
  155.7500   -16.7090    53.0920    24.9200    10.6300    10.5720    12.5670     2.5460 
  155.8750   -16.5550    49.3090    25.0010    11.1930    10.8260    12.8930     2.5430 
  156.0000   -16.4420    51.1860    24.9970    11.8390    11.1130    13.2630     2.5440 
  156.1250   -16.3820    55.1350    24.9650    12.2580    11.3610    13.5820     2.5500 
