~V
VERS. 2.00: Ver 2.00
~W
STRT.M 55.0000:
STOP.M 271.0000:
STEP.M 0.1250:
NULL. -999.2500:
UWI. DF5016:
~C
DEPT.M :
SP.MV :
GR.API :
CALI.CM :
RXO.OHMM :
RI. :
RML.OHMM :
DEN.GM/CC :
~A
# ...
  122.5000   -21.2520    72.5880    23.0470     8.9500     9.2270     9.9740     2.2160 
  122.6250   -21.4320    70.5760    23.1280     9.6250    10.1820    10.9820     2.2380 
  122.7500   -21.6280    69.1170    23.2250    10.4860    11.2130    12.0690     2.2890 
  122.8750   -21.8340    68.5100    23.2580    10.9800    12.1800    13.0900     2.3640 
  123.0000   -22.0400    68.7400    23.1450    10.7460    12.9240    13.8750     2.4430 
  123.1250   -22.2530    69.8540    22.7860    10.0720    13.2440    14.2130     2.4930 
  123.2500   -22.4920    71.1350    22.3450     9.5420    13.1570    14.1210     2.5010 
  123.3750   -22.7680    72.1890    22.0720     9.2650    12.7250    13.6640     2.4790 
  123.5000   -23.0710    73.5640    22.1400     9.1530    12.0820    12.9870     2.4510 
  123.6250   -23.3830    75.7090    22.3910     9.1200    11.4170    12.2850     2.4230 
  123.7500   -23.6920    77.0730    22.5190     9.1240    10.8780    11.7160     2.3780 
  123.8750   -24.0010    76.7320    22.3900     9.2150    10.5240    11.3430     2.3160 
  124.0000   -24.3110    75.3900    22.1010     9.5920    10.3670    11.1780     2.2610 
  124.1250   -24.6040    73.7920    21.7930    10.6660    10.3920    11.2040     2.2600 
  124.2500   -24.8550    72.0900    21.5850    12.2560    10.4920    11.3100     2.3100 
  124.3750   -25.0440    71.2980    21.4850    13.7590    10.5910    11.4140     2.3660 
  124.5000   -25.1710    72.4170    21.4200    14.2500    10.6280    11.4520     2.3710 
  124.6250   -25.2300    74.1760    21.2820    13.4800    10.5510    11.3710     2.3020 
  124.7500   -25.2290    74.5260    21.0590    12.4220    10.3950    11.2060     2.2210 
  124.8750   -25.1640    73.7040    20.8790    11.7870    10.2020    11.0030     2.1710 
  125.0000   -25.0430    73.0020    20.7960    11.5110    10.0150    10.8060     2.1580 
  125.1250   -24.8890    73.0420    20.6520    11.2720     9.8760    10.6590     2.1530 
  125.2500   -24.7360    73.5350    20.3790    10.9690     9.7810    10.5590     2.1380 
  125.3750   -24.5960    74.4020    20.0700    10.6840     9.7200    10.4950     2.1230 
  125.5000   -24.4650    75.0990    19.8910    10.4570     9.6790    10.4510     2.1220 
  125.6250   -24.3390    73.8700    19.9390    10.2740     9.6420    10.4120     2.1380 
  125.7500   -24.2280    70.9290    20.2000    10.1680     9.6050    10.3740     2.1550 
  125.8750   -24.1420    68.3070    20.6630    10.2140     9.5700    10.3370     2.1610 
  126.0000   -24.0800    68.2750    21.3100    10.3700     9.5440    10.3090     2.1560 
  126.1250   -24.0220    70.8360    21.8290    10.5120     9.5320    10.2960     2.1480 
  126.2500   -23.9530    72.8720    22.1600    10.5410     9.5340    10.2980     2.1510 
  126.3750   -23.8760    72.9070    22.3060    10.5600     9.5470    10.3120     2.1620 
  126.5000   -23.8070    71.6750    22.3500    10.5960     9.5680    10.3350     2.1720 
  126.6250   -23.7580    70.6260    22.3610    10.5700     9.6110    10.3790     2.1730 
  126.7500   -23.7200    69.7730    22.3570    10.5050     9.6820    10.4540     2.1660 
  126.8750   -23.6900    68.9940    22.2400    10.4990     9.7750    10.5530     2.1560 
  127.0000   -23.6750    68.8270    21.9780    10.5870     9.8700    10.6530     2.1470 
  127.1250   -23.6940    69.6310    21.7860    10.6970     9.9410    10.7280     2.1480 
  127.2500   -23.7420    70.7490    21.7470    10.8620     9.9820    10.7720     2.1570 
  127.3750   -23.7980    72.1260    21.7910    11.3450     9.9910    10.7810     2.1640 
  127.5000   -23.8360    74.0880    21.8700    12.1580     9.9640    10.7520     2.1660 
  127.6250   -23.8410    75.9780    22.0610    12.6910     9.9040    10.6890     2.1690 
  127.7500   -23.8190    76.3030    22.3750    12.2770     9.8260    10.6060     2.1760 
  127.8750   -23.7690    74.5130    22.6780    11.3830     9.7290    10.5040     2.1800 
  128.0000   -23.6730    71.7530    22.9050    10.8810     9.6000    10.3680     2.1740 
  128.1250   -23.5030    70.2280    23.0370    11.0230     9.4130    10.1710     2.1590 
  128.2500   -23.2690    70.1080    23.1730    11.2410     9.1580     9.9020     2.1450 
  128.3750   -22.9950    70.2890    23.2790    11.2450     8.8500     9.5770     2.1480 
  128.5000   -22.7070    70.7910    23.3170    10.9530     8.5240     9.2330     2.1770 
  128.6250   -22.4180    73.0310    23.2830    10.4600     8.2320     8.9250     2.2240 
  128.7500   -22.1270    77.0200    23.2000     9.9500     8.0110     8.6920     2.2620 
  128.8750   -21.8410    81.3780    23.0390     9.5950     7.8740     8.5470     2.2780 
  129.0000   -21.5760    84.7150    22.7920     9.5530     7.8090     8.4780     2.2750 
  129.1250   -21.3630    85.6030    22.5250     9.8290     7.8110     8.4810     2.2560 
  129.2500   -21.1920    83.7970    22.3090    10.0140     7.8520     8.5230     2.2310 
  129.3750   -21.0440    80.1760    22.1660     9.9100     7.9220     8.5970     2.2110 
  129.5000   -20.8940    77.5010    22.0880     9.6690     8.0030     8.6830     2.2070 
  129.6250   -20.7290    78.5210    22.0820     9.4560     8.0840     8.7680     2.2150 
  129.7500   -20.5560    81.3780    22.1030     9.3520     8.1480     8.8360     2.2150 
  129.8750   -20.3750    83.7050    22.1120     9.3860     8.1790     8.8690     2.2030 
  130.0000   -20.1740    84.7600    22.1240     9.4670     8.1450     8.8330     2.1950 
  130.1250   -19.9400    84.8360    22.2190     9.2890     8.0050     8.6850     2.2070 
  130.2500   -19.6910    83.9700    22.3450     8.8770     7.7530     8.4190     2.2260 
  130.3750   -19.4530    82.6280    22.4220     8.5250     7.4000     8.0470     2.2350 
  130.5000   -19.2490    82.8220    22.4770     8.3850     6.9820     7.6060     2.2310 
  130.6250   -19.0870    85.8250    22.5630     8.0890     6.5560     7.1570     2.2220 
  130.7500   -18.9530    89.0150    22.6330     7.3000     6.1670     6.7460     2.2190 
  130.8750   -18.8490    90.2110    22.6020     6.4610     5.8410     6.4020     2.2270 
  131.0000   -18.7880    89.7060    22.5080     6.0100     5.5910     6.1380     2.2470 
  131.1250   -18.7890    89.3980    22.5180     5.9040     5.4200     5.9580     2.2760 
  131.2500   -18.8390    89.3790    22.7040     5.8210     5.3060     5.8380     2.3020 
  131.3750   -18.9230    88.9760    23.0750     5.6740     5.2290     5.7570     2.3160 
  131.5000   -19.0330    88.3230    23.4570     5.4870     5.1520     5.6750     2.3120 
  131.6250   -19.1830    88.8770    23.6330     5.3990     5.0280     5.5440     2.2930 
  131.7500   -19.3830    91.2260    23.7490     5.3930     4.8520     5.3590     2.2770 
  131.8750   -19.6350    94.8250    23.9380     5.2870     4.6560     5.1520     2.2790 
  132.0000   -19.9290    98.9620    24.1660     4.9740     4.4810     4.9680     2.2980 
  132.1250   -20.2620   103.6880    24.2860     4.6230     4.3940     4.8760     2.3130 
  132.2500   -20.6370   107.2790    24.2350     4.4590     4.4340     4.9170     2.3060 
  132.3750   -21.0620   106.3830    24.0840     4.6470     4.6230     5.1170     2.2830 
  132.5000   -21.5350    99.7160    23.8290     5.3280     4.9610     5.4740     2.2580 
  132.6250   -22.0240    90.3490    23.4450     6.3840     5.4180     5.9560     2.2370 
  132.7500   -22.4880    83.0590    23.0350     7.3870     5.8850     6.4490     2.2170 
  132.8750   -22.9070    78.6700    22.7250     8.0370     6.2710     6.8560     2.1980 
  133.0000   -23.2780    76.3750    22.5230     8.2740     6.5180     7.1160     2.1850 
  133.1250   -23.5910    76.0290    22.4490     8.2220     6.5990     7.2020     2.1810 
  133.2500   -23.8440    77.2290    22.3950     8.0160     6.6040     7.2070     2.1830 
  133.3750   -24.0290    79.2120    22.3210     7.7670     6.6120     7.2160     2.1870 
  133.5000   -24.1540    80.8790    22.2070     7.5790     6.6990     7.3070     2.1930 
  133.6250   -24.2380    81.5100    22.1490     7.7150     6.9200     7.5410     2.1980 
