~V
VERS. 2.00: Ver 2.00
~W
STRT.M 55.0000:
STOP.M 270.0000:
STEP.M 0.1250:
NULL. -999.2500:
UWI. DF5017:
~C
DEPT.M :
SP.MV :
GR.API :
CALI.CM :
RXO.OHMM :
RI. :
RML.OHMM :
DEN.GM/CC :
~A
# ...
  122.5000   -22.3690    93.2040    23.9540     6.3490     4.7790     7.0990     2.2520 
  122.6250   -22.1230    91.5770    23.9630     6.1850     4.6570     6.9420     2.2470 
  122.7500   -21.8620    90.0550    23.9620     6.1470     4.6820     7.0080     2.2420 
  122.8750   -21.6750    90.1210    23.9580     6.2510     4.8370     7.2550     2.2380 
  123.0000   -21.5450    91.9570    23.9370     6.5010     5.0880     7.6220     2.2330 
  123.1250   -21.4260    92.3500    23.9230     6.7360     5.3670     7.9860     2.2310 
  123.2500   -21.2920    92.9620    23.9230     6.8470     5.5580     8.1820     2.2350 
  123.3750   -21.0710    95.4190    23.9420     6.9280     5.5690     8.0900     2.2450 
  123.5000   -20.7520    98.9960    24.0050     6.9730     5.3770     7.7040     2.2640 
  123.6250   -20.3420   102.8230    24.1660     6.6190     5.0450     7.1670     2.3010 
  123.7500   -19.8310   104.7910    24.3560     6.0750     4.7280     6.7050     2.3510 
  123.8750   -19.2880   103.3700    24.4270     5.6840     4.5060     6.4140     2.3960 
  124.0000   -18.7820   101.1760    24.4140     5.7190     4.3960     6.2910     2.4190 
  124.1250   -18.3820   102.6150    24.3940     6.1730     4.3620     6.2610     2.4130 
  124.2500   -18.0740   103.1750    24.4130     6.3450     4.3190     6.1930     2.3930 
  124.3750   -17.8850   100.9200    24.4730     5.9610     4.2340     6.0510     2.3780 
  124.5000   -17.8360    99.7570    24.5620     5.3630     4.1370     5.8970     2.3730 
  124.6250   -17.9360   100.4980    24.6120     5.0570     4.1120     5.8760     2.3640 
  124.7500   -18.2210    98.3990    24.6140     5.0020     4.1870     6.0250     2.3350 
  124.8750   -18.5930    91.7800    24.6340     5.2650     4.3340     6.2980     2.2930 
  125.0000   -19.0080    86.7110    24.5870     5.9740     4.4810     6.5720     2.2710 
  125.1250   -19.4760    87.6940    24.4020     6.7140     4.5450     6.6870     2.2880 
  125.2500   -20.0110    90.8950    24.1990     6.6960     4.5470     6.6630     2.3030 
  125.3750   -20.6380    90.5990    24.2760     6.1030     4.5700     6.6430     2.2830 
  125.5000   -21.3070    84.9710    24.4930     5.8180     4.7180     6.8070     2.2360 
  125.6250   -22.0180    78.8560    24.4810     6.5090     5.0930     7.3200     2.2010 
  125.7500   -22.6040    75.7010    24.1530     7.6200     5.6550     8.1130     2.1860 
  125.8750   -23.0750    75.1700    23.9140     8.6340     6.3040     9.0060     2.1760 
  126.0000   -23.4480    75.3850    23.8510     9.2900     6.8710     9.6910     2.1630 
  126.1250   -23.7020    74.9510    23.8770     9.5200     7.1620     9.8520     2.1640 
  126.2500   -23.8480    75.3940    23.9420     9.5510     7.2590     9.7230     2.1850 
  126.3750   -23.8300    77.1770    24.0090     9.3000     7.3480     9.6660     2.2160 
  126.5000   -23.6800    78.1190    24.0050     8.8110     7.6020     9.9700     2.2500 
  126.6250   -23.3810    78.3470    23.9050     8.6580     8.1120    10.7840     2.2790 
  126.7500   -23.0310    78.8920    23.9020     9.2460     8.6710    11.7560     2.2940 
  126.8750   -22.6200    79.5670    23.9080    10.1360     8.9330    12.2880     2.2870 
  127.0000   -22.1310    79.9620    23.9000    10.5750     8.5420    11.7470     2.2730 
  127.1250   -21.5830    81.9630    23.8960     9.8270     7.3750     9.9710     2.2860 
  127.2500   -21.0270    86.4920    23.9470     8.2470     5.9780     7.9220     2.3240 
  127.3750   -20.5940    90.7800    24.0500     6.4310     4.7810     6.2700     2.3590 
  127.5000   -20.2950    92.9920    24.1790     5.0490     4.0160     5.3110     2.3610 
  127.6250   -20.2030    91.2790    24.3370     4.7010     3.8320     5.1910     2.3300 
  127.7500   -20.3310    85.3420    24.4050     5.2440     4.1350     5.7350     2.2930 
  127.8750   -20.6420    76.6900    24.3200     6.7900     4.9030     6.8870     2.2650 
  128.0000   -21.1300    68.8800    24.0780     8.8000     6.0770     8.5180     2.2420 
  128.1250   -21.7250    64.9180    23.8260    10.1490     7.5060    10.3180     2.2210 
  128.2500   -22.3840    63.9420    23.7060    10.5980     8.8610    11.8510     2.2140 
  128.3750   -22.9830    65.1180    23.6880    10.5060     9.9250    12.9340     2.2310 
  128.5000   -23.5150    67.8200    23.7210    10.2560    10.6270    13.6090     2.2650 
  128.6250   -23.9000    72.2630    23.7470    10.0490    10.9500    13.9250     2.2810 
  128.7500   -24.1350    76.6630    23.7550     9.9650    10.9630    13.9070     2.2660 
  128.8750   -24.2690    77.8860    23.7560     9.9500    10.6290    13.4630     2.2400 
  129.0000   -24.3210    74.8320    23.7510     9.9300     9.9670    12.6130     2.2220 
  129.1250   -24.3710    71.7500    23.7400     9.8000     9.1070    11.5690     2.2160 
  129.2500   -24.3730    73.6800    23.7770     9.5680     8.2870    10.6400     2.2130 
  129.3750   -24.3190    78.6490    23.9130     9.2790     7.6330     9.9610     2.2100 
  129.5000   -24.2050    81.4490    24.0910     9.0180     7.1970     9.5560     2.2120 
  129.6250   -24.0690    79.9500    24.0930     8.9340     7.0210     9.4170     2.2150 
  129.7500   -23.9330    76.2050    23.9690     9.0120     7.0520     9.4580     2.2210 
  129.8750   -23.7750    74.5020    23.7920     9.1030     7.2690     9.6740     2.2290 
  130.0000   -23.5700    76.8940    23.6860     9.2460     7.6460    10.0750     2.2350 
  130.1250   -23.2560    80.6100    23.7560     9.7220     8.1280    10.6510     2.2340 
  130.2500   -22.8630    80.2460    23.8770    10.3110     8.5840    11.2420     2.2290 
  130.3750   -22.4510    75.3770    23.8330    10.6690     8.8840    11.6290     2.2270 
  130.5000   -22.0150    69.9160    23.7400    10.6120     8.8950    11.5320     2.2330 
  130.6250   -21.5040    69.6790    23.7030    10.0190     8.4770    10.6520     2.2460 
  130.7500   -20.8830    73.4250    23.7340     9.1040     7.7550     9.2790     2.2650 
  130.8750   -20.2170    79.0080    23.7790     8.1300     6.9000     7.8030     2.2880 
  131.0000   -19.5750    84.1490    23.8750     7.2380     6.1060     6.5720     2.3090 
  131.1250   -19.0760    84.5480    23.9580     6.5250     5.5720     5.8430     2.3110 
  131.2500   -18.7510    80.6920    24.1670     6.1330     5.3410     5.5600     2.2930 
  131.3750   -18.5230    76.6370    24.3040     6.1650     5.4130     5.6610     2.2670 
  131.5000   -18.3980    77.2200    24.3000     6.6160     5.7260     6.0480     2.2460 
  131.6250   -18.3380    79.5090    24.1550     7.3310     6.1360     6.5490     2.2450 
  131.7500   -18.3880    80.1750    24.0110     7.8090     6.4030     6.8930     2.2560 
  131.8750   -18.4850    82.7850    23.9440     7.6950     6.3860     6.9320     2.2740 
  132.0000   -18.5990    87.5840    23.9310     7.2240     6.1130     6.7090     2.2920 
  132.1250   -18.7040    89.9690    23.9500     6.7170     5.7420     6.4130     2.2990 
  132.2500   -18.7700    87.4250    23.9830     6.2650     5.4400     6.2240     2.2950 
  132.3750   -18.8350    83.7530    23.9780     6.2590     5.2690     6.1910     2.2890 
  132.5000   -18.8800    84.0750    23.9060     6.8090     5.2210     6.2820     2.2960 
  132.6250   -18.9620    89.4480    23.8470     7.0280     5.2650     6.4270     2.3140 
  132.7500   -19.1050    94.5780    23.8690     6.8240     5.3580     6.5870     2.3200 
  132.8750   -19.3580    94.9690    23.8930     6.7200     5.5130     6.7950     2.3020 
  133.0000   -19.7150    90.4520    23.8910     7.0610     5.7680     7.1000     2.2630 
  133.1250   -20.0720    84.2610    23.8180     7.8060     6.1980     7.5580     2.2230 
  133.2500   -20.4410    78.7930    23.6680     8.6080     6.8090     8.1350     2.1950 
  133.3750   -20.7550    74.2280    23.5420     9.2730     7.5760     8.7700     2.1820 
  133.5000   -20.9780    71.1530    23.5310     9.7790     8.4060     9.3750     2.1760 
  133.6250   -21.0650    69.9300    23.6090    10.2020     9.0970     9.8100     2.1720 
