~V
VERS. 2.00: Ver 2.00
~W
STRT.M 61.0000:
STOP.M 236.0000:
STEP.M 0.1250:
NULL. -999.2500:
UWI. DF5057:
~C
DEPT.M :
GR.API :
RML.OHMM :
RI. :
RXO.OHMM :
CALI.CM :
DEN.GM/CC :
SP.MV :
~A
# ...
   94.7500    74.9250     9.1480     7.3820     7.8300    23.9470     2.2050   -17.9660 
   94.8750    74.5740     9.2230     7.4260     8.0450    23.9500     2.2150   -18.0190 
   95.0000    71.5960     9.3340     7.5070     8.2800    24.0100     2.2150   -18.0460 
   95.1250    68.6570     9.4330     7.5910     8.4800    24.0640     2.2060   -18.1020 
   95.2500    68.5670     9.4930     7.6530     8.5630    24.0690     2.1920   -18.1750 
   95.3750    70.2220     9.5130     7.6890     8.5610    24.0660     2.1780   -18.2220 
   95.5000    71.4070     9.5010     7.7010     8.6020    24.1130     2.1630   -18.2120 
   95.6250    69.9930     9.4350     7.6720     8.7170    24.1990     2.1480   -18.1190 
   95.7500    67.4570     9.2830     7.5830     8.6450    24.2480     2.1360   -17.9630 
   95.8750    67.1760     9.0170     7.4150     8.4470    24.2640     2.1340   -17.7040 
   96.0000    70.0660     8.6550     7.1780     8.3540    24.2730     2.1440   -17.3530 
   96.1250    77.2790     8.2910     6.9330     8.0790    24.2750     2.1650   -16.8940 
   96.2500    85.8430     8.0660     6.7690     7.4200    24.2860     2.1860   -16.4140 
   96.3750    90.4010     8.0550     6.7370     6.7710    24.2920     2.2010   -15.9770 
   96.5000    89.2270     8.2330     6.8330     6.8850    24.2950     2.2100   -15.5490 
   96.6250    86.6460     8.4560     6.9810     7.4250    24.3090     2.2240   -15.0220 
   96.7500    85.9670     8.5020     7.0370     7.9900    24.3560     2.2480   -14.2980 
   96.8750    88.0460     8.2320     6.8980     7.7340    24.4570     2.2750   -13.4310 
   97.0000    92.3930     7.6670     6.5570     6.6030    24.6340     2.2970   -12.5360 
   97.1250    98.8630     7.0310     6.1380     5.5790    24.7880     2.3040   -11.6830 
   97.2500   104.8010     6.6030     5.8250     5.1250    24.9040     2.3000   -10.9040 
   97.3750   106.6700     6.4970     5.7090     4.8510    24.8980     2.2910   -10.2070 
   97.5000   104.2280     6.6970     5.8010     4.9220    24.7520     2.2830    -9.6330 
   97.6250    99.4670     7.0650     6.0430     5.6110    24.5200     2.2760    -9.1770 
   97.7500    98.0300     7.3390     6.2610     6.2550    24.3890     2.2690    -8.8220 
   97.8750    99.4150     7.3520     6.3180     6.3060    24.4880     2.2630    -8.5400 
   98.0000    99.9560     7.0590     6.1550     5.4910    24.7830     2.2600    -8.3380 
   98.1250   100.3240     6.5300     5.7920     5.0140    25.0010     2.2660    -8.2110 
   98.2500   101.3690     5.9650     5.3760     4.8570    25.1030     2.2800    -8.0400 
   98.3750   102.0480     5.5110     5.0190     4.7700    25.1920     2.2950    -7.8100 
   98.5000   100.9870     5.3120     4.8270     4.6540    25.2720     2.3070    -7.5360 
   98.6250    99.3040     5.6000     4.9580     4.7460    25.2540     2.3080    -7.3620 
   98.7500    97.7260     6.4250     5.4510     5.1370    25.2120     2.3060    -7.3440 
   98.8750    94.9270     7.7580     6.3250     5.9720    25.1660     2.3120    -7.4650 
   99.0000    91.0240     9.3440     7.4720     8.2480    25.1270     2.3320    -7.6160 
   99.1250    87.9370    10.5070     8.4730    12.7460    25.1480     2.3580    -7.7540 
   99.2500    89.0350    10.6670     8.8150    15.3990    25.1900     2.3750    -7.8970 
   99.3750    94.6850     9.7650     8.3510    13.0260    25.2320     2.3730    -8.0320 
   99.5000   102.0050     8.3240     7.4110     7.8340    25.3200     2.3540    -8.1320 
   99.6250   106.3510     7.1230     6.5310     5.8390    25.3190     2.3300    -8.1920 
   99.7500   108.9680     6.5150     5.9890     5.2840    25.1220     2.3130    -8.2380 
   99.8750   109.2000     6.4800     5.8210     5.5000    24.8100     2.3060    -8.3140 
  100.0000   104.7080     6.8080     5.9430     6.0480    24.6050     2.3070    -8.4360 
  100.1250    98.4070     7.1840     6.1880     6.7840    24.5060     2.3130    -8.5770 
  100.2500    98.0700     7.3700     6.3610     6.7640    24.4450     2.3200    -8.7100 
  100.3750   102.3600     7.3410     6.4030     6.2290    24.4640     2.3260    -8.8440 
  100.5000   102.6680     7.1990     6.3460     5.5840    24.5580     2.3220    -8.9970 
  100.6250    99.0360     7.0760     6.2690     5.4030    24.5440     2.3040    -9.1490 
  100.7500    96.8130     7.0360     6.2290     5.7570    24.3500     2.2790    -9.2550 
  100.8750    96.4710     7.0630     6.2340     6.2870    24.0950     2.2560    -9.3050 
  101.0000    96.5660     7.1190     6.2650     6.2180    23.9360     2.2420    -9.3400 
  101.1250    98.7540     7.1920     6.3070     5.8900    23.8870     2.2400    -9.3810 
  101.2500   101.6880     7.3120     6.3690     5.7690    23.8230     2.2410    -9.5010 
  101.3750   100.4220     7.5140     6.4760     6.0370    23.7430     2.2370    -9.7070 
  101.5000    94.9510     7.8050     6.6410     6.4170    23.7120     2.2280    -9.9700 
  101.6250    90.3980     8.1510     6.8610     6.5750    23.7430     2.2180   -10.2610 
  101.7500    88.1730     8.4620     7.0780     6.6360    23.7470     2.2090   -10.5750 
  101.8750    87.1830     8.6730     7.2410     6.6250    23.6870     2.2020   -10.8880 
  102.0000    87.4110     8.7730     7.3260     6.7020    23.6420     2.1970   -11.2080 
  102.1250    90.1760     8.8050     7.3420     6.7640    23.6370     2.1930   -11.5500 
  102.2500    92.5960     8.8500     7.3430     6.8130    23.6380     2.1930   -11.8750 
  102.3750    92.2310     8.9520     7.3680     6.9800    23.6730     2.1950   -12.1610 
  102.5000    90.3360     9.1260     7.4380     7.3120    23.8260     2.1970   -12.4050 
  102.6250    89.9130     9.3500     7.5610     7.9260    24.0550     2.1910   -12.5690 
  102.7500    88.6510     9.5700     7.7070     8.1550    24.2490     2.1760   -12.7280 
  102.8750    83.9550     9.7630     7.8590     7.9990    24.3260     2.1520   -12.9560 
  103.0000    78.8940     9.9330     8.0090     8.1190    24.3360     2.1280   -13.2240 
  103.1250    76.0940    10.1000     8.1610     8.0560    24.3250     2.1150   -13.5030 
  103.2500    75.1990    10.2710     8.3150     8.1500    24.2770     2.1200   -13.7450 
  103.3750    75.2320    10.4240     8.4570     8.5690    24.2080     2.1400   -13.9740 
  103.5000    77.7130    10.5160     8.5620     9.1080    24.1360     2.1610   -14.2030 
  103.6250    80.3680    10.4940     8.5930     9.2640    24.1980     2.1620   -14.4790 
  103.7500    79.3960    10.3820     8.5610     9.0300    24.2550     2.1380   -14.7670 
  103.8750    76.0380    10.2210     8.4850     8.6470    24.2500     2.0990   -15.0340 
  104.0000    72.7490    10.0520     8.3860     8.4930    24.1990     2.0670   -15.2400 
  104.1250    72.5510     9.9050     8.2830     8.7480    24.1560     2.0630   -15.3230 
  104.2500    74.7030     9.7790     8.1850     8.9350    24.1730     2.0810   -15.3690 
  104.3750    76.3140     9.6680     8.0970     8.7480    24.2310     2.1090   -15.4360 
  104.5000    74.8370     9.5760     8.0260     8.4800    24.2660     2.1310   -15.5490 
  104.6250    72.4560     9.5240     7.9860     8.3610    24.2850     2.1390   -15.6840 
  104.7500    72.2460     9.5200     7.9810     8.3650    24.3120     2.1400   -15.7640 
  104.8750    72.5000     9.5530     8.0060     8.4540    24.3310     2.1410   -15.8310 
  105.0000    71.9890     9.5940     8.0460     8.4730    24.3440     2.1450   -15.9560 
  105.1250    70.8170     9.5920     8.0670     8.4150    24.3460     2.1490   -16.1480 
  105.2500    69.7230     9.5250     8.0450     8.3800    24.3320     2.1500   -16.3340 
  105.3750    70.2110     9.3980     7.9740     8.3020    24.3050     2.1490   -16.4300 
  105.5000    72.0760     9.2320     7.8680     8.0840    24.2790     2.1440   -16.4310 
  105.6250    71.4490     9.0680     7.7550     7.9120    24.2770     2.1380   -16.3270 
  105.7500    67.5960     8.9440     7.6730     7.9360    24.2750     2.1320   -16.2360 
  105.8750    65.4790     8.8800     7.6420     8.0720    24.2500     2.1270   -16.1160 
