~V
VERS. 2.00: Ver 2.00
~W
STRT.M 55.0000:
STOP.M 278.0000:
STEP.M 0.1250:
NULL. -999.2500:
UWI. DF5019:
~C
DEPT.M :
DEN.GM/CC :
GR.API :
CALI.CM :
RXO.OHMM :
RI. :
RML.OHMM :
SP.MV :
~A
# ...
  145.0000     2.1930    77.7050    24.4280     9.8940     9.1180    11.2130   -22.3320 
  145.1250     2.1740    78.5800    24.3940     9.8360     8.4030    10.2930   -21.8490 
  145.2500     2.1790    81.1930    24.2700     9.4300     7.6520     9.3940   -21.4020 
  145.3750     2.2020    86.3170    24.1590     8.6180     6.9250     8.5830   -20.8910 
  145.5000     2.2350    91.6230    24.1390     7.5540     6.2710     7.8920   -20.4230 
  145.6250     2.2660    94.1700    24.1430     6.7320     5.7430     7.3580   -19.9390 
  145.7500     2.2870    95.7640    24.2040     6.1020     5.3290     6.9460   -19.4040 
  145.8750     2.2950    98.0150    24.3920     5.7340     5.0090     6.6210   -18.9190 
  146.0000     2.2920    98.7720    24.6850     5.6800     4.7570     6.3480   -18.4770 
  146.1250     2.2890    98.8570    24.8200     5.8260     4.5630     6.1070   -18.1920 
  146.2500     2.2940   102.2560    24.8730     5.8500     4.4110     5.8970   -17.9460 
  146.3750     2.2990   107.0900    24.8810     5.5680     4.3130     5.7450   -17.7280 
  146.5000     2.2890   109.5170    24.8810     5.1960     4.2900     5.6880   -17.5860 
  146.6250     2.2660   108.0180    24.8810     5.2150     4.3720     5.7730   -17.4570 
  146.7500     2.2480   104.8960    24.8820     5.5860     4.5310     5.9640   -17.3970 
  146.8750     2.2440   100.0470    24.9090     5.9270     4.7440     6.2210   -17.4610 
  147.0000     2.2490    93.6970    24.9900     6.1090     4.9850     6.5000   -17.6170 
  147.1250     2.2610    90.2070    24.9870     6.2530     5.2290     6.7590   -17.7140 
  147.2500     2.2730    90.3730    24.9190     6.2820     5.4430     6.9920   -17.7240 
  147.3750     2.2750    92.0730    24.9080     6.2990     5.5870     7.1850   -17.7510 
  147.5000     2.2630    93.7340    24.9390     6.4570     5.6110     7.2780   -17.6960 
  147.6250     2.2550    97.2910    25.0010     6.7870     5.4450     7.1330   -17.6380 
  147.7500     2.2620   102.3310    25.0400     6.6620     5.1170     6.7390   -17.5040 
  147.8750     2.2820   105.3530    25.0060     5.9610     4.6830     6.1690   -17.2600 
  148.0000     2.3080   106.0680    24.9620     5.0780     4.2170     5.5630   -17.0310 
  148.1250     2.3290   108.7760    25.0080     4.5290     3.8150     5.0840   -16.8090 
  148.2500     2.3390   112.4240    25.2040     4.3640     3.5310     4.7890   -16.6470 
  148.3750     2.3400   113.5960    25.3540     4.4550     3.3870     4.6760   -16.4850 
  148.5000     2.3390   112.7890    25.3850     4.6810     3.3850     4.7280   -16.4030 
  148.6250     2.3460   110.2650    25.2420     4.9920     3.5430     4.9660   -16.3590 
  148.7500     2.3630   105.9260    25.1410     5.1630     3.8320     5.3670   -16.4030 
  148.8750     2.3870   101.1700    25.0470     5.3530     4.2320     5.9130   -16.5480 
  149.0000     2.4110    97.2910    25.0520     5.9470     4.6930     6.5400   -16.7080 
  149.1250     2.4120    94.9220    25.0720     7.0820     5.1110     7.0840   -16.9310 
  149.2500     2.3880    94.3940    25.0360     7.7710     5.3920     7.3900   -17.1170 
  149.3750     2.3480    95.9110    24.8360     7.6350     5.5140     7.4330   -17.3390 
  149.5000     2.3180    96.8470    24.6570     7.2390     5.5400     7.3430   -17.5370 
  149.6250     2.3250    95.5400    24.6430     7.1560     5.5650     7.3080   -17.6560 
  149.7500     2.3570    93.6600    24.7640     7.3770     5.6290     7.3830   -17.8090 
  149.8750     2.3900    93.5830    24.8420     8.0240     5.7160     7.5200   -17.8880 
  150.0000     2.4060    96.2880    24.8690     9.2020     5.7820     7.6220   -17.9030 
  150.1250     2.3950    97.5120    24.8770     9.2790     5.7750     7.5880   -17.8750 
  150.2500     2.3690    94.7860    24.9360     8.0450     5.7100     7.4580   -17.8640 
  150.3750     2.3310    90.2090    25.0040     6.9020     5.6270     7.3190   -17.8350 
  150.5000     2.2910    87.2610    25.0190     7.0690     5.5590     7.2250   -17.7810 
  150.6250     2.2670    88.4800    24.7340     7.7140     5.5080     7.1590   -17.8170 
  150.7500     2.2710    93.4000    24.5590     7.6330     5.4640     7.0830   -17.8030 
  150.8750     2.2940    99.4750    24.5180     6.9070     5.4370     7.0050   -17.8070 
  151.0000     2.3100   102.0330    24.6070     6.2550     5.4650     6.9910   -17.7880 
  151.1250     2.2890    99.1490    24.7360     6.1410     5.6080     7.1610   -17.7970 
  151.2500     2.2400    94.8090    24.8410     6.5240     5.8510     7.5110   -17.8700 
  151.3750     2.1950    91.5750    24.7180     7.3290     6.1190     7.9190   -17.9160 
  151.5000     2.1870    89.7120    24.5080     8.2070     6.2860     8.1580   -17.9100 
  151.6250     2.2260    89.9330    24.4510     8.4730     6.2060     7.9610   -17.8290 
  151.7500     2.2780    91.3090    24.4350     7.8460     5.9340     7.4570   -17.7880 
  151.8750     2.3260    92.2820    24.4050     6.9800     5.6150     6.9200   -17.7010 
  152.0000     2.3790    93.0480    24.4050     6.7990     5.4470     6.6630   -17.6720 
  152.1250     2.4460    91.9830    24.4250     7.7920     5.6720     7.0200   -17.6690 
  152.2500     2.5140    86.4670    24.4390     9.0010     6.3220     8.0040   -17.5830 
  152.3750     2.5650    76.9780    24.4290    11.0310     7.3340     9.5050   -17.4930 
  152.5000     2.5910    69.2290    24.3890    13.5410     8.4130    11.0550   -17.4700 
  152.6250     2.5780    70.8480    24.3560    15.7150     8.8870    11.5380   -17.6060 
  152.7500     2.5250    78.0450    24.3480    14.3040     8.5280    10.6670   -17.7570 
  152.8750     2.4470    85.2760    24.3070    10.6910     7.6710     9.1410   -17.9260 
  153.0000     2.3850    89.0300    24.3170     7.6470     6.9060     7.9210   -18.1110 
  153.1250     2.3870    87.5920    24.4400     7.1560     6.8020     7.7520   -18.1720 
  153.2500     2.4460    81.7650    24.6470     9.0240     7.5050     8.7040   -18.2270 
  153.3750     2.5280    72.7890    24.7390    13.3880     9.0750    10.8160   -18.3460 
  153.5000     2.5890    64.1490    24.6440    18.8060    11.2630    13.7490   -18.4830 
  153.6250     2.5910    62.8300    24.5500    21.0210    12.9310    15.8340   -18.5470 
  153.7500     2.5390    69.3480    24.5600    19.1280    12.9200    15.4250   -18.5410 
  153.8750     2.4590    78.4450    24.5960    14.4980    11.4300    13.0890   -18.5940 
  154.0000     2.3910    84.1130    24.4930     9.9970     9.6350    10.6730   -18.6290 
  154.1250     2.3780    82.7880    24.4510     7.9540     8.5800     9.4810   -18.6680 
  154.2500     2.4130    76.0640    24.4750     7.9480     8.3970     9.4570   -18.7180 
  154.3750     2.4700    66.2520    24.4810    10.1710     9.0050    10.4100   -18.7680 
  154.5000     2.5170    59.9820    24.3210    14.5970    10.1900    12.0170   -18.8610 
  154.6250     2.5280    62.7780    24.0580    18.1080    11.5720    13.6900   -18.9080 
  154.7500     2.5180    68.5430    23.9340    17.5280    12.7070    14.8600   -19.0530 
  154.8750     2.5060    70.7070    23.8540    14.5820    13.4910    15.5150   -19.1890 
  155.0000     2.5090    67.4730    23.7650    13.8920    14.1200    16.0590   -19.2820 
  155.1250     2.5250    61.6170    23.9310    18.4300    14.9210    16.9620   -19.3710 
  155.2500     2.5420    59.2300    24.3090    23.0730    15.9840    18.2330   -19.4590 
  155.3750     2.5500    62.0030    24.5470    24.3140    17.1790    19.6190   -19.5290 
  155.5000     2.5520    66.0820    24.5700    22.9050    18.2560    20.7790   -19.5630 
  155.6250     2.5570    65.4130    24.5520    21.3720    18.9720    21.4930   -19.6530 
  155.7500     2.5690    62.6400    24.5320    20.7630    19.4350    21.9890   -19.6420 
  155.8750     2.5810    61.7660    24.5340    20.4250    19.8220    22.4830   -19.6220 
  156.0000     2.5840    62.2050    24.5430    20.5300    20.2350    23.0200   -19.5990 
  156.1250     2.5740    62.6550    24.5460    21.2740    20.6090    23.4240   -19.5430 
