~V
VERS. 2.00: Ver 2.00
~W
STRT.M 60.0000:
STOP.M 251.0000:
STEP.M 0.1250:
NULL. -999.2500:
UWI. DF5053:
~C
DEPT.M :
GR.API :
RML.OHMM :
RI. :
RXO.OHMM :
CALI.CM :
DEN.GM/CC :
SP.MV :
~A
# ...
  228.7500    80.3440    59.7580    52.6940    54.7330    23.9670     2.2920   -19.1520 
  228.8750    81.5560    62.8380    55.0850    61.8460    23.9210     2.2940   -18.7640 
  229.0000    77.4020    66.8470    58.5800    67.8650    23.9140     2.2960   -18.3170 
  229.1250    71.2840    70.5200    62.0680    68.6910    23.9750     2.2960   -17.8430 
  229.2500    66.0730    72.9930    64.7660    67.7520    24.0100     2.2940   -17.3320 
  229.3750    63.4410    73.6970    66.1020    69.3100    23.9730     2.2930   -16.6960 
  229.5000    63.0090    72.0790    65.4900    71.7630    23.9300     2.2950   -16.0370 
  229.6250    64.9000    68.5750    63.1950    72.3230    23.9450     2.3030   -15.3380 
  229.7500    70.6930    63.4960    59.4020    69.1050    23.9820     2.3170   -14.5290 
  229.8750    78.0040    57.3520    54.4740    61.7770    23.9700     2.3340   -13.7420 
  230.0000    82.6760    50.8630    48.9600    53.0990    23.8960     2.3510   -13.0050 
  230.1250    82.7950    44.7970    43.6140    45.4360    23.8230     2.3650   -12.2440 
  230.2500    80.7120    39.5370    38.8530    39.2930    23.8220     2.3720   -11.5790 
  230.3750    77.5240    35.2410    34.8870    34.6020    23.8750     2.3740   -11.0450 
  230.5000    74.1620    32.0870    31.9160    31.2500    23.9290     2.3690   -10.5530 
  230.6250    72.6530    29.8340    29.7650    28.6910    23.9390     2.3570   -10.1970 
  230.7500    72.4740    28.3480    28.3330    26.8440    23.9330     2.3410   -10.0040 
  230.8750    74.3860    27.4340    27.4580    24.9840    23.9040     2.3230    -9.8610 
  231.0000    77.8610    26.8720    26.9460    23.9100    23.8390     2.3110    -9.7640 
  231.1250    78.5980    26.3720    26.5090    23.6580    23.7780     2.3080    -9.7820 
  231.2500    73.5000    25.8440    26.0320    23.4190    23.7340     2.3130    -9.8320 
  231.3750    66.3230    25.3470    25.5340    22.4200    23.7050     2.3210    -9.8800 
  231.5000    63.4970    25.0910    25.1800    21.4570    23.6950     2.3210    -9.9500 
  231.6250    65.2480    25.1740    25.0800    20.7970    23.6740     2.3130   -10.0020 
  231.7500    68.8680    25.5500    25.2210    20.8040    23.6340     2.3000   -10.0310 
  231.8750    69.3270    26.0430    25.4730    21.7120    23.6180     2.2910   -10.0820 
  232.0000    68.0300    26.3930    25.6190    23.0410    23.6460     2.2960   -10.1490 
  232.1250    69.9540    26.5400    25.5910    24.0890    23.6430     2.3080   -10.1890 
  232.2500    74.2680    26.6570    25.5120    23.9510    23.6320     2.3190   -10.2190 
  232.3750    74.8800    27.0790    25.6550    23.4270    23.6470     2.3210   -10.2530 
  232.5000    70.7790    28.2730    26.4220    24.9880    23.6340     2.3110   -10.2730 
  232.6250    68.2390    30.2290    27.8530    28.1770    23.5350     2.2970   -10.2110 
  232.7500    67.7600    32.7140    29.8070    32.3250    23.3710     2.2840   -10.1020 
  232.8750    65.3110    35.2480    31.9340    36.4860    23.2840     2.2720    -9.9910 
  233.0000    59.1730    37.0870    33.6510    38.6700    23.3530     2.2620    -9.8860 
  233.1250    55.8250    37.8730    34.5910    39.2530    23.4880     2.2530    -9.7530 
  233.2500    59.1430    37.5510    34.6300    38.8250    23.6170     2.2480    -9.5470 
  233.3750    64.3150    36.3640    33.8970    37.9760    23.8070     2.2460    -9.2770 
  233.5000    64.0430    34.7260    32.6730    36.2810    24.0080     2.2470    -9.0030 
  233.6250    60.9370    33.1460    31.3960    34.1610    24.0770     2.2500    -8.8050 
  233.7500    58.0020    31.8300    30.2770    31.9970    24.0860     2.2540    -8.6480 
  233.8750    57.0980    30.7680    29.3570    30.0880    24.1040     2.2570    -8.4720 
  234.0000    58.6970    29.7420    28.4960    29.3810    24.1170     2.2600    -8.2470 
  234.1250    60.4970    28.4650    27.4490    29.0250    24.1210     2.2630    -8.0060 
  234.2500    58.0200    26.7890    26.0610    27.9810    24.1080     2.2640    -7.8290 
  234.3750    54.4530    24.7510    24.3250    25.7330    24.0590     2.2650    -7.7220 
  234.5000    58.8790    22.5860    22.4110    22.8210    23.9270     2.2660    -7.6410 
  234.6250    68.2450    20.6490    20.6350    20.6120    23.8100     2.2720    -7.5150 
  234.7500    72.6170    19.1870    19.2180    19.3890    23.8060     2.2880    -7.3880 
  234.8750    69.7740    18.3420    18.3000    18.6940    23.9410     2.3100    -7.3140 
  235.0000    69.1660    18.2390    18.0160    18.6430    24.0080     2.3300    -7.3110 
  235.1250    70.9040    18.6920    18.2360    19.3730    24.0310     2.3380    -7.3290 
  235.2500    69.2150    19.5730    18.8650    20.4470    24.0720     2.3330    -7.3060 
  235.3750    63.9130    20.7150    19.7600    21.4500    24.1090     2.3190    -7.3020 
  235.5000    60.9920    21.8770    20.7120    22.6960    24.1220     2.3040    -7.3540 
  235.6250    62.0830    22.8150    21.4830    23.5230    24.1220     2.2950    -7.4120 
  235.7500    63.1200    23.4120    21.9490    23.6460    24.1220     2.2900    -7.4470 
  235.8750    63.5000    23.7210    22.1350    23.6980    24.1220     2.2880    -7.4670 
  236.0000    67.3090    24.0410    22.2640    23.9290    24.1220     2.2840    -7.4750 
  236.1250    71.0130    24.7880    22.6980    24.1330    24.1220     2.2780    -7.4700 
  236.2500    70.6870    26.2640    23.7110    24.7230    24.1220     2.2700    -7.4660 
  236.3750    66.3450    28.5820    25.4300    26.9060    24.1220     2.2590    -7.4430 
  236.5000    63.2650    31.6040    27.7820    30.9890    24.1220     2.2500    -7.3970 
  236.6250    59.8950    34.6230    30.2110    35.4910    24.1210     2.2460    -7.3730 
  236.7500    54.0590    36.9400    32.1640    38.2660    24.1150     2.2490    -7.3260 
  236.8750    54.0860    38.0030    33.1890    38.6290    24.0980     2.2570    -7.2540 
  237.0000    63.3620    37.5290    32.9890    37.3230    24.0690     2.2650    -7.2130 
  237.1250    68.6450    36.2740    32.0670    35.0970    24.0580     2.2690    -7.1780 
  237.2500    66.6370    34.9090    30.9060    32.5640    24.0580     2.2670    -7.1520 
  237.3750    62.4150    33.9100    29.9030    31.2160    24.0610     2.2630    -7.1270 
  237.5000    59.1820    33.4930    29.2910    31.6470    24.0600     2.2600    -7.1100 
  237.6250    56.9530    33.4120    28.9580    32.2140    24.0610     2.2610    -7.1090 
  237.7500    56.9780    33.4260    28.7520    32.7500    24.0710     2.2640    -7.1390 
  237.8750    58.2210    33.3350    28.5280    32.8210    24.1010     2.2660    -7.2130 
  238.0000    57.2270    33.0310    28.1950    32.1590    24.1140     2.2630    -7.2660 
  238.1250    58.0730    32.6460    27.8210    31.0700    24.1170     2.2560    -7.3130 
  238.2500    61.9900    32.3510    27.5210    30.1610    24.1100     2.2470    -7.3840 
  238.3750    63.8950    32.3060    27.4190    29.8360    24.0810     2.2420    -7.4940 
  238.5000    62.1700    32.6840    27.6550    29.7830    24.0050     2.2530    -7.5690 
  238.6250    62.0310    33.4330    28.1970    30.0270    23.9150     2.2820    -7.6100 
  238.7500    64.1060    34.4290    28.9630    29.9440    23.8240     2.3220    -7.6830 
  238.8750    64.7930    35.3860    29.7520    30.1600    23.7560     2.3610    -7.6960 
  239.0000    60.9570    35.6680    30.1180    31.7170    23.7220     2.3860    -7.6240 
  239.1250    58.7840    34.7660    29.6580    32.9460    23.6310     2.3970    -7.5620 
  239.2500    61.0650    32.3570    28.0800    34.2570    23.4980     2.4020    -7.4580 
  239.3750    62.0590    28.5570    25.3830    35.8270    23.4490     2.4060    -7.2320 
  239.5000    56.7930    23.9720    21.8960    33.5770    23.5070     2.4010    -6.9610 
  239.6250    51.0650    19.6360    18.4030    27.3430    23.5470     2.3820    -6.7080 
  239.7500    50.4900    16.1130    15.3980    19.8110    23.5680     2.3510    -6.3950 
  239.8750    53.0430    13.5970    13.1260    13.4010    23.6000     2.3160    -6.0790 
