~V
VERS. 2.00: Ver 2.00
~W
STRT.M 62.0000:
STOP.M 250.0000:
STEP.M 0.1250:
NULL. -999.2500:
UWI. DF5059:
~C
DEPT.M :
SP.MV :
GR.API :
RML.OHMM :
RI. :
RXO.OHMM :
CALI.CM :
DEN.GM/CC :
~A
# ...
  140.7500   -12.4050    62.7280    24.0480    21.5560    22.6090    23.8450     2.5250 
  140.8750   -12.2990    62.9050    23.4400    21.2800    23.2650    23.9770     2.5310 
  141.0000   -12.1780    57.9800    22.2330    20.4650    22.4280    24.1110     2.5270 
  141.1250   -12.1330    56.5870    20.6500    19.2340    20.5330    24.1830     2.5140 
  141.2500   -12.1560    58.8630    19.1810    17.9910    18.5370    24.2570     2.4990 
  141.3750   -12.1870    60.4170    18.1790    17.0480    16.9870    24.2860     2.4890 
  141.5000   -12.2010    59.2280    17.8270    16.6070    15.9170    24.2220     2.4840 
  141.6250   -12.1860    59.4790    18.1500    16.7610    16.0410    24.1500     2.4870 
  141.7500   -12.1510    63.1090    18.7580    17.2390    16.9150    24.0500     2.4960 
  141.8750   -12.1880    63.2920    19.3290    17.7880    18.0360    23.8820     2.5080 
  142.0000   -12.2600    58.4620    19.6170    18.1800    18.9730    23.6450     2.5170 
  142.1250   -12.3140    55.4730    19.5210    18.2710    18.3590    23.5290     2.5120 
  142.2500   -12.3080    57.6580    19.2900    18.2120    16.8770    23.6350     2.4900 
  142.3750   -12.2830    60.8570    19.1570    18.1850    15.9020    23.7130     2.4540 
  142.5000   -12.2700    61.8250    19.2330    18.3080    15.6490    23.5270     2.4170 
  142.6250   -12.2970    59.1790    19.4250    18.5470    15.7460    22.9240     2.3980 
  142.7500   -12.3270    55.1350    19.4480    18.6810    15.9760    22.5790     2.4050 
  142.8750   -12.2840    54.1970    19.0880    18.5080    16.5340    22.7170     2.4330 
  143.0000   -12.2070    57.7710    18.2920    17.9360    16.8850    23.3160     2.4670 
  143.1250   -12.1040    63.0920    17.1970    17.0310    16.1860    23.7060     2.4870 
  143.2500   -12.0440    64.7790    16.1360    16.0830    15.1010    23.8590     2.4900 
  143.3750   -12.0070    62.0480    15.3030    15.2800    13.9730    23.7750     2.4810 
  143.5000   -11.9970    57.7770    14.7690    14.7150    13.2750    23.6020     2.4720 
  143.6250   -11.9630    55.7410    14.5320    14.4170    13.2350    23.7350     2.4690 
  143.7500   -11.9140    56.0290    14.4630    14.2840    13.4460    23.9380     2.4680 
  143.8750   -11.9150    55.5360    14.5230    14.2740    13.4490    24.0260     2.4660 
  144.0000   -11.9650    53.5720    14.7300    14.3890    13.6130    23.9070     2.4620 
  144.1250   -12.0210    50.8050    15.1760    14.6970    14.3260    23.7200     2.4600 
  144.2500   -12.0310    48.3490    15.8690    15.2110    15.4910    23.6580     2.4640 
  144.3750   -12.0460    46.8930    16.7830    15.9270    17.0830    23.7210     2.4750 
  144.5000   -12.0850    45.5650    17.8210    16.7800    18.3530    23.8340     2.4910 
  144.6250   -12.1410    42.9980    18.7890    17.6200    19.6440    23.9060     2.5060 
  144.7500   -12.2120    43.0820    19.4910    18.2660    20.1050    23.9440     2.5170 
  144.8750   -12.2560    46.6600    19.7980    18.5900    19.6250    23.9560     2.5200 
  145.0000   -12.3030    51.7620    19.6830    18.5430    19.1890    23.9410     2.5160 
  145.1250   -12.4000    54.7870    19.2220    18.1590    18.5750    23.9040     2.5090 
  145.2500   -12.5370    56.6110    18.7140    17.6850    18.0280    23.8840     2.5000 
  145.3750   -12.6460    55.0560    18.3920    17.3230    17.3540    23.9370     2.4900 
  145.5000   -12.6910    49.8410    18.4150    17.2310    17.0890    24.0830     2.4790 
  145.6250   -12.7410    49.0420    18.8540    17.5110    17.8500    24.1660     2.4710 
  145.7500   -12.7970    53.3850    19.4860    18.0140    19.0280    24.1650     2.4680 
  145.8750   -12.8760    56.5760    20.0730    18.5560    20.3390    24.0700     2.4750 
  146.0000   -12.9210    58.1200    20.3850    18.9320    21.1010    23.9910     2.4910 
  146.1250   -12.8770    62.8340    20.2290    18.9320    20.5570    23.9910     2.5080 
  146.2500   -12.7830    68.0040    19.7260    18.6010    19.7500    24.0360     2.5180 
  146.3750   -12.6940    64.8590    19.0340    18.0450    19.0070    24.0390     2.5160 
  146.5000   -12.6450    54.4520    18.3230    17.4060    18.4490    23.9630     2.5060 
  146.6250   -12.6150    47.8780    17.7300    16.8160    17.9740    23.9480     2.5000 
  146.7500   -12.5580    46.4060    17.2770    16.3290    17.4710    23.9520     2.5040 
  146.8750   -12.4600    45.3020    16.9680    15.9660    16.8870    23.9580     2.5150 
  147.0000   -12.3620    43.3830    16.8210    15.7460    16.6690    23.9570     2.5290 
  147.1250   -12.3340    44.6640    16.9090    15.7330    16.6510    23.9510     2.5350 
  147.2500   -12.3610    48.5120    17.2360    15.9330    16.7180    23.9430     2.5340 
  147.3750   -12.3650    52.2850    17.7920    16.3500    16.8310    23.9440     2.5280 
  147.5000   -12.3170    54.8980    18.4990    16.9310    17.1230    23.9500     2.5240 
  147.6250   -12.2390    54.5850    19.1700    17.5360    17.6040    23.9530     2.5270 
  147.7500   -12.2220    53.6060    19.5980    17.9740    18.1380    23.9560     2.5360 
  147.8750   -12.2500    55.8260    19.6470    18.1020    18.5080    23.9650     2.5450 
  148.0000   -12.2790    60.6460    19.2900    17.8660    18.1390    23.9980     2.5480 
  148.1250   -12.2580    61.1370    18.6090    17.3050    16.8810    24.0640     2.5420 
  148.2500   -12.2140    55.8200    17.8680    16.6530    15.7890    24.1040     2.5290 
  148.3750   -12.2100    48.6190    17.2470    16.0760    15.1100    24.0880     2.5160 
  148.5000   -12.2520    43.6810    16.8450    15.6830    14.7860    24.1190     2.5100 
  148.6250   -12.3080    45.4220    16.7070    15.5350    14.9680    24.0970     2.5140 
  148.7500   -12.3120    50.6970    16.7220    15.5480    15.3420    24.0140     2.5210 
  148.8750   -12.2750    54.9410    16.8020    15.6550    15.7920    23.9660     2.5260 
  149.0000   -12.2080    57.7900    16.8750    15.7930    16.2520    24.0330     2.5260 
  149.1250   -12.1640    59.0540    16.8870    15.9070    16.2070    24.0630     2.5170 
  149.2500   -12.1490    58.3500    16.8150    15.9630    15.8760    24.0170     2.5040 
  149.3750   -12.1280    57.7850    16.6700    15.9200    15.5230    23.9710     2.4920 
  149.5000   -12.0590    59.7500    16.4170    15.7260    15.3970    23.9580     2.4830 
  149.6250   -11.9790    60.6390    16.0770    15.2920    15.0350    23.9570     2.4830 
  149.7500   -11.9480    55.5020    15.5720    14.6470    14.2580    23.9580     2.4900 
  149.8750   -11.9770    47.5420    14.8800    13.8590    13.3180    23.9760     2.5020 
  150.0000   -12.0450    41.7300    14.1790    13.0400    12.2140    24.0240     2.5150 
  150.1250   -12.0720    41.5470    13.3800    12.3410    11.2640    24.1140     2.5220 
  150.2500   -12.0810    44.1940    12.8450    11.8350    10.7440    24.1540     2.5220 
  150.3750   -12.1350    46.1420    12.5360    11.5430    10.9020    24.1540     2.5140 
  150.5000   -12.2380    44.0570    12.4270    11.4410    11.2450    24.1160     2.5040 
  150.6250   -12.3490    41.5680    12.4770    11.4880    11.1190    24.0410     2.4970 
  150.7500   -12.4110    43.6340    12.5890    11.5940    10.4910    24.0100     2.4940 
  150.8750   -12.4550    46.5880    12.7060    11.7040    10.2490    24.0260     2.4920 
  151.0000   -12.5480    45.5770    12.7830    11.7760    10.3810    23.9870     2.4890 
  151.1250   -12.6890    41.8720    12.7870    11.7800    10.2310    23.9040     2.4820 
  151.2500   -12.8490    42.5080    12.7270    11.7230    10.0830    23.6790     2.4750 
  151.3750   -12.9670    46.5640    12.5990    11.6030     9.7250    23.2890     2.4710 
  151.5000   -13.1070    48.5920    12.3940    11.4090     9.0870    22.8640     2.4730 
  151.6250   -13.3320    46.2460    12.0840    11.1170     8.8030    22.8760     2.4770 
  151.7500   -13.6430    42.6980    11.7120    10.7610     8.8500    23.1900     2.4770 
  151.8750   -13.7820    43.4380    11.3810    10.4360     8.9580    23.5480     2.4670 
