~V
VERS. 2.00: Ver 2.00
~W
STRT.M 60.0000:
STOP.M 271.0000:
STEP.M 0.1250:
NULL. -999.2500:
UWI. DF5026:
~C
DEPT.M :
SP.MV :
GR.API :
CALI.CM :
RXO.OHMM :
RI. :
RML.OHMM :
DEN.GM/CC :
~A
# ...
  251.2500   -29.2280    56.4530    23.8880     5.7560     5.3550     6.8750     2.3740 
  251.3750   -29.2370    56.9500    23.8460     6.1080     5.3650     6.8820     2.3760 
  251.5000   -29.2680    58.7560    23.8200     6.5910     5.3970     6.9200     2.3770 
  251.6250   -29.2690    61.7080    23.8140     7.2820     5.4640     7.0070     2.3740 
  251.7500   -29.3200    63.6300    23.8220     8.3340     5.5530     7.1170     2.3690 
  251.8750   -29.4200    62.7930    23.8320    11.2110     5.6510     7.2170     2.3620 
  252.0000   -29.5540    61.9610    23.8350    14.4520     5.7370     7.2780     2.3580 
  252.1250   -29.6610    63.4750    23.8320    15.2870     5.7870     7.2710     2.3560 
  252.2500   -29.7620    64.2240    23.8330    13.2930     5.7960     7.2100     2.3570 
  252.3750   -29.8030    63.2380    23.8400    10.8640     5.7670     7.1180     2.3590 
  252.5000   -29.9020    61.8890    23.8440     8.6040     5.7160     7.0220     2.3600 
  252.6250   -29.9780    62.0110    23.8400     6.8480     5.6650     6.9570     2.3610 
  252.7500   -30.0300    63.7150    23.8300     6.2230     5.6330     6.9220     2.3610 
  252.8750   -30.1320    65.6680    23.8180     5.9120     5.6240     6.9100     2.3600 
  253.0000   -30.2070    66.0670    23.8070     5.7000     5.6340     6.9100     2.3590 
  253.1250   -30.2190    64.9800    23.7940     5.5290     5.6530     6.9200     2.3570 
  253.2500   -30.2710    65.5610    23.7770     5.3430     5.6710     6.9370     2.3550 
  253.3750   -30.3690    67.8760    23.7650     5.1910     5.6890     6.9600     2.3560 
  253.5000   -30.3660    69.1440    23.7600     5.1690     5.7120     6.9800     2.3590 
  253.6250   -30.4590    68.2390    23.7610     5.2190     5.7470     6.9990     2.3670 
  253.7500   -30.5820    68.0310    23.7610     5.2810     5.7920     7.0300     2.3780 
  253.8750   -30.5690    67.5930    23.7610     5.2670     5.8450     7.0830     2.3900 
  254.0000   -30.5730    65.8830    23.7610     5.2330     5.9020     7.1560     2.4010 
  254.1250   -30.7330    64.6770    23.7610     5.2240     5.9560     7.2310     2.4070 
  254.2500   -30.7870    64.2840    23.7620     5.1970     6.0030     7.2890     2.4060 
  254.3750   -30.8450    63.6710    23.7590     5.2200     6.0410     7.3280     2.4000 
  254.5000   -30.9270    62.1870    23.7470     5.3720     6.0670     7.3530     2.3940 
  254.6250   -30.9710    62.0660    23.7180     5.5880     6.0860     7.3810     2.3930 
  254.7500   -30.9820    64.2830    23.6850     5.5740     6.1080     7.4210     2.3950 
  254.8750   -31.0980    66.2990    23.6610     5.4520     6.1420     7.4750     2.3980 
  255.0000   -31.1830    67.0020    23.6530     5.3770     6.1920     7.5390     2.4010 
  255.1250   -31.1330    65.8940    23.6520     5.3550     6.2530     7.6220     2.4050 
  255.2500   -31.1440    65.6580    23.6460     5.2910     6.3180     7.7220     2.4100 
  255.3750   -31.1450    66.8420    23.6320     5.2630     6.3780     7.8360     2.4170 
  255.5000   -31.1650    67.7120    23.6170     5.3220     6.4270     7.9460     2.4240 
  255.6250   -31.1950    68.5640    23.5920     5.3890     6.4580     8.0180     2.4290 
  255.7500   -31.2320    70.1610    23.5570     5.4610     6.4730     8.0340     2.4280 
  255.8750   -31.2090    70.3280    23.5270     5.5640     6.4740     7.9960     2.4220 
  256.0000   -31.2140    68.4600    23.4900     5.7030     6.4680     7.9290     2.4140 
  256.1250   -31.2880    67.1900    23.4000     5.8990     6.4660     7.8700     2.4080 
  256.2500   -31.3360    68.2870    23.2800     6.0700     6.4730     7.8410     2.4070 
  256.3750   -31.4100    69.4520    23.1880     6.2890     6.4930     7.8470     2.4110 
  256.5000   -31.4700    69.1240    23.1440     6.4460     6.5250     7.8780     2.4190 
  256.6250   -31.4820    67.1300    23.1170     6.5830     6.5630     7.9150     2.4290 
  256.7500   -31.4760    65.7580    23.0820     6.7450     6.6020     7.9410     2.4370 
  256.8750   -31.4520    66.8160    23.0480     6.8820     6.6350     7.9380     2.4390 
  257.0000   -31.4330    68.8540    23.0240     6.8650     6.6550     7.8970     2.4350 
  257.1250   -31.3720    67.3880    23.0040     6.9340     6.6470     7.8190     2.4220 
  257.2500   -31.3850    63.9170    22.9890     7.1230     6.6150     7.7270     2.4040 
  257.3750   -31.4060    61.9770    22.9600     7.1350     6.5640     7.6350     2.3850 
  257.5000   -31.3910    62.2580    22.8840     6.8530     6.5080     7.5530     2.3710 
  257.6250   -31.3860    63.6820    22.7470     6.6500     6.4540     7.4780     2.3700 
  257.7500   -31.3660    64.3340    22.6180     6.8580     6.4050     7.4010     2.3780 
  257.8750   -31.3780    62.3430    22.5430     6.9700     6.3580     7.3260     2.3900 
  258.0000   -31.4330    59.4770    22.5130     6.6870     6.3190     7.2710     2.4000 
  258.1250   -31.4610    59.4280    22.4950     6.1480     6.2990     7.2650     2.4030 
  258.2500   -31.4180    61.8780    22.4800     5.6260     6.3010     7.3060     2.3990 
  258.3750   -31.4210    65.4110    22.4720     5.1450     6.3210     7.3730     2.3920 
  258.5000   -31.4460    68.6810    22.4690     4.9400     6.3510     7.4320     2.3880 
  258.6250   -31.3620    68.9190    22.4730     5.1390     6.3800     7.4520     2.3890 
  258.7500   -31.3050    66.7940    22.4770     5.3990     6.4050     7.4540     2.3930 
  258.8750   -31.3400    64.4570    22.4630     5.5710     6.4280     7.4700     2.3970 
  259.0000   -31.4030    63.5970    22.4250     5.6400     6.4530     7.5170     2.4000 
  259.1250   -31.4290    64.0690    22.3440     5.6470     6.4840     7.5900     2.4000 
  259.2500   -31.3420    65.4220    22.2090     5.7140     6.5180     7.6560     2.4000 
  259.3750   -31.1680    66.2510    22.0190     5.8890     6.5550     7.7040     2.4010 
  259.5000   -31.0430    66.2620    21.7960     6.0780     6.5910     7.7420     2.4010 
  259.6250   -31.0980    66.6410    21.5490     6.0720     6.6240     7.7780     2.4020 
  259.7500   -31.1470    66.0520    21.2480     5.8470     6.6520     7.8130     2.4000 
  259.8750   -30.9850    64.0520    20.8720     5.5370     6.6800     7.8430     2.3960 
  260.0000   -30.7870    63.5780    20.4820     5.3900     6.7120     7.8760     2.3890 
  260.1250   -30.6070    67.6730    20.2320     5.3650     6.7540     7.9210     2.3800 
  260.2500   -30.3960    70.6140    20.1360     5.4250     6.8030     7.9700     2.3710 
  260.3750   -30.1720    68.1810    20.1120     5.4600     6.8450     8.0020     2.3630 
  260.5000   -30.0000    64.0780    20.0700     5.5090     6.8650     7.9890     2.3560 
  260.6250   -29.7860    65.3900    19.9880     5.4260     6.8460     7.9170     2.3500 
  260.7500   -29.5030    65.3900    19.8890     5.3210     6.7940     7.8100     2.3480 
  260.8750   -29.3470    65.3900    19.8000     5.3450     6.7180     7.6880     2.3520 
  261.0000   -29.1280    65.3900    19.7470     5.4040     6.6330     7.5800     2.3590 
  261.1250   -29.0130    65.3900    19.7350     5.2920     6.5600     7.5170     2.3680 
  261.2500   -28.9870    65.3900    19.7380     5.2460     6.5080     7.5090     2.3760 
  261.3750   -28.9700    65.3900    19.7380     5.2000     6.4800     7.5540     2.3840 
  261.5000   -28.9810    65.3900    19.7380     4.9310     6.4650     7.6250     2.3940 
  261.6250   -28.8680    65.3900    19.7380     4.7530     6.4430     7.6690     2.4050 
  261.7500   -28.8530    65.3900    19.7380     4.7720     6.4020     7.6520     2.4140 
  261.8750   -28.7970    65.3900    19.7380     4.7230     6.3420     7.5750     2.4180 
  262.0000   -28.6880    65.3900    19.7380     4.5850     6.2740     7.4690     2.4170 
  262.1250   -28.5650    65.3900    19.7380     4.6190     6.2210     7.3900     2.4150 
  262.2500   -28.5140    65.3900    19.7380     4.7220     6.1970     7.3780     2.4130 
  262.3750   -28.4870    65.3900    19.7380     4.6780     6.2040     7.4340     2.4110 
