~V
VERS. 2.00: Ver 2.00
~W
STRT.M 61.0000:
STOP.M 253.0000:
STEP.M 0.1250:
NULL. -999.2500:
UWI. DF5045:
~C
DEPT.M :
GR.API :
CALI.CM :
RXO.OHMM :
RI. :
RML.OHMM :
DEN.GM/CC :
SP.MV :
~A
# ...
  196.0000    76.4570    24.3200    13.5100    13.8760    15.0640     2.6450   -15.7340 
  196.1250    79.7190    24.4010    11.0790    12.5080    13.6080     2.6230   -15.6070 
  196.2500    84.4250    24.4550    10.7670    11.8600    12.9190     2.6090   -15.4980 
  196.3750    88.3650    24.4990    11.6410    11.6690    12.7160     2.6030   -15.3880 
  196.5000    89.7630    24.5560    12.6390    11.7010    12.7500     2.6020   -15.3050 
  196.6250    90.4320    24.5760    13.5850    11.7080    12.7570     2.5970   -15.2050 
  196.7500    91.9030    24.5600    14.0730    11.5480    12.5870     2.5870   -15.0380 
  196.8750    94.4060    24.5180    13.9900    11.1390    12.1520     2.5750   -14.8100 
  197.0000    97.6250    24.5130    13.2190    10.4460    11.4150     2.5680   -14.5770 
  197.1250   101.0530    24.5450    12.1160     9.6040    10.5180     2.5670   -14.3040 
  197.2500   104.1560    24.5860    10.8870     8.7330     9.5920     2.5590   -13.9600 
  197.3750   107.1790    24.6050     9.6850     7.9660     8.7760     2.5340   -13.5940 
  197.5000   110.6150    24.5770     8.6810     7.4750     8.2530     2.4980   -13.2820 
  197.6250   113.0220    24.5140     7.7360     7.2980     8.0650     2.4770   -13.0050 
  197.7500   112.6840    24.4620     7.1580     7.4460     8.2230     2.4810   -12.7290 
  197.8750   109.3690    24.4680     7.3800     7.8660     8.6700     2.5040   -12.4530 
  198.0000   104.6900    24.4800     8.7500     8.4250     9.2650     2.5370   -12.2380 
  198.1250   101.0240    24.4550    10.5750     8.8840     9.7520     2.5660   -12.0540 
  198.2500    99.1990    24.4070    12.0920     9.0490     9.9280     2.5840   -11.8740 
  198.3750    98.3460    24.3820    12.7010     8.8090     9.6720     2.5850   -11.6910 
  198.5000    95.3870    24.3700    11.8300     8.1410     8.9620     2.5740   -11.4770 
  198.6250    89.0480    24.3170     9.9600     7.2890     8.0560     2.5580   -11.2630 
  198.7500    81.1630    24.2230     7.6140     6.4430     7.1550     2.5350   -11.1150 
  198.8750    74.9310    24.1160     5.5090     5.7460     6.4140     2.5050   -11.0180 
  199.0000    72.4500    24.0160     4.3230     5.3130     5.9530     2.4780   -10.8900 
  199.1250    71.9250    23.8590     3.9190     5.1030     5.7300     2.4620   -10.7760 
  199.2500    72.2220    23.6800     3.9210     5.0740     5.6990     2.4510   -10.7230 
  199.3750    73.6980    23.6140     4.0430     5.1710     5.8020     2.4370   -10.7030 
  199.5000    77.8230    23.6860     4.1370     5.3380     5.9800     2.4250   -10.6680 
  199.6250    84.5010    23.8610     4.2290     5.5090     6.1610     2.4260   -10.6480 
  199.7500    92.1090    24.0990     4.3550     5.6510     6.3130     2.4400   -10.6440 
  199.8750    97.7710    24.3710     4.5280     5.7500     6.4180     2.4540   -10.6300 
  200.0000    99.3910    24.6000     4.7460     5.7880     6.4590     2.4520   -10.5770 
  200.1250    99.0520    24.7340     4.9630     5.7780     6.4480     2.4450   -10.5380 
  200.2500    98.6560    24.7890     5.1160     5.7370     6.4040     2.4430   -10.5220 
  200.3750    98.9720    24.7830     5.1250     5.6880     6.3520     2.4440   -10.5490 
  200.5000    99.8750    24.7360     5.0120     5.6540     6.3150     2.4380   -10.6590 
  200.6250   100.5470    24.7190     4.9750     5.6390     6.3000     2.4320   -10.8020 
  200.7500    99.9150    24.7370     5.1230     5.6330     6.2940     2.4380   -10.9170 
  200.8750    97.9090    24.7860     5.4910     5.6090     6.2680     2.4560   -11.0540 
  201.0000    95.8790    24.8160     6.0550     5.5440     6.1990     2.4690   -11.3400 
  201.1250    95.7340    24.8190     6.5270     5.4610     6.1110     2.4630   -11.6620 
  201.2500    98.5760    24.7930     6.6090     5.4080     6.0540     2.4450   -11.9570 
  201.3750   103.6230    24.7430     6.2710     5.4550     6.1040     2.4250   -12.2620 
  201.5000   107.3560    24.7190     5.8850     5.7480     6.4160     2.4090   -12.5970 
  201.6250   107.0160    24.7300     6.0350     6.3750     7.0830     2.3920   -12.9140 
  201.7500   102.5770    24.7730     7.2470     7.4260     8.2010     2.3750   -13.2520 
  201.8750    96.3700    24.8080     9.9230     8.9310     9.8020     2.3620   -13.6240 
  202.0000    91.9360    24.8160    13.7030    10.8740    11.8700     2.3530   -13.9330 
  202.1250    89.7490    24.7950    17.3560    12.9610    14.0900     2.3360   -14.1910 
  202.2500    88.2380    24.7520    20.9440    14.9030    16.1570     2.3100   -14.4490 
  202.3750    86.4540    24.7200    24.9150    16.4630    17.8170     2.2810   -14.7000 
  202.5000    85.5980    24.7240    27.6570    17.5260    18.9470     2.2640   -14.9120 
  202.6250    86.3170    24.7600    27.0540    18.3910    19.8680     2.2570   -15.1350 
  202.7500    87.0310    24.7870    23.8020    19.3740    20.9140     2.2580   -15.3420 
  202.8750    85.8960    24.7800    21.3580    20.7490    22.3770     2.2640   -15.5200 
  203.0000    82.9350    24.7380    23.5730    22.6750    24.4260     2.2710   -15.6970 
  203.1250    81.0140    24.7160    30.5300    24.9190    26.8140     2.2720   -15.8970 
  203.2500    81.5800    24.7240    40.5180    27.2080    29.2490     2.2640   -16.0910 
  203.3750    83.5440    24.7710    49.1160    29.2170    31.3870     2.2540   -16.2740 
  203.5000    85.0110    24.7950    48.7610    30.5730    32.8290     2.2550   -16.5060 
  203.6250    85.4780    24.7790    41.8970    31.3520    33.6590     2.2690   -16.7460 
  203.7500    84.8690    24.7250    35.0950    31.8250    34.1620     2.2860   -16.9690 
  203.8750    83.4700    24.6960    34.2960    32.3880    34.7610     2.2940   -17.1890 
  204.0000    82.5830    24.7230    39.7340    33.5120    35.9560     2.2910   -17.4500 
  204.1250    82.6020    24.7680    43.8830    35.3910    37.9560     2.2880   -17.7300 
  204.2500    81.7880    24.7630    43.5850    38.2140    40.9600     2.2810   -17.9990 
  204.3750    78.3850    24.7070    42.0960    42.1320    45.1280     2.2650   -18.2570 
  204.5000    73.5450    24.6770    46.6310    47.4570    50.7940     2.2480   -18.5700 
  204.6250    70.4390    24.6920    58.2110    54.1180    57.8820     2.2410   -18.9380 
  204.7500    69.6840    24.7500    72.2470    62.3160    66.6050     2.2380   -19.3280 
  204.8750    70.2400    24.7980    86.2360    72.2420    77.1650     2.2270   -19.7290 
  205.0000    71.4050    24.8090   100.6210    84.0510    89.7300     2.2040   -20.1530 
  205.1250    73.1760    24.7810   113.8800    96.6830   103.1710     2.1810   -20.5450 
  205.2500    75.1580    24.7250   125.3810   108.8160   116.0800     2.1670   -20.9250 
  205.3750    76.3430    24.6950   138.1110   118.8950   126.8050     2.1630   -21.3020 
  205.5000    75.5330    24.7160   159.9470   124.8100   133.0980     2.1630   -21.5640 
  205.6250    73.3250    24.7410   190.4190   126.3360   134.7210     2.1640   -21.7120 
  205.7500    71.2520    24.7130   212.1390   123.7270   131.9460     2.1660   -21.7950 
  205.8750    70.5140    24.6760   205.6680   118.2510   126.1190     2.1660   -21.8440 
  206.0000    71.1000    24.6830   169.2930   111.9940   119.4610     2.1640   -21.8310 
  206.1250    72.3070    24.7250   132.6700   107.0970   114.2510     2.1620   -21.8040 
  206.2500    74.0250    24.7500   112.8290   104.7210   111.7230     2.1660   -21.7600 
  206.3750    76.0010    24.7260   110.9870   105.3840   112.4290     2.1740   -21.7340 
  206.5000    77.1530    24.7150   120.5330   109.4260   116.7290     2.1810   -21.8070 
  206.6250    77.0930    24.7380   130.3370   115.5660   123.2630     2.1870   -21.9250 
  206.7500    76.0480    24.7550   137.8170   122.7270   130.8820     2.1890   -22.0640 
  206.8750    74.3840    24.7300   144.8600   129.8390   138.4490     2.1890   -22.1880 
  207.0000    72.5960    24.7220   153.9170   135.9040   144.9020     2.1870   -22.3110 
  207.1250    71.2150    24.7500   164.4230   140.7630   150.0720     2.1820   -22.4410 
