~V
VERS. 2.00: Ver 2.00
~W
STRT.M 60.0000:
STOP.M 257.0000:
STEP.M 0.1250:
NULL. -999.2500:
UWI. DF5064:
~C
DEPT.M :
SP.MV :
GR.API :
RML.OHMM :
RI. :
RXO.OHMM :
CALI.CM :
DEN.GM/CC :
~A
# ...
  228.7500    -8.0750    65.2260    17.8700    17.3600    15.7720    26.3810     2.2630 
  228.8750    -7.6480    65.0200    19.3750    19.1000    16.6480    26.4070     2.2610 
  229.0000    -7.2640    66.8320    21.9410    21.7040    19.2040    26.3920     2.2840 
  229.1250    -6.9600    70.7340    25.2010    24.5600    22.9520    26.3720     2.3390 
  229.2500    -6.7020    75.8550    28.0480    26.5430    27.4780    26.3940     2.4040 
  229.3750    -6.4770    79.1260    29.3470    26.6910    32.3970    26.4330     2.4560 
  229.5000    -6.2530    79.5220    28.2500    24.5900    39.5350    26.4580     2.4800 
  229.6250    -5.9780    78.2480    24.5040    20.6420    43.2300    26.4240     2.4750 
  229.7500    -5.6710    75.1800    19.8000    16.4660    37.3060    26.3090     2.4620 
  229.8750    -5.3520    70.2390    15.5290    13.0040    29.6090    26.1280     2.4540 
  230.0000    -5.0270    65.3550    12.5380    10.6020    21.2650    25.9460     2.4550 
  230.1250    -4.6970    64.8170    11.2020     9.3110    10.6730    25.8070     2.4560 
  230.2500    -4.3860    66.4910    10.8780     8.7030     7.4400    25.7140     2.4550 
  230.3750    -4.1010    67.4500    11.0630     8.5430     6.6350    25.6530     2.4510 
  230.5000    -3.8520    65.9390    11.4160     8.6230     6.5140    25.6230     2.4490 
  230.6250    -3.6710    65.5850    11.6870     8.7700     6.4820    25.6040     2.4480 
  230.7500    -3.5460    68.6980    11.8000     8.8650     6.6470    25.5860     2.4450 
  230.8750    -3.4590    70.6820    11.7740     8.8730     6.8370    25.5940     2.4370 
  231.0000    -3.3920    68.8190    11.6440     8.7920     6.9340    25.6820     2.4230 
  231.1250    -3.3340    67.2680    11.4360     8.6300     6.9690    25.8260     2.4050 
  231.2500    -3.2680    68.6020    11.1990     8.4230     7.3490    25.9070     2.3850 
  231.3750    -3.2010    69.4970    10.9840     8.2070     8.3450    25.9270     2.3630 
  231.5000    -3.1370    68.1240    10.8620     8.0270     9.4340    25.9520     2.3400 
  231.6250    -3.1020    67.7380    10.9420     7.9470     7.9830    26.0310     2.3240 
  231.7500    -3.1060    68.0360    11.2280     7.9830     6.6840    26.0960     2.3220 
  231.8750    -3.1480    66.3130    11.6810     8.1250     6.1520    26.0000     2.3410 
  232.0000    -3.2340    62.2200    12.2100     8.3310     6.7510    25.7100     2.3810 
  232.1250    -3.3640    59.1080    12.6720     8.5280     8.0240    25.3780     2.4280 
  232.2500    -3.5060    59.2710    12.9700     8.6520     8.9620    25.1510     2.4630 
  232.3750    -3.6480    62.3090    13.0760     8.6740     9.0100    25.0110     2.4790 
  232.5000    -3.7840    64.9510    13.0170     8.5980     8.2900    24.9300     2.4760 
  232.6250    -3.8960    64.1700    12.8410     8.4420     7.3850    24.8790     2.4660 
  232.7500    -4.0050    62.1170    12.6260     8.2550     7.0890    24.8600     2.4590 
  232.8750    -4.1150    62.0670    12.4040     8.0580     7.4450    24.8530     2.4580 
  233.0000    -4.1930    63.9520    12.1880     7.8660     8.0120    24.8350     2.4580 
  233.1250    -4.2130    63.6330    11.9910     7.6900     8.0430    24.7850     2.4550 
  233.2500    -4.2240    62.5520    11.8280     7.5360     7.7060    24.7400     2.4500 
  233.3750    -4.2270    64.6180    11.7160     7.4120     7.2670    24.7070     2.4460 
  233.5000    -4.2440    69.7680    11.6600     7.3230     6.9030    24.6670     2.4450 
  233.6250    -4.2720    73.2900    11.6600     7.2730     6.7330    24.6350     2.4470 
  233.7500    -4.2920    73.5590    11.6910     7.2500     6.4080    24.6200     2.4490 
  233.8750    -4.2690    72.4310    11.7360     7.2450     5.9940    24.6150     2.4510 
  234.0000    -4.2040    69.1950    11.7890     7.2510     5.6480    24.6120     2.4530 
  234.1250    -4.1220    65.8240    11.8560     7.2650     5.5130    24.6030     2.4540 
  234.2500    -4.0250    67.4560    11.9540     7.2890     5.5830    24.5910     2.4520 
  234.3750    -3.9290    72.3190    12.0940     7.3270     5.7640    24.6040     2.4480 
  234.5000    -3.7900    74.6940    12.2730     7.3810     6.0980    24.7000     2.4400 
  234.6250    -3.6250    74.7140    12.4710     7.4450     6.4650    24.9250     2.4330 
  234.7500    -3.4550    75.7740    12.6520     7.5100     6.6910    25.2050     2.4300 
  234.8750    -3.3020    76.6090    12.8030     7.5730     6.9730    25.4020     2.4330 
  235.0000    -3.1710    76.0500    12.9500     7.6450     7.3100    25.4490     2.4400 
  235.1250    -3.0620    75.4710    13.1860     7.7650     7.5550    25.4120     2.4500 
  235.2500    -2.9750    73.5000    13.5970     7.9680     7.6740    25.3660     2.4620 
  235.3750    -2.9140    70.8350    14.2260     8.2760     7.5930    25.2820     2.4760 
  235.5000    -2.9100    70.6600    15.0290     8.6760     7.7730    25.1110     2.4910 
  235.6250    -2.9710    72.9100    15.8410     9.1040     8.1810    24.8790     2.5050 
  235.7500    -3.0520    72.9800    16.4340     9.4530     8.5880    24.8650     2.5170 
  235.8750    -3.1410    70.9700    16.6530     9.6390     8.5550    25.0510     2.5220 
  236.0000    -3.2510    68.9760    16.4660     9.6240     8.2780    25.3150     2.5220 
  236.1250    -3.3650    68.5040    15.9570     9.4170     8.0680    25.4760     2.5160 
  236.2500    -3.4350    69.7160    15.3910     9.1380     7.8370    25.4860     2.5080 
  236.3750    -3.4360    72.1470    14.9370     8.8750     7.7520    25.2970     2.4960 
  236.5000    -3.3870    72.9230    14.6810     8.6920     7.8310    24.9320     2.4790 
  236.6250    -3.2990    69.9560    14.6430     8.6280     9.0260    24.7910     2.4550 
  236.7500    -3.1970    67.8190    14.7110     8.6490    10.8060    24.9080     2.4340 
  236.8750    -3.0860    68.4460    14.7910     8.7150    13.2870    25.1630     2.4230 
  237.0000    -2.9720    69.9740    14.8150     8.7870    15.0880    25.3240     2.4290 
  237.1250    -2.8890    68.5730    14.7380     8.8280    12.6620    25.3320     2.4460 
  237.2500    -2.8620    66.0510    14.5930     8.8340    11.3910    25.2950     2.4610 
  237.3750    -2.8940    63.6730    14.4200     8.8100    11.6760    25.3140     2.4610 
  237.5000    -2.9500    62.9080    14.2510     8.7690    10.6840    25.4090     2.4460 
  237.6250    -3.0160    65.2100    14.1060     8.7200     9.4520    25.5190     2.4230 
  237.7500    -3.1000    67.6900    13.9780     8.6710     8.8230    25.5490     2.4030 
  237.8750    -3.1920    69.1730    13.8660     8.6270     8.2860    25.4910     2.3940 
  238.0000    -3.2730    69.9390    13.7810     8.5930     7.7670    25.2830     2.3980 
  238.1250    -3.3030    68.8030    13.7470     8.5830     7.8040    24.9040     2.4100 
  238.2500    -3.3210    66.6190    13.7660     8.6000     8.0850    24.5290     2.4220 
  238.3750    -3.3870    66.3620    13.8310     8.6440     8.4520    24.3100     2.4280 
  238.5000    -3.5060    68.2200    13.9240     8.7110     8.7540    24.2910     2.4240 
  238.6250    -3.6510    66.9620    14.0220     8.7970     8.8460    24.4470     2.4160 
  238.7500    -3.7610    64.5490    14.1130     8.8930     7.9620    24.5820     2.4100 
  238.8750    -3.8380    64.9010    14.1950     8.9950     7.4600    24.5860     2.4110 
  239.0000    -3.9030    68.3510    14.2770     9.1030     7.4170    24.4460     2.4240 
  239.1250    -3.9730    73.0290    14.3690     9.2210     7.4860    24.2450     2.4470 
  239.2500    -4.0250    76.6520    14.4790     9.3470     7.5860    24.1110     2.4750 
  239.3750    -4.0440    77.3330    14.6010     9.4790     8.1250    24.1100     2.5000 
  239.5000    -4.0170    75.4370    14.7220     9.6090     8.7280    24.2990     2.5140 
  239.6250    -3.9400    75.3600    14.8180     9.7210     9.1120    24.6740     2.5080 
  239.7500    -3.8890    76.4410    14.8730     9.8070     9.0250    25.0560     2.4890 
  239.8750    -3.8850    74.3990    14.8730     9.8560     9.1490    25.3450     2.4670 
