~V
VERS. 2.00: Ver 2.00
~W
STRT.M 60.0000:
STOP.M 248.0000:
STEP.M 0.1250:
NULL. -999.2500:
UWI. DF5054:
~C
DEPT.M :
SP.MV :
GR.API :
CALI.CM :
RXO.OHMM :
RI. :
RML.OHMM :
DEN.GM/CC :
~A
# ...
  172.5000   -26.8440    59.7570    24.6790   332.3560   242.0400   305.4190     2.2190 
  172.6250   -26.4460    59.7390    24.6520   358.2280   249.3170   314.0860     2.2200 
  172.7500   -26.0780    58.0100    24.6120   364.6520   252.4290   316.2760     2.2160 
  172.8750   -25.7300    56.2070    24.5720   365.8450   250.0320   310.3260     2.2110 
  173.0000   -25.4000    55.5600    24.5250   364.5860   240.9890   295.2430     2.2080 
  173.1250   -25.0900    56.0390    24.4690   352.0040   222.4640   268.3650     2.2040 
  173.2500   -24.7980    57.3350    24.4130   330.5700   195.3760   231.9180     2.1990 
  173.3750   -24.5300    59.7210    24.3850   300.0160   161.8290   189.4400     2.2010 
  173.5000   -24.2860    62.8730    24.3730   257.7480   126.2000   146.4300     2.2160 
  173.6250   -24.0560    65.5790    24.3170   209.4180    94.3200   109.0630     2.2530 
  173.7500   -23.8310    67.8460    24.2150   168.6970    68.9170    79.2340     2.3090 
  173.8750   -23.6190    71.3510    24.1310   128.7840    50.5260    57.2100     2.3700 
  174.0000   -23.4310    77.1890    24.1270    83.7900    38.3030    42.1870     2.4140 
  174.1250   -23.2770    83.9090    24.1170    47.4460    31.4450    33.5780     2.4190 
  174.2500   -23.1470    88.6330    24.0860    25.9550    27.6040    28.7830     2.4020 
  174.3750   -23.0350    90.2990    24.0750    17.1380    25.6220    26.4490     2.3800 
  174.5000   -22.9400    89.6020    24.1050    15.6760    24.7030    25.5210     2.3640 
  174.6250   -22.8630    88.5140    24.1440    19.3430    24.4630    25.4190     2.3620 
  174.7500   -22.7990    89.2730    24.1540    24.1340    24.6420    25.7900     2.3660 
  174.8750   -22.7450    91.9620    24.1250    25.3720    25.3440    26.8230     2.3630 
  175.0000   -22.6920    94.3660    24.1200    21.4940    26.9060    29.0320     2.3570 
  175.1250   -22.6300    92.1950    24.1460    17.5520    30.2380    33.6190     2.3620 
  175.2500   -22.5590    85.6860    24.1330    18.4100    35.8510    41.0420     2.3720 
  175.3750   -22.4760    78.3410    24.0900    25.6440    44.1790    51.5400     2.3690 
  175.5000   -22.3800    74.1500    24.0990    38.8850    54.8670    64.4080     2.3440 
  175.6250   -22.2770    73.9350    24.2000    59.9300    65.7200    77.0720     2.3000 
  175.7500   -22.1730    74.0530    24.3000    85.6500    72.8960    85.6540     2.2510 
  175.8750   -22.0670    73.1870    24.3460   111.9270    73.4750    87.1450     2.2080 
  176.0000   -21.9560    72.0820    24.3610   131.6700    67.0260    80.6290     2.1840 
  176.1250   -21.8490    72.6160    24.3560   130.0770    55.7330    67.5380     2.1940 
  176.2500   -21.7690    77.1570    24.3090   107.4430    44.1370    53.0510     2.2320 
  176.3750   -21.7370    86.1310    24.1950    72.2950    34.4490    40.3480     2.2900 
  176.5000   -21.7700    95.1350    24.0520    39.8390    27.4810    31.0240     2.3500 
  176.6250   -21.8800    96.5350    23.9590    22.9920    23.5080    25.7890     2.3800 
  176.7500   -22.0490    92.6070    23.9810    18.2090    21.4810    23.2490     2.3860 
  176.8750   -22.2760    89.9080    24.0580    18.6860    20.8520    22.5720     2.3890 
  177.0000   -22.5590    92.8140    24.1510    19.5950    21.2860    23.2070     2.3990 
  177.1250   -22.9010    98.8180    24.2240    19.7070    22.7750    25.0600     2.4010 
  177.2500   -23.2760   102.1140    24.2010    20.2430    25.0500    27.7600     2.3820 
  177.3750   -23.6640   101.5390    24.1460    22.5650    27.9800    31.0820     2.3510 
  177.5000   -24.0500    99.8640    24.1140    28.3700    31.4220    34.8140     2.3180 
  177.6250   -24.4250    98.1610    24.1150    36.2930    35.1450    38.7130     2.2950 
  177.7500   -24.7900    93.7360    24.1350    41.7210    38.6770    42.3930     2.2850 
  177.8750   -25.1500    86.6740    24.1910    44.6410    41.6060    45.5050     2.2840 
  178.0000   -25.5120    81.6430    24.2860    47.4380    43.5940    47.7520     2.2850 
  178.1250   -25.8810    82.5860    24.3380    50.5670    44.2610    48.7780     2.2800 
  178.2500   -26.2570    85.3690    24.3580    53.4380    43.9150    48.8470     2.2730 
  178.3750   -26.6390    86.0580    24.3590    55.2340    42.9040    48.2770     2.2680 
  178.5000   -27.0310    84.7850    24.3640    54.7590    41.6370    47.4560     2.2650 
  178.6250   -27.4400    84.3720    24.3850    50.8100    40.5890    46.8860     2.2640 
  178.7500   -27.8690    85.0440    24.4190    45.9380    40.1850    47.0920     2.2680 
  178.8750   -28.3210    85.6950    24.4490    42.5960    40.8700    48.6740     2.2700 
  179.0000   -28.7940    85.9450    24.4660    41.7040    43.1080    52.2090     2.2640 
  179.1250   -29.2860    84.9600    24.4850    44.1240    47.6420    58.4820     2.2560 
  179.2500   -29.7890    80.8910    24.5120    51.9660    54.4230    67.2340     2.2510 
  179.3750   -30.2960    74.2340    24.5200    65.6900    63.4930    78.3570     2.2450 
  179.5000   -30.7980    69.0400    24.4840    77.3800    74.4160    91.2380     2.2350 
  179.6250   -31.2830    69.2500    24.4800    87.5170    85.8680   104.2470     2.2310 
  179.7500   -31.7390    71.9470    24.5040   108.6070    95.8030   115.1250     2.2360 
  179.8750   -32.1540    73.9600    24.5380   139.5570   102.6320   122.1210     2.2360 
  180.0000   -32.5180    74.4790    24.5640   161.0860   105.5150   124.3740     2.2240 
  180.1250   -32.8140    73.5030    24.5670   157.6370   104.3160   121.9020     2.2120 
  180.2500   -33.0590    71.7140    24.5410   141.5340   101.0730   117.3020     2.2110 
  180.3750   -33.2660    70.5150    24.4930   122.5830    97.1940   112.3190     2.2240 
  180.5000   -33.4490    71.3220    24.4280   106.4430    93.7490   108.2230     2.2510 
  180.6250   -33.6180    74.2760    24.3670   101.8030    91.6310   106.0230     2.2870 
  180.7500   -33.7900    76.7630    24.3080   109.8500    90.8620   105.5800     2.3170 
  180.8750   -33.9770    77.1250    24.2600   121.9590    91.4140   106.7820     2.3310 
  181.0000   -34.1850    75.7410    24.2870   124.2890    93.4860   109.8000     2.3330 
  181.1250   -34.4180    74.9580    24.2810   112.2770    98.4670   116.0860     2.3440 
  181.2500   -34.6730    75.3060    24.1670    99.4370   107.7500   126.9260     2.3720 
  181.3750   -34.9430    75.0090    23.9400    95.5540   123.0720   143.9810     2.4110 
  181.5000   -35.2180    72.8080    23.7600   113.7350   145.7480   168.8190     2.4520 
  181.6250   -35.4880    68.8980    23.8240   180.2840   177.1520   204.0020     2.4650 
  181.7500   -35.7450    64.5870    24.0030   288.2830   213.6590   246.7900     2.4370 
  181.8750   -35.9780    61.4420    24.1950   410.7560   250.4530   292.2670     2.3750 
  182.0000   -36.1710    61.8630    24.3050   502.3100   281.0160   332.0300     2.3110 
  182.1250   -36.3100    66.3740    24.3290   525.0470   296.4230   353.0070     2.2770 
  182.2500   -36.4010    69.5670    24.3410   491.4050   296.2140   352.9700     2.2620 
  182.3750   -36.4420    68.1750    24.3790   427.7300   283.3760   335.9710     2.2470 
  182.5000   -36.4270    63.8620    24.4390   364.1410   264.2250   311.0470     2.2230 
  182.6250   -36.3540    61.1500    24.4320   320.8090   245.9780   287.5860     2.1990 
  182.7500   -36.2370    61.3860    24.3380   288.4950   232.7710   270.1630     2.1900 
  182.8750   -36.0660    63.8060    24.1970   259.5260   225.9240   259.9700     2.1970 
  183.0000   -35.8330    67.4840    24.1400   243.2490   225.5470   256.7760     2.2090 
  183.1250   -35.5240    70.0900    24.2450   247.0110   231.3170   259.9500     2.2110 
  183.2500   -35.1560    69.6670    24.4410   256.7370   239.1390   265.0260     2.2020 
  183.3750   -34.7380    66.3080    24.5900   271.6970   244.4180   266.8500     2.1880 
  183.5000   -34.2860    62.2660    24.6460   304.1200   242.2590   259.8670     2.1740 
  183.6250   -33.8070    60.2030    24.6360   341.2790   227.4350   238.6870     2.1610 
