~V
VERS. 2.00: Ver 2.00
~W
STRT.M 55.0000:
STOP.M 262.0000:
STEP.M 0.1250:
NULL. -999.2500:
UWI. DF5047:
~C
DEPT.M :
GR.API :
CALI.CM :
RXO.OHMM :
RI. :
RML.OHMM :
DEN.GM/CC :
SP.MV :
~A
# ...
  111.2500    74.1050    23.9600    11.5970     9.0260    10.2110     2.3060   -36.6240 
  111.3750    71.4170    23.9150    12.6180     8.9390    10.0520     2.2620   -36.9540 
  111.5000    69.2310    23.9870    15.9860     8.7910     9.8500     2.2290   -37.2590 
  111.6250    66.3520    24.0460    15.3050     8.5800     9.5830     2.2100   -37.5350 
  111.7500    65.7850    24.0480    11.9440     8.3110     9.2700     2.1970   -37.7100 
  111.8750    67.7950    24.0000     9.4270     8.0230     8.9760     2.1840   -37.7900 
  112.0000    69.0050    23.9150     8.9710     7.7820     8.7730     2.1680   -37.8630 
  112.1250    67.1360    23.8340     9.4270     7.6430     8.6940     2.1550   -37.8790 
  112.2500    62.9690    23.8050     9.4800     7.5890     8.6920     2.1460   -37.9050 
  112.3750    59.7770    23.8280     9.3980     7.5900     8.7200     2.1390   -37.9680 
  112.5000    61.1330    23.8680     9.2940     7.6010     8.7360     2.1360   -37.8690 
  112.6250    65.6420    23.9100     9.2200     7.5830     8.7210     2.1370   -37.8220 
  112.7500    67.8860    23.9610     9.1790     7.5370     8.6940     2.1400   -37.9240 
  112.8750    66.2410    24.0270     9.1380     7.4810     8.6740     2.1460   -37.8520 
  113.0000    64.5050    24.1210     9.0990     7.4340     8.6760     2.1520   -37.7100 
  113.1250    66.9460    24.2410     9.0280     7.4240     8.7190     2.1550   -37.8050 
  113.2500    68.4080    24.3400     9.0510     7.4590     8.8030     2.1560   -37.8410 
  113.3750    67.0360    24.3950     9.2680     7.5350     8.9180     2.1540   -37.6260 
  113.5000    66.3340    24.4210     9.5850     7.6350     9.0390     2.1540   -37.5150 
  113.6250    68.7900    24.4390     9.8510     7.7210     9.1200     2.1560   -37.5230 
  113.7500    69.8490    24.4320     9.9990     7.7580     9.1330     2.1590   -37.3140 
  113.8750    67.1510    24.3650     9.8550     7.7290     9.0710     2.1610   -37.1550 
  114.0000    63.3220    24.2180     9.4750     7.6420     8.9530     2.1570   -37.0940 
  114.1250    59.9960    24.0050     9.1400     7.5200     8.8150     2.1480   -36.8610 
  114.2500    58.0470    23.7860     8.8640     7.4010     8.6960     2.1400   -36.5390 
  114.3750    58.6670    23.5840     8.6740     7.3050     8.6130     2.1350   -36.3450 
  114.5000    61.8790    23.4170     8.6310     7.2390     8.5680     2.1370   -36.1970 
  114.6250    65.5420    23.3200     8.6490     7.2020     8.5540     2.1430   -35.8450 
  114.7500    68.3330    23.2790     8.6070     7.1840     8.5530     2.1490   -35.5660 
  114.8750    69.9910    23.2650     8.6150     7.1830     8.5550     2.1520   -35.4200 
  115.0000    68.3680    23.2390     8.7940     7.1930     8.5470     2.1510   -35.1300 
  115.1250    66.0590    23.1900     9.1450     7.2100     8.5210     2.1460   -34.7170 
  115.2500    66.4820    23.1360     9.6300     7.2310     8.4880     2.1400   -34.4530 
  115.3750    68.3390    23.1050    10.0400     7.2630     8.4710     2.1350   -34.2710 
  115.5000    68.0000    23.1150    10.0450     7.3170     8.4950     2.1310   -33.9220 
  115.6250    64.4550    23.1370     9.7830     7.4020     8.5650     2.1300   -33.5290 
  115.7500    62.5910    23.1410     9.7200     7.4730     8.6060     2.1310   -33.2690 
  115.8750    64.7350    23.1380     9.9180     7.4510     8.5120     2.1330   -32.9140 
  116.0000    68.9840    23.1620     9.9200     7.2430     8.1830     2.1360   -32.4640 
  116.1250    71.7060    23.2580     9.3700     6.7750     7.5600     2.1440   -32.1350 
  116.2500    73.2680    23.4420     8.1020     6.1530     6.7950     2.1600   -31.8570 
  116.3750    78.3420    23.7180     6.4890     5.5070     6.0560     2.1820   -31.4100 
  116.5000    86.8940    24.0520     5.1680     4.9680     5.4880     2.2100   -30.9330 
  116.6250    91.0610    24.3940     4.8370     4.6490     5.1980     2.2350   -30.7070 
  116.7500    88.7840    24.7010     4.6540     4.5260     5.1190     2.2530   -30.4360 
  116.8750    84.5420    24.8970     4.7380     4.5620     5.1800     2.2580   -30.0730 
  117.0000    84.0630    24.9160     5.1320     4.6920     5.2920     2.2550   -29.8410 
  117.1250    87.0370    24.8060     5.3630     4.8300     5.3590     2.2480   -29.7970 
  117.2500    88.2910    24.7420     5.1360     4.9010     5.3360     2.2440   -29.7380 
  117.3750    89.2730    24.7800     4.7850     4.8700     5.2150     2.2470   -29.6730 
  117.5000    91.5740    24.8610     4.8310     4.7320     5.0120     2.2560   -29.6700 
  117.6250    93.8920    24.8940     4.9610     4.4930     4.7440     2.2700   -29.6810 
  117.7500    95.5540    24.8860     4.7160     4.2120     4.4670     2.2850   -29.7710 
  117.8750    97.7770    24.9380     4.2830     3.9460     4.2440     2.3030   -29.9250 
  118.0000   100.0640    25.1040     3.9880     3.7610     4.1440     2.3210   -30.0550 
  118.1250    98.9520    25.2770     3.8740     3.7350     4.2420     2.3350   -30.1710 
  118.2500    96.9430    25.3450     3.8900     3.8540     4.4890     2.3410   -30.3570 
  118.3750    96.1830    25.2990     4.2360     4.0740     4.8130     2.3340   -30.6200 
  118.5000    94.3090    25.1610     5.1510     4.3200     5.1120     2.3160   -30.9150 
  118.6250    88.9090    24.9680     6.0880     4.5180     5.3220     2.2940   -31.0750 
  118.7500    82.2600    24.8280     6.1880     4.6960     5.5450     2.2760   -31.2840 
  118.8750    79.7100    24.7970     5.5920     4.9600     5.9590     2.2670   -31.5160 
  119.0000    82.0170    24.8110     5.8590     5.4370     6.7160     2.2720   -31.7630 
  119.1250    80.1010    24.7530     7.5990     6.2540     7.8860     2.2980   -32.1420 
  119.2500    73.4690    24.6180    11.4240     7.2990     9.1880     2.3390   -32.4580 
  119.3750    68.6970    24.4800    17.7210     8.3280    10.2280     2.3910   -32.6230 
  119.5000    69.2580    24.3650    22.0750     8.9560    10.5850     2.4370   -32.8240 
  119.6250    70.6160    24.2350    18.1340     8.8120    10.0140     2.4410   -33.1410 
  119.7500    68.6190    24.0980    12.4310     8.1870     9.0270     2.4000   -33.2790 
  119.8750    65.9510    24.0160     9.4310     7.4380     8.0750     2.3390   -33.3610 
  120.0000    63.5730    24.0070     8.4820     6.8350     7.4340     2.2850   -33.5740 
  120.1250    62.4100    24.0120     8.0980     6.5420     7.2220     2.2510   -33.6660 
  120.2500    63.5010    23.9960     7.9520     6.5130     7.2950     2.2290   -33.5840 
  120.3750    65.5960    23.9610     7.9880     6.6780     7.5300     2.2160   -33.5560 
  120.5000    67.4990    23.9210     7.8960     6.9290     7.7880     2.2070   -33.6050 
  120.6250    69.0860    23.9150     7.6660     7.0940     7.8680     2.1990   -33.4250 
  120.7500    71.3400    23.9490     7.4640     7.0240     7.6500     2.1920   -33.2330 
  120.8750    72.9160    24.0080     7.4180     6.6400     7.0950     2.1900   -33.1870 
  121.0000    73.1050    24.0780     7.1690     5.9770     6.2810     2.1950   -33.0440 
  121.1250    76.0840    24.2000     6.2890     5.1620     5.3800     2.2160   -32.7460 
  121.2500    83.3730    24.4190     4.9190     4.3890     4.5880     2.2490   -32.5740 
  121.3750    91.3270    24.6920     3.8710     3.7520     3.9900     2.2880   -32.5070 
  121.5000    93.9390    24.8960     3.4980     3.2850     3.5940     2.3240   -32.3610 
  121.6250    91.7640    24.9770     3.4980     3.0060     3.4030     2.3490   -32.2100 
  121.7500    90.7600    25.0050     3.7230     2.8960     3.4040     2.3600   -32.1900 
  121.8750    91.7960    25.0110     4.0620     3.0020     3.6870     2.3630   -32.2060 
  122.0000    92.5030    25.0140     4.5980     3.4170     4.4200     2.3670   -32.2200 
  122.1250    88.1000    25.0040     5.0530     4.4020     5.9680     2.3860   -32.3860 
  122.2500    79.9720    24.9270     7.9090     6.0960     8.3630     2.4210   -32.6930 
  122.3750    72.1250    24.7690    15.7110     8.5520    11.3730     2.4700   -32.9860 
