~V
VERS. 2.00: Ver 2.00
~W
STRT.M 59.0000:
STOP.M 264.0000:
STEP.M 0.1250:
NULL. -999.2500:
UWI. DF5022:
~C
DEPT.M :
GR.API :
CALI.CM :
RXO.OHMM :
RI. :
RML.OHMM :
SP.MV :
DEN.GM/CC :
~A
# ...
   70.2500    87.6760    24.6720     5.0670     5.7460     5.7740   -41.4740     2.3190 
   70.3750    90.8500    24.6720     5.0320     5.4470     5.5260   -41.7150     2.3070 
   70.5000    91.9050    24.6720     5.1670     5.2070     5.3390   -41.9800     2.2970 
   70.6250    89.4280    24.6710     5.2640     5.0850     5.2720   -42.2350     2.2880 
   70.7500    87.2490    24.6650     5.0710     5.1210     5.3810   -42.5050     2.2810 
   70.8750    87.3710    24.6460     4.9900     5.3640     5.7210   -42.7840     2.2790 
   71.0000    87.7950    24.5960     5.5800     5.8310     6.3030   -43.1270     2.2870 
   71.1250    83.6540    24.5230     9.0150     6.5030     7.0700   -43.4610     2.3040 
   71.2500    76.0560    24.4430    15.6920     7.2070     7.8050   -43.7710     2.3110 
   71.3750    69.0690    24.3280    17.6800     7.7510     8.3160   -44.1260     2.2930 
   71.5000    65.8450    24.1760    12.5520     7.9940     8.5080   -44.4750     2.2560 
   71.6250    65.9630    24.0540     8.8120     7.9200     8.4180   -44.8320     2.2190 
   71.7500    64.4000    24.0110     8.4260     7.7280     8.2460   -45.1400     2.1960 
   71.8750    61.1750    24.0130     8.5550     7.5510     8.1130   -45.3930     2.1800 
   72.0000    58.6340    24.0140     8.3470     7.4700     8.0890   -45.5610     2.1650 
   72.1250    57.0600    24.0140     8.2560     7.5110     8.1850   -45.7200     2.1540 
   72.2500    57.0530    24.0140     8.2980     7.6050     8.3220   -45.8170     2.1520 
   72.3750    58.9960    24.0140     8.3970     7.7010     8.4480   -45.8370     2.1560 
   72.5000    61.5340    24.0140     8.5090     7.7710     8.5250   -45.7560     2.1580 
   72.6250    61.7960    24.0140     9.2090     7.7810     8.5080   -45.6310     2.1520 
   72.7500    60.6150    24.0140     9.3210     7.7240     8.4030   -45.4720     2.1370 
   72.8750    60.5800    24.0150     8.7080     7.6060     8.2420   -45.3370     2.1240 
   73.0000    61.6160    24.0270     8.2160     7.4500     8.0670   -45.1220     2.1210 
   73.1250    61.8890    24.0580     7.8740     7.2830     7.9140   -44.9170     2.1280 
   73.2500    60.3970    24.0900     7.6320     7.1330     7.8010   -44.7220     2.1330 
   73.3750    58.8920    24.1070     7.4550     7.0210     7.7360   -44.5820     2.1330 
   73.5000    61.0580    24.1090     7.4150     6.9600     7.7230   -44.4510     2.1320 
   73.6250    66.3600    24.1080     7.4830     6.9620     7.7620   -44.3530     2.1290 
   73.7500    68.2420    24.1080     7.8700     7.0080     7.8300   -44.2830     2.1280 
   73.8750    64.8670    24.1020     8.2440     7.0790     7.9020   -44.2170     2.1360 
   74.0000    60.2090    24.1030     8.3940     7.1440     7.9480   -44.1640     2.1640 
   74.1250    61.0490    24.2060     8.4390     7.1610     7.9360   -44.1880     2.2140 
   74.2500    64.9100    24.4030     8.3660     7.1270     7.8800   -44.1820     2.2550 
   74.3750    67.4500    24.5880     8.0960     7.0640     7.8160   -44.1850     2.2660 
   74.5000    67.5540    24.6670     7.7420     7.0100     7.7860   -44.2490     2.2460 
   74.6250    66.2130    24.6600     7.7960     7.0010     7.8250   -44.3120     2.2160 
   74.7500    64.6870    24.6670     7.7520     7.0320     7.9210   -44.4170     2.1930 
   74.8750    63.2430    24.6960     7.9130     7.0920     8.0520   -44.5040     2.1750 
   75.0000    60.9200    24.7320     8.1420     7.1660     8.1840   -44.5850     2.1610 
   75.1250    58.9920    24.7600     8.3040     7.2430     8.2810   -44.6370     2.1560 
   75.2500    59.6390    24.7730     8.4550     7.3100     8.3290   -44.7590     2.1620 
   75.3750    61.9830    24.7750     8.7400     7.3580     8.3210   -44.8210     2.1680 
   75.5000    62.8260    24.7740     8.9920     7.3760     8.2610   -44.8350     2.1630 
   75.6250    60.6240    24.7760     8.9890     7.3490     8.1680   -44.7860     2.1470 
   75.7500    58.8610    24.7810     8.7090     7.2900     8.0770   -44.7530     2.1390 
   75.8750    58.7210    24.7780     8.5510     7.2160     8.0100   -44.6870     2.1430 
   76.0000    59.2830    24.7360     8.4850     7.1450     7.9810   -44.6090     2.1510 
   76.1250    59.4120    24.6480     8.2560     7.1070     7.9950   -44.4600     2.1520 
   76.2500    58.8650    24.5690     8.0860     7.1080     8.0320   -44.2370     2.1460 
   76.3750    58.6180    24.5340     8.0180     7.1400     8.0750   -44.0240     2.1370 
   76.5000    58.2530    24.5340     8.0920     7.1800     8.1080   -43.8100     2.1310 
   76.6250    56.6860    24.5360     7.9840     7.2190     8.1180   -43.6230     2.1310 
   76.7500    55.6460    24.5350     8.0080     7.2600     8.1220   -43.3650     2.1370 
   76.8750    56.8960    24.5350     8.0580     7.3020     8.1320   -43.1120     2.1460 
   77.0000    58.2980    24.5350     8.1290     7.3290     8.1370   -42.8280     2.1550 
   77.1250    56.6740    24.5350     8.2300     7.2880     8.0790   -42.5810     2.1590 
   77.2500    54.5030    24.5350     8.2950     7.1480     7.9090   -42.3430     2.1600 
   77.3750    56.2240    24.5350     7.8780     6.9060     7.6230   -42.1050     2.1610 
   77.5000    61.9370    24.5350     7.1520     6.6010     7.2750   -41.8580     2.1700 
   77.6250    66.8580    24.5350     6.6060     6.2990     6.9700   -41.6170     2.1880 
   77.7500    68.4690    24.5350     6.2420     6.0620     6.7710   -41.3850     2.2080 
   77.8750    68.2790    24.5350     6.0500     5.9220     6.6940   -41.2270     2.2220 
   78.0000    68.3550    24.5350     6.1010     5.8890     6.7250   -41.1450     2.2230 
   78.1250    70.6080    24.5350     6.3240     5.9590     6.8340   -41.1220     2.2170 
   78.2500    72.6640    24.5350     6.4570     6.0800     6.9630   -41.1380     2.2150 
   78.3750    72.8320    24.5350     6.5540     6.2210     7.0860   -41.1830     2.2180 
   78.5000    71.1780    24.5380     6.6210     6.3590     7.1980   -41.2180     2.2170 
   78.6250    68.8560    24.5420     6.7280     6.4870     7.3120   -41.3140     2.2040 
   78.7500    66.6330    24.5330     7.0620     6.6050     7.4350   -41.4250     2.1850 
   78.8750    65.3150    24.5070     7.5620     6.7110     7.5510   -41.4860     2.1690 
   79.0000    65.5710    24.4760     8.0260     6.8000     7.6350   -41.5040     2.1600 
   79.1250    64.5180    24.4600     8.2340     6.8630     7.6680   -41.5170     2.1550 
   79.2500    61.4360    24.4570     8.2920     6.9060     7.6800   -41.5680     2.1520 
   79.3750    59.3300    24.4580     8.3150     6.9430     7.7090   -41.5880     2.1490 
   79.5000    59.5370    24.4590     8.2760     6.9920     7.7840   -41.6690     2.1450 
   79.6250    57.8640    24.4620     8.3590     7.0530     7.8990   -41.6710     2.1380 
   79.7500    54.1710    24.4650     8.5450     7.1060     8.0000   -41.6900     2.1350 
   79.8750    52.5620    24.4670     8.8250     7.1300     8.0430   -41.7060     2.1400 
   80.0000    55.2450    24.4710     8.9380     7.1090     8.0100   -41.7240     2.1550 
   80.1250    60.3040    24.4560     8.4390     7.0500     7.9190   -41.7300     2.1710 
   80.2500    63.8970    24.3870     7.7390     6.9980     7.8370   -41.5900     2.1820 
   80.3750    65.4040    24.2810     7.5140     6.9900     7.8100   -41.4500     2.1810 
   80.5000    63.1710    24.1990     7.6850     7.0430     7.8650   -41.3580     2.1690 
   80.6250    59.4690    24.1800     7.7510     7.1560     8.0160   -41.2160     2.1550 
   80.7500    58.0020    24.1840     7.9340     7.2960     8.2220   -41.0900     2.1490 
   80.8750    58.6440    24.1830     8.2350     7.4310     8.4260   -40.9220     2.1500 
   81.0000    60.1090    24.1790     8.5770     7.5160     8.5500   -40.8460     2.1500 
   81.1250    60.6020    24.1770     8.8140     7.4880     8.4880   -40.6350     2.1460 
   81.2500    59.6380    24.1760     9.0340     7.3480     8.2550   -40.5190     2.1500 
   81.3750    57.5410    24.1760     9.1010     7.1300     7.9190   -40.3160     2.1730 
