~V
VERS. 2.00: Ver 2.00
~W
STRT.M 55.0000:
STOP.M 261.0000:
STEP.M 0.1250:
NULL. -999.2500:
UWI. DF5033:
~C
DEPT.M :
SP.MV :
GR.API :
CALI.CM :
RXO.OHMM :
RI. :
RML.OHMM :
DEN.GM/CC :
~A
# ...
  145.0000   -19.4580    62.2400    26.4460    19.3540    19.7610    23.0050     2.6030 
  145.1250   -19.3440    63.0960    26.4640    18.6020    18.5210    21.2600     2.6010 
  145.2500   -19.2190    62.8970    26.4940    18.4100    17.0580    19.3120     2.5980 
  145.3750   -19.0910    62.4200    26.5230    17.0760    15.6500    17.5430     2.5870 
  145.5000   -18.9590    62.4090    26.5450    14.5330    14.5340    16.2450     2.5680 
  145.6250   -18.8270    62.2500    26.5600    12.9900    13.9080    15.6340     2.5520 
  145.7500   -18.7030    62.0840    26.5730    13.4030    13.6930    15.5480     2.5420 
  145.8750   -18.5840    61.7610    26.5850    14.6980    13.8200    15.8480     2.5350 
  146.0000   -18.4980    60.8600    26.5890    15.4330    14.1880    16.3820     2.5320 
  146.1250   -18.4680    58.7940    26.5760    15.1500    14.6680    16.9890     2.5340 
  146.2500   -18.4850    58.0290    26.5460    14.8810    15.0900    17.5110     2.5390 
  146.3750   -18.5530    58.7730    26.5030    15.1210    15.3800    17.8830     2.5470 
  146.5000   -18.6810    59.4610    26.4530    15.5630    15.5210    18.0900     2.5560 
  146.6250   -18.8810    58.8890    26.4020    15.5290    15.4890    18.0800     2.5610 
  146.7500   -19.1300    60.0050    26.3520    15.0050    15.3050    17.8700     2.5590 
  146.8750   -19.4260    63.3070    26.3030    14.2930    14.9790    17.4910     2.5600 
  147.0000   -19.7360    65.0590    26.2560    13.5170    14.5600    17.0230     2.5730 
  147.1250   -20.0200    63.9590    26.2200    12.6420    14.1380    16.5950     2.5900 
  147.2500   -20.2760    62.0450    26.2070    11.9340    13.8120    16.3200     2.5930 
  147.3750   -20.4940    59.8040    26.2250    11.8130    13.6460    16.2660     2.5730 
  147.5000   -20.6630    56.6720    26.2660    12.4210    13.6530    16.4310     2.5370 
  147.6250   -20.7700    55.7270    26.2950    13.3400    13.8230    16.7660     2.5070 
  147.7500   -20.8210    58.4400    26.2860    13.8990    14.0820    17.1750     2.4980 
  147.8750   -20.8070    61.6510    26.2580    13.9930    14.3950    17.6260     2.5090 
  148.0000   -20.7440    61.4830    26.2600    13.9400    14.7380    18.1140     2.5300 
  148.1250   -20.6580    58.9770    26.3350    14.2270    15.0890    18.6370     2.5600 
  148.2500   -20.5450    57.4210    26.4400    14.9690    15.3810    19.0930     2.5950 
  148.3750   -20.4220    56.8780    26.5090    15.9070    15.4970    19.2810     2.6240 
  148.5000   -20.2910    56.6480    26.4990    16.5800    15.3010    18.9900     2.6340 
  148.6250   -20.1570    56.7410    26.4280    16.3310    14.6900    18.0860     2.6240 
  148.7500   -20.0430    56.8210    26.3760    15.1270    13.8370    16.8690     2.6150 
  148.8750   -19.9530    55.7750    26.3840    13.4320    12.9280    15.6440     2.6080 
  149.0000   -19.8940    53.4490    26.4460    12.0420    12.1340    14.6620     2.5930 
  149.1250   -19.8640    51.6930    26.5200    11.5530    11.5770    14.0680     2.5640 
  149.2500   -19.8770    51.4470    26.5740    11.5430    11.2220    13.7450     2.5400 
  149.3750   -19.9150    53.3840    26.5970    11.5470    11.0320    13.6000     2.5310 
  149.5000   -19.9790    55.0770    26.5890    11.3620    10.9640    13.5630     2.5420 
  149.6250   -20.0810    53.8090    26.5510    11.0830    10.9920    13.6040     2.5670 
  149.7500   -20.1840    53.4420    26.4940    10.9350    11.0720    13.6900     2.5930 
  149.8750   -20.2850    55.8190    26.4190    11.0220    11.1830    13.8080     2.6060 
  150.0000   -20.3680    58.9100    26.3250    11.2600    11.3150    13.9490     2.6040 
  150.1250   -20.4350    58.5590    26.2090    11.3570    11.4830    14.1620     2.5930 
  150.2500   -20.4580    56.7630    26.0800    11.2070    11.7060    14.4880     2.5860 
  150.3750   -20.4540    57.6000    25.9540    11.0560    11.9890    14.9290     2.5850 
  150.5000   -20.4280    61.5470    25.8490    11.2590    12.3030    15.4160     2.5840 
  150.6250   -20.3510    64.8560    25.7810    11.8460    12.5550    15.7570     2.5750 
  150.7500   -20.2570    65.1520    25.7410    12.2720    12.6390    15.7900     2.5670 
  150.8750   -20.1410    63.7000    25.7200    12.2360    12.4990    15.4630     2.5620 
  151.0000   -20.0130    63.5140    25.7130    11.8190    12.1690    14.8830     2.5530 
  151.1250   -19.8720    64.2990    25.7290    11.3300    11.7640    14.2750     2.5340 
  151.2500   -19.7470    63.7120    25.7800    11.0930    11.4270    13.8390     2.5220 
  151.3750   -19.6310    61.7570    25.8770    11.2220    11.2320    13.6510     2.5260 
  151.5000   -19.5180    59.2130    26.0220    11.5590    11.1840    13.6780     2.5430 
  151.6250   -19.4400    57.2980    26.1980    11.8000    11.2480    13.8080     2.5560 
  151.7500   -19.3770    55.7150    26.3670    11.9210    11.3280    13.8860     2.5610 
  151.8750   -19.3460    54.9040    26.5000    11.9970    11.3630    13.8230     2.5600 
  152.0000   -19.3430    56.7890    26.5770    11.9770    11.3170    13.5870     2.5560 
  152.1250   -19.3620    60.0460    26.5760    11.7120    11.1880    13.2050     2.5520 
  152.2500   -19.3960    61.7770    26.5130    11.2170    11.0380    12.8030     2.5530 
  152.3750   -19.4470    60.3470    26.4070    10.5510    10.9200    12.4670     2.5570 
  152.5000   -19.5220    56.8320    26.2890     9.9160    10.8650    12.2450     2.5640 
  152.6250   -19.5960    53.8720    26.2030     9.7040    10.8850    12.1580     2.5680 
  152.7500   -19.6630    52.5000    26.1630     9.8470    10.9370    12.1490     2.5660 
  152.8750   -19.7110    52.6410    26.1670     9.9740    10.9830    12.1690     2.5550 
  153.0000   -19.7490    52.9440    26.1920     9.8200    10.9830    12.1680     2.5390 
  153.1250   -19.8040    53.5600    26.2180     9.4770    10.8830    12.0740     2.5330 
  153.2500   -19.8770    55.2370    26.2330     9.2160    10.6630    11.8510     2.5420 
  153.3750   -19.9720    55.7830    26.2390     9.0760    10.3120    11.4660     2.5580 
  153.5000   -20.0990    54.0540    26.2360     8.9290     9.8310    10.9000     2.5650 
  153.6250   -20.3100    55.2670    26.2230     8.5640     9.2370    10.1560     2.5440 
  153.7500   -20.6090    61.1520    26.2000     8.0590     8.6520     9.4210     2.5040 
  153.8750   -21.0230    67.5150    26.1680     7.6050     8.2570     8.9880     2.4620 
  154.0000   -21.5630    68.9450    26.1400     7.3350     8.2700     9.2220     2.4370 
  154.1250   -22.2130    66.3480    26.1490     8.0510     9.0980    10.7730     2.4380 
  154.2500   -22.9380    65.7370    26.2180    11.6590    11.0120    13.9300     2.4400 
  154.3750   -23.7250    68.5410    26.3630    21.1170    14.4400    19.0770     2.4220 
  154.5000   -24.5610    71.7020    26.5690    36.7900    19.7070    26.3440     2.3790 
  154.6250   -25.4090    72.9280    26.7840    50.3950    26.6290    35.0370     2.3300 
  154.7500   -26.2460    74.6320    26.9380    56.0470    33.3000    42.6600     2.2980 
  154.8750   -27.0410    76.5240    26.9880    56.2740    38.1210    47.4830     2.2870 
  155.0000   -27.7680    76.0840    26.9370    55.2140    41.0220    50.0560     2.2890 
  155.1250   -28.4310    72.6670    26.8270    54.3620    43.8970    53.2980     2.2930 
  155.2500   -29.0340    70.0900    26.7440    56.8860    49.0520    59.8270     2.2910 
  155.3750   -29.5670    69.2210    26.7360    68.3620    58.1250    71.3420     2.2800 
  155.5000   -30.0050    68.7370    26.8140    95.6560    72.2390    89.1820     2.2580 
  155.6250   -30.3340    67.1840    26.9560   138.5730    92.1730   114.9180     2.2350 
  155.7500   -30.5820    65.6790    27.1020   174.4480   114.5450   144.5930     2.2200 
  155.8750   -30.7430    66.9000    27.2160   190.1490   134.9250   171.6350     2.2100 
  156.0000   -30.8250    69.6660    27.2790   190.6410   149.0590   189.1060     2.2040 
  156.1250   -30.8080    69.4380    27.2730   185.8310   154.5310   193.9030     2.2070 
