~V
VERS. 2.00: Ver 2.00
~W
STRT.M 50.0000:
STOP.M 245.0000:
STEP.M 0.1250:
NULL. -999.2500:
UWI. DF5062:
~C
DEPT.M :
DEN.GM/CC :
GR.API :
RML.OHMM :
RI. :
RXO.OHMM :
CALI.CM :
SP.MV :
~A
# ...
  173.7500     2.2070    58.7230   327.9700   297.6320   280.1900    25.2700   -32.3490 
  173.8750     2.2110    58.5560   304.0990   277.4270   272.0890    25.2660   -32.3350 
  174.0000     2.2180    59.2790   283.9470   259.8990   252.4810    25.2680   -32.3490 
  174.1250     2.2240    61.4110   268.3240   246.1920   238.6610    25.2730   -32.4450 
  174.2500     2.2300    63.5770   255.9890   235.4010   224.5050    25.2760   -32.3850 
  174.3750     2.2360    64.7920   246.4080   227.0340   210.9670    25.2770   -32.2910 
  174.5000     2.2420    65.2060   239.2200   220.7510   207.9270    25.2770   -32.2510 
  174.6250     2.2450    64.9170   234.4590   216.6270   208.3730    25.2780   -32.1470 
  174.7500     2.2440    63.2060   231.3890   214.0730   204.5620    25.2810   -32.0130 
  174.8750     2.2390    60.7470   229.5390   212.7060   200.5110    25.2790   -31.8880 
  175.0000     2.2330    59.6700   228.3330   212.0280   201.3040    25.2620   -31.7320 
  175.1250     2.2280    60.5320   227.0500   211.4270   199.9640    25.2290   -31.5120 
  175.2500     2.2260    62.8510   224.9700   210.2700   195.2300    25.2060   -31.4640 
  175.3750     2.2250    63.8350   221.3430   207.9600   188.8260    25.1980   -31.3520 
  175.5000     2.2240    61.9270   215.0090   203.8200   186.8110    25.1950   -31.2070 
  175.6250     2.2210    59.9580   205.0610   196.7020   190.1350    25.1970   -31.0670 
  175.7500     2.2190    60.8260   192.0910   186.6730   186.8010    25.1980   -30.8290 
  175.8750     2.2190    63.5460   177.8240   174.0140   178.4120    25.1990   -30.7340 
  176.0000     2.2220    64.5710   162.9810   159.6250   163.1930    25.1990   -30.5600 
  176.1250     2.2280    63.3750   151.3410   145.0130   141.3930    25.1890   -30.4180 
  176.2500     2.2360    63.4560   141.8180   131.7020   122.4210    25.1610   -30.3220 
  176.3750     2.2470    66.1120   131.6150   120.5160   106.9730    25.1150   -30.1630 
  176.5000     2.2590    69.5320   121.6290   111.7270    96.7470    25.0620   -30.1450 
  176.6250     2.2700    68.7280   114.7210   105.5390    92.0330    25.0590   -30.1130 
  176.7500     2.2770    65.9460   110.1100   101.2760    87.8740    25.1010   -30.2000 
  176.8750     2.2780    64.4680   107.6150    98.7610    84.7700    25.1600   -30.3560 
  177.0000     2.2740    65.2100   107.1570    97.9330    81.4750    25.1930   -30.4380 
  177.1250     2.2700    66.2710   108.9760    99.0370    79.0820    25.1990   -30.5430 
  177.2500     2.2680    66.1360   112.5350   101.6490    82.1220    25.1990   -30.7010 
  177.3750     2.2670    65.1140   117.4730   105.4620    88.2570    25.1990   -30.9000 
  177.5000     2.2670    63.8060   123.3330   110.0550    95.6490    25.1990   -30.9870 
  177.6250     2.2640    64.5410   129.6920   115.0160   102.0930    25.1970   -31.1390 
  177.7500     2.2610    67.1620   136.1710   120.0030   106.3820    25.1830   -31.2320 
  177.8750     2.2580    67.4920   142.6870   124.9690   108.9710    25.1520   -31.2880 
  178.0000     2.2580    64.2270   149.2370   129.9840   111.6990    25.1220   -31.4210 
  178.1250     2.2630    61.9450   155.7380   135.1140   116.4810    25.0790   -31.5490 
  178.2500     2.2710    62.8590   161.9370   140.2120   121.0070    25.0150   -31.5730 
  178.3750     2.2760    63.7590   167.4460   144.9730   124.7980    24.9550   -31.5520 
  178.5000     2.2770    62.6510   171.7750   148.9440   128.1500    24.8920   -31.6620 
  178.6250     2.2710    61.5210   174.0140   151.2930   127.2630    24.7600   -31.7030 
  178.7500     2.2620    61.1770   173.9540   151.7320   126.0850    24.6140   -31.8720 
  178.8750     2.2540    61.2200   171.4040   150.0250   126.8540    24.5660   -31.8940 
  179.0000     2.2480    61.9500   166.5080   146.2340   129.8230    24.6690   -31.8910 
  179.1250     2.2440    64.6340   159.5130   140.5060   122.9340    24.8230   -31.9380 
  179.2500     2.2410    68.1470   151.4030   133.7020   115.5260    24.8900   -31.8600 
  179.3750     2.2400    72.4860   142.7280   126.3070   107.9180    24.8720   -31.9230 
  179.5000     2.2420    75.3900   134.1040   118.8430    99.7920    24.8340   -31.8630 
  179.6250     2.2480    73.7580   126.8440   112.3680    93.1410    24.8400   -31.8080 
  179.7500     2.2570    69.9040   122.2510   108.0090    99.1830    24.8570   -31.7140 
  179.8750     2.2670    67.1200   121.5880   106.8930    98.5600    24.9090   -31.5890 
  180.0000     2.2750    67.9050   125.6140   109.7800    89.0950    25.0330   -31.5830 
  180.1250     2.2770    70.0370   134.6870   117.2220    90.9170    25.1800   -31.5670 
  180.2500     2.2720    69.9750   146.2200   127.2030   106.9860    25.2930   -31.5670 
  180.3750     2.2630    67.3870   157.5820   137.5700   135.1370    25.3730   -31.5800 
  180.5000     2.2530    64.9280   166.1580   146.0180   157.0940    25.3800   -31.5640 
  180.6250     2.2450    65.7940   169.7010   150.3740   146.3870    25.2940   -31.5310 
  180.7500     2.2400    67.9800   169.5740   151.4220   136.8340    25.2100   -31.5730 
  180.8750     2.2390    69.3350   167.5510   150.5300   131.1140    25.1600   -31.6010 
  181.0000     2.2400    69.4530   164.9490   148.9350   121.2320    25.1520   -31.5090 
  181.1250     2.2440    69.0810   161.2980   146.5160   112.8800    25.1620   -31.4220 
  181.2500     2.2470    67.2950   155.2530   142.1890   115.0490    25.1150   -31.3660 
  181.3750     2.2480    64.5420   145.9380   135.0250   119.4630    24.9970   -31.2790 
  181.5000     2.2480    63.3500   133.7950   125.1250   121.4810    24.8460   -31.1710 
  181.6250     2.2490    63.8710   120.6690   113.7660   110.1300    24.7180   -31.1030 
  181.7500     2.2530    64.2920   109.1330   103.2530    87.9510    24.5590   -30.9260 
  181.8750     2.2590    64.1550   100.8210    95.1760    70.9000    24.3300   -30.8070 
  182.0000     2.2650    64.0940    96.6450    90.5370    64.8090    24.0320   -30.7830 
  182.1250     2.2690    63.8850    97.7180    90.5060    68.3070    23.8030   -30.6950 
  182.2500     2.2680    63.9500   103.2740    94.5450    72.8170    23.6960   -30.7190 
  182.3750     2.2640    64.3530   113.0520   102.4890    77.9030    23.6360   -30.6520 
  182.5000     2.2550    64.2530   126.4730   113.8270    85.4590    23.6060   -30.6580 
  182.6250     2.2430    64.1810   142.6490   127.7010    96.6160    23.6050   -30.6910 
  182.7500     2.2330    64.6640   159.2370   141.8910   116.1770    23.6260   -30.6700 
  182.8750     2.2280    65.4320   174.2550   154.5390   141.0630    23.6470   -30.8100 
  183.0000     2.2330    65.2590   186.1430   164.2100   155.2400    23.6560   -30.8750 
  183.1250     2.2450    65.4530   193.9530   170.0500   147.6510    23.6570   -30.9250 
  183.2500     2.2590    65.7260   199.4130   173.6650   139.5970    23.6600   -30.9630 
  183.3750     2.2660    64.4890   204.0010   176.3980   138.2230    23.6830   -30.9750 
  183.5000     2.2600    61.9830   208.6110   179.0860   139.3350    23.8120   -31.0000 
  183.6250     2.2390    60.7070   213.0210   181.6580   136.7050    24.1710   -31.0380 
  183.7500     2.2130    59.4540   216.1770   183.4140   138.8810    24.5830   -31.0490 
  183.8750     2.1900    56.1200   216.8460   183.5420   146.5820    24.8000   -30.9220 
  184.0000     2.1760    54.4960   213.8520   181.2340   147.3560    24.8510   -30.8530 
  184.1250     2.1730    58.7370   205.3180   175.0480   152.3530    24.8510   -30.7660 
  184.2500     2.1800    63.1670   191.5640   164.9000   152.5140    24.8460   -30.6520 
  184.3750     2.1920    63.0670   173.2500   150.9490   150.1350    24.8430   -30.4900 
  184.5000     2.2070    59.5680   152.2440   134.3280   141.4200    24.8470   -30.2400 
  184.6250     2.2230    57.3060   131.5920   117.1970   126.2780    24.8900   -29.9030 
  184.7500     2.2360    58.1650   113.9010   101.9120   105.1400    24.9070   -29.5650 
  184.8750     2.2430    63.5330   100.4620    89.8160    82.9820    24.9210   -29.2540 
