~V
VERS. 2.00: Ver 2.00
~W
STRT.M 55.0000:
STOP.M 250.0000:
STEP.M 0.1250:
NULL. -999.2500:
UWI. DF5052:
~C
DEPT.M :
SP.MV :
GR.API :
CALI.CM :
RXO.OHMM :
RI. :
RML.OHMM :
DEN.GM/CC :
~A
# ...
  190.0000   -23.1680    77.5030    23.5110    41.1330    34.2110    35.9820     2.3260 
  190.1250   -22.8060    84.0850    23.4710    32.7780    31.5610    33.2180     2.3330 
  190.2500   -22.4400    83.9610    23.4790    29.4450    29.3430    30.9040     2.3480 
  190.3750   -22.0790    77.4950    23.5480    29.8950    27.5460    29.0310     2.3670 
  190.5000   -21.7240    70.5400    23.6540    29.9610    26.0930    27.5150     2.3800 
  190.6250   -21.3730    67.9500    23.7020    27.1770    24.9800    26.3540     2.3790 
  190.7500   -21.0250    68.2810    23.7170    23.5100    24.1770    25.5160     2.3740 
  190.8750   -20.6850    70.5490    23.7170    22.2500    23.7220    25.0420     2.3690 
  191.0000   -20.3570    73.7410    23.7430    24.2860    23.6710    24.9890     2.3500 
  191.1250   -20.0530    75.3520    23.7760    26.6790    24.1760    25.5150     2.3220 
  191.2500   -19.7730    74.6260    23.8190    26.4650    25.1100    26.4900     2.3200 
  191.3750   -19.5220    72.5590    23.8170    24.6630    26.2180    27.6460     2.3640 
  191.5000   -19.3010    70.4470    23.7380    24.9130    27.0420    28.5050     2.4390 
  191.6250   -19.1120    69.4380    23.6090    29.3310    26.8010    28.2530     2.5230 
  191.7500   -18.9440    69.6820    23.5560    35.5590    25.2330    26.6180     2.6010 
  191.8750   -18.7910    70.5680    23.6350    39.9750    22.4400    23.7340     2.6580 
  192.0000   -18.6540    71.7190    23.7390    39.5910    18.9240    20.1110     2.6780 
  192.1250   -18.5430    74.9240    23.7540    32.8290    15.4010    16.4310     2.6530 
  192.2500   -18.4640    81.0870    23.7530    23.7320    12.4040    13.0650     2.6060 
  192.3750   -18.4190    88.1780    23.8270    15.7680    10.1270    10.4480     2.5500 
  192.5000   -18.4050    93.3330    23.9810    10.6610     8.5640     8.6990     2.4890 
  192.6250   -18.4130    95.4420    24.0780     8.5740     7.6750     7.7940     2.4340 
  192.7500   -18.4310    96.3340    24.0940     7.8230     7.2140     7.4020     2.3970 
  192.8750   -18.4540    96.9970    24.0710     7.7900     7.0830     7.3870     2.3810 
  193.0000   -18.4830    98.1560    24.0530     7.8850     7.2040     7.6550     2.3840 
  193.1250   -18.5180   100.2260    24.0730     7.9660     7.5330     8.1500     2.3990 
  193.2500   -18.5510   100.6390    24.0750     8.0970     7.9760     8.7740     2.4140 
  193.3750   -18.5670    97.8620    24.0250     8.4420     8.4720     9.4490     2.4310 
  193.5000   -18.5480    93.8670    23.9080     9.2430     8.9390    10.0870     2.4570 
  193.6250   -18.4720    92.1090    23.8220    10.5730     9.2460    10.5330     2.4910 
  193.7500   -18.3470    92.6470    23.7540    11.8270     9.3140    10.6820     2.5170 
  193.8750   -18.1810    95.0860    23.6990    12.2770     9.0970    10.4520     2.5200 
  194.0000   -17.9900   100.1500    23.6620    11.6900     8.6130     9.8520     2.4970 
  194.1250   -17.7860   105.8510    23.6750    10.6330     7.9490     8.9940     2.4580 
  194.2500   -17.5750   107.3910    23.6840     9.4020     7.2940     8.1410     2.4250 
  194.3750   -17.3590   103.7920    23.6760     8.1860     6.7760     7.4930     2.4130 
  194.5000   -17.1380    97.9740    23.6600     7.1020     6.4820     7.1840     2.4280 
  194.6250   -16.9150    93.5920    23.6510     6.3620     6.4910     7.3260     2.4670 
  194.7500   -16.7000    91.4730    23.6330     6.1950     6.7320     7.7920     2.5050 
  194.8750   -16.5030    92.3690    23.5860     6.8300     7.1180     8.4360     2.5310 
  195.0000   -16.3300    96.8410    23.5240     8.1860     7.5100     9.0390     2.5420 
  195.1250   -16.1870   102.2310    23.4490     9.5940     7.6840     9.2690     2.5330 
  195.2500   -16.0620   103.2810    23.3840    10.1590     7.5330     8.9990     2.5080 
  195.3750   -15.9450    98.6900    23.3360     9.6500     7.0500     8.2470     2.4770 
  195.5000   -15.8320    91.1570    23.3040     8.5490     6.3340     7.1770     2.4590 
  195.6250   -15.7190    83.9070    23.2150     7.3950     5.5490     6.0540     2.4690 
  195.7500   -15.6130    77.7150    22.9870     6.0680     4.8400     5.0980     2.4870 
  195.8750   -15.5190    71.9350    22.7180     4.7030     4.2670     4.3910     2.4900 
  196.0000   -15.4420    66.3180    22.5130     3.7400     3.8450     3.9300     2.4650 
  196.1250   -15.3830    62.5680    22.3250     3.4770     3.5750     3.6860     2.4240 
  196.2500   -15.3340    62.9460    22.1010     3.4710     3.4040     3.5590     2.3880 
  196.3750   -15.2890    67.0910    21.8920     3.4190     3.3100     3.5120     2.3630 
  196.5000   -15.2480    71.9310    21.7490     3.1950     3.2870     3.5280     2.3450 
  196.6250   -15.2220    75.0200    21.5520     2.9430     3.3480     3.6220     2.3380 
  196.7500   -15.2210    77.5650    21.3750     2.9160     3.4840     3.7880     2.3410 
  196.8750   -15.2480    80.7890    21.2780     3.2500     3.6880     4.0270     2.3500 
  197.0000   -15.2980    84.4490    21.2720     3.9060     3.9400     4.3160     2.3620 
  197.1250   -15.3590    87.6970    21.5500     4.6330     4.2060     4.6180     2.3810 
  197.2500   -15.4170    90.1610    22.0980     5.1070     4.4490     4.8930     2.4050 
  197.3750   -15.4690    91.8010    22.8180     5.1900     4.6500     5.1250     2.4230 
  197.5000   -15.5220    92.9610    23.4260     5.0910     4.8020     5.3160     2.4260 
  197.6250   -15.5900    94.4420    23.6450     5.2180     4.9120     5.4720     2.4110 
  197.7500   -15.6790    96.6060    23.6120     5.4770     5.0080     5.6130     2.3930 
  197.8750   -15.7900    99.2470    23.4790     5.7160     5.1020     5.7450     2.3730 
  198.0000   -15.9170   102.9580    23.3660     5.8860     5.2000     5.8760     2.3550 
  198.1250   -16.0500   107.5910    23.3190     6.0540     5.3040     6.0110     2.3410 
  198.2500   -16.1810   109.2880    23.3210     6.1750     5.4230     6.1680     2.3330 
  198.3750   -16.3090   105.6670    23.3400     6.1760     5.5740     6.3860     2.3260 
  198.5000   -16.4380    99.1120    23.3510     6.1160     5.7800     6.7150     2.3200 
  198.6250   -16.5750    93.8500    23.3530     6.2150     6.0940     7.2290     2.3230 
  198.7500   -16.7200    89.5850    23.3530     6.5760     6.5380     7.9250     2.3330 
  198.8750   -16.8690    85.5460    23.3540     7.3420     7.1260     8.7980     2.3420 
  199.0000   -17.0140    83.7180    23.3570     8.7650     7.8510     9.8210     2.3420 
  199.1250   -17.1510    86.7110    23.3780    10.7350     8.7150    10.9670     2.3320 
  199.2500   -17.2820    91.1930    23.4160    12.4670     9.6880    12.2040     2.3150 
  199.3750   -17.4160    92.2640    23.4440    13.9560    10.7720    13.5240     2.3000 
  199.5000   -17.5630    88.3240    23.4420    15.8050    11.9790    14.9580     2.2920 
  199.6250   -17.7320    84.0940    23.4490    17.8470    13.3740    16.6270     2.2900 
  199.7500   -17.9180    83.8370    23.5180    19.2090    14.9820    18.6000     2.2850 
  199.8750   -18.1090    85.6080    23.6680    20.7400    16.8440    20.9250     2.2800 
  200.0000   -18.2980    85.8410    23.8680    24.6660    18.9450    23.5690     2.2800 
  200.1250   -18.4820    85.0010    24.1090    32.1990    21.1610    26.3550     2.2730 
  200.2500   -18.6720    84.5460    24.2860    39.2510    23.2370    28.9390     2.2520 
  200.3750   -18.8830    83.3770    24.3680    41.9820    24.9690    31.0300     2.2250 
  200.5000   -19.1200    80.6910    24.3810    40.8190    26.2460    32.4590     2.2110 
  200.6250   -19.3830    78.4200    24.3830    39.3450    27.0860    33.2380     2.2130 
  200.7500   -19.6550    78.4940    24.3770    37.7170    27.8520    33.8880     2.2170 
  200.8750   -19.9270    80.1640    24.3450    34.8540    28.9330    34.9410     2.2140 
  201.0000   -20.1990    81.0860    24.2720    33.4040    30.7220    36.9110     2.2070 
  201.1250   -20.4790    78.9040    24.1730    35.7250    33.6180    40.3270     2.2000 
