~V
VERS. 2.00: Ver 2.00
~W
STRT.M 50.0000:
STOP.M 277.0000:
STEP.M 0.1250:
NULL. -999.2500:
UWI. DF5031:
~C
DEPT.M :
DEN.GM/CC :
GR.API :
CALI.CM :
RXO.OHMM :
RI. :
RML.OHMM :
SP.MV :
~A
# ...
  218.7500     2.1780    71.6170    24.2490    82.6720    72.9050    82.2360   -17.7390 
  218.8750     2.1790    71.5200    24.2490    81.1780    72.2330    81.4260   -17.6050 
  219.0000     2.1750    72.0040    24.2630    78.1770    71.4210    80.6670   -17.5250 
  219.1250     2.1730    72.2520    24.2770    75.3000    70.5710    79.9690   -17.4750 
  219.2500     2.1750    71.0600    24.2770    73.4480    70.3480    79.9210   -17.4950 
  219.3750     2.1780    69.2830    24.2670    73.3550    71.3180    81.0820   -17.5420 
  219.5000     2.1760    68.0250    24.2600    75.1470    73.7970    83.7640   -17.6410 
  219.6250     2.1710    68.6950    24.2600    81.7940    77.8640    87.9720   -17.6980 
  219.7500     2.1700    70.3400    24.2600    93.5660    82.3700    92.4530   -17.7330 
  219.8750     2.1730    71.4480    24.2600   105.4420    85.9640    95.8210   -17.7680 
  220.0000     2.1770    71.0300    24.2600   109.3040    87.5120    97.0300   -17.8120 
  220.1250     2.1770    71.9000    24.2600   104.7060    86.7040    95.8800   -17.8100 
  220.2500     2.1730    74.5760    24.2600    94.5190    85.2530    94.1290   -17.7780 
  220.3750     2.1660    75.1020    24.2600    83.5200    84.8200    93.5190   -17.6960 
  220.5000     2.1590    71.4940    24.2600    81.3730    86.8600    95.6690   -17.6780 
  220.6250     2.1610    68.2080    24.2610    95.7060    93.0430   102.5090   -17.6750 
  220.7500     2.1700    68.7180    24.2680   114.4740   103.3020   113.8680   -17.7390 
  220.8750     2.1820    70.9710    24.3000   124.5320   117.4980   129.2360   -17.7800 
  221.0000     2.1840    71.5150    24.2960   130.9050   134.2820   146.6670   -17.8670 
  221.1250     2.1710    68.0990    24.0970   138.6320   148.9900   161.1640   -17.9780 
  221.2500     2.1510    64.3920    23.7320   142.6710   155.7830   167.8130   -18.1290 
  221.3750     2.1360    63.7800    23.4960   141.2180   152.1560   164.5930   -18.3030 
  221.5000     2.1350    66.9970    23.4230   136.5000   140.8970   153.5990   -18.4040 
  221.6250     2.1470    70.1670    23.4620   120.8450   128.1940   140.1310   -18.5590 
  221.7500     2.1580    70.7490    23.6080   102.3990   119.1190   129.8780   -18.5930 
  221.8750     2.1620    69.5430    23.6700    93.7690   115.4440   125.3710   -18.6540 
  222.0000     2.1580    68.2310    23.6500    98.0840   117.4780   127.2660   -18.6720 
  222.1250     2.1500    66.7150    23.6020   111.6950   125.3990   135.6950   -18.7350 
  222.2500     2.1420    63.0100    23.5720   123.1480   136.7890   147.7700   -18.7240 
  222.3750     2.1380    59.2780    23.5750   129.9760   149.0800   160.6920   -18.6580 
  222.5000     2.1360    60.0330    23.6690   133.2280   158.8220   171.0730   -18.5380 
  222.6250     2.1260    65.8880    23.6880   142.2380   161.8640   174.9680   -18.3730 
  222.7500     2.1100    69.9810    23.7100   154.2780   158.6220   172.5500   -18.2390 
  222.8750     2.1030    68.7820    23.8340   153.9910   150.9290   165.2480   -18.0820 
  223.0000     2.1090    65.5940    24.0020   139.2610   141.3990   155.4700   -17.8850 
  223.1250     2.1270    64.4440    24.1870   125.3120   132.9080   146.1490   -17.6520 
  223.2500     2.1600    64.9020    24.3000   122.1370   127.1990   139.4930   -17.4950 
  223.3750     2.2210    64.9930    24.2700   118.5410   125.0730   136.6680   -17.3470 
  223.5000     2.3040    64.5150    24.1340   111.7450   126.7200   138.0770   -17.2390 
  223.6250     2.3580    64.8190    23.9060   110.9500   132.5480   144.1980   -17.0920 
  223.7500     2.3480    65.0800    23.6700   119.8750   141.5630   153.7710   -17.0530 
  223.8750     2.2860    65.7150    23.6180   142.4630   153.0610   165.8080   -17.0220 
  224.0000     2.2100    66.6210    23.5860   189.8830   165.8170   178.7350   -17.0500 
  224.1250     2.1570    66.9230    23.5130   237.5690   177.9360   190.3260   -17.0650 
  224.2500     2.1300    65.9980    23.5690   247.4080   188.1180   199.4380   -17.1710 
  224.3750     2.1210    63.9000    23.5610   221.9450   196.2900   206.1400   -17.3420 
  224.5000     2.1210    63.0960    23.5270   203.3540   203.3670   211.3640   -17.5010 
  224.6250     2.1200    64.0210    23.5660   205.3040   210.2890   215.8320   -17.6230 
  224.7500     2.1140    64.5270    23.6350   211.7320   216.7860   219.5020   -17.6050 
  224.8750     2.1090    63.6300    23.5200   215.6600   221.9200   221.8940   -17.6090 
  225.0000     2.1150    62.8140    23.5040   219.8560   225.1180   222.7780   -17.5560 
  225.1250     2.1360    64.0020    23.7880   218.9150   225.4650   221.4520   -17.5180 
  225.2500     2.1600    65.0040    24.0660   216.1520   217.5640   217.4200   -17.2900 
  225.3750     2.1820    64.5940    24.2230   215.9050   205.1060   209.4990   -16.9900 
  225.5000     2.2040    64.4060    24.3040   212.5620   193.0430   196.8200   -16.6410 
  225.6250     2.2290    65.3700    24.3250   201.1280   177.8960   180.7580   -16.3070 
  225.7500     2.2490    65.0870    24.3290   186.3110   162.5650   164.8000   -16.0190 
  225.8750     2.2520    64.5860    24.3140   172.6000   148.9330   150.9920   -15.7170 
  226.0000     2.2380    66.9630    24.2870   157.7180   137.8810   140.1390   -15.4390 
  226.1250     2.2150    69.9290    24.2900   142.6810   129.5910   132.2500   -15.1680 
  226.2500     2.2000    68.7970    24.3220   126.5770   122.7180   125.7000   -14.9240 
  226.3750     2.1950    66.2920    24.3600   108.4370   116.2410   119.3070   -14.7530 
  226.5000     2.1900    67.1070    24.3760    94.9000   109.4930   112.3910   -14.6830 
  226.6250     2.1740    71.0080    24.3410    95.6800   102.4660   105.0770   -14.6960 
  226.7500     2.1570    75.7470    24.3160    97.8720    95.7380    98.1640   -14.7710 
  226.8750     2.1560    79.8100    24.3950    93.8150    89.8840    92.3100   -14.9100 
  227.0000     2.1690    80.8740    24.4970    85.8600    85.3480    87.9170   -15.1830 
  227.1250     2.1760    77.6660    24.5090    79.2140    82.6410    85.4110   -15.4760 
  227.2500     2.1720    74.2010    24.4360    76.0090    81.4900    84.4790   -15.8870 
  227.3750     2.1640    73.0830    24.3330    75.5240    81.7740    85.0540   -16.2530 
  227.5000     2.1590    74.5750    24.2730    77.3680    83.3440    87.0710   -16.6410 
  227.6250     2.1560    76.9430    24.2600    80.2930    86.0890    90.5490   -16.9520 
  227.7500     2.1560    76.6320    24.2680    82.0330    89.3580    94.8510   -17.1650 
  227.8750     2.1650    72.9160    24.3220    82.5580    92.4680    99.2160   -17.2870 
  228.0000     2.1780    70.0570    24.4550    84.1930    94.4370   102.3770   -17.3120 
  228.1250     2.1890    71.5140    24.5550    88.2540    93.6230   102.0320   -17.3180 
  228.2500     2.1970    72.9630    24.4890    97.1420    89.9440    97.8910   -17.1380 
  228.3750     2.2000    72.8840    24.3660   108.6080    84.2810    91.1640   -16.9030 
  228.5000     2.1930    73.5270    24.3030   107.7170    78.3960    84.1070   -16.5010 
  228.6250     2.1770    74.9580    24.3300    91.7040    74.7100    79.4060   -16.0690 
  228.7500     2.1690    74.3920    24.4480    76.7850    74.5930    78.3550   -15.6190 
  228.8750     2.1890    72.5250    24.5390    77.3200    79.3340    82.0330   -15.1650 
  229.0000     2.2490    72.2780    24.5170    91.0710    90.1560    91.5570   -14.6830 
  229.1250     2.3520    71.6150    24.3230   112.8680   108.5060   109.2230   -14.1540 
  229.2500     2.4720    67.7950    24.2430   141.6430   129.5990   131.2600   -13.6820 
  229.3750     2.5830    64.3180    24.2230   198.5610   141.2800   141.8450   -13.1970 
  229.5000     2.6570    65.3520    24.2180   287.1860   126.1710   118.0770   -12.7730 
  229.6250     2.6720    70.6370    24.2160   320.4510    84.7970    72.9480   -12.2950 
  229.7500     2.6320    75.1860    24.2100   243.7430    47.5860    40.0240   -11.8490 
  229.8750     2.5420    78.9690    24.2020   117.9400    24.4900    21.5290   -11.3440 
