~V
VERS. 2.00: Ver 2.00
~W
STRT.M 60.0000:
STOP.M 277.0000:
STEP.M 0.1250:
NULL. -999.2500:
UWI. DF5010:
~C
DEPT.M :
GR.API :
CALI.CM :
RXO.OHMM :
RI. :
RML.OHMM :
SP.MV :
DEN.GM/CC :
~A
# ...
  138.7500    90.2540    24.7460     5.2710     4.7830     4.9340   -34.6570     2.2760 
  138.8750    89.9480    24.7440     5.2940     4.6600     4.8240   -34.7850     2.2850 
  139.0000    92.0230    24.6430     5.4640     4.5720     4.7410   -35.0630     2.3040 
  139.1250    96.2250    24.5570     5.4700     4.5080     4.6810   -35.3570     2.3180 
  139.2500    97.1520    24.5100     5.0630     4.4780     4.6690   -35.7950     2.3210 
  139.3750    95.9600    24.4870     4.8580     4.5070     4.7450   -36.2640     2.3130 
  139.5000    94.9170    24.4640     5.2490     4.6150     4.9280   -36.7280     2.3020 
  139.6250    91.6720    24.4440     5.6660     4.8030     5.2050   -37.3580     2.2950 
  139.7500    89.3140    24.4250     5.8480     5.0090     5.4810   -37.8380     2.2900 
  139.8750    88.4300    24.3980     6.1610     5.1680     5.6640   -38.3370     2.2780 
  140.0000    85.6420    24.3730     6.5540     5.2390     5.7110   -38.8450     2.2590 
  140.1250    82.5900    24.3640     6.7160     5.2780     5.7280   -39.2290     2.2500 
  140.2500    83.3060    24.3940     6.7310     5.4570     5.9710   -39.5980     2.2650 
  140.3750    86.8680    24.4790     7.1170     5.9650     6.7150   -39.8440     2.3130 
  140.5000    87.3150    24.5940     9.3360     6.9890     8.2100   -40.1380     2.3930 
  140.6250    81.8160    24.6630    16.9970     8.7790    10.6750   -40.2890     2.4940 
  140.7500    76.2500    24.6590    26.1900    11.0820    13.5730   -40.5100     2.5830 
  140.8750    71.6690    24.6220    32.5070    13.2590    15.9550   -40.7680     2.6280 
  141.0000    68.5630    24.5850    32.7440    14.3230    16.6960   -40.8880     2.6110 
  141.1250    68.5020    24.4910    25.1800    13.5510    15.2340   -41.2010     2.5260 
  141.2500    71.8400    24.3050    16.4860    11.9290    12.9670   -41.4800     2.4130 
  141.3750    75.4170    24.0930    11.6650    10.2990    10.9570   -41.8050     2.3060 
  141.5000    76.8760    23.9640     9.8300     9.0930     9.6710   -42.2000     2.2280 
  141.6250    77.0810    23.9490     9.4230     8.4640     9.1780   -42.4990     2.1890 
  141.7500    76.4800    23.9560     9.1530     8.2350     9.1240   -42.7700     2.1730 
  141.8750    75.5540    23.9550     9.0540     8.2740     9.2920   -42.9270     2.1720 
  142.0000    75.5810    23.9520     8.8930     8.4420     9.5050   -43.1030     2.1800 
  142.1250    77.4760    23.9680     8.8440     8.6070     9.6260   -43.1900     2.1900 
  142.2500    77.8500    24.0270     8.9130     8.7080     9.6410   -43.1790     2.1930 
  142.3750    75.9260    24.1200     9.0530     8.7520     9.5960   -43.2410     2.1860 
  142.5000    73.3670    24.2000     9.3010     8.7980     9.5810   -43.1580     2.1740 
  142.6250    72.4290    24.2290     9.4550     8.9530     9.7420   -43.1070     2.1600 
  142.7500    72.9860    24.2330     9.4860     9.2720    10.1320   -43.1000     2.1490 
  142.8750    73.3290    24.2340     9.9700     9.7580    10.7280   -43.1060     2.1480 
  143.0000    72.8680    24.2340    14.0910    10.3260    11.3960   -43.2000     2.1590 
  143.1250    72.0100    24.2320    22.1640    10.7710    11.8620   -43.1990     2.1690 
  143.2500    70.7010    24.2140    23.8050    10.9260    11.9450   -43.3130     2.1640 
  143.3750    70.2670    24.1500    17.0150    10.7450    11.6310   -43.3540     2.1430 
  143.5000    72.0920    24.0370    10.2180    10.3230    11.0750   -43.3160     2.1230 
  143.6250    73.7280    23.9200     9.3720     9.8360    10.5180   -43.4430     2.1270 
  143.7500    73.9040    23.8440     9.2210     9.4340    10.1140   -43.5200     2.1540 
  143.8750    73.5740    23.8090     9.0300     9.1580     9.8830   -43.5300     2.1890 
  144.0000    74.5990    23.7950     8.6960     8.9920     9.7730   -43.5420     2.2120 
  144.1250    74.9490    23.7930     8.3790     8.9000     9.7240   -43.5600     2.2120 
  144.2500    74.2520    23.8010     8.2210     8.8430     9.6940   -43.5510     2.1980 
  144.3750    74.6400    23.8370     8.2610     8.8220     9.6990   -43.5330     2.1840 
  144.5000    74.9480    23.9250     8.4850     8.8570     9.7670   -43.5540     2.1780 
  144.6250    73.2560    24.0700     8.7990     8.9800     9.9280   -43.5460     2.1810 
  144.7500    71.3630    24.2310     9.1230     9.1680    10.1530   -43.4440     2.1800 
  144.8750    70.3940    24.3600     9.3480     9.3890    10.3940   -43.3830     2.1700 
  145.0000    69.5650    24.4280     9.8110     9.5870    10.5870   -43.3340     2.1560 
  145.1250    68.7060    24.4390    10.1890     9.6810    10.6500   -43.2170     2.1480 
  145.2500    69.8140    24.4340    10.0510     9.6520    10.5850   -43.0780     2.1460 
  145.3750    70.5900    24.4310     9.5240     9.5220    10.4270   -42.9170     2.1480 
  145.5000    69.0760    24.4350     9.1220     9.3380    10.2330   -42.7730     2.1530 
  145.6250    67.1100    24.4470     8.8650     9.1520    10.0570   -42.5350     2.1600 
  145.7500    67.0710    24.4570     8.7200     8.9960     9.9160   -42.2820     2.1650 
  145.8750    67.7720    24.4610     8.7320     8.8740     9.8040   -42.1250     2.1650 
  146.0000    69.0590    24.4610     8.8830     8.7730     9.7050   -41.8280     2.1620 
  146.1250    69.9180    24.4610     8.8630     8.6840     9.6070   -41.6110     2.1590 
  146.2500    70.5950    24.4610     8.5550     8.6110     9.5180   -41.3700     2.1600 
  146.3750    71.9270    24.4610     8.3730     8.5650     9.4550   -41.0970     2.1640 
  146.5000    72.7380    24.4600     8.5720     8.5560     9.4290   -40.9130     2.1680 
  146.6250    70.9700    24.4670     8.7480     8.5860     9.4440   -40.6150     2.1720 
  146.7500    68.8100    24.4840     8.9290     8.6330     9.4730   -40.4310     2.1790 
  146.8750    69.4630    24.5020     9.0250     8.6720     9.4940   -40.1500     2.1870 
  147.0000    71.7260    24.5120     8.9710     8.6870     9.4900   -39.8270     2.1920 
  147.1250    71.0250    24.5120     8.8920     8.6700     9.4580   -39.5230     2.1840 
  147.2500    67.6360    24.5120     8.9120     8.6360     9.4090   -39.1530     2.1650 
  147.3750    65.5380    24.5120     8.9750     8.5930     9.3530   -38.8420     2.1430 
  147.5000    67.4130    24.5120     9.0630     8.5570     9.3200   -38.3810     2.1330 
  147.6250    71.2940    24.5110     9.3320     8.6100     9.4380   -38.0200     2.1430 
  147.7500    71.6960    24.5120     9.4890     8.8420     9.8110   -37.6250     2.1600 
  147.8750    70.5150    24.5220     9.4030     9.2810    10.4300   -37.1150     2.1790 
  148.0000    71.9740    24.5420     9.4090     9.8180    11.1010   -36.7040     2.2080 
  148.1250    75.9430    24.5580    10.4930    10.1350    11.3760   -36.2200     2.2600 
  148.2500    80.0660    24.5640    13.3170     9.9610    10.9820   -35.7980     2.3170 
  148.3750    83.9950    24.5630    13.7820     9.2280     9.9160   -35.3160     2.3580 
  148.5000    88.4640    24.5610    10.4690     8.1330     8.4960   -34.9100     2.3750 
  148.6250    90.4080    24.5660     6.9480     7.0280     7.2000   -34.5780     2.3780 
  148.7500    89.8730    24.5590     6.9510     6.1470     6.2560   -34.1480     2.3770 
  148.8750    91.1530    24.5120     7.0640     5.5500     5.6830   -33.9050     2.3700 
  149.0000    94.5550    24.4330     6.2420     5.2170     5.4070   -33.6600     2.3540 
  149.1250    96.9570    24.3680     5.8600     5.0870     5.3140   -33.5240     2.3340 
  149.2500    96.4570    24.3700     5.4050     5.0140     5.2320   -33.4370     2.3130 
  149.3750    95.6600    24.4570     5.2700     4.9270     5.0980   -33.3870     2.2940 
  149.5000    96.7690    24.5880     5.1890     4.8050     4.9100   -33.4520     2.2840 
  149.6250    99.9960    24.6760     4.9510     4.6630     4.6990   -33.3880     2.2930 
  149.7500   104.5650    24.6960     4.6220     4.5330     4.5090   -33.4890     2.3130 
  149.8750   109.6020    24.6890     4.4610     4.4400     4.3750   -33.5900     2.3330 
