~V
VERS. 2.00: Ver 2.00
~W
STRT.M 55.0000:
STOP.M 247.0000:
STEP.M 0.1250:
NULL. -999.2500:
UWI. DF5063:
~C
DEPT.M :
SP.MV :
GR.API :
RML.OHMM :
RI. :
RXO.OHMM :
CALI.CM :
DEN.GM/CC :
~A
# ...
  100.0000   -25.8770    68.9030     7.9900     7.2240     8.8170    23.2900     2.1540 
  100.1250   -25.8320    64.8900     8.1690     7.3440     8.7640    23.2820     2.1490 
  100.2500   -25.6510    63.2710     8.2980     7.4290     8.5750    23.2470     2.1500 
  100.3750   -25.2450    65.2760     8.3030     7.4310     8.3600    23.2060     2.1600 
  100.5000   -24.5580    68.5970     8.1260     7.3080     8.3560    23.1850     2.1780 
  100.6250   -23.6240    72.9670     7.7340     7.0280     8.2350    23.2030     2.2010 
  100.7500   -22.6020    79.4830     7.2320     6.6530     7.6770    23.3090     2.2260 
  100.8750   -21.5500    87.1910     6.7270     6.2530     6.7260    23.4230     2.2490 
  101.0000   -20.4970    94.1850     6.3160     5.9000     6.0650    23.4830     2.2690 
  101.1250   -19.5160    97.5280     6.0690     5.6640     5.8820    23.4750     2.2870 
  101.2500   -18.6680    97.6900     5.9510     5.5390     5.9260    23.4650     2.2990 
  101.3750   -18.0160    95.7240     5.9230     5.5070     6.1060    23.4660     2.3020 
  101.5000   -17.5920    94.2750     5.9410     5.5300     6.2190    23.4440     2.2930 
  101.6250   -17.3710    95.3170     5.9640     5.5690     6.1830    23.3900     2.2820 
  101.7500   -17.2570    95.8800     5.9640     5.5920     6.2450    23.4490     2.2740 
  101.8750   -17.2090    96.3320     5.9350     5.5890     6.2940    23.6660     2.2650 
  102.0000   -17.1680    96.9200     5.8800     5.5580     6.3530    23.9100     2.2530 
  102.1250   -17.0860    96.7940     5.8070     5.5050     6.1950    23.9880     2.2430 
  102.2500   -17.0450    94.7430     5.7290     5.4400     6.1220    24.0000     2.2340 
  102.3750   -17.1060    89.9390     5.6600     5.3750     6.0020    24.0080     2.2260 
  102.5000   -17.2700    83.5350     5.6150     5.3240     5.8630    23.9450     2.2190 
  102.6250   -17.5080    78.5600     5.6150     5.3090     5.8140    23.7910     2.2140 
  102.7500   -17.7690    79.5850     5.6610     5.3350     5.8970    23.6580     2.2130 
  102.8750   -18.0360    85.9680     5.7410     5.3930     6.0090    23.6000     2.2140 
  103.0000   -18.3710    91.3710     5.8260     5.4600     6.1620    23.5940     2.2150 
  103.1250   -18.8070    89.9670     5.8780     5.5000     6.3450    23.5890     2.2140 
  103.2500   -19.2800    86.4380     5.8800     5.4970     6.4780    23.6070     2.2140 
  103.3750   -19.7330    86.1330     5.8400     5.4540     6.3260    23.6420     2.2170 
  103.5000   -20.1620    87.6390     5.7940     5.3980     6.2340    23.6690     2.2210 
  103.6250   -20.6870    87.6330     5.8120     5.3820     6.2240    23.6820     2.2170 
  103.7500   -21.3240    85.4020     5.9400     5.4470     6.4920    23.6560     2.2070 
  103.8750   -22.0490    81.2580     6.2010     5.6140     6.9420    23.5370     2.1970 
  104.0000   -22.8140    75.9050     6.5860     5.8820     7.4860    23.3760     2.1850 
  104.1250   -23.5420    71.9790     7.0560     6.2330     7.9440    23.2540     2.1690 
  104.2500   -24.1750    71.0510     7.5270     6.6060     8.2720    23.2310     2.1560 
  104.3750   -24.7300    72.7680     7.9400     6.9580     8.4210    23.2380     2.1520 
  104.5000   -25.2000    75.7720     8.2580     7.2530     8.5560    23.2330     2.1580 
  104.6250   -25.4720    74.9830     8.4460     7.4510     8.7230    23.2570     2.1740 
  104.7500   -25.6140    70.0490     8.5180     7.5530     8.9520    23.2600     2.1930 
  104.8750   -25.7090    67.6160     8.4620     7.5550     9.0330    23.2290     2.2020 
  105.0000   -25.7880    71.0740     8.2690     7.4590     8.5670    23.1620     2.1900 
  105.1250   -25.8480    75.1770     7.9390     7.2680     8.3750    23.1130     2.1650 
  105.2500   -25.8460    76.3930     7.5750     7.0430     8.3010    23.0800     2.1460 
  105.3750   -25.7370    76.3840     7.2960     6.8540     8.2360    23.0930     2.1400 
  105.5000   -25.5010    74.7850     7.2260     6.7860     8.0180    23.1580     2.1470 
  105.6250   -25.1660    71.9950     7.4650     6.9250     7.8640    23.2720     2.1720 
  105.7500   -24.6910    72.7130     7.8660     7.2000     8.1910    23.4180     2.2130 
  105.8750   -24.0060    77.5200     8.2350     7.4780     9.3400    23.5840     2.2670 
  106.0000   -23.0950    82.2990     8.3330     7.5880    11.8030    23.7260     2.3220 
  106.1250   -22.0030    84.4130     7.9800     7.3360    12.1040    23.8280     2.3550 
  106.2500   -20.8970    85.9560     7.2850     6.7810     8.6150    23.9960     2.3530 
  106.3750   -19.8830    88.7510     6.5010     6.0710     6.0420    24.2630     2.3210 
  106.5000   -19.0610    93.1240     5.8850     5.3990     5.2330    24.4350     2.2820 
  106.6250   -18.4360    96.5600     5.4760     4.9550     5.2550    24.4390     2.2530 
  106.7500   -17.9610    95.9280     5.3860     4.7540     5.4640    24.3170     2.2370 
  106.8750   -17.6550    92.5420     5.5140     4.7620     5.6850    24.2060     2.2320 
  107.0000   -17.5370    91.1220     5.7310     4.9080     5.7440    24.1620     2.2330 
  107.1250   -17.6310    92.9920     5.9260     5.1060     5.6280    24.1000     2.2310 
  107.2500   -17.8620    94.5650     6.0630     5.2780     5.6910    23.9980     2.2230 
  107.3750   -18.1490    95.0630     6.1540     5.3940     5.6990    23.8950     2.2170 
  107.5000   -18.3570    94.5440     6.2150     5.4480     5.7260    23.7480     2.2180 
  107.6250   -18.4740    93.5700     6.2370     5.4420     6.0360    23.6110     2.2260 
  107.7500   -18.5620    95.3700     6.2060     5.3930     5.9020    23.5200     2.2400 
  107.8750   -18.6100    98.9760     6.1020     5.3030     5.5700    23.5170     2.2590 
  108.0000   -18.5970    99.9620     5.9230     5.1660     5.5280    23.5630     2.2750 
  108.1250   -18.5230    98.3790     5.6840     4.9800     5.4830    23.5610     2.2840 
  108.2500   -18.4360    99.6810     5.4510     4.7830     5.2930    23.6240     2.2880 
  108.3750   -18.4000   103.0790     5.3100     4.6360     5.0590    23.8470     2.2900 
  108.5000   -18.5150   103.3170     5.3580     4.6190     4.8890    24.1230     2.2840 
  108.6250   -18.8360    99.3140     5.7250     4.8520     5.1020    23.9600     2.2690 
  108.7500   -19.2670    93.9990     6.3710     5.3290     5.9600    23.6230     2.2520 
  108.8750   -19.7380    88.8330     7.1990     6.0000     7.7940    23.4280     2.2370 
  109.0000   -20.2370    86.5880     8.0290     6.7300    11.2730    23.5260     2.2200 
  109.1250   -20.6900    88.3630     8.5670     7.2760    13.7980    23.6180     2.1940 
  109.2500   -21.0200    90.9130     8.6660     7.4760    13.4960    23.6300     2.1720 
  109.3750   -21.1910    92.6620     8.3120     7.2920    11.2630    23.6260     2.1640 
  109.5000   -21.2560    94.9000     7.6490     6.8200     8.4350    23.6740     2.1720 
  109.6250   -21.1770    97.8620     6.9190     6.2390     6.6870    23.7160     2.1890 
  109.7500   -20.9580    98.3010     6.3310     5.7210     6.2860    23.6550     2.2070 
  109.8750   -20.6630    97.4160     5.9500     5.3250     6.2070    23.5910     2.2230 
  110.0000   -20.3530    97.9050     5.7620     5.0580     5.9990    23.6160     2.2340 
  110.1250   -20.1930    99.5570     5.7430     4.9340     5.9010    23.6610     2.2440 
  110.2500   -20.2540    97.8860     5.8610     4.9460     5.9030    23.6530     2.2580 
  110.3750   -20.5310    92.6990     6.1480     5.1170     6.2960    23.5230     2.2740 
  110.5000   -20.9350    87.2700     6.6310     5.4590     6.7050    23.4260     2.2830 
  110.6250   -21.4640    83.1510     7.2880     5.9580     8.2290    23.4840     2.2800 
  110.7500   -22.1510    79.0090     7.9540     6.4920    10.7140    23.5530     2.2690 
  110.8750   -22.9920    76.1700     8.4630     6.9390    12.4090    23.5160     2.2470 
  111.0000   -23.9220    75.3200     8.6820     7.1870    11.0660    23.4090     2.2090 
  111.1250   -24.8100    75.1290     8.5380     7.1450     9.4480    23.3400     2.1710 
