~V
VERS. 2.00: Ver 2.00
~W
STRT.M 55.0000:
STOP.M 261.0000:
STEP.M 0.1250:
NULL. -999.2500:
UWI. DF5033:
~C
DEPT.M :
SP.MV :
GR.API :
CALI.CM :
RXO.OHMM :
RI. :
RML.OHMM :
DEN.GM/CC :
~A
# ...
  190.0000   -10.5730    62.8400    26.7300     6.4210     5.8020     8.2920     2.4660 
  190.1250   -10.3880    57.6670    26.6640     6.0630     5.6750     7.9630     2.4460 
  190.2500   -10.2420    53.0250    26.5730     5.4650     5.4940     7.5840     2.4300 
  190.3750   -10.1150    51.0580    26.4790     4.9710     5.3200     7.2750     2.4230 
  190.5000   -10.0170    52.4960    26.3980     4.7900     5.1990     7.0930     2.4200 
  190.6250    -9.9680    56.2240    26.3310     4.8410     5.1580     7.0510     2.4170 
  190.7500    -9.9900    60.7000    26.2730     4.8880     5.1780     7.0820     2.4150 
  190.8750   -10.1040    65.3560    26.2220     4.8980     5.2370     7.1380     2.4100 
  191.0000   -10.3250    69.7530    26.1880     4.9410     5.3170     7.1970     2.3970 
  191.1250   -10.6890    75.7930    26.1860     5.0750     5.4180     7.2850     2.3860 
  191.2500   -11.1490    82.1650    26.2140     5.2420     5.5410     7.4210     2.3900 
  191.3750   -11.6920    86.0830    26.2670     5.3790     5.6800     7.5940     2.4040 
  191.5000   -12.3020    86.6230    26.3370     5.5290     5.8190     7.7650     2.4140 
  191.6250   -12.9690    85.3880    26.4200     5.7610     5.9320     7.8850     2.4160 
  191.7500   -13.6530    86.5760    26.5090     5.9370     5.9980     7.9330     2.4140 
  191.8750   -14.3220    90.3170    26.6000     5.9340     6.0090     7.9100     2.4120 
  192.0000   -14.9540    93.0500    26.6890     5.8430     5.9650     7.8250     2.4130 
  192.1250   -15.5300    91.9000    26.7650     5.8610     5.8670     7.6550     2.4250 
  192.2500   -16.0770    89.7290    26.8220     5.8970     5.7260     7.3970     2.4370 
  192.3750   -16.5970    89.5840    26.8550     5.8030     5.5580     7.0680     2.4390 
  192.5000   -17.0930    90.4850    26.8650     5.5920     5.3890     6.7300     2.4360 
  192.6250   -17.5520    91.2660    26.8570     5.3880     5.2720     6.4990     2.4400 
  192.7500   -17.9790    91.8530    26.8460     5.2810     5.2470     6.4550     2.4450 
  192.8750   -18.3710    91.8790    26.8370     5.4170     5.3500     6.6490     2.4420 
  193.0000   -18.7200    92.2290    26.8280     5.9200     5.5880     7.0650     2.4280 
  193.1250   -18.9910    94.1050    26.8110     6.6330     5.9410     7.6260     2.4100 
  193.2500   -19.2000    94.0610    26.7810     7.1510     6.3270     8.1800     2.4030 
  193.3750   -19.3580    89.6180    26.7430     7.4060     6.6830     8.6330     2.4110 
  193.5000   -19.4630    84.4100    26.7120     7.5840     6.9690     8.9490     2.4250 
  193.6250   -19.5420    84.3810    26.7090     7.9460     7.1770     9.1490     2.4290 
  193.7500   -19.6190    86.6540    26.7370     8.6350     7.3560     9.3110     2.4220 
  193.8750   -19.7150    88.2720    26.7690     9.2460     7.4900     9.4370     2.4130 
  194.0000   -19.8600    89.3300    26.7960     9.6890     7.5960     9.5400     2.4090 
  194.1250   -20.1050    90.5600    26.8460    10.1730     7.9400     9.9700     2.4130 
  194.2500   -20.4340    89.4210    26.8790    10.4330     8.5760    10.9020     2.4170 
  194.3750   -20.8240    84.2900    26.8940    11.2580     9.7510    12.7190     2.4110 
  194.5000   -21.2860    77.6720    26.8950    13.8750    11.8880    15.9500     2.3970 
  194.6250   -21.8030    71.1990    26.8860    21.0870    16.1600    21.8990     2.3950 
  194.7500   -22.3430    63.6220    26.8690    34.9550    23.5090    31.5120     2.4160 
  194.8750   -22.8960    57.6860    26.8440    55.1240    35.0600    46.2420     2.4480 
  195.0000   -23.4550    56.5880    26.8160    77.9010    51.2770    67.1500     2.4640 
  195.1250   -23.9940    61.1430    26.7990   103.1270    71.1930    93.7040     2.4360 
  195.2500   -24.5120    66.9590    26.8060   127.9140    90.9790   120.2190     2.3690 
  195.3750   -25.0300    68.9430    26.8410   142.7430   108.3590   142.8340     2.2840 
  195.5000   -25.5390    65.7290    26.9000   145.6570   123.0260   161.5660     2.2140 
  195.6250   -26.0200    62.1010    26.9710   151.3440   134.5520   176.5970     2.1830 
  195.7500   -26.4830    61.9600    27.0370   166.2970   141.6850   185.4930     2.1740 
  195.8750   -26.9380    64.0210    27.0840   178.1660   142.5550   185.0080     2.1730 
  196.0000   -27.3790    66.4900    27.1010   168.5120   136.8830   175.2290     2.1750 
  196.1250   -27.8180    69.1540    27.0710   136.1710   126.6270   160.4890     2.1870 
  196.2500   -28.2570    70.1530    27.0060   107.9730   116.7620   147.7980     2.2060 
  196.3750   -28.6830    69.1740    26.9250    96.9240   110.5510   140.6180     2.2220 
  196.5000   -29.0870    66.9090    26.8550   100.3140   109.5200   140.0030     2.2300 
  196.6250   -29.4830    65.4080    26.8240   114.1930   113.8730   145.7750     2.2270 
  196.7500   -29.8730    65.9060    26.8280   133.0760   120.5180   153.9830     2.2200 
  196.8750   -30.2240    67.9850    26.8520   147.1510   126.5770   160.7060     2.2130 
  197.0000   -30.5220    70.2440    26.8790   143.7370   129.6130   162.7520     2.2080 
  197.1250   -30.7480    70.5700    26.8960   123.7480   128.6200   159.5200     2.2030 
  197.2500   -30.9190    70.1060    26.9020   107.7550   126.0810   154.9700     2.1950 
  197.3750   -31.0230    69.0200    26.9000   104.7270   124.0970   151.7540     2.1910 
  197.5000   -31.0730    66.3330    26.8920   112.2100   123.8750   151.0100     2.1970 
  197.6250   -31.0580    62.2800    26.8840   121.3960   125.6760   152.7040     2.2130 
  197.7500   -30.9980    60.5080    26.8770   124.3270   128.2000   155.1260     2.2250 
  197.8750   -30.9190    62.1790    26.8710   121.7920   130.3840   157.0170     2.2260 
  198.0000   -30.8380    64.7880    26.8590   118.7630   131.5830   157.6930     2.2210 
  198.1250   -30.7670    66.3140    26.8330   118.3280   131.5640   156.9590     2.2150 
  198.2500   -30.7030    68.7520    26.7940   119.3800   130.7530   155.3360     2.2090 
  198.3750   -30.6780    69.9880    26.7520   120.6820   129.3340   153.0830     2.2040 
  198.5000   -30.6710    66.2180    26.7250   120.9090   127.4110   150.4010     2.2060 
  198.6250   -30.6870    60.6480    26.7300   118.6900   125.1090   147.5780     2.2110 
  198.7500   -30.7270    60.8250    26.7600   115.8800   122.9230   145.1840     2.2110 
  198.8750   -30.7760    66.6440    26.7990   114.7040   121.4900   143.9220     2.2060 
  199.0000   -30.8340    72.0230    26.8290   115.1060   121.5460   144.5490     2.2040 
  199.1250   -30.8980    70.7620    26.8440   115.3300   124.2200   148.2590     2.2090 
  199.2500   -30.9850    66.8190    26.8540   117.0990   129.6130   155.0840     2.2140 
  199.3750   -31.0700    65.7710    26.8720   125.4300   137.6830   164.9550     2.2150 
  199.5000   -31.1670    67.6730    26.9040   144.5450   147.8180   177.1250     2.2120 
  199.6250   -31.2560    67.9580    26.9490   173.0610   158.7490   189.9590     2.2050 
  199.7500   -31.3100    66.2250    26.9920   196.6680   168.6490   201.0890     2.2000 
  199.8750   -31.3250    65.3780    27.0270   204.7010   176.1080   208.5900     2.1960 
  200.0000   -31.3030    65.6120    27.0490   199.9700   179.9950   210.9340     2.1890 
  200.1250   -31.2240    65.1830    27.0630   197.0930   178.6400   205.9830     2.1830 
  200.2500   -31.0660    62.7730    27.0760   200.2850   172.4280   194.7630     2.1820 
  200.3750   -30.8670    60.3410    27.0910   198.6460   161.9390   178.7520     2.1900 
  200.5000   -30.6200    60.2960    27.1050   180.9570   148.6780   160.5340     2.2020 
  200.6250   -30.3500    62.8520    27.1120   149.2450   134.8820   143.2850     2.2180 
  200.7500   -30.0910    64.3310    27.1120   120.3010   122.6410   128.8460     2.2330 
  200.8750   -29.8440    63.4160    27.1120   101.6870   112.8360   117.6390     2.2410 
  201.0000   -29.5950    63.1160    27.1170    93.0230   105.3690   109.0520     2.2410 
  201.1250   -29.3640    64.7320    27.1150    90.7600    99.5430   102.0270     2.2340 
