~V
VERS. 2.00: Ver 2.00
~W
STRT.M 58.0000:
STOP.M 256.0000:
STEP.M 0.1250:
NULL. -999.2500:
UWI. DF5024:
~C
DEPT.M :
SP.MV :
GR.API :
CALI.CM :
RXO.OHMM :
RI. :
RML.OHMM :
DEN.GM/CC :
~A
# ...
  226.7500   -19.7110    71.0610    24.8120    85.8340    73.1890    77.6340     2.1640 
  226.8750   -19.6830    72.7220    25.0440    78.8870    74.0370    78.5310     2.1190 
  227.0000   -19.6400    73.4530    25.1850    76.7160    76.2700    80.8940     2.0720 
  227.1250   -19.5810    71.8940    25.1950    82.0640    79.6160    84.4340     2.0490 
  227.2500   -19.5070    68.5890    25.0540    96.0450    82.8390    87.8440     2.0690 
  227.3750   -19.4200    65.1980    24.7820   129.6510    84.8030    89.9220     2.1500 
  227.5000   -19.3240    63.6470    24.5220   191.0210    84.6510    89.7610     2.2910 
  227.6250   -19.2250    65.1600    24.3500   241.7390    81.6750    86.6120     2.4430 
  227.7500   -19.1280    68.3830    24.2860   235.5250    76.7320    81.3820     2.5300 
  227.8750   -19.0370    71.6920    24.2340   174.1780    70.8450    75.1540     2.5280 
  228.0000   -18.9510    73.8850    24.1350   103.0390    65.2790    69.2660     2.4690 
  228.1250   -18.8700    74.4520    23.9370    61.8900    61.4050    65.1670     2.4090 
  228.2500   -18.7890    74.2600    23.7580    49.5750    59.5430    63.1970     2.3790 
  228.3750   -18.7040    74.1950    23.6480    51.6490    59.8540    63.5250     2.3790 
  228.5000   -18.6110    74.6720    23.6030    56.4140    62.4300    66.2510     2.3960 
  228.6250   -18.5020    75.3770    23.6200    61.4070    67.8230    71.9560     2.4080 
  228.7500   -18.3740    75.4660    23.7270    71.6230    75.7000    80.2900     2.3970 
  228.8750   -18.2260    74.6750    23.8820    86.9520    85.9700    91.1560     2.3580 
  229.0000   -18.0590    73.2990    23.8600   100.9830    97.9230   103.8030     2.3070 
  229.1250   -17.8740    72.2950    23.6760   112.4660   108.3550   114.8390     2.2910 
  229.2500   -17.6830    72.1270    23.5640   137.5000   112.1890   118.8960     2.3320 
  229.3750   -17.4910    72.5350    23.5800   186.3380   105.6660   111.9940     2.4180 
  229.5000   -17.3080    73.3490    23.6450   247.1020    89.0570    94.4220     2.5210 
  229.6250   -17.1430    75.3530    23.6640   262.0150    67.0120    71.1040     2.6140 
  229.7500   -17.0010    79.2220    23.6020   224.9860    46.5360    49.4750     2.6670 
  229.8750   -16.8840    84.5670    23.4660   152.8730    30.5600    32.6440     2.6520 
  230.0000   -16.7930    89.6290    23.3100    76.3010    19.5740    21.0430     2.5720 
  230.1250   -16.7320    91.2990    23.2600    31.1600    13.3200    14.4030     2.4740 
  230.2500   -16.6960    89.6840    23.2950    12.5710     9.8720    10.7240     2.4080 
  230.3750   -16.6830    87.6630    23.3240     8.5030     8.1990     8.9380     2.3810 
  230.5000   -16.6940    88.5990    23.3380     8.1580     7.5490     8.2450     2.3760 
  230.6250   -16.7340    94.1540    23.3160     8.0620     7.5210     8.2150     2.3810 
  230.7500   -16.7970   101.7920    23.2460     7.8880     7.7420     8.4510     2.3900 
  230.8750   -16.8840   108.5060    23.1510     7.8060     8.0300     8.7580     2.4030 
  231.0000   -16.9900   112.0740    23.0900     7.9240     8.2750     9.0190     2.4100 
  231.1250   -17.1140   112.5240    23.1040     8.1000     8.4350     9.1910     2.4010 
  231.2500   -17.2460   112.9750    23.1770     8.2010     8.5410     9.3030     2.3860 
  231.3750   -17.3770   114.7710    23.2610     8.2760     8.5970     9.3630     2.3690 
  231.5000   -17.5020   117.3080    23.3070     8.4050     8.6020     9.3680     2.3540 
  231.6250   -17.6130   119.1250    23.3020     8.4750     8.5550     9.3180     2.3460 
  231.7500   -17.7080   120.6410    23.2830     8.3700     8.4840     9.2420     2.3490 
  231.8750   -17.7850   123.3930    23.2210     8.1720     8.4110     9.1650     2.3580 
  232.0000   -17.8430   128.2680    23.2030     8.0480     8.3620     9.1120     2.3650 
  232.1250   -17.8790   133.6620    23.2420     8.0450     8.3650     9.1160     2.3670 
  232.2500   -17.8980   136.4960    23.2960     8.1620     8.4190     9.1730     2.3690 
  232.3750   -17.9000   135.5760    23.3100     8.3480     8.5130     9.2730     2.3750 
  232.5000   -17.8870   131.8800    23.3110     8.5530     8.6190     9.3860     2.3800 
  232.6250   -17.8570   128.0440    23.3250     8.7720     8.6890     9.4610     2.3770 
  232.7500   -17.8160   125.3320    23.3350     9.0440     8.6880     9.4600     2.3660 
  232.8750   -17.7690   122.7190    23.3350     9.3120     8.5830     9.3480     2.3540 
  233.0000   -17.7200   119.5900    23.3100     9.4770     8.3510     9.1010     2.3520 
  233.1250   -17.6710   116.7930    23.2370     9.4800     8.0010     8.7270     2.3600 
  233.2500   -17.6270   115.3730    23.1460     9.3680     7.6480     8.3510     2.3680 
  233.3750   -17.5900   114.7840    23.0880     9.1960     7.4470     8.1360     2.3720 
  233.5000   -17.5630   113.8100    23.0870     9.0650     7.5930     8.2920     2.3760 
  233.6250   -17.5520   111.3160    23.1370     9.1990     8.5540     9.3170     2.3780 
  233.7500   -17.5530   106.6220    23.2090    10.2480    10.7470    11.6570     2.3750 
  233.8750   -17.5640    98.7360    23.2630    15.5300    14.8100    15.9930     2.3700 
  234.0000   -17.5840    87.8130    23.3040    32.9060    21.5040    23.1340     2.3740 
  234.1250   -17.6110    76.6310    23.3140    71.9480    32.3170    34.6720     2.3820 
  234.2500   -17.6430    68.8840    23.3170   116.1260    47.0840    50.4290     2.3770 
  234.3750   -17.6790    65.6860    23.2820   142.5190    65.0840    69.6350     2.3460 
  234.5000   -17.7160    65.4160    23.2020   145.6970    84.3250    90.1650     2.2910 
  234.6250   -17.7490    65.1600    23.1160   144.7920   101.3490   108.3290     2.2360 
  234.7500   -17.7750    64.5560    23.0690   159.9660   113.9540   121.7790     2.2010 
  234.8750   -17.7940    64.6890    23.0630   185.6940   121.6490   129.9900     2.1870 
  235.0000   -17.8050    65.1760    23.0980   199.4000   125.1550   133.7300     2.1830 
  235.1250   -17.8090    64.4800    23.2340   186.0410   124.6480   133.1890     2.1850 
  235.2500   -17.8060    63.9120    23.5030   167.2110   120.8420   129.1290     2.1930 
  235.3750   -17.8000    65.9060    23.8250   152.2790   113.8390   121.6560     2.2000 
  235.5000   -17.7920    70.8130    24.0950   137.5330   104.2960   111.4740     2.1970 
  235.6250   -17.7840    75.4990    24.1900   123.2580    93.4220    99.8710     2.1830 
  235.7500   -17.7790    76.7270    24.2070   114.9600    82.7380    88.4710     2.1720 
  235.8750   -17.7770    75.0700    24.2140   109.3700    72.9560    78.0350     2.1740 
  236.0000   -17.7760    73.4410    24.2040    99.9710    64.4330    68.9400     2.1860 
  236.1250   -17.7760    73.9920    24.1360    81.3270    57.6000    61.6490     2.1960 
  236.2500   -17.7760    75.6510    24.0470    62.9300    52.2770    55.9690     2.1970 
  236.3750   -17.7750    77.9580    23.9710    51.5830    48.3920    51.8240     2.1960 
  236.5000   -17.7730    81.3160    23.9070    47.1020    45.7930    49.0510     2.1960 
  236.6250   -17.7720    85.3170    23.8560    45.7880    44.5180    47.6910     2.1930 
  236.7500   -17.7700    87.9800    23.8860    44.5790    44.2960    47.4530     2.1870 
  236.8750   -17.7680    87.9590    23.9950    43.5830    45.0390    48.2470     2.1900 
  237.0000   -17.7660    85.4720    24.1740    43.2560    46.5650    49.8750     2.2060 
  237.1250   -17.7630    82.3320    24.3360    44.2980    48.5930    52.0380     2.2260 
  237.2500   -17.7600    80.5800    24.3920    48.9250    50.5370    54.1130     2.2370 
  237.3750   -17.7540    80.5340    24.2780    58.1820    51.8080    55.4700     2.2330 
  237.5000   -17.7420    81.2740    24.0560    67.8470    51.8700    55.5360     2.2200 
  237.6250   -17.7230    81.6320    23.8790    69.1530    50.3550    53.9190     2.2090 
  237.7500   -17.6970    82.0280    23.7580    61.3530    48.0070    51.4140     2.2080 
  237.8750   -17.6630    83.3390    23.6270    50.5530    45.7200    48.9730     2.2150 
