~V
VERS. 2.00: Ver 2.00
~W
STRT.M 55.0000:
STOP.M 253.0000:
STEP.M 0.1250:
NULL. -999.2500:
UWI. DF5051:
~C
DEPT.M :
SP.MV :
GR.API :
RML.OHMM :
RI. :
RXO.OHMM :
CALI.CM :
DEN.GM/CC :
~A
# ...
   66.2500   -27.4010    93.5100     5.4970     6.1270     7.2800    23.4770     2.2880 
   66.3750   -27.7900    86.6480     5.6160     6.2660     7.8210    23.5340     2.2590 
   66.5000   -28.2680    80.4390     5.8120     6.4920     8.3870    23.7340     2.2320 
   66.6250   -28.7010    77.2940     6.2500     6.9330     9.1210    24.0210     2.2230 
   66.7500   -29.1070    76.0450     6.9490     7.6010    10.3780    24.2500     2.2420 
   66.8750   -29.4080    75.6410     7.8210     8.4280    11.9430    24.3870     2.2890 
   67.0000   -29.6470    76.1150     8.6660     9.2440    13.6780    24.3790     2.3500 
   67.1250   -29.8690    77.3640     9.1590     9.7590    13.9460    24.1510     2.3930 
   67.2500   -30.0840    78.6720     9.1980     9.8530    12.0010    23.8320     2.3950 
   67.3750   -30.3910    78.7290     8.8620     9.5560     9.5910    23.5800     2.3570 
   67.5000   -30.7950    77.4460     8.3700     9.0350     9.0550    23.4070     2.2970 
   67.6250   -31.2590    74.3520     7.9530     8.5040     9.5760    23.3300     2.2400 
   67.7500   -31.7530    71.8580     7.6780     8.0810     9.8270    23.3030     2.2030 
   67.8750   -32.2800    70.9490     7.5160     7.7760     9.6930    23.3010     2.1830 
   68.0000   -32.8210    71.0420     7.4190     7.5580     9.4500    23.3030     2.1760 
   68.1250   -33.2210    70.7680     7.3760     7.4140     9.3430    23.3040     2.1750 
   68.2500   -33.5020    70.3950     7.3880     7.3270     9.3900    23.3220     2.1750 
   68.3750   -33.6090    70.9120     7.4570     7.2990     9.4890    23.3720     2.1760 
   68.5000   -33.5600    71.5640     7.5590     7.3120     9.5530    23.4430     2.1800 
   68.6250   -33.4580    70.2610     7.6490     7.3330     9.6320    23.5130     2.1860 
   68.7500   -33.2790    67.9580     7.6990     7.3320     9.6980    23.5680     2.1950 
   68.8750   -33.1050    67.1340     7.7070     7.2970     9.6790    23.6100     2.2020 
   69.0000   -32.8700    68.3650     7.6850     7.2290     9.5890    23.6320     2.2060 
   69.1250   -32.6180    71.0930     7.6530     7.1320     9.4300    23.6390     2.2060 
   69.2500   -32.3940    74.8750     7.6240     7.0220     9.2630    23.6390     2.2030 
   69.3750   -32.2110    76.9670     7.6000     6.9060     9.1790    23.6320     2.2000 
   69.5000   -32.1130    75.4390     7.5720     6.7880     9.1650    23.6100     2.1960 
   69.6250   -32.0250    74.3970     7.5320     6.6730     9.1250    23.5840     2.1920 
   69.7500   -31.9670    76.6540     7.4840     6.5660     9.0510    23.5680     2.1890 
   69.8750   -31.9410    78.5430     7.4420     6.4780     9.0300    23.5390     2.1880 
   70.0000   -31.9240    75.0310     7.4250     6.4200     9.0730    23.4720     2.1900 
   70.1250   -31.9190    69.3510     7.4520     6.4040     9.2130    23.3340     2.1920 
   70.2500   -31.8290    67.7490     7.5140     6.4150     9.3620    23.2060     2.1940 
   70.3750   -31.6250    69.9670     7.5920     6.4360     9.4490    23.2320     2.1950 
   70.5000   -31.2710    72.7140     7.6600     6.4470     9.4280    23.3180     2.1960 
   70.6250   -30.7950    73.2990     7.6910     6.4300     9.2170    23.3740     2.1980 
   70.7500   -30.2850    74.3940     7.6850     6.3890     8.8080    23.3730     2.2010 
   70.8750   -29.7340    78.1300     7.6540     6.3370     8.4750    23.3630     2.2050 
   71.0000   -29.2260    82.7110     7.6150     6.2850     8.3080    23.3310     2.2080 
   71.1250   -28.7610    82.3620     7.5850     6.2430     8.2590    23.2700     2.2090 
   71.2500   -28.4210    79.1920     7.5660     6.2070     8.2450    23.2360     2.2100 
   71.3750   -28.2310    77.9260     7.5560     6.1780     8.2530    23.2020     2.2100 
   71.5000   -28.1890    78.0920     7.5570     6.1590     8.2780    23.1430     2.2100 
   71.6250   -28.3410    74.7760     7.5880     6.1710     8.3750    23.1120     2.2100 
   71.7500   -28.5400    71.7180     7.6670     6.2290     8.4860    23.0910     2.2090 
   71.8750   -28.7700    73.0930     7.8010     6.3400     8.6230    23.0630     2.2070 
   72.0000   -28.9700    76.4600     7.9750     6.4950     8.7430    23.0300     2.2030 
   72.1250   -29.1560    77.1270     8.1610     6.6770     8.7130    22.9830     2.1940 
   72.2500   -29.2450    76.0670     8.3460     6.8700     8.7630    22.9240     2.1820 
   72.3750   -29.2320    74.9410     8.5490     7.0830     8.9780    22.8850     2.1730 
   72.5000   -29.0740    73.7600     8.7920     7.3220     9.2390    22.8670     2.1740 
   72.6250   -28.6600    71.9510     9.0500     7.5600     9.5730    22.8780     2.1970 
   72.7500   -28.1340    71.1440     9.2170     7.7200    10.0270    22.9660     2.2340 
   72.8750   -27.4970    73.5750     9.1690     7.7200    10.4070    23.1740     2.2730 
   73.0000   -26.8830    79.5630     8.8290     7.5040    10.3470    23.4440     2.2970 
   73.1250   -26.3180    86.0940     8.2040     7.0670     9.4850    23.5630     2.2960 
   73.2500   -25.8720    88.7440     7.5130     6.5560     8.1110    23.5380     2.2780 
   73.3750   -25.5600    87.6030     6.9360     6.1010     7.5690    23.4730     2.2560 
   73.5000   -25.3630    84.0640     6.5900     5.8040     7.7520    23.4440     2.2390 
   73.6250   -25.3580    80.6950     6.5660     5.7640     7.8980    23.4440     2.2280 
   73.7500   -25.4050    77.4140     6.8100     5.9640     8.0470    23.4440     2.2180 
   73.8750   -25.4670    73.0520     7.2790     6.3820     8.2770    23.4480     2.2100 
   74.0000   -25.3810    67.8650     7.8850     6.9510     8.8200    23.4620     2.2110 
   74.1250   -25.0210    65.9580     8.4370     7.5220    10.2540    23.4940     2.2340 
   74.2500   -24.3860    68.1160     8.7150     7.9000    12.1850    23.5610     2.2750 
   74.3750   -23.4720    72.0320     8.5690     7.9360    13.9950    23.7280     2.3210 
   74.5000   -22.4390    77.9320     7.9910     7.5840    14.8900    23.9890     2.3570 
   74.6250   -21.3160    87.7310     7.1470     6.9240    12.4850    24.1040     2.3660 
   74.7500   -20.2570    96.4610     6.3770     6.2280     8.3400    24.1440     2.3580 
   74.8750   -19.2760   103.0460     5.8750     5.6680     6.1020    24.1700     2.3470 
   75.0000   -18.4230   110.8660     5.6980     5.3240     5.4790    24.1690     2.3470 
   75.1250   -17.8110   118.1050     5.8080     5.2060     5.4220    24.1670     2.3610 
   75.2500   -17.4100   118.5280     6.0040     5.1940     5.3870    24.1990     2.3800 
   75.3750   -17.2560   112.1490     6.1410     5.1980     5.3760    24.2670     2.3960 
   75.5000   -17.2020   106.1040     6.1200     5.1440     5.3730    24.3320     2.4050 
   75.6250   -17.2190   105.3850     5.8980     4.9970     5.3850    24.4760     2.4010 
   75.7500   -17.2730   106.6450     5.6010     4.8150     5.3920    24.7620     2.3860 
   75.8750   -17.3580   106.9480     5.4020     4.6970     5.4050    24.6890     2.3640 
   76.0000   -17.5260   105.7120     5.5250     4.7810     5.4820    24.1540     2.3460 
   76.1250   -17.7930   103.5350     6.2850     5.2880     5.9040    23.6930     2.3470 
   76.2500   -18.1450   100.0260     7.6660     6.2470     6.8660    23.5690     2.3720 
   76.3750   -18.5570    94.1730     9.5000     7.5920     8.5050    23.4350     2.4130 
   76.5000   -19.0640    85.1410    11.3920     9.0970    10.5590    23.2390     2.4500 
   76.6250   -19.7480    73.3860    12.6670    10.3060    12.1700    23.1680     2.4510 
   76.7500   -20.4950    64.3650    12.9990    10.8950    12.4100    23.2170     2.4080 
   76.8750   -21.3020    61.4770    12.4460    10.7990    11.6470    23.3750     2.3330 
   77.0000   -22.1100    61.9630    11.4500    10.2480    10.2370    23.6930     2.2510 
   77.1250   -22.8510    60.4290    10.6270     9.6370     9.5690    24.1650     2.1890 
   77.2500   -23.5230    60.0090    10.2390     9.2280     9.4270    24.5770     2.1530 
   77.3750   -24.0700    60.8650    10.2400     9.0570     9.4440    24.7980     2.1420 
