~V
VERS. 2.00: Ver 2.00
~W
STRT.M 58.0000:
STOP.M 250.0000:
STEP.M 0.1250:
NULL. -999.2500:
UWI. DF5046:
~C
DEPT.M :
GR.API :
CALI.CM :
RXO.OHMM :
RI. :
RML.OHMM :
DEN.GM/CC :
SP.MV :
~A
# ...
  238.0000    67.1250    24.5980    15.7510    12.3130    14.5280     2.3370    -9.0610 
  238.1250    69.8950    24.5630    15.8110    12.8460    15.1610     2.3460    -9.1860 
  238.2500    69.0440    24.5740    14.9600    13.3620    15.7440     2.3410    -9.2740 
  238.3750    66.2620    24.6030    14.9950    13.8780    16.3440     2.3320    -9.2990 
  238.5000    64.2400    24.6170    16.8860    14.4070    16.9970     2.3270    -9.2680 
  238.6250    64.0550    24.6280    19.2410    14.9050    17.6380     2.3220    -9.1630 
  238.7500    64.9040    24.6640    19.9600    15.2680    18.0940     2.3100    -8.9820 
  238.8750    67.6040    24.7200    19.1330    15.3700    18.1780     2.2990    -8.7410 
  239.0000    71.4570    24.7640    17.8940    15.1240    17.7840     2.2970    -8.4880 
  239.1250    72.7510    24.7430    16.5500    14.5260    16.9410     2.3080    -8.2590 
  239.2500    71.6700    24.6770    15.0940    13.8100    15.9840     2.3140    -8.0330 
  239.3750    70.2910    24.6320    14.1180    13.1600    15.1560     2.3050    -7.8350 
  239.5000    71.0180    24.6390    13.9270    12.7040    14.6140     2.2860    -7.6880 
  239.6250    71.0180    24.6640    14.2740    12.5480    14.4830     2.2750    -7.5600 
  239.7500    71.0180    24.6770    14.9820    12.6610    14.7060     2.2730    -7.4470 
  239.8750    71.0180    24.7040    16.0700    13.0330    15.2600     2.2760    -7.3620 
  240.0000    71.0180    24.7290    17.1440    13.6350    16.1080     2.2770    -7.2860 
  240.1250    71.0180    24.6570    17.3830    14.4330    17.2040     2.2760    -7.2140 
  240.2500    71.0180    24.5440    17.5790    15.2880    18.3630     2.2780    -7.1670 
  240.3750    71.0180    24.4930    19.8500    16.0470    19.3610     2.2890    -7.1330 
  240.5000    71.0180    24.5220    24.8130    16.5080    19.8910     2.3040    -7.0910 
  240.6250    71.0180    24.5530    26.9980    16.3650    19.5090     2.3060    -7.0690 
  240.7500    71.0180    24.5530    23.5120    15.6730    18.3520     2.2960    -7.0940 
  240.8750    71.0180    24.5540    17.9660    14.6610    16.8110     2.2860    -7.1320 
  241.0000    71.0180    24.5530    14.7080    13.6590    15.3930     2.2910    -7.1580 
  241.1250    71.0180    24.5610    13.8710    12.9840    14.5310     2.3030    -7.1390 
  241.2500    71.0180    24.5890    13.9050    12.6570    14.1840     2.3160    -7.0570 
  241.3750    71.0180    24.6140    15.1350    12.5950    14.1860     2.3370    -6.9200 
  241.5000    71.0180    24.6120    18.0690    12.6570    14.3170     2.3720    -6.7370 
  241.6250    71.0180    24.5700    21.9680    12.7120    14.4020     2.4110    -6.5140 
  241.7500    71.0180    24.5250    22.9770    12.7290    14.4240     2.4420    -6.2920 
  241.8750    71.0180    24.4660    19.0400    12.7300    14.4230     2.4570    -6.1050 
  242.0000    71.0180    24.3610    12.9000    12.7290    14.4240     2.4490    -5.9990 
  242.1250    71.0180    24.2670     9.4540    12.7310    14.4300     2.4190    -6.0170 
  242.2500    71.0180    24.2740     8.1470    12.7340    14.4370     2.3920    -6.1390 
  242.3750    71.0180    24.3200     7.0350    12.7360    14.4420     2.3870    -6.3340 
  242.5000    71.0180    24.2820     5.7460    12.7360    14.4430     2.4010    -6.5840 
  242.6250    71.0180    24.1500     5.4540    12.7350    14.4400     2.4100    -6.8630 
  242.7500    71.0180    24.0770     6.3250    12.7330    14.4360     2.4080    -7.1150 
  242.8750    71.0180    24.0910     7.7020    12.7320    14.4310     2.4020    -7.3160 
  243.0000    71.0180    24.1090     8.8940    12.7320    14.4280     2.4000    -7.4690 
  243.1250    71.0180    24.0840     9.6120    12.7320    14.4260     2.4020    -7.5450 
  243.2500    71.0180    24.0550    10.2680    12.7340    14.4270     2.4030    -7.5880 
  243.3750    71.0180    24.0750    10.9570    12.7340    14.4290     2.4060    -7.6210 
  243.5000    71.0180    24.1440    11.2280    12.7340    14.4310     2.4120    -7.6460 
  243.6250    71.0180    24.2180    10.7940    12.7330    14.4320     2.4160    -7.6750 
  243.7500    71.0180    24.2450    10.3150    12.7320    14.4330     2.4130    -7.7010 
  243.8750    71.0180    24.1990    10.1990    12.7330    14.4350     2.4070    -7.7400 
  244.0000    71.0180    24.1070    10.4020    12.7350    14.4370     2.4030    -7.7680 
  244.1250    71.0180    24.0300    10.6910    12.7360    14.4370     2.4090    -7.7800 
  244.2500    71.0180    24.0180    10.8320    12.7370    14.4340     2.4240    -7.7740 
  244.3750    71.0180    24.0720    10.7360    12.7350    14.4310     2.4370    -7.7490 
  244.5000    71.0180    24.1310    10.5020    12.7340    14.4300     2.4400    -7.7010 
  244.6250    71.0180    24.1210    10.2870    12.7340    14.4310     2.4380    -7.6230 
  244.7500    71.0180    24.0740    10.2680    12.7350    14.4310     2.4450    -7.5330 
  244.8750    71.0180    24.0260    10.6620    12.7360    14.4300     2.4570    -7.4150 
  245.0000    71.0180    23.9510    11.3940    12.7380    14.4260     2.4560    -7.2860 
  245.1250    71.0180    23.8520    11.7680    12.7380    14.4220     2.4340    -7.1710 
  245.2500    71.0180    23.8050    11.5160    12.7370    14.4200     2.4170    -7.0540 
  245.3750    71.0180    23.8370    11.0600    12.7360    14.4200     2.4210    -6.9370 
  245.5000    71.0180    23.8800    10.8370    12.7360    14.4220     2.4390    -6.8410 
  245.6250    71.0180    23.8230    10.8200    12.7360    14.4220     2.4380    -6.7750 
  245.7500    71.0180    23.6240    10.6570    12.7360    14.4220     2.3860    -6.7280 
  245.8750    71.0180    23.3250     9.9680    12.7360    14.4220     2.2680    -6.7030 
  246.0000    71.0180    22.6880     8.4960    12.7360    14.4220     2.1050    -6.7000 
  246.1250    71.0180    20.8830     6.6460    12.7360    14.4220     1.9640    -6.7000 
  246.2500    71.0180    18.3510     5.3290    12.7360    14.4220     1.8830    24.7130 
  246.3750    71.0180    16.3010     4.7760    12.7360    14.4220     1.8450    56.8890 
  246.5000    71.0180    15.5100     4.6880    12.7360    14.4220     1.8240    58.3620 
  246.6250    71.0180    15.5810     4.7090    12.7360    14.4220     1.8150    60.1570 
  246.7500    71.0180    15.6240     4.7110    12.7360    14.4220     1.8180  -999.2500 
  246.8750    71.0180    15.6150     4.7110    12.7360    14.4220     1.8260  -999.2500 
  247.0000    71.0180    15.6140     4.7110    12.7360    14.4220     1.8320  -999.2500 
  247.1250    71.0180    15.6150     4.7120    12.7360    14.4220     1.8320  -999.2500 
  247.2500    71.0180    15.6150     4.7120    12.7360    14.4220     1.8280  -999.2500 
  247.3750    71.0180    15.6140     4.7120    12.7360    14.4220     1.8220  -999.2500 
  247.5000    71.0180    15.6120     4.7120    12.7360    14.4220     1.8190  -999.2500 
  247.6250    71.0180    15.6120     4.7130    12.7360    14.4220     1.8210  -999.2500 
  247.7500    71.0180    15.6130     4.7130    12.7360    14.4220     1.8220  -999.2500 
  247.8750    71.0180    15.6140     4.7130    12.7360    14.4220     1.8210  -999.2500 
  248.0000    71.0180    15.6130     4.7140    12.7360    14.4220     1.8210  -999.2500 
  248.1250    71.0180    15.6100     4.7140    12.7360    14.4220     1.8230  -999.2500 
  248.2500    71.0180    15.6080     4.7140    12.7360    14.4220     1.8240  -999.2500 
  248.3750    71.0180    15.6070     4.7140    12.7360    14.4220     1.8210  -999.2500 
  248.5000    71.0180    15.6070     4.7140    12.7360    14.4220     1.8160  -999.2500 
  248.6250    71.0180    15.6070     4.7140    12.7360    14.4220     1.8130  -999.2500 
  248.7500    71.0180    15.6070     4.7140    12.7360    14.4220     1.8070  -999.2500 
  248.8750    71.0180    15.6070     4.7140    12.7360    14.4220     1.7950  -999.2500 
  249.0000    71.0180    15.6070     4.7150    12.7360    14.4220     1.7740  -999.2500 
  249.1250    71.0180    15.6070     4.7150    12.7360    14.4220     1.7510  -999.2500 
