~V
VERS. 2.00: Ver 2.00
~W
STRT.M 55.0000:
STOP.M 273.0000:
STEP.M 0.1250:
NULL. -999.2500:
UWI. DF5004:
~C
DEPT.M :
GR.API :
CALI.CM :
RXO.OHMM :
RI. :
RML.OHMM :
DEN.GM/CC :
SP.MV :
~A
# ...
  133.7500    81.4130    24.2030     6.9990     5.6000     6.7200     2.2910   -22.1830 
  133.8750    82.1690    24.1980     6.9480     5.7550     6.8600     2.3130   -21.9620 
  134.0000    84.6010    24.1380     6.9160     5.9720     7.0870     2.3160   -21.8750 
  134.1250    82.8060    24.1320     7.1150     6.2620     7.4500     2.2930   -21.9480 
  134.2500    76.3290    24.1500     7.7490     6.5780     7.8740     2.2640   -22.0580 
  134.3750    70.9810    24.1740     8.7550     6.8310     8.1940     2.2410   -22.1950 
  134.5000    70.9310    24.1700     9.6980     6.9030     8.2140     2.2310   -22.3020 
  134.6250    73.6940    24.1240     9.3350     6.6980     7.8080     2.2420   -22.4240 
  134.7500    76.4030    24.2120     8.1170     6.3340     7.2040     2.2720   -22.4630 
  134.8750    79.6160    24.3650     6.9300     5.9390     6.6230     2.3070   -22.4210 
  135.0000    82.9250    24.5900     6.3280     5.6230     6.2170     2.3290   -22.2960 
  135.1250    86.1960    24.5150     6.2440     5.4560     6.0730     2.3220   -22.1370 
  135.2500    88.6450    24.1960     6.4270     5.3920     6.0940     2.3040   -21.9600 
  135.3750    88.6160    23.8060     6.4550     5.3660     6.1710     2.2930   -21.7830 
  135.5000    85.8160    23.4090     6.2470     5.3250     6.2070     2.2930   -21.5940 
  135.6250    84.7490    23.3240     6.1130     5.2330     6.1310     2.2960   -21.4020 
  135.7500    86.8970    23.2650     6.1090     5.0950     5.9530     2.2970   -21.2550 
  135.8750    86.6210    23.1620     6.0380     4.9230     5.6970     2.3010   -21.1590 
  136.0000    82.0680    23.0950     5.9740     4.7410     5.4160     2.3110   -21.1300 
  136.1250    81.2500    23.1020     5.9790     4.6090     5.2200     2.3260   -21.1620 
  136.2500    86.5170    23.1140     5.9220     4.5870     5.2160     2.3410   -21.2550 
  136.3750    92.8480    23.1330     6.0770     4.7300     5.4950     2.3520   -21.3990 
  136.5000    95.3750    23.1570     6.6530     5.0580     6.0850     2.3490   -21.6490 
  136.6250    93.7470    23.1860     7.8510     5.5310     6.8940     2.3270   -21.9920 
  136.7500    90.1340    23.2310     8.9850     5.9950     7.6130     2.2920   -22.3630 
  136.8750    84.7900    23.2820     9.4620     6.3310     8.0050     2.2540   -22.7470 
  137.0000    80.0560    23.3130     9.0920     6.5210     8.0520     2.2240   -23.1490 
  137.1250    77.7310    23.2740     8.5190     6.7160     8.0600     2.2220   -23.4680 
  137.2500    77.2630    23.2280     8.6870     7.1590     8.4770     2.2500   -23.7690 
  137.3750    76.9930    23.2060     9.9830     8.0540     9.6150     2.3080   -24.0000 
  137.5000    75.9700    23.2300    12.3990     9.5200    11.6170     2.3800   -24.2110 
  137.6250    75.0290    23.3570    15.8310    11.5030    14.3590     2.4360   -24.4050 
  137.7500    74.0100    23.5540    19.7350    13.3450    16.8360     2.4610   -24.6680 
  137.8750    72.7880    23.6880    22.3270    14.2530    17.8660     2.4560   -25.0190 
  138.0000    72.0320    23.7120    21.1810    13.8120    16.8980     2.4240   -25.3880 
  138.1250    73.1150    23.6510    17.0640    12.3630    14.6140     2.3670   -25.8290 
  138.2500    75.9100    23.5370    13.7230    10.8700    12.4800     2.3020   -26.2700 
  138.3750    79.9210    23.4680    12.1700     9.7890    11.0990     2.2500   -26.7470 
  138.5000    83.2980    23.4670    11.4570     9.2980    10.6260     2.2230   -27.2120 
  138.6250    81.9080    23.5030    11.1470     9.4810    11.0850     2.2280   -27.6160 
  138.7500    77.7140    23.5130    11.4290    10.0680    12.0290     2.2480   -27.9170 
  138.8750    74.4450    23.4510    12.5910    10.7530    12.9940     2.2690   -28.1030 
  139.0000    71.7560    23.3130    13.9050    11.1550    13.4480     2.2730   -28.2000 
  139.1250    67.5180    23.2280    13.3460    10.9300    12.9860     2.2530   -28.2660 
  139.2500    66.0030    23.0990    11.6110    10.2850    12.0250     2.2210   -28.3380 
  139.3750    68.4340    22.7960    10.3430     9.5220    11.0240     2.1920   -28.3730 
  139.5000    71.0730    22.5200    10.0390     8.8940    10.3000     2.1750   -28.3960 
  139.6250    70.7910    22.4350    10.2970     8.5840    10.0210     2.1770   -28.4320 
  139.7500    70.7690    22.5460    10.6000     8.5250    10.0310     2.1870   -28.5140 
  139.8750    71.7970    22.7010    10.6650     8.6070    10.1570     2.1940   -28.6240 
  140.0000    70.5060    22.7180    10.3720     8.7040    10.2540     2.1930   -28.7430 
  140.1250    67.2050    22.7320    10.0740     8.7510    10.2920     2.1850   -28.8390 
  140.2500    66.5040    22.8450    10.1610     8.7800    10.3480     2.1800   -28.8900 
  140.3750    69.6080    23.0120    10.4910     8.8340    10.4650     2.1800   -28.9810 
  140.5000    73.1580    23.1140    10.7940     8.9370    10.6430     2.1850   -29.0910 
  140.6250    72.6520    22.7670    10.9040     9.0810    10.8290     2.1900   -29.2170 
  140.7500    70.7800    22.5670    10.9250     9.2160    10.9580     2.1910   -29.3380 
  140.8750    68.9210    22.5980    10.9220     9.3070    11.0050     2.1850   -29.4260 
  141.0000    65.3520    22.8730    10.8850     9.3400    10.9910     2.1740   -29.5060 
  141.1250    61.9550    23.0510    10.7690     9.3230    10.9630     2.1590   -29.5560 
  141.2500    62.7980    23.1070    10.6620     9.2910    10.9600     2.1490   -29.6250 
  141.3750    67.0300    23.1430    10.7040     9.2610    10.9910     2.1510   -29.6570 
  141.5000    69.6330    23.2560    10.9310     9.2390    11.0470     2.1670   -29.6520 
  141.6250    67.9110    23.5480    11.1520     9.2280    11.1020     2.1820   -29.5880 
  141.7500    67.4510    23.5000    11.1820     9.2240    11.1370     2.1850   -29.4840 
  141.8750    70.6690    23.1420    11.0970     9.2300    11.1530     2.1780   -29.3670 
  142.0000    75.2430    22.7950    10.9850     9.2540    11.1620     2.1700   -29.3170 
  142.1250    75.9790    22.5840    10.8250     9.3000    11.1850     2.1710   -29.2710 
  142.2500    72.9630    22.5030    10.7430     9.3500    11.2260     2.1800   -29.2370 
  142.3750    69.7060    22.4530    10.7630     9.3860    11.2750     2.1890   -29.1720 
  142.5000    68.0650    22.4350    10.7470     9.3910    11.3110     2.1920   -29.1150 
  142.6250    68.6850    22.4650    10.5750     9.3590    11.3140     2.1860   -29.0500 
  142.7500    70.2410    22.4370    10.3530     9.3050    11.2870     2.1750   -29.0020 
  142.8750    71.9730    22.2240    10.2040     9.2450    11.2420     2.1690   -28.9690 
  143.0000    72.8840    21.9840    10.1600     9.1980    11.1920     2.1740   -28.8900 
  143.1250    70.9170    22.0030    10.2120     9.1850    11.1580     2.1890   -28.8000 
  143.2500    68.7410    22.2620    10.3320     9.2080    11.1480     2.1960   -28.6730 
  143.3750    69.4990    22.6050    10.5000     9.2610    11.1590     2.1880   -28.5650 
  143.5000    72.0700    22.7930    10.5870     9.3230    11.1730     2.1730   -28.4570 
  143.6250    71.0530    22.8730    10.5030     9.3540    11.1610     2.1650   -28.3990 
  143.7500    68.5240    22.7610    10.3640     9.3350    11.1050     2.1660   -28.3280 
  143.8750    69.3500    22.6040    10.3590     9.2670    11.0010     2.1700   -28.2630 
  144.0000    72.3090    22.5480    10.4260     9.1740    10.8640     2.1730   -28.1520 
  144.1250    73.2220    22.5080    10.3860     9.0980    10.7320     2.1740   -28.0580 
  144.2500    72.7290    22.4410    10.2200     9.0690    10.6460     2.1730   -27.9930 
  144.3750    72.3670    22.3460     9.9560     9.0970    10.6360     2.1710   -27.9640 
  144.5000    71.8870    22.2370     9.7360     9.1780    10.7150     2.1700   -27.9010 
  144.6250    72.0040    21.9710     9.8570     9.2950    10.8810     2.1700   -27.7920 
  144.7500    73.6020    21.7460    10.2850     9.4020    11.0740     2.1730   -27.6240 
  144.8750    75.2160    21.6290    10.5600     9.4640    11.2410     2.1790   -27.3970 
