~V
VERS. 2.00: Ver 2.00
~W
STRT.M 60.0000:
STOP.M 268.0000:
STEP.M 0.1250:
NULL. -999.2500:
UWI. DF5039:
~C
DEPT.M :
DEN.GM/CC :
GR.API :
CALI.CM :
RXO.OHMM :
RI. :
RML.OHMM :
SP.MV :
~A
# ...
  195.0000     2.1990    67.5540    24.4710    61.9100    84.4090    98.0500   -22.3460 
  195.1250     2.1990    67.5510    24.4810    66.7390    97.5920   114.3520   -22.0330 
  195.2500     2.1990    67.1190    24.5080    65.7870   111.1100   130.9690   -21.6520 
  195.3750     2.1970    64.1510    24.5340    57.1740   122.7240   145.0280   -21.2920 
  195.5000     2.1940    60.8000    24.5280    44.3540   130.8770   154.3910   -20.9370 
  195.6250     2.1930    61.0840    24.4780    39.6360   134.7110   157.8880   -20.6000 
  195.7500     2.1940    63.2110    24.4140    46.3860   135.4980   157.3650   -20.2900 
  195.8750     2.2000    64.2670    24.3480    54.4320   134.0860   154.2400   -19.9840 
  196.0000     2.2150    62.9570    24.2550    55.6940   132.0040   150.7870   -19.6220 
  196.1250     2.2510    60.0730    24.0040    51.4640   132.3810   149.6810   -19.1970 
  196.2500     2.3080    59.7120    23.8100    45.9600   130.1120   144.2210   -18.7450 
  196.3750     2.3850    59.1870    23.5630    39.0270   116.3900   124.0730   -18.3240 
  196.5000     2.4710    59.0600    23.3280    41.4240    88.1880    89.3040   -17.8990 
  196.6250     2.5330    60.7320    23.2080    43.0760    55.9470    54.6280   -17.4030 
  196.7500     2.5600    61.7390    23.1740    32.1530    31.9840    30.5160   -16.8310 
  196.8750     2.5570    60.7640    23.1610    15.7850    17.7140    16.6080   -16.2530 
  197.0000     2.5350    59.0250    23.1710     7.0160    10.2960     9.5040   -15.7530 
  197.1250     2.5030    57.6280    23.2480     5.2170     6.9940     6.4650   -15.2680 
  197.2500     2.4690    56.1760    23.3530     4.7510     5.2680     4.9940   -14.8440 
  197.3750     2.4360    54.4960    23.4320     4.3920     4.3690     4.3010   -14.4050 
  197.5000     2.4050    53.2590    23.4570     4.0490     3.9520     4.0030   -14.0530 
  197.6250     2.3780    53.1050    23.4080     3.7960     3.8540     3.9360   -13.8230 
  197.7500     2.3580    52.4480    23.3150     3.7670     3.9200     3.9880   -13.7570 
  197.8750     2.3440    50.7890    23.2050     4.0530     4.1020     4.1350   -13.6790 
  198.0000     2.3340    50.1230    23.0960     4.3550     4.3660     4.3500   -13.6110 
  198.1250     2.3240    53.3270    22.9830     4.3120     4.6600     4.5820   -13.5600 
  198.2500     2.3120    57.5230    22.8810     4.2670     4.9110     4.7750   -13.6290 
  198.3750     2.3010    59.5470    22.8280     4.2880     5.0790     4.9020   -13.7130 
  198.5000     2.2940    58.7150    22.8190     4.3160     5.1550     4.9710   -13.7460 
  198.6250     2.2970    55.3110    22.8150     4.3400     5.1550     5.0170   -13.7490 
  198.7500     2.3090    51.6680    22.8170     4.3790     5.1320     5.0800   -13.7750 
  198.8750     2.3240    49.6550    22.8470     4.4770     5.1100     5.1750   -13.9020 
  199.0000     2.3400    49.6140    22.8950     4.6050     5.0980     5.3000   -14.0240 
  199.1250     2.3550    50.7620    22.9230     4.7280     5.0990     5.4500   -14.1520 
  199.2500     2.3650    51.6730    22.9350     4.8380     5.1140     5.6150   -14.2100 
  199.3750     2.3720    52.6880    22.9570     4.9750     5.1480     5.7970   -14.3350 
  199.5000     2.3740    54.3240    22.9950     5.1110     5.2100     5.9980   -14.5380 
  199.6250     2.3740    56.8880    23.0440     5.2080     5.3070     6.2290   -14.8050 
  199.7500     2.3750    58.9670    23.0990     5.2980     5.4380     6.4910   -15.0730 
  199.8750     2.3800    60.3660    23.1510     5.4480     5.6020     6.7910   -15.2650 
  200.0000     2.3870    63.3920    23.1860     5.6530     5.8100     7.1520   -15.5170 
  200.1250     2.3930    68.8780    23.2070     5.9430     6.0980     7.6260   -15.8110 
  200.2500     2.3920    74.3610    23.2600     6.3510     6.4730     8.2070   -16.1790 
  200.3750     2.3850    78.0150    23.3880     6.8910     6.9220     8.8680   -16.5000 
  200.5000     2.3750    80.0410    23.5730     7.6620     7.4050     9.5420   -16.7810 
  200.6250     2.3640    83.8650    23.7280     8.4840     7.8370    10.0990   -17.0680 
  200.7500     2.3580    89.8300    23.8210     8.7830     8.1320    10.4420   -17.3390 
  200.8750     2.3580    94.9070    23.8840     8.4840     8.2320    10.5130   -17.6810 
  201.0000     2.3650    95.8840    23.9370     8.2300     8.1210    10.3170   -18.0090 
  201.1250     2.3740    94.2070    23.9600     8.2170     7.8240     9.9250   -18.3180 
  201.2500     2.3780    93.7200    23.9460     8.1540     7.4710     9.5140   -18.5840 
  201.3750     2.3750    96.1900    23.8970     7.6990     7.1620     9.2210   -18.9070 
  201.5000     2.3630   101.9040    23.8050     7.0770     6.9750     9.1370   -19.2760 
  201.6250     2.3480   105.9420    23.6940     6.9180     6.9810     9.3360   -19.6110 
  201.7500     2.3360   106.0650    23.6490     7.4440     7.1450     9.7240   -19.8970 
  201.8750     2.3300   104.0990    23.7110     8.1570     7.4180    10.1950   -20.1300 
  202.0000     2.3320   101.2970    23.8300     8.5090     7.7180    10.6220   -20.3270 
  202.1250     2.3370    95.6550    23.9080     8.5350     7.9590    10.8930   -20.4900 
  202.2500     2.3400    90.5500    23.9230     8.4750     8.1290    11.0530   -20.6620 
  202.3750     2.3390    89.8320    23.9170     8.5120     8.2660    11.1900   -20.7340 
  202.5000     2.3320    92.0160    23.9110     8.6710     8.4210    11.3870   -20.6820 
  202.6250     2.3230    92.5310    23.8900     9.2610     8.6420    11.6950   -20.6120 
  202.7500     2.3140    90.9400    23.8350    10.2020     8.9280    12.0950   -20.5360 
  202.8750     2.3080    88.8290    23.7470    10.7310     9.2840    12.6060   -20.4620 
  203.0000     2.3040    86.7180    23.6260    10.4940     9.7430    13.2970   -20.3620 
  203.1250     2.3050    85.5690    23.4830    10.3980    10.3810    14.2640   -20.2830 
  203.2500     2.3110    85.0350    23.3730    10.9410    11.1430    15.3590   -20.1210 
  203.3750     2.3230    82.3870    23.3310    12.1390    11.8760    16.2850   -20.0450 
  203.5000     2.3400    75.5960    23.3470    13.5620    12.3230    16.6530   -19.8680 
  203.6250     2.3600    69.1920    23.3630    13.3730    12.1270    16.0400   -19.7090 
  203.7500     2.3740    69.9700    23.3110    11.3370    11.3530    14.6970   -19.5260 
  203.8750     2.3800    79.0240    23.1810     8.9910    10.2410    13.0350   -19.3610 
  204.0000     2.3820    88.5890    23.0740     7.7950     9.1060    11.5100   -19.1830 
  204.1250     2.3850    90.1340    23.2200     7.9430     8.2460    10.5180   -19.0020 
  204.2500     2.3930    86.3750    23.5610     7.9990     7.7350    10.0780   -18.8320 
  204.3750     2.4020    83.8930    23.8640     7.6730     7.5850    10.1390   -18.6840 
  204.5000     2.4040    84.8640    23.9540     7.4120     7.7530    10.5780   -18.7150 
  204.6250     2.3890    85.8810    23.8770     7.8280     8.1720    11.2090   -18.7210 
  204.7500     2.3630    86.9240    23.8450     8.7490     8.6550    11.7520   -18.7220 
  204.8750     2.3340    88.6280    23.8890     9.4670     9.0570    12.0270   -18.7450 
  205.0000     2.3120    89.1910    23.9510     9.6520     9.2790    11.9760   -18.7640 
  205.1250     2.3070    87.0340    23.9490     9.3580     9.3220    11.7430   -18.8430 
  205.2500     2.3200    85.9030    23.8650     8.9140     9.3940    11.7130   -18.9100 
  205.3750     2.3450    87.6670    23.7290     8.6430     9.7080    12.1710   -18.9220 
  205.5000     2.3750    90.4540    23.5950     8.7100    10.4000    13.1690   -18.8380 
  205.6250     2.3980    89.7690    23.5430    10.3590    11.3940    14.3430   -18.7510 
  205.7500     2.4060    86.2170    23.5750    12.5590    12.1730    14.9380   -18.6540 
  205.8750     2.3990    83.6680    23.6600    14.3730    12.1790    14.3880   -18.5530 
  206.0000     2.3820    84.9600    23.7600    14.1550    11.1670    12.6380   -18.4710 
  206.1250     2.3620    88.1840    23.8020    10.0960     9.4680    10.3050   -18.3240 
