~V
VERS. 2.00: Ver 2.00
~W
STRT.M 55.0000:
STOP.M 274.0000:
STEP.M 0.1250:
NULL. -999.2500:
UWI. DF5015:
~C
DEPT.M :
DEN.GM/CC :
GR.API :
CALI.CM :
RXO.OHMM :
RI. :
RML.OHMM :
SP.MV :
~A
# ...
   77.5000     2.1570    72.0360    22.5490    10.8840     8.2500     8.5990   -20.7210 
   77.6250     2.1330    71.3350    22.4480    10.4950     7.9950     8.3270   -20.3010 
   77.7500     2.1170    73.1760    22.3730     9.8540     7.6220     7.9340   -19.8500 
   77.8750     2.1150    76.1060    22.4730     8.9000     7.1660     7.4700   -19.4260 
   78.0000     2.1360    79.8090    22.7380     7.7500     6.6870     7.0010   -19.0660 
   78.1250     2.1800    85.1350    23.0180     6.8330     6.2690     6.6210   -18.7570 
   78.2500     2.2230    92.1510    23.1240     6.4590     5.9600     6.3730   -18.4690 
   78.3750     2.2370    99.7180    23.1140     6.5320     5.7850     6.2760   -18.2320 
   78.5000     2.2130   105.3290    23.1080     6.6420     5.7430     6.3210   -18.0890 
   78.6250     2.1790   105.2980    23.1510     6.5880     5.8240     6.4710   -18.0450 
   78.7500     2.1650   101.0680    23.1520     6.8320     5.9510     6.6360   -18.0200 
   78.8750     2.1630    96.1750    22.9880     7.7530     6.0690     6.7610   -17.9750 
   79.0000     2.1480    93.0230    22.7190     9.0370     6.1420     6.8180   -17.9320 
   79.1250     2.1250    91.2890    22.6930     9.7740     6.1680     6.8200   -17.9410 
   79.2500     2.1300    90.2210    22.9300     9.6000     6.1930     6.8350   -17.9720 
   79.3750     2.1760    90.7590    23.3220     8.7670     6.2680     6.9280   -17.9710 
   79.5000     2.2430    92.7240    23.7250     7.8920     6.4380     7.1340   -17.9290 
   79.6250     2.2900    93.5630    23.9060     8.1730     6.7280     7.4520   -17.9080 
   79.7500     2.2990    91.7870    23.8820     9.7440     7.0690     7.7950   -17.9340 
   79.8750     2.2670    87.8520    23.6780    11.6890     7.3730     8.0640   -17.9620 
   80.0000     2.2120    83.4810    23.4060    12.7250     7.5370     8.1590   -17.9240 
   80.1250     2.1730    82.5900    23.1820    12.2050     7.4560     7.9910   -17.7900 
   80.2500     2.1640    86.4020    23.1030    11.4030     7.1860     7.6430   -17.6240 
   80.3750     2.1770    92.4830    23.1630    10.4840     6.8070     7.2170   -17.4680 
   80.5000     2.1970    97.4230    23.3390     9.2520     6.4180     6.8250   -17.3040 
   80.6250     2.2170   100.8190    23.5350     7.9590     6.1240     6.5800   -17.0530 
   80.7500     2.2270   103.6570    23.5980     7.3200     5.9650     6.4880   -16.7180 
   80.8750     2.2200   104.9010    23.5310     7.6480     5.9350     6.5200   -16.3550 
   81.0000     2.1990   103.2100    23.3810     8.3640     6.0020     6.6290   -16.0260 
   81.1250     2.1890    99.1880    23.3400     8.6910     6.1250     6.7710   -15.7430 
   81.2500     2.2110    96.1760    23.4590     8.5130     6.2470     6.8890   -15.4490 
   81.3750     2.2650    96.3360    23.6410     8.5310     6.3240     6.9370   -15.1060 
   81.5000     2.3290   100.1230    23.8400     9.1360     6.3230     6.8880   -14.7330 
   81.6250     2.3690   105.8520    24.0790     9.8570     6.2200     6.7320   -14.4190 
   81.7500     2.3840   111.0500    24.2040     9.3780     6.0450     6.5120   -14.2090 
   81.8750     2.3810   114.3880    24.2570     8.0300     5.8230     6.2580   -14.0830 
   82.0000     2.3690   115.0370    24.2910     6.8720     5.5880     6.0010   -13.9960 
   82.1250     2.3520   113.8020    24.3200     6.1970     5.3760     5.7800   -13.9250 
   82.2500     2.3350   113.5820    24.3210     5.8270     5.2050     5.6090   -13.8900 
   82.3750     2.3210   115.0290    24.3190     5.6910     5.0820     5.4930   -13.9320 
   82.5000     2.3080   116.3500    24.3290     5.8530     5.0000     5.4190   -14.0740 
   82.6250     2.3000   115.8470    24.3220     6.1420     4.9410     5.3670   -14.3010 
   82.7500     2.3030   115.3350    24.3110     6.0790     4.8830     5.3230   -14.5460 
   82.8750     2.3170   116.2140    24.3210     5.6430     4.8240     5.2890   -14.7890 
   83.0000     2.3360   117.7300    24.3250     5.1800     4.7720     5.2710   -15.0640 
   83.1250     2.3440   118.3150    24.3130     4.9670     4.7450     5.2850   -15.4400 
   83.2500     2.3320   118.0830    24.3160     4.9450     4.7530     5.3370   -15.9350 
   83.3750     2.3090   116.8300    24.3210     5.0680     4.8050     5.4410   -16.5270 
   83.5000     2.2900   113.8030    24.3100     5.3840     4.9120     5.6050   -17.1620 
   83.6250     2.2770   109.1060    24.3130     5.8870     5.0960     5.8550   -17.8020 
   83.7500     2.2490   103.8880    24.3170     6.3890     5.3630     6.1950   -18.4790 
   83.8750     2.2070    97.8820    24.2940     6.7780     5.7310     6.6510   -19.2270 
   84.0000     2.1760    91.2750    24.2420     7.1470     6.2160     7.2320   -20.0250 
   84.1250     2.1750    86.3130    24.0480     7.8680     6.8220     7.9240   -20.7740 
   84.2500     2.1780    83.5190    23.6240     8.9960     7.4890     8.6350   -21.4080 
   84.3750     2.1760    81.7410    23.1310    10.3210     8.1430     9.2730   -21.9230 
   84.5000     2.1920    80.0860    22.8350    11.4790     8.6870     9.7420   -22.3630 
   84.6250     2.2450    78.5900    22.7480    12.1880     8.9890     9.9300   -22.7710 
   84.7500     2.2930    76.9510    22.7290    12.6080     9.0570     9.8780   -23.1350 
   84.8750     2.2960    75.4820    22.7250    12.6640     8.9320     9.6540   -23.4100 
   85.0000     2.2560    76.2250    22.6890    12.3930     8.7000     9.3640   -23.5840 
   85.1250     2.2130    80.2790    22.6120    12.1290     8.4700     9.1320   -23.6960 
   85.2500     2.1930    83.3620    22.5460    12.0600     8.3200     9.0170   -23.8030 
   85.3750     2.1930    81.7890    22.5060    12.2170     8.2740     9.0180   -23.9210 
   85.5000     2.1950    76.0170    22.4590    12.6430     8.3200     9.1050   -24.0450 
   85.6250     2.1860    70.9970    22.4400    13.2110     8.4280     9.2320   -24.1580 
   85.7500     2.1730    69.1850    22.4540    13.5850     8.5330     9.3350   -24.2570 
   85.8750     2.1650    68.5350    22.4600    13.7050     8.5950     9.3730   -24.3490 
   86.0000     2.1620    67.1130    22.4500    13.7710     8.5910     9.3300   -24.4420 
   86.1250     2.1610    65.8820    22.4590    13.7970     8.5020     9.1960   -24.5190 
   86.2500     2.1620    66.1900    22.4700    13.7040     8.3500     9.0060   -24.5660 
   86.3750     2.1620    67.3770    22.4900    13.4180     8.1550     8.7840   -24.5840 
   86.5000     2.1560    68.5770    22.4670    12.9720     7.9390     8.5560   -24.5820 
   86.6250     2.1470    69.6800    22.4580    12.4250     7.7290     8.3490   -24.5610 
   86.7500     2.1430    70.8570    22.4340    11.8550     7.5440     8.1810   -24.5120 
   86.8750     2.1430    71.9410    22.4230    11.3900     7.3980     8.0630   -24.4250 
   87.0000     2.1360    72.8200    22.4340    11.1350     7.3000     7.9950   -24.2970 
   87.1250     2.1230    73.1310    22.4290    11.0920     7.2670     7.9890   -24.1380 
   87.2500     2.1140    73.5620    22.4180    11.1020     7.2820     8.0270   -23.9670 
   87.3750     2.1110    74.9640    22.4290    11.1290     7.3230     8.0810   -23.7810 
   87.5000     2.1060    76.6810    22.4320    11.1940     7.3570     8.1140   -23.5600 
   87.6250     2.0970    76.7600    22.4180    11.2300     7.3400     8.0820   -23.2620 
   87.7500     2.0940    76.1920    22.4250    11.1450     7.2610     7.9770   -22.8890 
   87.8750     2.1050    77.1580    22.4320    10.9440     7.1240     7.8080   -22.4580 
   88.0000     2.1270    80.5170    22.4210    10.7050     6.9480     7.5980   -21.9910 
   88.1250     2.1600    84.7310    22.4360    10.3140     6.7710     7.3890   -21.5140 
   88.2500     2.1990    87.2090    22.4640     9.6640     6.6400     7.2310   -21.0420 
   88.3750     2.2350    86.6720    22.4660     9.0780     6.5910     7.1720   -20.5720 
   88.5000     2.2520    82.9920    22.4800     9.0460     6.6500     7.2490   -20.0870 
   88.6250     2.2390    76.8940    22.5150     9.6340     6.8460     7.4940   -19.5640 
