~V
VERS. 2.00: Ver 2.00
~W
STRT.M 55.0000:
STOP.M 268.0000:
STEP.M 0.1250:
NULL. -999.2500:
UWI. DF5025:
~C
DEPT.M :
SP.MV :
GR.API :
CALI.CM :
RXO.OHMM :
RI. :
RML.OHMM :
DEN.GM/CC :
~A
# ...
   66.2500   -21.5320    81.4740    23.5100     8.6700     7.6850     6.6720     2.2010 
   66.3750   -20.8640    85.6240    23.3740     8.1800     7.5810     6.6780     2.2120 
   66.5000   -20.1610    85.3910    23.3460     7.7060     7.4890     6.7200     2.2170 
   66.6250   -19.5210    81.1620    23.2690     7.6300     7.4500     6.8270     2.2190 
   66.7500   -18.9810    77.0720    23.1860     7.8790     7.4700     6.9740     2.2160 
   66.8750   -18.5850    75.8590    23.1310     8.1510     7.5380     7.1330     2.2090 
   67.0000   -18.3940    77.0180    23.1170     8.1630     7.6350     7.2890     2.2050 
   67.1250   -18.4450    77.5420    23.1240     7.9020     7.7420     7.4460     2.2100 
   67.2500   -18.6650    77.2130    23.1160     7.7130     7.8500     7.6190     2.2120 
   67.3750   -19.0160    76.9960    23.0820     7.7770     7.9690     7.8220     2.2030 
   67.5000   -19.4480    77.9430    23.0270     8.0320     8.1140     8.0600     2.1900 
   67.6250   -19.8920    80.0530    22.9890     8.2990     8.3030     8.3380     2.1830 
   67.7500   -20.3060    80.1900    22.9900     8.5930     8.5220     8.6440     2.1930 
   67.8750   -20.6630    76.9730    23.0160     9.1020     8.7430     8.9600     2.2230 
   68.0000   -20.9300    72.3090    23.0420     9.8840     8.9220     9.2520     2.2690 
   68.1250   -21.1020    71.3810    23.0470    10.5600     9.0100     9.4740     2.3070 
   68.2500   -21.2220    72.8290    23.0250    10.6510     9.0190     9.6310     2.3080 
   68.3750   -21.3170    72.3890    22.9750    10.1390     8.9810     9.7560     2.2760 
   68.5000   -21.4210    69.5100    22.9180     9.4740     8.9370     9.8950     2.2390 
   68.6250   -21.5600    67.7240    22.8990     9.2240     8.9220    10.0950     2.2270 
   68.7500   -21.7280    66.8700    22.9430     9.3420     8.9300    10.3420     2.2300 
   68.8750   -21.9320    65.8180    23.0560     9.5470     8.9340    10.6070     2.2280 
   69.0000   -22.1850    66.8360    23.2120     9.6540     8.9060    10.8520     2.2180 
   69.1250   -22.4870    71.2970    23.3470     9.6450     8.8190    11.0420     2.2040 
   69.2500   -22.8000    74.2110    23.4340     9.5800     8.6880    11.1790     2.1940 
   69.3750   -23.0970    74.7560    23.4850     9.4600     8.5330    11.2690     2.1840 
   69.5000   -23.3470    75.3970    23.5140     9.2860     8.3810    11.3160     2.1700 
   69.6250   -23.4830    76.0500    23.5240     9.0380     8.2630    11.3380     2.1540 
   69.7500   -23.5130    74.4590    23.5270     8.6900     8.1830    11.3740     2.1540 
   69.8750   -23.4120    73.0070    23.5470     8.2700     8.1360    11.4440     2.1780 
   70.0000   -23.1370    74.0820    23.6120     7.9380     8.1030    11.5250     2.2120 
   70.1250   -22.6560    75.8840    23.7420     7.9840     8.0560    11.5270     2.2180 
   70.2500   -22.0170    76.3590    23.9040     8.3740     7.9710    11.3780     2.1940 
   70.3750   -21.2490    76.7030    24.0490     8.8290     7.8420    11.0630     2.1630 
   70.5000   -20.3960    78.8920    24.1350     8.9810     7.6770    10.6340     2.1490 
   70.6250   -19.5430    81.8890    24.1610     8.6320     7.4950    10.2080     2.1630 
   70.7500   -18.7780    84.5370    24.2270     8.1230     7.3260     9.8870     2.1910 
   70.8750   -18.1760    87.1680    24.4050     7.7280     7.1880     9.7070     2.2270 
   71.0000   -17.8380    90.9140    24.6340     7.4660     7.0970     9.6650     2.2710 
   71.1250   -17.8940    93.9330    24.6720     7.1890     7.0740     9.7670     2.3070 
   71.2500   -18.2700    92.2570    24.6830     6.9610     7.1180    10.0110     2.3130 
   71.3750   -18.9210    85.6980    24.7930     7.0340     7.2300    10.4350     2.2810 
   71.5000   -19.7980    76.6390    24.7190     7.5330     7.4080    11.0500     2.2250 
   71.6250   -20.8490    71.7760    24.1530     8.2680     7.6370    11.7760     2.1780 
   71.7500   -21.9290    73.1730    23.5570     8.8620     7.8700    12.4010     2.1570 
   71.8750   -22.9650    75.8460    23.3220     9.1830     8.0640    12.7550     2.1540 
   72.0000   -23.8800    75.9140    23.3510     9.2730     8.1820    12.7720     2.1580 
   72.1250   -24.5580    74.0900    23.3520     9.2240     8.1980    12.5130     2.1610 
   72.2500   -25.0590    73.7910    23.3500     9.1490     8.1490    12.1920     2.1610 
   72.3750   -25.4190    73.4170    23.3500     9.1120     8.0710    11.9210     2.1640 
   72.5000   -25.6610    71.4470    23.3500     9.1530     7.9970    11.7470     2.1700 
   72.6250   -25.8220    70.4520    23.3500     9.2730     7.9530    11.6900     2.1790 
   72.7500   -25.9730    71.2750    23.3520     9.4010     7.9390    11.7230     2.1890 
   72.8750   -26.1490    73.0730    23.3540     9.4730     7.9540    11.8420     2.1970 
   73.0000   -26.3700    74.7500    23.3400     9.4560     7.9930    12.0440     2.1990 
   73.1250   -26.6570    73.6370    23.3170     9.3670     8.0560    12.3260     2.1860 
   73.2500   -26.9510    69.2820    23.3310     9.2830     8.1300    12.6390     2.1600 
   73.3750   -27.2060    65.1180    23.4050     9.2480     8.2030    12.9270     2.1360 
   73.5000   -27.3900    66.1500    23.5290     9.2650     8.2600    13.1300     2.1310 
   73.6250   -27.4600    71.2200    23.7080     9.3430     8.2870    13.1950     2.1460 
   73.7500   -27.4330    73.9460    23.7870     9.4970     8.2930    13.1630     2.1660 
   73.8750   -27.3140    74.0620    23.5810     9.7130     8.2850    13.0890     2.1810 
   74.0000   -27.1090    74.3150    23.1240     9.9280     8.2680    13.0280     2.1930 
   74.1250   -26.8250    75.4130    22.7360    10.0990     8.2330    12.9960     2.1970 
   74.2500   -26.5190    75.4420    22.5880    10.2650     8.1740    12.9310     2.1880 
   74.3750   -26.2300    74.0660    22.5720    10.4290     8.0880    12.7490     2.1690 
   74.5000   -25.9690    72.0870    22.5800    10.5270     7.9890    12.4190     2.1530 
   74.6250   -25.7320    68.9990    22.6340    10.4630     7.9490    12.0970     2.1480 
   74.7500   -25.4690    65.6810    22.7990    10.2690     8.0860    12.1330     2.1430 
   74.8750   -25.1290    64.6680    23.1730    10.0660     8.5580    12.8950     2.1350 
   75.0000   -24.6530    65.2650    23.7460    10.4860     9.5090    14.6290     2.1330 
   75.1250   -23.9960    65.9830    24.2860    13.9320    10.9770    17.2350     2.1720 
   75.2500   -23.2120    67.1050    24.5480    20.8590    12.4230    19.5570     2.2700 
   75.3750   -22.3390    70.0260    24.5760    27.7750    13.1340    20.2960     2.4090 
   75.5000   -21.4210    75.3440    24.6070    28.9030    12.5860    18.7410     2.5280 
   75.6250   -20.5140    83.0210    24.7780    21.5010    10.8050    15.3460     2.5440 
   75.7500   -19.6870    91.1500    24.9570    12.3500     8.7690    11.9220     2.4780 
   75.8750   -18.9890    97.0010    25.0440     6.4420     7.0990     9.4130     2.3990 
   76.0000   -18.4660   100.4250    25.0480     4.4560     6.0400     8.0260     2.3600 
   76.1250   -18.1660   103.9400    25.0290     4.4590     5.6330     7.6480     2.3560 
   76.2500   -18.0030   104.6070    25.0080     4.7110     5.6300     7.8020     2.3430 
   76.3750   -17.9200    99.8790    24.9930     5.0040     5.8700     8.2240     2.3090 
   76.5000   -17.8640    93.2250    24.9600     5.3440     6.1940     8.6790     2.2770 
   76.6250   -17.7740    92.4880    24.8480     5.6300     6.4380     8.9360     2.2800 
   76.7500   -17.6230    98.1010    24.6860     5.6840     6.5200     8.9380     2.3030 
   76.8750   -17.4010   105.3380    24.5520     5.4180     6.4260     8.7180     2.3190 
   77.0000   -17.1040   108.7180    24.5420     4.9250     6.1980     8.3670     2.3150 
   77.1250   -16.7280   108.4310    24.7220     4.4590     5.9090     7.9960     2.3030 
   77.2500   -16.3160   110.0830    24.9670     4.1770     5.6410     7.6850     2.3040 
   77.3750   -15.8950   113.5100    25.1490     4.0530     5.4280     7.4580     2.3140 
