~V
VERS. 2.00: Ver 2.00
~W
STRT.M 61.0000:
STOP.M 267.0000:
STEP.M 0.1250:
NULL. -999.2500:
UWI. DF5036:
~C
DEPT.M :
SP.MV :
GR.API :
RML.OHMM :
RI. :
RXO.OHMM :
CALI.CM :
DEN.GM/CC :
~A
# ...
  117.2500   -16.8130    90.0700     6.9400     6.0610     6.0220    24.2450     2.3310 
  117.3750   -16.8810    93.2210     6.5300     5.8130     5.4520    24.2430     2.3270 
  117.5000   -16.9350    98.3550     6.1170     5.5100     5.1510    24.2630     2.3260 
  117.6250   -16.9980   103.7980     5.8270     5.2490     4.8980    24.3340     2.3320 
  117.7500   -17.0990   105.3880     5.6510     5.0540     4.7640    24.4270     2.3450 
  117.8750   -17.2270   104.8300     5.5060     4.9000     4.7630    24.4450     2.3620 
  118.0000   -17.3850   104.6960     5.3260     4.7490     4.8610    24.3510     2.3760 
  118.1250   -17.6070   103.1800     5.1050     4.5890     4.9280    24.3760     2.3720 
  118.2500   -17.9120   100.7820     4.9580     4.4630     4.8770    24.4950     2.3500 
  118.3750   -18.3180   101.5570     5.0040     4.4330     4.7470    24.6060     2.3170 
  118.5000   -18.8180   102.8920     5.3710     4.5510     4.8040    24.6030     2.2840 
  118.6250   -19.3900    96.4640     6.0190     4.8660     5.3040    24.3560     2.2640 
  118.7500   -19.9740    86.5320     6.7360     5.3250     6.1480    23.8830     2.2560 
  118.8750   -20.5490    78.8370     7.3220     5.8810     7.0590    23.4020     2.2550 
  119.0000   -21.0810    74.8720     7.9400     6.4840     7.6230    23.2150     2.2560 
  119.1250   -21.5160    72.8620     8.5610     7.0790     7.7880    23.1790     2.2560 
  119.2500   -21.8190    70.4310     9.1420     7.6040     7.7850    23.1030     2.2590 
  119.3750   -21.9480    69.2170     9.6010     7.9910     7.7290    23.0310     2.2660 
  119.5000   -21.8790    70.0350     9.8240     8.1590     7.6980    22.9600     2.2740 
  119.6250   -21.5840    71.5430     9.6780     8.0040     7.6970    22.9290     2.2770 
  119.7500   -21.1580    73.7850     9.2610     7.6020     7.5880    22.9490     2.2700 
  119.8750   -20.6590    78.2210     8.7060     7.0580     7.2790    23.0990     2.2560 
  120.0000   -20.1690    84.5620     8.1280     6.4830     6.7080    23.4310     2.2390 
  120.1250   -19.7460    86.8150     7.5360     5.9390     6.0510    23.7220     2.2310 
  120.2500   -19.3720    85.8610     6.8880     5.4200     5.6440    23.5880     2.2350 
  120.3750   -19.0660    82.4760     6.2300     4.9480     5.6490    23.2630     2.2510 
  120.5000   -18.8550    79.3060     5.7620     4.6250     5.7920    23.2080     2.2790 
  120.6250   -18.8060    81.3180     5.9170     4.7220     5.8910    23.5840     2.3250 
  120.7500   -18.8910    85.7560     6.8510     5.3900     6.8560    23.9480     2.3880 
  120.8750   -19.0960    85.1010     8.5470     6.6970     9.9950    24.0950     2.4630 
  121.0000   -19.3670    78.3640    10.7270     8.5280    15.2850    24.0800     2.5350 
  121.1250   -19.6700    72.6430    12.7820    10.4980    21.0650    24.0230     2.5740 
  121.2500   -20.0350    68.3070    14.0680    12.0060    24.9180    23.8860     2.5670 
  121.3750   -20.4580    62.3330    14.2710    12.6390    22.9680    23.6370     2.5170 
  121.5000   -20.9100    58.1440    13.5410    12.3400    15.6170    23.4010     2.4380 
  121.6250   -21.3320    58.7400    12.3970    11.4120    11.1340    23.1750     2.3520 
  121.7500   -21.6900    60.7410    11.4330    10.4490     9.1630    22.9290     2.2770 
  121.8750   -21.9710    61.3530    10.8600     9.7290     8.7180    22.7370     2.2220 
  122.0000   -22.1780    61.1640    10.6830     9.3520     8.6790    22.5780     2.1890 
  122.1250   -22.3200    60.5460    10.7790     9.2960     8.6720    22.4190     2.1800 
  122.2500   -22.4090    58.6290    10.8800     9.3480     8.5930    22.2520     2.1810 
  122.3750   -22.4530    57.6760    10.8270     9.3510     8.4820    22.1120     2.1850 
  122.5000   -22.4760    58.8870    10.5750     9.2170     8.3040    21.9390     2.1900 
  122.6250   -22.4890    59.7080    10.2140     8.9580     8.0340    21.8210     2.1980 
  122.7500   -22.5150    61.1080     9.9400     8.7180     7.8460    21.7750     2.2110 
  122.8750   -22.5630    64.9820     9.8640     8.6020     7.8660    21.8110     2.2300 
  123.0000   -22.6390    71.4310    10.0010     8.6500     8.2820    21.9180     2.2480 
  123.1250   -22.7370    76.5010    10.2850     8.8410     9.2930    22.0740     2.2570 
  123.2500   -22.8400    76.1210    10.5710     9.0690    10.5040    22.1620     2.2540 
  123.3750   -22.9480    70.3060    10.7800     9.2640    11.1490    22.1890     2.2430 
  123.5000   -23.0650    62.6640    10.8830     9.3880    11.1460    22.1910     2.2320 
  123.6250   -23.1840    60.8000    10.8970     9.4290    10.8700    22.1910     2.2250 
  123.7500   -23.3030    64.9630    10.8970     9.4270    10.6290    22.1910     2.2230 
  123.8750   -23.4120    68.5300    10.9260     9.4110    10.3910    22.2060     2.2240 
  124.0000   -23.4910    67.4080    10.9850     9.3960    10.2930    22.2730     2.2280 
  124.1250   -23.5210    64.9240    11.0270     9.3710    10.2070    22.4340     2.2300 
  124.2500   -23.5270    64.9210    11.0050     9.3150    10.0040    22.5700     2.2300 
  124.3750   -23.5050    64.4990    10.9050     9.2160     9.8240    22.6050     2.2270 
  124.5000   -23.4590    61.9170    10.7420     9.0770     9.7340    22.5270     2.2240 
  124.6250   -23.4030    61.3850    10.5620     8.9250     9.7250    22.3740     2.2250 
  124.7500   -23.3490    63.5520    10.4250     8.8050     9.9140    22.2790     2.2310 
  124.8750   -23.3090    64.4810    10.3850     8.7670    10.3360    22.3240     2.2410 
  125.0000   -23.2930    63.8720    10.4930     8.8550    10.8820    22.4660     2.2500 
  125.1250   -23.2960    64.1860    10.8100     9.1240    11.8300    22.6680     2.2520 
  125.2500   -23.2830    64.3600    11.2820     9.5310    13.8830    22.8770     2.2440 
  125.3750   -23.2530    63.3870    11.8280    10.0120    17.2520    22.9940     2.2280 
  125.5000   -23.2190    62.2350    12.3300    10.4700    21.0400    22.9700     2.2080 
  125.6250   -23.1760    62.0690    12.6240    10.7690    23.8130    22.9190     2.1920 
  125.7500   -23.1140    62.8210    12.6570    10.8590    22.6730    22.8640     2.1830 
  125.8750   -23.0070    63.4630    12.4310    10.7330    17.3190    22.8000     2.1830 
  126.0000   -22.8450    61.9260    12.0110    10.4380    12.7370    22.7320     2.1900 
  126.1250   -22.6330    60.2010    11.4820    10.0410    11.0480    22.6520     2.2000 
  126.2500   -22.4080    61.7390    10.9300     9.6250    10.2880    22.5900     2.2110 
  126.3750   -22.1790    65.8580    10.3870     9.2260     9.8830    22.5440     2.2200 
  126.5000   -21.9160    67.6140     9.9110     8.8800     9.8070    22.5220     2.2230 
  126.6250   -21.5880    65.3400     9.7390     8.7300    10.1170    22.5320     2.2190 
  126.7500   -21.1920    63.8470    10.1480     8.9650    10.4610    22.5910     2.2150 
  126.8750   -20.7320    64.2910    11.3310     9.7610    10.7690    22.7120     2.2270 
  127.0000   -20.2000    63.4560    13.1670    11.1100    11.4730    22.8730     2.2670 
  127.1250   -19.5980    60.8990    15.0220    12.6570    13.2960    23.0620     2.3370 
  127.2500   -18.9420    60.6660    16.0080    13.7080    15.5960    23.2730     2.4090 
  127.3750   -18.2670    64.8960    15.5760    13.7260    17.5680    23.5360     2.4510 
  127.5000   -17.6170    70.5490    13.7990    12.5670    17.6700    23.8560     2.4480 
  127.6250   -17.0380    76.4100    11.4270    10.6370    13.0830    24.1480     2.4090 
  127.7500   -16.5360    81.3550     9.4080     8.7820     8.0780    24.2960     2.3680 
  127.8750   -16.1340    83.2690     7.9840     7.3510     6.0360    24.3750     2.3400 
  128.0000   -15.8510    82.8690     7.0880     6.4020     5.5050    24.4370     2.3270 
  128.1250   -15.7260    84.2130     6.5680     5.9130     5.4320    24.4670     2.3200 
  128.2500   -15.7290    87.3330     6.2870     5.7000     5.3750    24.4690     2.3120 
  128.3750   -15.8320    89.8160     6.2390     5.6530     5.3070    24.4750     2.3000 
