~V
VERS. 2.00: Ver 2.00
~W
STRT.M 55.0000:
STOP.M 268.0000:
STEP.M 0.1250:
NULL. -999.2500:
UWI. DF5025:
~C
DEPT.M :
SP.MV :
GR.API :
CALI.CM :
RXO.OHMM :
RI. :
RML.OHMM :
DEN.GM/CC :
~A
# ...
  235.0000   -20.7800    70.7370    24.6180    56.6590    53.3180    58.4080     2.2740 
  235.1250   -20.4790    68.3450    24.5190    60.0740    55.6040    60.9860     2.2780 
  235.2500   -20.1760    65.0650    24.3950    61.6190    58.3710    63.7460     2.2800 
  235.3750   -19.8990    63.7860    24.2790    58.5270    60.9600    65.9930     2.2780 
  235.5000   -19.6570    66.9230    24.3200    53.1860    63.0260    67.4090     2.2790 
  235.6250   -19.4780    70.5810    24.6830    51.8090    64.4260    67.9490     2.3040 
  235.7500   -19.3390    69.9940    24.9090    56.2720    65.3260    67.9690     2.3430 
  235.8750   -19.2390    68.1230    24.6500    64.0910    65.6480    67.4700     2.3710 
  236.0000   -19.1790    69.5430    24.1200    70.8920    65.1120    66.1780     2.3690 
  236.1250   -19.1590    72.9420    24.0870    72.5930    63.1570    63.5890     2.3350 
  236.2500   -19.1710    73.8900    24.6620    69.3690    59.9400    59.9980     2.2970 
  236.3750   -19.1890    72.5900    25.3560    61.9100    55.8000    55.9060     2.2860 
  236.5000   -19.2090    72.5250    25.9740    51.6970    51.2630    51.8740     2.3160 
  236.6250   -19.2350    75.8320    26.3570    42.3820    46.9570    48.3370     2.3680 
  236.7500   -19.2520    79.4310    26.2110    37.1270    43.2890    45.2950     2.4050 
  236.8750   -19.2560    80.6020    25.5370    35.8380    40.4800    42.7530     2.4160 
  237.0000   -19.2430    79.7250    24.8230    36.4260    38.6070    40.8040     2.4110 
  237.1250   -19.2080    78.4910    24.6420    37.3550    37.7450    39.7280     2.3960 
  237.2500   -19.1450    77.1360    24.7130    38.3780    37.5510    39.4210     2.3780 
  237.3750   -19.0470    76.1560    24.7330    39.5410    37.8290    39.7520     2.3640 
  237.5000   -18.9140    77.1030    24.7280    41.4480    38.4940    40.6160     2.3650 
  237.6250   -18.7350    80.2580    24.6610    46.1180    39.7580    42.1980     2.3860 
  237.7500   -18.5370    82.9600    24.5750    53.2920    41.7170    44.5430     2.4130 
  237.8750   -18.3120    85.4680    24.5250    60.6340    44.2720    47.4800     2.4320 
  238.0000   -18.0600    90.2080    24.5340    65.9670    46.8470    50.2890     2.4410 
  238.1250   -17.7910    94.9260    24.5820    68.5850    48.0810    51.3740     2.4510 
  238.2500   -17.5140    93.5190    24.6300    68.0850    47.1090    49.9150     2.4650 
  238.3750   -17.2360    87.4300    24.6540    62.3830    43.7840    45.9800     2.4670 
  238.5000   -16.9590    83.2420    24.6470    51.2930    38.8480    40.5910     2.4420 
  238.6250   -16.6830    83.9740    24.6560    38.7680    33.6560    35.3080     2.3980 
  238.7500   -16.4230    85.1660    24.7000    29.5430    29.3720    31.1890     2.3560 
  238.8750   -16.1820    83.8630    24.7110    24.6110    26.4160    28.5490     2.3210 
  239.0000   -15.9640    80.7790    24.6330    23.0670    24.8110    27.3300     2.2970 
  239.1250   -15.7570    79.2470    24.5180    24.2320    24.5910    27.4900     2.3050 
  239.2500   -15.5650    80.9830    24.4410    27.1220    25.4520    28.6410     2.3390 
  239.3750   -15.3950    84.1200    24.3650    31.1770    27.4330    30.7600     2.3880 
  239.5000   -15.2340    85.0440    24.3240    35.7330    30.6220    33.9050     2.4380 
  239.6250   -15.0750    83.5790    24.6330    40.5820    34.9730    38.0330     2.4880 
  239.7500   -14.8840    80.5090    25.2690    46.9700    39.3160    42.0750     2.5400 
  239.8750   -14.6480    75.6690    25.7170    56.6320    42.0700    44.4960     2.5850 
  240.0000   -14.3750    70.6910    25.5180    67.8160    41.7760    43.8360     2.5980 
  240.1250   -14.0690    69.9830    24.8960    70.6710    37.6770    39.3050     2.5350 
  240.2500   -13.7090    72.8380    24.5630    60.0960    31.7480    32.9090     2.4200 
  240.3750   -13.2860    74.5810    24.5850    41.6230    25.6930    26.4130     2.3160 
  240.5000   -12.8250    73.7540    24.7700    26.4540    20.6250    20.9970     2.2770 
  240.6250   -12.3130    73.0930    24.9670    21.0530    17.0360    17.1620     2.3220 
  240.7500   -11.7880    72.4170    25.0680    18.9800    14.3770    14.4910     2.3950 
  240.8750   -11.2880    69.6150    24.9630    15.7410    12.2570    12.7710     2.4490 
  241.0000   -10.8140    65.3000    24.7550    11.4990    10.5040    11.6560     2.4640 
  241.1250   -10.3870    61.4070    24.6500     8.8030     9.2430    10.7330     2.4500 
  241.2500   -10.0290    58.5630    24.6510     7.9780     8.4240     9.8470     2.4320 
  241.3750    -9.7370    56.7500    24.6650     8.0480     7.9230     9.1620     2.4160 
  241.5000    -9.4950    57.3380    24.6740     8.1830     7.6180     8.7680     2.4030 
  241.6250    -9.3210    59.7590    24.6830     8.1660     7.4850     8.5980     2.4010 
  241.7500    -9.1830    62.2710    24.6960     8.1340     7.4560     8.5600     2.4080 
  241.8750    -9.0740    63.9260    24.7110     8.1410     7.4930     8.6080     2.4140 
  242.0000    -8.9910    64.6450    24.7250     8.1550     7.5630     8.6980     2.4130 
  242.1250    -8.9260    65.1370    24.7550     8.1270     7.6350     8.7900     2.4090 
  242.2500    -8.8890    64.6800    24.7960     8.0810     7.6920     8.8630     2.4080 
  242.3750    -8.8930    64.1910    24.8150     8.0610     7.7280     8.9100     2.4050 
  242.5000    -8.9270    65.3060    24.7820     8.1140     7.7390     8.9240     2.3970 
  242.6250    -8.9920    66.9930    24.7030     8.3220     7.7190     8.8980     2.3980 
  242.7500    -9.0850    66.3470    24.6260     8.7060     7.6820     8.8510     2.4120 
  242.8750    -9.1840    64.1530    24.5490     9.2060     7.6500     8.8110     2.4190 
  243.0000    -9.2940    63.2320    24.4720     9.6370     7.6450     8.8030     2.4080 
  243.1250    -9.3980    63.7960    24.4490     9.7600     7.6810     8.8500     2.3990 
  243.2500    -9.4780    64.2340    24.4810     9.6720     7.7490     8.9370     2.4120 
  243.3750    -9.5260    64.1400    24.5170     9.6180     7.8380     9.0510     2.4310 
  243.5000    -9.5630    63.8790    24.5140     9.7800     7.9400     9.1830     2.4320 
  243.6250    -9.5880    62.9080    24.5000    10.1160     8.0490     9.3230     2.4230 
  243.7500    -9.6120    61.7000    24.5030    10.3870     8.1500     9.4530     2.4240 
  243.8750    -9.6560    62.1200    24.5060    10.4770     8.2260     9.5500     2.4280 
  244.0000    -9.7000    64.6030    24.5030    10.4110     8.2680     9.6040     2.4220 
  244.1250    -9.7540    65.7390    24.5070    10.3150     8.2840     9.6250     2.4070 
  244.2500    -9.8090    65.0160    24.4910    10.2830     8.3000     9.6460     2.3990 
  244.3750    -9.8500    64.6880    24.4410    10.2720     8.3280     9.6820     2.3990 
  244.5000    -9.8750    65.7790    24.3800    10.1750     8.3690     9.7340     2.3980 
  244.6250    -9.8910    66.8280    24.3580     9.9330     8.4110     9.7890     2.3930 
  244.7500    -9.9000    66.4700    24.3790     9.6940     8.4420     9.8280     2.3910 
  244.8750    -9.8910    64.8990    24.4010     9.5980     8.4460     9.8340     2.3950 
  245.0000    -9.8830    63.5270    24.3940     9.6760     8.4180     9.7970     2.4080 
  245.1250    -9.9060    66.1500    24.3700     9.7950     8.3630     9.7260     2.4280 
  245.2500    -9.9750    70.0590    24.3450     9.7670     8.3140     9.6640     2.4460 
  245.3750   -10.0990    69.5440    24.3240     9.5500     8.3030     9.6500     2.4520 
  245.5000   -10.2590    65.0610    24.3080     9.2650     8.3470     9.7060     2.4500 
  245.6250   -10.4410    61.6100    24.3160     9.1310     8.4440     9.8310     2.4590 
  245.7500   -10.6220    61.5340    24.3360     9.1910     8.5620     9.9830     2.4860 
  245.8750   -10.8000    62.3380    24.3470     9.3440     8.6780    10.1320     2.5150 
  246.0000   -10.9470    62.6340    24.3490     9.4100     8.7740    10.2550     2.5240 
  246.1250   -11.0060    62.6010    24.3610     9.1200     8.8320    10.3300     2.5010 
