~V
VERS. 2.00: Ver 2.00
~W
STRT.M 55.0000:
STOP.M 271.0000:
STEP.M 0.1250:
NULL. -999.2500:
UWI. DF5016:
~C
DEPT.M :
SP.MV :
GR.API :
CALI.CM :
RXO.OHMM :
RI. :
RML.OHMM :
DEN.GM/CC :
~A
# ...
  145.0000   -22.7320    85.0080    24.2620    11.8260     8.6060     9.7140     2.2860 
  145.1250   -22.7860    86.1080    24.2900    13.1190     9.3390    10.4270     2.2710 
  145.2500   -22.8200    89.4850    24.3380    14.2720     9.8060    10.8170     2.2900 
  145.3750   -22.8320    93.5710    24.3770    15.5960     9.9850    10.9000     2.3410 
  145.5000   -22.8330    96.6220    24.3260    16.7600     9.9500    10.8110     2.4050 
  145.6250   -22.8260    96.1320    24.2640    15.9410     9.8710    10.7700     2.4520 
  145.7500   -22.8010    91.4530    24.2370    13.3010     9.9360    10.9660     2.4760 
  145.8750   -22.7440    83.4890    24.2300    11.2250    10.2590    11.4840     2.4870 
  146.0000   -22.6530    74.6720    24.2070    11.9160    10.8870    12.3240     2.4980 
  146.1250   -22.5480    67.8350    24.2090    15.0900    11.8200    13.4290     2.5160 
  146.2500   -22.4510    63.5580    24.2260    17.8190    12.8930    14.6030     2.5380 
  146.3750   -22.3620    61.4790    24.2170    18.6270    13.9710    15.6970     2.5540 
  146.5000   -22.2730    60.7000    24.1860    18.0690    14.9170    16.5690     2.5590 
  146.6250   -22.1810    60.4890    24.1880    17.8790    15.5870    17.0890     2.5570 
  146.7500   -22.0970    60.3510    24.2030    18.5360    16.0260    17.3840     2.5590 
  146.8750   -22.0360    60.1230    24.1880    19.4030    16.3250    17.5880     2.5630 
  147.0000   -21.9980    59.1100    24.1830    19.9270    16.5810    17.8090     2.5630 
  147.1250   -21.9760    56.3180    24.2250    19.9050    16.8520    18.1020     2.5660 
  147.2500   -21.9580    52.8330    24.2390    19.5010    17.1320    18.4250     2.5750 
  147.3750   -21.9560    50.3220    24.2190    18.7910    17.4070    18.7500     2.5850 
  147.5000   -21.9840    49.7520    24.2140    18.4650    17.6620    19.0650     2.5900 
  147.6250   -22.0490    50.6430    24.1800    19.0310    17.8740    19.3650     2.5890 
  147.7500   -22.1300    51.8250    24.1400    19.8220    18.0570    19.6580     2.5870 
  147.8750   -22.2100    53.0040    24.1210    20.2250    18.2340    19.9630     2.5820 
  148.0000   -22.2880    53.9440    24.1200    20.3890    18.4330    20.2840     2.5700 
  148.1250   -22.3810    53.3620    24.0830    20.5640    18.6650    20.6180     2.5490 
  148.2500   -22.4950    50.8210    24.1090    20.5040    18.9150    20.9430     2.5300 
  148.3750   -22.6180    47.6370    24.1690    20.1890    19.1720    21.2480     2.5230 
  148.5000   -22.7280    46.0730    24.1940    20.2250    19.4140    21.5000     2.5330 
  148.6250   -22.8180    47.4010    24.1540    21.0590    19.6030    21.6470     2.5460 
  148.7500   -22.9050    50.0240    24.0930    21.6800    19.7090    21.6730     2.5470 
  148.8750   -23.0050    52.5810    23.9620    21.4150    19.7180    21.5670     2.5360 
  149.0000   -23.1120    54.3130    23.7760    20.6970    19.6380    21.3480     2.5270 
  149.1250   -23.1960    54.9360    23.6720    20.4470    19.5010    21.0550     2.5290 
  149.2500   -23.2390    55.4710    23.6540    20.3990    19.3650    20.7790     2.5340 
  149.3750   -23.2450    57.2550    23.6760    20.3640    19.2770    20.5970     2.5370 
  149.5000   -23.2320    60.2200    23.7340    20.5180    19.2690    20.5510     2.5380 
  149.6250   -23.2110    62.5550    23.8370    21.1450    19.3680    20.6670     2.5360 
  149.7500   -23.1760    63.4750    23.8850    21.7940    19.5320    20.8740     2.5330 
  149.8750   -23.1170    63.5910    23.8650    22.2990    19.7170    21.1110     2.5330 
  150.0000   -23.0390    63.4210    23.8620    22.6130    19.8420    21.2750     2.5310 
  150.1250   -22.9680    63.4050    23.9400    22.5940    19.7790    21.1910     2.5190 
  150.2500   -22.9270    64.1140    24.0740    21.8790    19.5040    20.8360     2.4980 
  150.3750   -22.9170    65.2330    24.1520    20.6880    19.0270    20.2340     2.4800 
  150.5000   -22.9250    65.6760    24.1190    19.6520    18.4180    19.5010     2.4700 
  150.6250   -22.9450    65.6820    24.0020    18.8610    17.8050    18.8430     2.4690 
  150.7500   -22.9910    66.7080    23.9250    18.1070    17.3130    18.3870     2.4700 
  150.8750   -23.0820    67.9340    23.9350    17.4180    17.0200    18.1890     2.4730 
  151.0000   -23.2260    67.8040    24.0060    17.2590    16.9540    18.2510     2.4850 
  151.1250   -23.4100    67.4310    24.0460    18.0740    17.0980    18.4930     2.5050 
  151.2500   -23.6060    69.3910    23.9790    19.2300    17.3120    18.7550     2.5200 
  151.3750   -23.8130    73.4630    23.9430    20.0380    17.4830    18.9080     2.5200 
  151.5000   -24.0390    77.1590    24.0110    19.9980    17.5250    18.8660     2.5030 
  151.6250   -24.2900    78.0610    24.0140    19.2080    17.3620    18.5770     2.4780 
  151.7500   -24.5410    76.3120    24.0200    18.2520    17.0360    18.1170     2.4580 
  151.8750   -24.7670    73.2940    24.0310    17.3810    16.6060    17.5680     2.4460 
  152.0000   -24.9550    71.0080    24.0610    16.5420    16.1250    16.9830     2.4470 
  152.1250   -25.1110    70.2350    23.9940    16.0170    15.6050    16.3640     2.4580 
  152.2500   -25.2580    69.7440    23.9160    15.6930    15.0520    15.7180     2.4690 
  152.3750   -25.3940    69.8050    23.7880    15.4560    14.4680    15.0410     2.4770 
  152.5000   -25.5070    70.9630    23.6830    15.1210    13.8640    14.3450     2.4860 
  152.6250   -25.5800    71.5440    23.6370    14.5110    13.2780    13.7030     2.4980 
  152.7500   -25.6310    69.4160    23.6420    13.6680    12.7680    13.1760     2.5010 
  152.8750   -25.6790    64.7950    23.6400    12.5880    12.3880    12.8280     2.4960 
  153.0000   -25.7390    59.8130    23.6500    11.7190    12.1780    12.6880     2.4970 
  153.1250   -25.8060    56.9180    23.7680    11.6760    12.1780    12.7740     2.5120 
  153.2500   -25.8680    56.0430    23.8610    12.1270    12.3340    13.0180     2.5220 
  153.3750   -25.9320    56.2120    23.8820    12.6240    12.5920    13.3650     2.5110 
  153.5000   -26.0170    57.1240    23.9350    12.9470    12.8920    13.7420     2.4880 
  153.6250   -26.1490    59.9060    24.0010    13.2650    13.1660    14.0710     2.4750 
  153.7500   -26.3160    64.5450    24.0790    13.6910    13.3540    14.2790     2.4770 
  153.8750   -26.5030    70.0210    24.1250    14.3260    13.4210    14.3370     2.4820 
  154.0000   -26.7040    74.8770    24.1330    15.0220    13.3620    14.2530     2.4830 
  154.1250   -26.9350    77.1550    24.0720    15.2120    13.2160    14.0890     2.4830 
  154.2500   -27.2070    76.8860    23.9470    14.8810    13.1130    14.0060     2.4860 
  154.3750   -27.5130    75.6210    23.8870    14.4210    13.1870    14.1600     2.4860 
  154.5000   -27.8310    74.8940    23.9180    14.3540    13.5850    14.7200     2.4760 
  154.6250   -28.1400    75.2110    24.0130    14.7560    14.5930    15.9750     2.4510 
  154.7500   -28.4410    75.4010    24.1800    15.8330    16.2990    17.8630     2.4120 
  154.8750   -28.7430    73.9640    24.3850    18.7390    18.7540    20.3470     2.3660 
  155.0000   -29.0450    70.6020    24.5080    24.7670    21.8140    23.4650     2.3200 
  155.1250   -29.3210    67.7160    24.5150    32.9200    25.0100    26.8110     2.2800 
  155.2500   -29.5510    67.3430    24.4970    39.3420    27.4880    29.4470     2.2450 
  155.3750   -29.7300    68.4040    24.4990    42.5500    28.4100    30.4280     2.2200 
  155.5000   -29.8750    68.9500    24.4870    43.3670    27.2600    29.2050     2.2100 
  155.6250   -30.0070    69.4570    24.4510    41.2450    24.0240    25.7610     2.2130 
  155.7500   -30.1310    72.0140    24.4210    34.8450    19.9620    21.4390     2.2230 
  155.8750   -30.2410    77.8010    24.3710    25.3780    15.9800    17.2020     2.2400 
  156.0000   -30.3350    87.0000    24.3580    16.5580    12.6710    13.6820     2.2650 
  156.1250   -30.4380    96.4830    24.4900    11.3660    10.4270    11.2940     2.2980 
