~V
VERS. 2.00: Ver 2.00
~W
STRT.M 58.0000:
STOP.M 250.0000:
STEP.M 0.1250:
NULL. -999.2500:
UWI. DF5046:
~C
DEPT.M :
GR.API :
CALI.CM :
RXO.OHMM :
RI. :
RML.OHMM :
DEN.GM/CC :
SP.MV :
~A
# ...
  159.2500    72.2340    25.1160   102.3290    93.2280   106.0870     2.2240   -32.4880 
  159.3750    73.5000    25.1360   118.0250    98.8810   112.4860     2.2220   -32.7270 
  159.5000    71.7740    25.1650   134.3220   105.5430   119.8000     2.2240   -32.9910 
  159.6250    67.0760    25.1850   139.7780   111.6530   126.1680     2.2220   -33.2980 
  159.7500    63.8050    25.1900   137.6310   115.9480   130.2690     2.2140   -33.6590 
  159.8750    63.4080    25.1640   135.9560   118.1170   131.9730     2.2060   -34.0710 
  160.0000    64.7050    25.0980   135.5990   118.8060   132.2770     2.2020   -34.5160 
  160.1250    64.8910    25.0240   129.5210   119.2780   132.7750     2.2080   -34.9690 
  160.2500    64.5060    24.9640   120.4440   120.5280   134.4010     2.2220   -35.4400 
  160.3750    64.8960    24.9050   117.2460   122.7210   137.1500     2.2350   -35.9120 
  160.5000    66.2420    24.8140   122.8480   125.5330   140.4900     2.2370   -36.3580 
  160.6250    65.2850    24.6510   126.9850   128.5000   143.7690     2.2250   -36.7670 
  160.7500    63.3100    24.4540   123.0750   131.4540   146.9100     2.2100   -37.1610 
  160.8750    63.4170    24.2770   118.2300   134.8060   150.5190     2.2040   -37.5450 
  161.0000    65.4680    24.1580   121.7900   139.4550   155.7050     2.2090   -37.9260 
  161.1250    66.8800    24.1240   136.4670   147.0470   164.2700     2.2190   -38.3150 
  161.2500    66.8240    24.1800   155.9970   157.5980   176.0850     2.2220   -38.6920 
  161.3750    66.4580    24.3340   177.6940   169.8800   189.5840     2.2150   -39.0320 
  161.5000    65.8180    24.5560   203.9690   181.0080   201.1590     2.2050   -39.3410 
  161.6250    64.4750    24.8230   232.5450   186.2060   204.9090     2.2060   -39.5730 
  161.7500    62.4910    25.1010   239.2860   184.3140   200.1420     2.2130   -39.6770 
  161.8750    61.1330    25.3300   214.0990   176.6110   189.3420     2.2180   -39.6300 
  162.0000    60.5200    25.4460   177.8920   166.1700   176.6770     2.2140   -39.4330 
  162.1250    60.1580    25.4380   160.7910   156.3790   165.9520     2.2080   -39.0740 
  162.2500    60.7190    25.3990   157.9240   148.9520   158.3670     2.2070   -38.5850 
  162.3750    62.3220    25.3830   157.7880   144.4870   154.2420     2.2110   -37.9950 
  162.5000    63.5800    25.3980   154.8070   143.2660   153.7210     2.2170   -37.3470 
  162.6250    63.6990    25.4060   151.4030   146.0810   157.6100     2.2260   -36.6880 
  162.7500    64.7840    25.3710   155.5050   152.5500   165.4660     2.2390   -36.0630 
  162.8750    66.7210    25.3350   175.6710   162.7430   177.3440     2.2490   -35.5010 
  163.0000    67.3490    25.3600   213.4870   176.2850   192.8150     2.2470   -35.0230 
  163.1250    67.6460    25.4220   251.8140   192.1440   210.7460     2.2330   -34.6060 
  163.2500    68.4340    25.4330   270.1010   207.8390   228.4670     2.2200   -34.2230 
  163.3750    67.0680    25.4010   272.2250   221.1840   243.5950     2.2110   -33.9000 
  163.5000    62.4630    25.3750   276.6110   230.1470   253.8300     2.2020   -33.6010 
  163.6250    58.1580    25.3710   294.9300   232.2440   256.0950     2.1890   -33.3650 
  163.7500    57.4570    25.3830   310.4130   227.9730   250.6260     2.1820   -33.1930 
  163.8750    60.1340    25.4110   302.2680   217.6280   237.6320     2.1890   -33.0110 
  164.0000    64.8270    25.4440   268.1980   202.1310   218.5170     2.2070   -32.8270 
  164.1250    68.7600    25.4440   229.5390   183.3940   196.4080     2.2200   -32.6130 
  164.2500    69.7990    25.4110   199.3120   165.3710   176.1420     2.2170   -32.3810 
  164.3750    68.5070    25.3570   172.9620   151.0170   160.6800     2.2050   -32.0950 
  164.5000    67.3270    25.2730   148.9510   142.2890   151.4770     2.1930   -31.7830 
  164.6250    67.2250    25.1370   137.7990   140.7690   149.4910     2.1890   -31.4130 
  164.7500    66.9680    25.0460   148.0450   144.1170   151.9400     2.1880   -30.9970 
  164.8750    64.7960    25.0980   181.1130   149.2530   155.3520     2.1870   -30.6210 
  165.0000    61.8250    25.2490   220.8700   151.3210   154.3300     2.1840   -30.3130 
  165.1250    60.3010    25.3600   228.4020   143.1240   141.5420     2.1820   -30.1000 
  165.2500    60.3180    25.4050   196.7870   124.7750   119.2570     2.1820   -29.9810 
  165.3750    61.3450    25.4330   144.2790   101.1290    94.2170     2.1880   -29.9630 
  165.5000    62.7430    25.4430    91.7250    78.9660    73.0630     2.2010   -30.0450 
  165.6250    64.0660    25.4100    55.3640    63.7790    59.8010     2.2180   -30.2510 
  165.7500    66.8580    25.3840    39.6190    55.1680    52.8720     2.2220   -30.5420 
  165.8750    70.7980    25.4230    44.3250    52.0260    51.0160     2.2060   -30.8610 
  166.0000    72.4970    25.5980    65.7650    52.9150    52.8660     2.1830   -31.0940 
  166.1250    69.7390    25.8900    82.5390    56.5670    57.1620     2.1790   -31.1920 
  166.2500    66.5680    25.9850    79.3830    61.0650    62.0540     2.1950   -31.1430 
  166.3750    66.0580    25.7230    65.4930    65.5610    66.7790     2.2160   -30.9750 
  166.5000    68.1510    25.2960    56.7180    70.0450    71.5210     2.2320   -30.7100 
  166.6250    72.2250    25.0990    57.7150    75.9610    77.9460     2.2430   -30.3010 
  166.7500    74.7720    25.1370    68.6830    84.7970    87.5360     2.2510   -29.7920 
  166.8750    72.9870    25.2170    92.7050    97.2350   100.9690     2.2460   -29.2550 
  167.0000    68.0560    25.2640   128.5400   112.3350   117.3750     2.2250   -28.7580 
  167.1250    63.9240    25.2930   168.3420   126.7170   133.3260     2.1950   -28.3700 
  167.2500    62.8230    25.3080   195.1460   136.5490   144.4870     2.1790   -28.1230 
  167.3750    64.6420    25.3150   194.4310   139.9280   148.5470     2.1850   -27.9720 
  167.5000    65.6190    25.3290   170.5620   137.0680   145.6860     2.2020   -27.9040 
  167.6250    63.9110    25.3150   148.7910   129.0330   137.1070     2.2140   -27.9680 
  167.7500    63.6170    25.2410   142.4220   118.5180   125.7880     2.2190   -28.1330 
  167.8750    66.2130    25.1450   141.2580   107.1040   113.5310     2.2220   -28.3840 
  168.0000    68.4120    25.0650   129.0900    96.3640   102.1370     2.2250   -28.7270 
  168.1250    66.9270    24.9700   103.4890    88.2900    93.7990     2.2280   -29.1380 
  168.2500    64.8630    24.8730    83.8740    83.5990    89.1560     2.2340   -29.5900 
  168.3750    63.4460    24.8540    79.3200    82.6230    88.4380     2.2430   -30.0850 
  168.5000    61.6130    24.9370    87.9160    85.2190    91.3690     2.2500   -30.5630 
  168.6250    60.2130    25.0510   104.5720    91.1530    97.4870     2.2500   -30.9390 
  168.7500    61.2900    25.1430   120.6610    98.5340   104.7030     2.2440   -31.1760 
  168.8750    63.2790    25.2230   130.1930   105.6770   111.2390     2.2380   -31.2410 
  169.0000    63.3270    25.2720   131.0750   111.1550   115.7650     2.2350   -31.1550 
  169.1250    62.2140    25.2530   126.8010   113.9360   117.4650     2.2290   -30.9630 
  169.2500    62.4910    25.1930   122.9120   114.0930   116.4210     2.2130   -30.6920 
  169.3750    63.4210    25.1000   118.8940   110.5780   111.3410     2.1950   -30.4110 
  169.5000    63.2760    24.9180   113.3400   102.0540   100.9000     2.1850   -30.1610 
  169.6250    63.3830    24.5730   104.1560    88.2960    85.6770     2.1850   -30.0680 
  169.7500    64.8680    24.2170    86.2160    73.2680    70.2710     2.1910   -30.1820 
  169.8750    65.0630    24.0290    61.0320    60.2450    57.8510     2.2090   -30.4700 
  170.0000    63.6070    24.0450    40.2820    51.3060    50.0290     2.2380   -30.9110 
  170.1250    62.7170    24.1280    36.1540    48.0620    48.0440     2.2620   -31.4330 
  170.2500    62.5690    24.2180    43.7390    49.7330    50.9740     2.2690   -31.9630 
  170.3750    61.4420    24.3890    56.0710    56.3560    58.8720     2.2560   -32.4670 
