~V
VERS. 2.00: Ver 2.00
~W
STRT.M 55.0000:
STOP.M 271.0000:
STEP.M 0.1250:
NULL. -999.2500:
UWI. DF5028:
~C
DEPT.M :
SP.MV :
GR.API :
RML.OHMM :
RI. :
RXO.OHMM :
CALI.CM :
DEN.GM/CC :
~A
# ...
  122.5000   -21.4250    90.9040     6.2070     5.0400     6.0530    24.2260     2.3240 
  122.6250   -21.5040    92.2400     6.0400     4.8960     6.0400    24.2490     2.3220 
  122.7500   -21.6510    92.9160     5.9230     4.7960     5.9740    24.1700     2.3210 
  122.8750   -21.9530    93.7030     5.8800     4.7570     5.8640    24.0470     2.3260 
  123.0000   -22.2610    93.8990     5.9330     4.7970     5.7780    23.9420     2.3340 
  123.1250   -22.7720    93.1640     6.1020     4.9420     5.7620    23.8430     2.3420 
  123.2500   -23.2770    92.4410     6.3600     5.1700     5.8400    23.7350     2.3470 
  123.3750   -23.8970    90.9840     6.6740     5.4590     6.0130    23.6370     2.3460 
  123.5000   -24.5800    87.4180     7.0060     5.7760     6.2390    23.5610     2.3410 
  123.6250   -25.2380    82.5230     7.3130     6.0820     6.5020    23.4850     2.3340 
  123.7500   -25.9140    79.2350     7.5780     6.3570     6.8310    23.4120     2.3240 
  123.8750   -26.4890    78.9100     7.8120     6.5990     7.1940    23.3570     2.3100 
  124.0000   -27.0890    81.2190     8.0390     6.8250     7.5010    23.3170     2.2910 
  124.1250   -27.5700    81.4580     8.2920     7.0640     7.6600    23.2840     2.2700 
  124.2500   -28.0410    78.2960     8.5890     7.3440     7.7110    23.2650     2.2520 
  124.3750   -28.4440    74.5100     8.9430     7.6790     7.7240    23.2760     2.2430 
  124.5000   -28.7550    73.1950     9.3510     8.0700     7.8300    23.3140     2.2440 
  124.6250   -29.0680    70.2220     9.8010     8.5060     8.1480    23.3730     2.2460 
  124.7500   -29.2770    65.7520    10.2660     8.9560     8.5880    23.4620     2.2430 
  124.8750   -29.5270    66.7750    10.7340     9.4000     8.9920    23.5840     2.2340 
  125.0000   -29.6950    74.1870    11.1880     9.8210     9.2150    23.6850     2.2240 
  125.1250   -29.8810    79.2020    11.5980    10.1910     9.3200    23.6770     2.2250 
  125.2500   -30.0280    77.3230    11.9370    10.5070     9.4690    23.6060     2.2410 
  125.3750   -30.1880    70.9760    12.1680    10.7580     9.5740    23.5490     2.2700 
  125.5000   -30.3180    65.0800    12.2720    10.9380     9.4530    23.5350     2.2990 
  125.6250   -30.4460    62.4050    12.2400    11.0380     9.2400    23.5360     2.3130 
  125.7500   -30.5740    61.6320    12.1110    11.0760     9.2270    23.5270     2.3040 
  125.8750   -30.6520    60.8370    11.9140    11.0600     9.4440    23.5020     2.2770 
  126.0000   -30.8000    58.7500    11.6900    11.0090     9.7730    23.4670     2.2420 
  126.1250   -30.8200    55.0040    11.4790    10.9410    10.0470    23.4400     2.2110 
  126.2500   -30.8980    51.9890    11.2980    10.8650    10.2080    23.4160     2.1900 
  126.3750   -30.9110    52.6930    11.1460    10.7850    10.2710    23.3800     2.1780 
  126.5000   -30.9280    56.9300    11.0210    10.7030    10.2600    23.3390     2.1730 
  126.6250   -30.9110    59.8310    10.9290    10.6220    10.1850    23.3130     2.1760 
  126.7500   -30.8300    60.3000    10.8740    10.5460    10.1150    23.2910     2.1830 
  126.8750   -30.7950    62.3140    10.8580    10.4800    10.0920    23.2730     2.1920 
  127.0000   -30.6530    66.5020    10.8740    10.4250    10.0850    23.2660     2.1980 
  127.1250   -30.5540    67.3190    10.9120    10.3850    10.0860    23.2650     2.1950 
  127.2500   -30.3760    63.1610    10.9550    10.3560    10.1130    23.2600     2.1830 
  127.3750   -30.1970    59.2520    10.9930    10.3350    10.1420    23.2540     2.1690 
  127.5000   -30.0250    59.8680    11.0210    10.3230    10.1300    23.2550     2.1600 
  127.6250   -29.8260    62.1010    11.0360    10.3240    10.0710    23.2470     2.1640 
  127.7500   -29.7230    63.0730    11.0420    10.3310    10.0140    23.2180     2.1770 
  127.8750   -29.5690    63.4090    11.0430    10.3440     9.9780    23.1740     2.1920 
  128.0000   -29.5060    64.5320    11.0400    10.3540     9.9700    23.1370     2.2000 
  128.1250   -29.4070    64.7670    11.0270    10.3450     9.9900    23.1510     2.1930 
  128.2500   -29.3560    65.0650    11.0070    10.3080    10.0080    23.2390     2.1770 
  128.3750   -29.2740    67.6770    10.9790    10.2380    10.0160    23.3720     2.1620 
  128.5000   -29.2190    69.7870    10.9430    10.1370    10.0360    23.4650     2.1550 
  128.6250   -29.1610    67.5670    10.8950    10.0170    10.0780    23.4440     2.1660 
  128.7500   -29.1180    63.9090    10.8300     9.9010    10.0990    23.3770     2.1870 
  128.8750   -29.0620    62.7270    10.7450     9.8010    10.0520    23.3550     2.2110 
  129.0000   -28.9750    64.0090    10.6350     9.7210     9.9530    23.4070     2.2260 
  129.1250   -28.9490    64.8040    10.4860     9.6520     9.8340    23.5150     2.2230 
  129.2500   -28.8800    63.5570    10.2870     9.5630     9.7030    23.6490     2.2060 
  129.3750   -28.8620    60.8780    10.0270     9.4270     9.6100    23.7790     2.1820 
  129.5000   -28.7430    60.5500     9.7150     9.2330     9.6070    23.8410     2.1620 
  129.6250   -28.6620    63.0260     9.3720     8.9760     9.6670    23.7960     2.1560 
  129.7500   -28.4810    63.6560     9.0420     8.6870     9.6270    23.7270     2.1650 
  129.8750   -28.2810    63.7670     8.7560     8.3990     9.3890    23.6940     2.1820 
  130.0000   -28.1080    64.6500     8.5440     8.1450     8.9630    23.6900     2.1990 
  130.1250   -27.8530    64.6530     8.4300     7.9490     8.4440    23.6930     2.2060 
  130.2500   -27.6320    64.1520     8.3800     7.7970     8.0910    23.7020     2.2070 
  130.3750   -27.3650    66.5190     8.3650     7.6710     8.0830    23.7020     2.2060 
  130.5000   -27.1740    71.4960     8.3630     7.5610     8.3490    23.6830     2.2090 
  130.6250   -26.9590    72.6860     8.3650     7.4740     8.4860    23.6960     2.2220 
  130.7500   -26.8080    70.8610     8.3870     7.4280     8.3590    23.7710     2.2420 
  130.8750   -26.7400    71.5980     8.4700     7.4570     8.2120    23.8780     2.2640 
  131.0000   -26.6620    76.1180     8.6550     7.6020     8.1730    23.9470     2.2810 
  131.1250   -26.7210    77.7130     8.9890     7.9080     8.0850    23.9190     2.2810 
  131.2500   -26.7560    73.4840     9.4230     8.3340     8.0300    23.8530     2.2640 
  131.3750   -26.8460    67.8540     9.8710     8.8030     8.2700    23.8140     2.2350 
  131.5000   -26.8690    66.1330    10.2110     9.2060     8.8070    23.8180     2.2040 
  131.6250   -26.8740    66.0570    10.2770     9.3860     9.2850    23.8090     2.1830 
  131.7500   -26.7840    66.1350    10.0420     9.2910     9.4650    23.7600     2.1720 
  131.8750   -26.6340    68.6400     9.5370     8.9200     9.3930    23.7130     2.1700 
  132.0000   -26.3690    74.1750     8.8650     8.3390     9.1160    23.7270     2.1750 
  132.1250   -26.0160    80.0520     8.1660     7.6580     8.4620    23.8500     2.1900 
  132.2500   -25.7100    83.3040     7.5530     7.0070     7.5870    24.0240     2.2130 
  132.3750   -25.3800    83.4800     7.0780     6.4490     6.8610    24.1750     2.2400 
  132.5000   -25.2090    81.9700     6.7480     6.0140     6.4590    24.2560     2.2650 
  132.6250   -25.0600    81.3480     6.5460     5.7090     6.3200    24.2700     2.2830 
  132.7500   -25.0380    82.3140     6.3980     5.4830     6.3210    24.2700     2.2940 
  132.8750   -24.9990    83.6300     6.2610     5.3040     6.4020    24.2820     2.2990 
  133.0000   -25.0690    84.8450     6.1210     5.1580     6.3840    24.3130     2.3010 
  133.1250   -25.2530    86.0220     6.0350     5.0840     6.1560    24.3170     2.3010 
  133.2500   -25.3950    86.0890     6.1040     5.1560     6.0300    24.2460     2.2970 
  133.3750   -25.6330    85.8160     6.4440     5.4730     6.2000    24.1260     2.2920 
  133.5000   -25.8260    86.8830     7.1580     6.1390     6.5680    24.0330     2.2880 
  133.6250   -26.1340    86.0220     8.3710     7.2910     6.9180    24.0030     2.2980 
