~V
VERS. 2.00: Ver 2.00
~W
STRT.M 60.0000:
STOP.M 257.0000:
STEP.M 0.1250:
NULL. -999.2500:
UWI. DF5064:
~C
DEPT.M :
SP.MV :
GR.API :
RML.OHMM :
RI. :
RXO.OHMM :
CALI.CM :
DEN.GM/CC :
~A
# ...
   93.7500   -24.5360    70.4890     9.6980     8.1880    13.1350    25.2280     2.2170 
   93.8750   -24.3050    72.0210     9.5810     8.0630    13.4450    25.2720     2.2010 
   94.0000   -24.0200    72.7010     9.5650     8.0020    13.5730    25.3520     2.1850 
   94.1250   -23.7470    70.1820     9.6560     8.0230    13.3370    25.4070     2.1780 
   94.2500   -23.5060    66.5670     9.8010     8.0980    13.1320    25.4110     2.1840 
   94.3750   -23.3080    65.3050     9.9560     8.1970    13.1400    25.3760     2.2000 
   94.5000   -23.1340    65.9860    10.0770     8.2880    13.1390    25.3590     2.2180 
   94.6250   -22.9670    66.0150    10.1090     8.3310    13.3280    25.3400     2.2270 
   94.7500   -22.8250    65.2540    10.0360     8.3070    13.5100    25.3100     2.2250 
   94.8750   -22.7170    65.5890     9.8610     8.2140    13.6440    25.2490     2.2170 
   95.0000   -22.5950    66.9240     9.6250     8.0710    13.8490    25.0810     2.2100 
   95.1250   -22.4220    69.2850     9.4080     7.9220    13.9060    24.8720     2.2090 
   95.2500   -22.2320    72.4130     9.2830     7.8190    13.4690    24.7780     2.2100 
   95.3750   -22.0290    74.0230     9.2780     7.7910    12.4770    24.7780     2.2110 
   95.5000   -21.8350    73.8470     9.3790     7.8450    11.0460    24.8810     2.2100 
   95.6250   -21.6420    74.4090     9.5380     7.9750    12.0940    25.0220     2.2080 
   95.7500   -21.4460    75.3300     9.6930     8.1460    13.5160    25.0590     2.2080 
   95.8750   -21.2750    74.3710     9.8270     8.3440    14.2800    25.0500     2.2120 
   96.0000   -21.1650    72.3380     9.9640     8.5680    14.0900    25.0150     2.2210 
   96.1250   -21.0630    70.5500    10.1680     8.8350    13.7540    24.9880     2.2320 
   96.2500   -20.8980    68.7320    10.4610     9.1400    13.7840    24.9520     2.2400 
   96.3750   -20.6530    68.9150    10.8020     9.4500    14.3870    24.9590     2.2400 
   96.5000   -20.2960    71.7500    11.0720     9.6830    14.7970    25.0020     2.2340 
   96.6250   -19.7770    73.0940    11.0250     9.6740    14.5210    25.0060     2.2240 
   96.7500   -19.0700    70.3790    10.5330     9.3430    14.1670    25.0150     2.2160 
   96.8750   -18.1680    68.4620     9.5610     8.6720    13.6520    25.0350     2.2170 
   97.0000   -17.1120    71.5330     8.2340     7.7480    12.9840    25.0900     2.2290 
   97.1250   -16.0140    77.2180     6.8620     6.7680    11.4770    25.2090     2.2510 
   97.2500   -14.9860    80.6940     5.8390     5.9810     8.9780    25.3360     2.2750 
   97.3750   -14.1040    81.9250     5.4540     5.5650     6.6060    25.4320     2.2980 
   97.5000   -13.4340    82.6990     5.8690     5.6360     5.4380    25.4690     2.3220 
   97.6250   -13.0690    84.1240     7.1720     6.3090     5.8480    25.4360     2.3470 
   97.7500   -12.9850    84.5930     8.9370     7.3860     6.8760    25.3190     2.3670 
   97.8750   -13.1660    81.6760    10.7050     8.6280     9.1260    25.1290     2.3730 
   98.0000   -13.5590    74.6350    11.9650     9.7150    12.0360    24.9510     2.3580 
   98.1250   -14.1300    70.4290    12.2270    10.2660    12.8180    24.7900     2.3230 
   98.2500   -14.7900    71.8680    11.7610    10.3060    12.6340    24.6680     2.2890 
   98.3750   -15.4720    75.5900    11.0110    10.0370    12.2160    24.5800     2.2640 
   98.5000   -16.1410    77.8120    10.4080     9.7190    11.6920    24.5300     2.2540 
   98.6250   -16.7460    77.3350    10.2050     9.5430    11.4320    24.4930     2.2510 
   98.7500   -17.2740    74.9090    10.2640     9.4930    12.0900    24.4800     2.2500 
   98.8750   -17.7250    70.2390    10.4130     9.4920    13.1250    24.4890     2.2460 
   99.0000   -18.1110    66.4330    10.5080     9.4570    13.6490    24.5210     2.2420 
   99.1250   -18.4330    66.3270    10.4690     9.3370    13.8880    24.5580     2.2400 
   99.2500   -18.7270    67.9580    10.3450     9.1590    13.7810    24.6130     2.2430 
   99.3750   -18.9610    70.1510    10.2020     8.9700    12.9300    24.6930     2.2510 
   99.5000   -19.1100    73.3380    10.0990     8.8120    11.7260    24.7970     2.2620 
   99.6250   -19.2140    76.1830    10.0830     8.7250    11.2810    24.9230     2.2690 
   99.7500   -19.3000    76.8320    10.1430     8.7020    11.9200    25.0850     2.2670 
   99.8750   -19.3870    75.5300    10.2650     8.7310    12.1340    25.2110     2.2550 
  100.0000   -19.4960    73.0030    10.4200     8.7910    11.6430    25.2900     2.2360 
  100.1250   -19.6380    71.7840    10.5740     8.8530    11.2880    25.3120     2.2160 
  100.2500   -19.7830    72.2400    10.6970     8.8970    11.9660    25.3270     2.2020 
  100.3750   -19.9570    72.0670    10.7890     8.9230    12.7600    25.3210     2.1940 
  100.5000   -20.1660    69.2640    10.8750     8.9420    13.2570    25.2720     2.1910 
  100.6250   -20.3760    67.5020    11.0060     8.9810    12.6160    25.1720     2.1920 
  100.7500   -20.6090    71.0430    11.1930     9.0430    12.3070    25.1430     2.1930 
  100.8750   -20.8330    75.2240    11.3920     9.1030    12.4340    25.1690     2.1930 
  101.0000   -20.9950    74.7210    11.4980     9.1060    12.6300    25.1510     2.1930 
  101.1250   -21.0360    69.1050    11.3400     8.9580    12.9190    25.0460     2.1950 
  101.2500   -20.9830    64.1790    10.9040     8.6520    13.1380    24.9710     2.1990 
  101.3750   -20.8410    64.1530    10.2800     8.2310    12.6870    24.9560     2.2050 
  101.5000   -20.6600    68.7760     9.6690     7.8000    11.1950    25.0290     2.2110 
  101.6250   -20.5120    75.5990     9.3750     7.5250    10.2640    25.1430     2.2140 
  101.7500   -20.4240    80.5180     9.5040     7.4860     9.3540    25.1920     2.2160 
  101.8750   -20.4170    81.3610    10.0330     7.6960     9.0850    25.1350     2.2180 
  102.0000   -20.5120    77.3380    10.8070     8.0940     9.3910    25.0410     2.2210 
  102.1250   -20.7480    70.8200    11.5590     8.5590    10.1860    24.9890     2.2190 
  102.2500   -21.0740    67.9540    12.0520     8.9340    11.9130    24.9100     2.2120 
  102.3750   -21.4730    69.8530    12.1980     9.1350    13.0570    24.7730     2.2000 
  102.5000   -21.8690    72.8710    12.0530     9.1520    13.3120    24.6480     2.1890 
  102.6250   -22.1520    72.5160    11.7630     9.0310    12.8650    24.5840     2.1850 
  102.7500   -22.3140    69.4590    11.4960     8.8760    12.6540    24.5770     2.1890 
  102.8750   -22.3780    66.5180    11.3080     8.7330    12.8550    24.6060     2.1970 
  103.0000   -22.3620    64.8460    11.2000     8.6240    13.1460    24.6470     2.2050 
  103.1250   -22.3000    64.4340    11.1590     8.5570    13.3660    24.6810     2.2080 
  103.2500   -22.2490    65.4530    11.1750     8.5250    13.2250    24.7360     2.2040 
  103.3750   -22.2190    68.1150    11.2590     8.5370    12.5960    24.8080     2.1950 
  103.5000   -22.2150    71.9690    11.4050     8.5900    12.2940    24.8190     2.1830 
  103.6250   -22.2110    74.6090    11.5390     8.6520    12.3600    24.7130     2.1710 
  103.7500   -22.1670    74.1260    11.5400     8.6580    12.6310    24.5810     2.1620 
  103.8750   -22.0330    71.6070    11.3150     8.5510    12.6690    24.5030     2.1600 
  104.0000   -21.7950    69.7980    10.8370     8.3060    12.6020    24.4860     2.1680 
  104.1250   -21.4330    70.5890    10.1530     7.9370    12.4340    24.5030     2.1850 
  104.2500   -20.9600    73.5350     9.4450     7.5390    11.8450    24.5330     2.2040 
  104.3750   -20.4240    76.8270     8.8610     7.1950    10.0570    24.5610     2.2210 
  104.5000   -19.8420    79.1720     8.5260     6.9780     8.3980    24.5960     2.2330 
  104.6250   -19.2220    80.3150     8.5550     6.9710     9.1710    24.6190     2.2380 
  104.7500   -18.5990    82.5690     8.8470     7.1350     9.9100    24.6490     2.2400 
  104.8750   -18.0100    85.9380     9.2520     7.3940     9.7810    24.6930     2.2390 
