~V
VERS. 2.00: Ver 2.00
~W
STRT.M 59.0000:
STOP.M 264.0000:
STEP.M 0.1250:
NULL. -999.2500:
UWI. DF5022:
~C
DEPT.M :
GR.API :
CALI.CM :
RXO.OHMM :
RI. :
RML.OHMM :
SP.MV :
DEN.GM/CC :
~A
# ...
  137.7500    63.4150    23.2220     6.9100     7.4540     8.1480   -34.4470     2.2420 
  137.8750    61.4800    23.1240     7.3920     8.1950     8.8580   -34.6860     2.2400 
  138.0000    60.6380    23.1290     7.4170     8.6310     9.2160   -34.8490     2.2250 
  138.1250    58.9390    23.1350     7.5380     8.7170     9.2490   -35.0020     2.1960 
  138.2500    56.2890    23.1420     7.8110     8.6330     9.1730   -35.1730     2.1710 
  138.3750    53.2480    23.1470     8.0170     8.5030     9.1140   -35.2930     2.1580 
  138.5000    51.1830    23.1260     8.0500     8.4100     9.1320   -35.3490     2.1590 
  138.6250    50.5400    23.0770     7.7760     8.3940     9.2190   -35.3010     2.1710 
  138.7500    51.4050    23.0380     7.5940     8.4150     9.3040   -35.1820     2.1860 
  138.8750    53.5620    23.0250     7.6090     8.4300     9.3320   -35.0450     2.2000 
  139.0000    56.1880    23.0300     7.7890     8.4140     9.2810   -34.9290     2.2090 
  139.1250    58.2870    23.0260     7.7870     8.3880     9.2030   -34.8080     2.2100 
  139.2500    59.4630    22.9930     7.7440     8.4230     9.2190   -34.6360     2.2040 
  139.3750    59.2460    22.9400     7.7890     8.5800     9.4120   -34.3540     2.2010 
  139.5000    57.5400    22.8950     8.3180     8.8760     9.7920   -34.0930     2.2130 
  139.6250    56.4090    22.8850     9.2450     9.2660    10.2820   -33.8840     2.2520 
  139.7500    56.6780    22.8880    10.0910     9.6420    10.7330   -33.7270     2.2930 
  139.8750    56.8990    22.8380    10.0790     9.9340    11.0550   -33.5650     2.3150 
  140.0000    56.5910    22.6990     9.3890    10.0720    11.1690   -33.3910     2.3080 
  140.1250    58.0140    22.5210     8.3300     9.8850    10.8950   -33.1700     2.2960 
  140.2500    60.8830    22.4430     8.8410     9.3140    10.1850   -33.0160     2.3090 
  140.3750    62.5100    22.6040     9.9870     8.3990     9.0920   -32.9400     2.3460 
  140.5000    62.7510    23.0380     9.8190     7.3270     7.8430   -32.9030     2.3780 
  140.6250    66.5260    23.5630     7.0360     6.3960     6.8120   -32.8120     2.3700 
  140.7500    72.9700    23.8970     4.9030     5.7920     6.2290   -32.6780     2.3290 
  140.8750    75.7680    23.9580     4.9980     5.5930     6.1730   -32.5850     2.2720 
  141.0000    70.2270    23.8420     6.1120     5.8100     6.6090   -32.5310     2.2200 
  141.1250    62.2260    23.6880     7.1260     6.4300     7.4180   -32.5370     2.1950 
  141.2500    58.6740    23.5920     7.5060     7.1830     8.2170   -32.4280     2.2010 
  141.3750    59.0690    23.5650     7.6500     7.7490     8.6390   -32.3820     2.2350 
  141.5000    58.9520    23.5680     7.3350     7.8550     8.4670   -32.2750     2.2900 
  141.6250    59.8300    23.5810     6.2690     7.4320     7.7670   -32.2420     2.3420 
  141.7500    64.4380    23.6320     5.3160     6.8050     6.9560   -32.1410     2.3630 
  141.8750    70.6030    23.7570     4.7740     6.1940     6.2640   -32.0130     2.3470 
  142.0000    74.5210    23.9600     4.6040     5.7210     5.8010   -31.8240     2.3120 
  142.1250    76.3140    24.1710     4.8320     5.4370     5.5970   -31.6420     2.2820 
  142.2500    78.6360    24.2980     5.1240     5.2610     5.5250   -31.5680     2.2670 
  142.3750    79.7680    24.3320     5.1410     5.1180     5.4780   -31.4650     2.2710 
  142.5000    80.0970    24.3260     4.7820     4.9480     5.3690   -31.3850     2.2960 
  142.6250    81.9500    24.3210     4.4430     4.7210     5.1450   -31.2720     2.3350 
  142.7500    84.8730    24.3220     4.0570     4.4680     4.8630   -31.2500     2.3650 
  142.8750    86.8220    24.3210     3.8600     4.2290     4.5960   -31.2750     2.3780 
  143.0000    87.4010    24.3120     3.7500     4.0430     4.4110   -31.3840     2.3750 
  143.1250    88.3250    24.2900     3.7930     3.9700     4.3790   -31.5030     2.3690 
  143.2500    90.3130    24.2700     3.8580     4.0360     4.5160   -31.6350     2.3630 
  143.3750    92.5940    24.2550     3.9550     4.2680     4.8390   -31.7610     2.3500 
  143.5000    91.7230    24.1840     4.4790     4.6690     5.3470   -31.9400     2.3210 
  143.6250    84.5820    23.9910     5.5680     5.2150     5.9990   -32.1790     2.2770 
  143.7500    75.4000    23.7770     6.5830     5.7840     6.6330   -32.4520     2.2380 
  143.8750    69.4330    23.6530     6.9580     6.2530     7.0940   -32.7200     2.2170 
  144.0000    67.7460    23.6310     6.9480     6.5350     7.2980   -32.9280     2.2120 
  144.1250    68.5130    23.6380     6.6890     6.6050     7.2800   -33.0280     2.2100 
  144.2500    69.8310    23.6280     6.5020     6.5880     7.2400   -33.0860     2.2070 
  144.3750    69.8420    23.6070     6.2780     6.5680     7.2760   -33.0990     2.2070 
  144.5000    68.1350    23.5800     6.1250     6.5680     7.3780   -33.1290     2.2100 
  144.6250    64.7790    23.5700     6.7200     6.5290     7.4050   -33.0100     2.2160 
  144.7500    63.0330    23.6080     7.3970     6.3800     7.2460   -32.8150     2.2200 
  144.8750    64.4870    23.7200     7.2380     6.1170     6.9060   -32.5420     2.2260 
  145.0000    69.1010    23.8930     6.3650     5.7980     6.4930   -32.2080     2.2390 
  145.1250    75.1240    24.0680     5.2000     5.5270     6.1670   -31.8740     2.2590 
  145.2500    78.4520    24.1870     4.6710     5.3580     5.9990   -31.5830     2.2740 
  145.3750    77.7150    24.2410     5.0640     5.2980     5.9820   -31.2910     2.2790 
  145.5000    75.3090    24.2630     5.5750     5.3170     6.0500   -30.9150     2.2840 
  145.6250    74.8860    24.2980     5.4460     5.3560     6.0920   -30.6010     2.2970 
  145.7500    77.4330    24.3450     4.9000     5.3550     6.0430   -30.3020     2.3060 
  145.8750    80.3520    24.3760     4.9140     5.2940     5.9030   -30.1170     2.3000 
  146.0000    80.4220    24.3830     5.1180     5.1830     5.7200   -29.9270     2.2860 
  146.1250    79.5530    24.3810     4.9650     5.0560     5.5690   -29.8180     2.2850 
  146.2500    81.6680    24.3810     4.5930     4.9520     5.4760   -29.6250     2.2950 
  146.3750    83.4290    24.3810     4.4580     4.8840     5.4300   -29.4450     2.3070 
  146.5000    81.3210    24.3810     4.5530     4.8530     5.4050   -29.2800     2.3120 
  146.6250    79.4940    24.3810     4.6480     4.8540     5.3830   -29.2020     2.3140 
  146.7500    80.4180    24.3810     4.7660     4.8650     5.3630   -29.1730     2.3180 
  146.8750    81.7180    24.3810     4.7540     4.8690     5.3430   -29.1530     2.3230 
  147.0000    82.6340    24.3810     4.6340     4.8590     5.3230   -29.1460     2.3290 
  147.1250    85.7690    24.3810     4.5640     4.8390     5.3000   -29.0670     2.3340 
  147.2500    88.9010    24.3810     4.6160     4.8250     5.2770   -29.0730     2.3320 
  147.3750    90.5120    24.3810     4.6720     4.8250     5.2590   -29.0700     2.3240 
  147.5000    91.3610    24.3810     4.6790     4.8490     5.2590   -29.0660     2.3120 
  147.6250    90.8280    24.3810     4.6680     4.9230     5.3200   -28.9780     2.3040 
  147.7500    89.2080    24.3810     4.8070     5.0660     5.4710   -28.8560     2.3010 
  147.8750    87.4940    24.3810     4.9820     5.2980     5.7360   -28.7070     2.2990 
  148.0000    85.1830    24.3810     5.1840     5.6170     6.1070   -28.6090     2.2910 
  148.1250    82.1090    24.3810     5.6680     5.9790     6.5100   -28.5210     2.2730 
  148.2500    79.6890    24.3810     6.0610     6.2700     6.8000   -28.3770     2.2530 
  148.3750    76.7090    24.3810     6.1280     6.3760     6.8460   -28.2480     2.2360 
  148.5000    73.4510    24.3810     5.8940     6.2280     6.5900   -28.1820     2.2260 
  148.6250    73.9240    24.3810     5.5670     5.8100     6.0530   -28.2080     2.2330 
  148.7500    78.7600    24.3810     4.9880     5.2740     5.4290   -28.2640     2.2620 
  148.8750    85.6810    24.3810     4.3480     4.7570     4.8850   -28.3210     2.3040 
