~V
VERS. 2.00: Ver 2.00
~W
STRT.M 59.0000:
STOP.M 253.0000:
STEP.M 0.1250:
NULL. -999.2500:
UWI. DF5043:
~C
DEPT.M :
SP.MV :
GR.API :
CALI.CM :
RXO.OHMM :
RI. :
RML.OHMM :
DEN.GM/CC :
~A
# ...
  227.7500   -25.7580    72.8440    23.4750    69.4080    67.5310    72.6110     2.2820 
  227.8750   -25.4930    75.2170    23.5210    59.6860    64.2140    68.8620     2.2750 
  228.0000   -25.2710    76.4480    23.6910    57.1600    62.3630    66.6530     2.2800 
  228.1250   -25.1110    76.3340    23.8690    60.8210    61.6630    65.6440     2.2930 
  228.2500   -25.0210    76.8420    23.9510    68.5910    61.7670    65.4820     2.3060 
  228.3750   -25.0070    78.9040    23.9960    74.3640    62.4590    65.9550     2.3070 
  228.5000   -25.0430    79.9850    24.0770    72.6730    63.5650    66.8780     2.2910 
  228.6250   -25.1140    78.5670    24.1610    65.9070    65.1250    68.3220     2.2620 
  228.7500   -25.2110    75.4910    24.1560    62.3490    67.1950    70.3810     2.2330 
  228.8750   -25.3320    73.2070    24.0360    68.6550    69.8440    73.1870     2.2160 
  229.0000   -25.4780    72.6270    23.9740    80.3310    72.8930    76.5690     2.2060 
  229.1250   -25.6540    72.5530    24.0160    90.8840    76.1780    80.3750     2.2010 
  229.2500   -25.8570    71.3120    24.0820    97.8810    79.4670    84.3540     2.2060 
  229.3750   -26.0780    68.6930    24.1140   103.8900    82.4380    88.0740     2.2200 
  229.5000   -26.2910    66.8320    24.1180   107.9060    84.9180    91.2010     2.2310 
  229.6250   -26.4740    67.1290    24.1230   106.8300    86.7880    93.5030     2.2320 
  229.7500   -26.6040    69.7930    24.1280   102.8910    87.8810    94.7750     2.2260 
  229.8750   -26.6590    73.3180    24.0870   101.7370    87.7200    94.4520     2.2230 
  230.0000   -26.6530    75.0250    23.9780   101.9740    86.1100    92.3370     2.2250 
  230.1250   -26.6010    75.1380    23.8090    97.3690    82.8650    88.2460     2.2310 
  230.2500   -26.5290    76.8790    23.5190    87.2550    78.0720    82.3740     2.2400 
  230.3750   -26.4740    80.7840    23.2230    78.4130    72.0530    75.2770     2.2600 
  230.5000   -26.4580    81.5480    23.0500    73.6840    65.6440    67.9900     2.2870 
  230.6250   -26.4880    76.9200    23.0650    70.5230    59.3640    61.0710     2.3100 
  230.7500   -26.5570    70.7440    23.1990    67.0170    53.5560    54.8240     2.3180 
  230.8750   -26.6390    70.0100    23.3950    61.9900    48.4950    49.4830     2.3080 
  231.0000   -26.7010    74.7300    23.6470    56.1490    44.0710    44.8800     2.2900 
  231.1250   -26.7190    80.2060    23.8360    50.8700    40.2660    40.9440     2.2730 
  231.2500   -26.6800    81.6190    23.8610    47.2380    37.0920    37.6550     2.2680 
  231.3750   -26.5840    78.9520    23.8100    44.1290    34.7060    35.1570     2.2750 
  231.5000   -26.4590    77.3000    23.7270    39.9680    33.0370    33.3830     2.2800 
  231.6250   -26.3280    78.1930    23.6340    35.3100    32.1020    32.3660     2.2770 
  231.7500   -26.2070    79.3660    23.5880    31.9210    31.8530    32.0740     2.2780 
  231.8750   -26.1030    78.2220    23.5990    32.1490    32.2150    32.4440     2.2960 
  232.0000   -26.0080    75.6470    23.5950    34.8720    32.8610    33.1440     2.3140 
  232.1250   -25.9080    73.4970    23.6090    38.1600    33.5390    33.9230     2.3140 
  232.2500   -25.7880    72.8640    23.6760    40.4920    33.9910    34.5100     2.2930 
  232.3750   -25.6320    75.2210    23.6800    40.9240    33.9510    34.6020     2.2690 
  232.5000   -25.4420    82.4400    23.6400    40.2160    33.4650    34.2270     2.2550 
  232.6250   -25.2320    92.3990    23.6150    38.7000    32.6230    33.4690     2.2470 
  232.7500   -25.0190    97.4880    23.6160    37.2290    31.5400    32.4530     2.2410 
  232.8750   -24.8350    91.6530    23.6330    36.3400    30.3110    31.2760     2.2420 
  233.0000   -24.6970    83.3050    23.6460    35.4150    29.0540    30.0550     2.2520 
  233.1250   -24.6130    79.7870    23.6610    33.5200    27.8410    28.8560     2.2650 
  233.2500   -24.5780    81.9230    23.6660    30.7940    26.7140    27.7180     2.2750 
  233.3750   -24.5790    84.5220    23.6240    28.3040    25.6580    26.6240     2.2820 
  233.5000   -24.5810    84.6250    23.5420    25.9300    24.5570    25.4640     2.2890 
  233.6250   -24.5630    84.2570    23.4700    24.0070    23.3230    24.1520     2.2980 
  233.7500   -24.5140    88.2770    23.4560    24.0810    21.8980    22.6380     2.3190 
  233.8750   -24.4320    96.0770    23.5190    27.5750    20.2510    20.8810     2.3620 
  234.0000   -24.3390    99.2820    23.6270    32.2260    18.4950    18.9870     2.4110 
  234.1250   -24.2570    95.4930    23.6900    33.5480    16.7740    17.0950     2.4390 
  234.2500   -24.2070    89.2680    23.6800    28.8130    15.2510    15.3980     2.4240 
  234.3750   -24.2130    86.6340    23.6410    21.0500    14.1260    14.1430     2.3720 
  234.5000   -24.2700    87.0240    23.5980    15.7620    13.4040    13.3580     2.3180 
  234.6250   -24.3620    87.7710    23.5830    13.8930    13.0850    13.0440     2.2780 
  234.7500   -24.4650    86.3510    23.5980    13.9800    13.1340    13.1520     2.2520 
  234.8750   -24.5470    82.2050    23.6230    14.6760    13.5190    13.6260     2.2420 
  235.0000   -24.5900    78.3160    23.6420    15.5070    14.0490    14.2560     2.2460 
  235.1250   -24.5920    75.7850    23.6470    16.2880    14.5780    14.8740     2.2590 
  235.2500   -24.5640    73.6000    23.6270    16.8180    14.9760    15.3290     2.2650 
  235.3750   -24.5230    72.2840    23.5590    17.1540    15.0960    15.4700     2.2600 
  235.5000   -24.4940    75.2430    23.4660    17.7510    14.9350    15.3060     2.2580 
  235.6250   -24.4940    84.2310    23.3820    18.5890    14.5200    14.8740     2.2660 
  235.7500   -24.5320    97.6570    23.3230    18.7650    13.9400    14.2630     2.2770 
  235.8750   -24.6120   109.3750    23.2820    17.1200    13.3210    13.6060     2.2700 
  236.0000   -24.7070   113.0220    23.2730    15.1020    12.7820    13.0450     2.2530 
  236.1250   -24.7900   106.9380    23.2920    13.8260    12.3830    12.6600     2.2420 
  236.2500   -24.8310    95.5280    23.3360    13.2920    12.1380    12.4760     2.2440 
  236.3750   -24.7990    87.0290    23.4640    13.2550    12.0600    12.5030     2.2520 
  236.5000   -24.7020    84.1550    23.6540    13.6370    12.0950    12.6580     2.2580 
  236.6250   -24.5540    84.1260    23.8490    14.4170    12.2080    12.8820     2.2590 
  236.7500   -24.3750    83.3290    23.9810    15.1400    12.3640    13.1250     2.2550 
  236.8750   -24.1980    80.0640    24.0060    15.3910    12.5480    13.3570     2.2470 
  237.0000   -24.0500    77.2290    23.9960    15.2820    12.7580    13.5770     2.2430 
  237.1250   -23.9500    76.9720    24.0000    15.1400    12.9900    13.7850     2.2450 
  237.2500   -23.9070    78.4210    24.0010    15.2650    13.2270    13.9820     2.2470 
  237.3750   -23.9250    78.8730    23.9880    15.9720    13.4260    14.1420     2.2420 
  237.5000   -23.9800    77.2270    23.9960    16.9360    13.5440    14.2320     2.2350 
  237.6250   -24.0520    74.0450    24.0210    17.6490    13.5460    14.2170     2.2350 
  237.7500   -24.1220    71.0090    24.0210    17.8050    13.4120    14.0710     2.2380 
  237.8750   -24.1700    71.0870    24.0050    17.4300    13.1240    13.7690     2.2430 
  238.0000   -24.1870    74.3270    24.0090    16.9360    12.7380    13.3680     2.2470 
  238.1250   -24.1720    78.5780    24.0210    16.3730    12.3070    12.9250     2.2510 
  238.2500   -24.1240    81.3460    24.0170    15.6120    11.8940    12.5060     2.2540 
  238.3750   -24.0440    83.7190    24.0560    14.7600    11.5820    12.2060     2.2560 
  238.5000   -23.9410    88.1590    24.1330    14.1080    11.4000    12.0660     2.2560 
  238.6250   -23.8190    92.4350    24.1960    13.7380    11.3730    12.1100     2.2540 
  238.7500   -23.6820    91.7940    24.2140    13.6040    11.5160    12.3430     2.2460 
  238.8750   -23.5350    85.2960    24.1940    13.9420    11.8650    12.7930     2.2330 
