~V
VERS. 2.00: Ver 2.00
~W
STRT.M 55.0000:
STOP.M 273.0000:
STEP.M 0.1250:
NULL. -999.2500:
UWI. DF5004:
~C
DEPT.M :
GR.API :
CALI.CM :
RXO.OHMM :
RI. :
RML.OHMM :
DEN.GM/CC :
SP.MV :
~A
# ...
  100.0000    62.2780    22.9140    11.9260     9.4440    12.5300     2.3370   -31.8240 
  100.1250    64.3530    23.2040    11.8380     9.1200    11.8950     2.3420   -31.1600 
  100.2500    66.3650    23.5090    10.8730     8.3200    10.6210     2.3160   -30.4050 
  100.3750    69.5480    23.8050     9.2940     7.3220     9.1870     2.2850   -29.6230 
  100.5000    73.8870    23.9530     7.6660     6.4170     8.0220     2.2630   -28.8290 
  100.6250    77.5350    23.8840     6.7660     5.8350     7.4160     2.2540   -28.1070 
  100.7500    79.0650    23.6490     6.6700     5.5450     7.2490     2.2470   -27.5110 
  100.8750    79.2230    23.3960     7.1310     5.4740     7.3680     2.2350   -27.0470 
  101.0000    79.0230    23.3650     7.8210     5.5230     7.5810     2.2200   -26.7550 
  101.1250    78.6090    23.5350     8.1260     5.6310     7.7300     2.2120   -26.6200 
  101.2500    77.7840    23.5310     7.8260     5.8020     7.8530     2.2100   -26.6330 
  101.3750    77.0050    23.4740     7.5420     6.1110     8.1280     2.2220   -26.7910 
  101.5000    76.9410    23.4570     7.9100     6.6320     8.7310     2.2620   -27.0960 
  101.6250    76.2930    23.4640     8.6300     7.4110     9.7770     2.3430   -27.4740 
  101.7500    72.6540    23.4450     9.3720     8.3010    11.0240     2.4230   -27.9320 
  101.8750    67.9290    23.3990    10.2660     9.0860    12.0980     2.4480   -28.4260 
  102.0000    65.6040    23.3560    11.0960     9.5120    12.5730     2.4000   -28.9440 
  102.1250    66.3630    23.3930    11.3200     9.3900    12.1960     2.3080   -29.4710 
  102.2500    65.7750    23.4580    11.0670     8.9580    11.4190     2.2290   -30.0060 
  102.3750    62.3970    23.4190    10.8840     8.4300    10.6170     2.1860   -30.5180 
  102.5000    58.4080    23.4050    10.8720     7.9500     9.9950     2.1780   -30.9640 
  102.6250    59.3270    23.4530    10.7690     7.5890     9.6120     2.1930   -31.2560 
  102.7500    64.8780    23.5310    10.4470     7.3190     9.3540     2.2080   -31.3940 
  102.8750    71.1920    23.5110     9.9630     7.1180     9.1590     2.2170   -31.4350 
  103.0000    74.0050    23.3970     9.5100     6.9870     9.0270     2.2180   -31.3850 
  103.1250    73.7980    23.4740     9.3240     6.9490     9.0210     2.2080   -31.3170 
  103.2500    72.9750    23.6160     9.4320     6.9930     9.1460     2.1900   -31.2780 
  103.3750    70.8370    23.6690     9.8520     7.1000     9.3700     2.1750   -31.2750 
  103.5000    67.9120    23.5770    10.3190     7.2310     9.6040     2.1710   -31.2930 
  103.6250    68.0660    23.5410    10.4910     7.3310     9.7190     2.1770   -31.4450 
  103.7500    70.0730    23.5470    10.5540     7.3680     9.6910     2.1800   -31.6770 
  103.8750    70.8650    23.5390    10.6160     7.3490     9.5710     2.1710   -31.9780 
  104.0000    69.1310    23.5010    10.4880     7.3060     9.4510     2.1530   -32.2810 
  104.1250    67.0940    23.4430    10.1850     7.2810     9.4390     2.1360   -32.5590 
  104.2500    66.1830    23.5760    10.2980     7.2960     9.5490     2.1300   -32.7450 
  104.3750    67.4780    23.7270    10.8430     7.3450     9.7350     2.1350   -32.8810 
  104.5000    70.5070    23.7400    11.2660     7.3980     9.9040     2.1460   -33.0190 
  104.6250    72.3810    23.8480    11.2790     7.3960     9.9180     2.1560   -33.1380 
  104.7500    70.8220    23.9110    11.1250     7.3070     9.7300     2.1600   -33.2240 
  104.8750    68.4880    23.9400    11.0040     7.1440     9.3870     2.1610   -33.2220 
  105.0000    67.2190    23.9420    10.9500     6.9930     9.0630     2.1650   -33.1600 
  105.1250    66.9000    23.9370    10.9380     7.0170     9.0580     2.1830   -33.0360 
  105.2500    66.1060    23.9270    10.9160     7.2990     9.4960     2.2220   -32.8940 
  105.3750    65.0460    23.9340    10.9110     7.8530    10.3900     2.2850   -32.7020 
  105.5000    65.5690    23.8730    10.9080     8.5960    11.5910     2.3670   -32.4580 
  105.6250    67.0650    23.8480    10.8300     9.2700    12.6630     2.4380   -32.1380 
  105.7500    67.5320    23.6080    10.6780     9.5670    13.0840     2.4620   -31.8390 
  105.8750    67.6160    23.2440    10.6170     9.3300    12.6070     2.4220   -31.6130 
  106.0000    66.3400    23.1350    10.7960     8.6380    11.4280     2.3380   -31.4580 
  106.1250    64.1370    23.1470    11.1390     7.7540    10.0750     2.2610   -31.3330 
  106.2500    63.3630    23.2450    11.1690     6.9740     9.0090     2.2220   -31.2260 
  106.3750    66.1030    23.3050    10.6920     6.4120     8.3580     2.2110   -31.1330 
  106.5000    70.9320    23.3430     9.8390     6.0970     8.0980     2.2010   -31.0610 
  106.6250    73.2210    23.4560     9.6690     6.0370     8.1870     2.1780   -31.0540 
  106.7500    72.5780    23.6440    10.0660     6.1380     8.4660     2.1580   -31.1340 
  106.8750    71.9090    23.8550    10.4700     6.3390     8.8400     2.1480   -31.2240 
  107.0000    72.3090    24.0030    10.5600     6.5810     9.2180     2.1470   -31.3110 
  107.1250    72.1650    24.0490    10.6630     6.7950     9.4870     2.1490   -31.3860 
  107.2500    69.9560    24.0570    10.9890     6.9460     9.6160     2.1560   -31.4880 
  107.3750    67.6820    24.0560    11.3260     7.0340     9.6370     2.1660   -31.6450 
  107.5000    67.1130    24.0500    11.4930     7.0770     9.6220     2.1660   -31.8180 
  107.6250    64.8920    24.0430    11.4350     7.0880     9.6220     2.1540   -31.9990 
  107.7500    60.5350    24.0470    11.3070     7.0760     9.6290     2.1400   -32.0860 
  107.8750    58.0990    24.0540    11.1450     7.0480     9.6270     2.1340   -32.1270 
  108.0000    60.3740    24.0570    10.9620     7.0090     9.6030     2.1290   -32.1040 
  108.1250    64.2740    24.0560    10.7600     6.9640     9.5500     2.1220   -32.0980 
  108.2500    64.8810    24.0520    10.5630     6.9180     9.4770     2.1180   -32.0710 
  108.3750    64.7540    24.0460    10.3980     6.8770     9.3920     2.1230   -32.0110 
  108.5000    67.2240    24.0190    10.3230     6.8460     9.3070     2.1360   -31.8850 
  108.6250    70.6230    23.9670    10.3530     6.8300     9.2240     2.1490   -31.7110 
  108.7500    71.6870    23.8860    10.4060     6.8210     9.1460     2.1570   -31.4270 
  108.8750    71.0140    23.8510    10.4380     6.8210     9.0800     2.1640   -31.0800 
  109.0000    70.1100    23.8610    10.4540     6.8420     9.0520     2.1700   -30.6950 
  109.1250    69.7740    23.8510    10.4260     6.9120     9.1200     2.1750   -30.2530 
  109.2500    71.0280    23.9140    10.3620     7.0400     9.3080     2.1760   -29.7160 
  109.3750    73.1880    24.0680    10.3280     7.2090     9.5930     2.1790   -29.0920 
  109.5000    74.1910    24.2010    10.3490     7.3530     9.8590     2.1860   -28.4200 
  109.6250    74.5930    24.2480    10.2990     7.3120     9.8280     2.1980   -27.7180 
  109.7500    75.5230    24.2410    10.0560     7.0060     9.3430     2.2130   -27.0110 
  109.8750    77.2340    24.2050     9.3760     6.4540     8.4330     2.2320   -26.2530 
  110.0000    80.1690    24.1020     8.0630     5.7880     7.3380     2.2580   -25.4610 
  110.1250    84.8560    23.9600     6.5440     5.2110     6.4390     2.2900   -24.6290 
  110.2500    90.3980    23.7420     5.7740     4.8480     5.9550     2.3180   -23.8940 
  110.3750    95.6050    23.6890     6.1540     4.7490     5.9500     2.3240   -23.2780 
  110.5000    97.0190    23.8530     7.4960     4.9070     6.3720     2.3000   -22.8380 
  110.6250    92.7330    24.1080     8.5850     5.2600     7.0330     2.2560   -22.4600 
  110.7500    87.2830    24.2380     8.7520     5.6100     7.5510     2.2230   -22.1800 
  110.8750    84.6670    24.2780     8.2400     5.7910     7.6540     2.2170   -21.9450 
  111.0000    84.2350    24.2920     7.4940     5.7240     7.2980     2.2390   -21.7590 
  111.1250    85.0980    24.2460     6.5480     5.4610     6.7030     2.2850   -21.6000 
