~V
VERS. 2.00: Ver 2.00
~W
STRT.M 55.0000:
STOP.M 271.0000:
STEP.M 0.1250:
NULL. -999.2500:
UWI. DF5016:
~C
DEPT.M :
SP.MV :
GR.API :
CALI.CM :
RXO.OHMM :
RI. :
RML.OHMM :
DEN.GM/CC :
~A
# ...
  190.0000   -41.1680    64.9410    23.6020   146.5910   134.0850   139.4660     2.2100 
  190.1250   -41.1680    64.0850    23.3670   146.1930   127.1410   132.2650     2.2020 
  190.2500   -41.1840    65.5570    23.2880   135.0560   121.0740   125.9740     2.1890 
  190.3750   -41.2170    69.1650    23.2770   117.9010   116.6540   121.3900     2.1820 
  190.5000   -41.2510    72.2030    23.2680   104.5140   114.4520   119.1070     2.1850 
  190.6250   -41.2560    72.1090    23.2790   102.3610   115.0410   119.7180     2.1960 
  190.7500   -41.2360    70.6280    23.3200   109.3820   117.6850   122.4590     2.2050 
  190.8750   -41.2080    69.3680    23.3880   121.7570   121.7690   126.6940     2.2110 
  191.0000   -41.1840    68.0550    23.4660   136.0730   126.3900   131.4860     2.2120 
  191.1250   -41.1570    66.4730    23.5000   146.8150   130.1890   135.4260     2.2030 
  191.2500   -41.1040    65.8790    23.4380   149.5250   132.1580   137.4680     2.1910 
  191.3750   -41.0180    67.1360    23.3470   143.5330   131.6970   136.9890     2.1860 
  191.5000   -40.9100    69.9500    23.2910   135.8380   128.7440   133.9280     2.1900 
  191.6250   -40.7980    72.8840    23.2850   134.2310   123.6600   128.6550     2.1950 
  191.7500   -40.6820    74.4600    23.2720   133.2320   117.8560   122.6370     2.1950 
  191.8750   -40.5420    74.3960    23.2660   126.8070   112.3740   116.9520     2.1970 
  192.0000   -40.3650    73.9090    23.2790   115.3230   108.1610   112.5830     2.2050 
  192.1250   -40.1550    73.9240    23.2980   103.5760   106.3140   110.6680     2.2160 
  192.2500   -39.9450    73.0130    23.3370    96.5470   106.6640   111.0310     2.2210 
  192.3750   -39.7510    70.2590    23.4720    98.4590   108.8650   113.3130     2.2190 
  192.5000   -39.5660    67.2120    23.7200   110.4390   112.2630   116.8370     2.2140 
  192.6250   -39.3740    67.1300    23.9830   124.0580   115.8850   120.5930     2.2110 
  192.7500   -39.1770    69.3430    24.0470   130.5470   118.5730   123.3800     2.2110 
  192.8750   -38.9930    71.4120    23.9660   130.9770   119.5310   124.3740     2.2150 
  193.0000   -38.8360    71.8990    23.8330   129.3240   118.2930   123.0900     2.2200 
  193.1250   -38.6980    71.1600    23.7190   123.0290   114.6900   119.3530     2.2200 
  193.2500   -38.5560    70.6760    23.4980   113.2500   109.9230   114.4100     2.2180 
  193.3750   -38.4060    70.6800    23.1600   103.2930   104.9900   109.2950     2.2180 
  193.5000   -38.2660    70.8750    22.8000    94.7070   100.7540   104.9020     2.2200 
  193.6250   -38.1680    70.9850    22.6350    85.9200    98.2090   102.2630     2.2170 
  193.7500   -38.1100    70.8150    22.5520    77.9070    97.6190   101.6510     2.2090 
  193.8750   -38.0770    70.5250    22.5090    75.2350    99.1180   103.2060     2.2020 
  194.0000   -38.0550    70.4400    22.4580    82.9250   102.4200   106.6300     2.1990 
  194.1250   -38.0500    70.3030    22.3440    97.7790   106.8080   111.1800     2.1960 
  194.2500   -38.0690    69.6360    22.1910   110.3440   110.7360   115.2530     2.1930 
  194.3750   -38.1030    68.9520    22.0780   116.6600   112.8250   117.4200     2.1900 
  194.5000   -38.1200    69.3360    22.1190   119.3370   111.9250   116.4860     2.1880 
  194.6250   -38.0790    70.5560    22.4240   119.1140   106.9830   111.3610     2.1910 
  194.7500   -37.9840    71.0760    22.9790   112.2280    99.2810   103.3740     2.2020 
  194.8750   -37.8540    71.1180    23.5620   100.0030    90.1040    93.8580     2.2170 
  195.0000   -37.7100    71.7480    23.9460    86.9100    80.8790    84.2920     2.2280 
  195.1250   -37.5460    72.9670    24.0560    74.9600    73.1190    76.2450     2.2320 
  195.2500   -37.3460    73.7360    24.1130    64.5030    67.4810    70.3980     2.2330 
  195.3750   -37.1040    73.7520    24.1450    57.1300    64.4350    67.2390     2.2320 
  195.5000   -36.8350    73.2340    24.1360    54.6650    64.2970    67.0960     2.2270 
  195.6250   -36.5620    72.6770    24.1000    56.3760    67.7420    70.6690     2.2160 
  195.7500   -36.2900    73.1550    24.1080    58.6900    74.0120    77.1710     2.2070 
  195.8750   -35.9970    74.2260    24.1190    61.3570    82.2220    85.6840     2.2050 
  196.0000   -35.6590    73.4840    24.1080    67.8190    91.0250    94.8130     2.2100 
  196.1250   -35.2640    69.4370    24.1570    89.3900    98.4250   102.4870     2.2090 
  196.2500   -34.8380    65.5470    24.2560   129.6790   102.9230   107.1510     2.1950 
  196.3750   -34.3970    64.0500    24.3330   178.6810   103.5320   107.7830     2.1780 
  196.5000   -33.9350    64.4090    24.3610   207.5470   100.1360   104.2620     2.1720 
  196.6250   -33.4250    64.8040    24.2000   183.5330    93.2750    97.1460     2.1880 
  196.7500   -32.8660    64.2100    23.7010   133.3240    85.1390    88.7090     2.2080 
  196.8750   -32.2750    62.4540    22.9720    94.7970    77.1670    80.4420     2.2150 
  197.0000   -31.6760    60.9670    22.3080    83.5590    70.2730    73.2930     2.2050 
  197.1250   -31.0790    62.6550    22.0320    84.8750    65.1650    67.9960     2.1910 
  197.2500   -30.4680    66.3350    22.1060    78.7430    61.9230    64.6340     2.1920 
  197.3750   -29.8280    68.8850    22.2880    65.2790    60.7360    63.4030     2.2050 
  197.5000   -29.1630    68.7860    22.4140    53.8000    61.4960    64.1910     2.2220 
  197.6250   -28.4950    67.1080    22.5280    52.8530    63.8810    66.6650     2.2390 
  197.7500   -27.8350    65.2970    22.6400    58.8140    66.9040    69.7990     2.2590 
  197.8750   -27.1690    63.2260    22.7290    68.3520    69.9120    72.9190     2.2810 
  198.0000   -26.4720    60.6660    22.8390    79.0910    72.4530    75.5540     2.3070 
  198.1250   -25.7230    58.1930    23.0260    83.3070    74.3650    77.5360     2.3380 
  198.2500   -24.9410    57.4300    23.1980    80.3040    76.1570    79.3940     2.3660 
  198.3750   -24.1400    59.0300    23.2390    75.9050    78.2040    81.5170     2.3820 
  198.5000   -23.3220    61.6190    23.1560    80.0040    80.1640    83.5500     2.3930 
  198.6250   -22.4660    62.5210    23.0110    99.8250    79.7260    83.0960     2.4180 
  198.7500   -21.5730    62.1260    22.8730   134.7810    74.7590    77.9450     2.4620 
  198.8750   -20.6660    62.1520    22.7820   175.4170    64.4610    67.2660     2.5160 
  199.0000   -19.7860    63.0420    22.8010   194.5460    50.4440    52.7300     2.5590 
  199.1250   -18.9850    64.3640    22.8390   160.9270    36.1350    37.8920     2.5650 
  199.2500   -18.2730    66.3760    22.8070   100.0830    24.3200    25.6400     2.5390 
  199.3750   -17.6580    69.4630    22.7430    48.4750    15.7970    16.8010     2.4910 
  199.5000   -17.1610    73.1490    22.6260    19.4980    10.3110    11.1120     2.4350 
  199.6250   -16.8400    76.0740    22.3610     8.8740     7.4310     8.1250     2.3840 
  199.7500   -16.6900    76.6640    21.9720     5.2040     5.9440     6.5840     2.3470 
  199.8750   -16.7010    74.6280    21.5920     4.4000     5.3080     5.9250     2.3240 
  200.0000   -16.8460    71.7000    21.5170     4.3250     5.1790     5.7900     2.3090 
  200.1250   -17.1150    70.6760    21.8100     4.3210     5.3520     5.9700     2.3000 
  200.2500   -17.4770    70.7470    22.1540     4.3800     5.6260     6.2550     2.2900 
  200.3750   -17.9210    70.4700    22.4680     4.5400     5.9190     6.5580     2.2730 
  200.5000   -18.4200    71.3360    22.7720     4.8380     6.2080     6.8570     2.2470 
  200.6250   -18.9370    77.5210    22.9920     5.4400     6.5200     7.1810     2.2200 
  200.7500   -19.4390    87.6020    22.9380     6.3370     6.8820     7.5560     2.2030 
  200.8750   -19.9210    96.9240    22.6210     7.3250     7.3000     7.9900     2.1960 
  201.0000   -20.3870   101.1800    22.0300     8.1730     7.7710     8.4790     2.1990 
  201.1250   -20.8260    98.9160    21.2930     8.8870     8.2710     8.9970     2.2130 
