~V
VERS. 2.00: Ver 2.00
~W
STRT.M 55.0000:
STOP.M 250.0000:
STEP.M 0.1250:
NULL. -999.2500:
UWI. DF5052:
~C
DEPT.M :
SP.MV :
GR.API :
CALI.CM :
RXO.OHMM :
RI. :
RML.OHMM :
DEN.GM/CC :
~A
# ...
  178.7500   -36.7370    78.1270    22.7460    46.4830    66.8010    69.9740     2.1970 
  178.8750   -37.0110    74.8570    22.7200    51.8340    74.9630    78.4870     2.1800 
  179.0000   -37.2480    73.0430    22.7280    56.6010    84.5900    88.5270     2.1730 
  179.1250   -37.4320    74.3860    22.7480    58.5970    95.2660    99.6620     2.1900 
  179.2500   -37.5590    75.8800    22.7560    59.7230   106.2560   111.1250     2.2150 
  179.3750   -37.6210    75.5240    22.8040    62.2340   117.2850   122.6280     2.2250 
  179.5000   -37.6130    73.5420    22.9530    67.6490   128.5130   134.3390     2.2110 
  179.6250   -37.5310    70.6360    23.1720    77.1160   140.5730   146.9170     2.1840 
  179.7500   -37.4030    66.9810    23.3870    95.2900   153.1860   160.0730     2.1630 
  179.8750   -37.2480    63.7330    23.5550   133.3120   165.2150   172.6190     2.1570 
  180.0000   -37.0860    63.4570    23.6550   189.5860   174.8990   182.7200     2.1600 
  180.1250   -36.9310    67.6000    23.7560   234.0860   179.4580   187.4750     2.1610 
  180.2500   -36.7810    71.1960    23.8020   244.5980   178.3720   186.3420     2.1630 
  180.3750   -36.6310    70.1330    23.7930   226.1340   171.7430   179.4280     2.1680 
  180.5000   -36.4790    65.5220    23.7260   197.1690   160.7740   167.9880     2.1750 
  180.6250   -36.3290    63.1540    23.6050   173.1170   147.6600   154.3090     2.1800 
  180.7500   -36.1880    64.3650    23.5150   151.1940   135.6300   141.7620     2.1830 
  180.8750   -36.0620    66.2080    23.4020   131.6930   126.6380   132.3840     2.1910 
  181.0000   -35.9520    66.7300    23.2120   115.6830   121.6810   127.2130     2.2040 
  181.1250   -35.8600    66.6280    23.0290   103.8030   121.9930   127.5380     2.2070 
  181.2500   -35.7780    67.1860    22.9650    95.0710   127.1080   132.8740     2.1950 
  181.3750   -35.7050    68.0350    23.0370    92.1670   136.8780   143.0640     2.1770 
  181.5000   -35.6370    69.2570    23.2560   100.2860   150.5530   157.3270     2.1630 
  181.6250   -35.5680    74.1500    23.5150   120.9100   166.8240   174.2980     2.1580 
  181.7500   -35.4910    82.5700    23.6530   139.9520   182.5890   190.7400     2.1600 
  181.8750   -35.4000    88.0760    23.6020   148.9510   194.4550   203.1160     2.1680 
  182.0000   -35.2880    84.7130    23.4730   150.9110   198.9540   207.8090     2.1780 
  182.1250   -35.1480    75.5730    23.3930   150.6840   192.4870   201.0640     2.1820 
  182.2500   -34.9820    69.7500    23.4840   153.1890   177.6170   185.5540     2.1820 
  182.3750   -34.7950    68.7930    23.6600   159.9830   157.5530   164.6280     2.1820 
  182.5000   -34.5950    70.2370    23.7470   165.4420   136.1920   142.3480     2.1790 
  182.6250   -34.3960    73.4500    23.6780   154.2860   117.4240   122.7730     2.1780 
  182.7500   -34.2080    76.6080    23.5610   126.8910   102.7220   107.4390     2.1880 
  182.8750   -34.0350    77.3190    23.5300    97.0930    92.3320    96.6020     2.2040 
  183.0000   -33.8730    75.0130    23.5760    77.3700    85.5250    89.5020     2.2150 
  183.1250   -33.7160    72.2550    23.6040    72.2510    81.0900    84.8770     2.2120 
  183.2500   -33.5530    71.9800    23.5330    72.7280    77.0640    80.6780     2.2060 
  183.3750   -33.3800    74.4030    23.3700    73.9390    72.4620    75.8780     2.2040 
  183.5000   -33.2000    77.4390    23.1570    72.1090    66.8930    70.0700     2.2080 
  183.6250   -33.0190    78.1400    22.9710    64.3700    60.5870    63.4930     2.2170 
  183.7500   -32.8490    77.1080    22.8310    54.2700    54.4800    57.1230     2.2290 
  183.8750   -32.6960    76.0130    22.7050    44.8070    49.3250    51.7460     2.2390 
  184.0000   -32.5650    75.4270    22.5650    37.8230    45.5940    47.8550     2.2440 
  184.1250   -32.4620    75.1820    22.4320    33.7610    43.6390    45.8160     2.2460 
  184.2500   -32.3850    75.5250    22.3230    31.4580    42.9790    45.1270     2.2510 
  184.3750   -32.3320    75.9510    22.2650    30.9930    43.3080    45.4700     2.2510 
  184.5000   -32.3030    76.1960    22.2530    32.7120    44.3280    46.5340     2.2390 
  184.6250   -32.3020    78.0020    22.3020    35.5570    45.9350    48.2100     2.2190 
  184.7500   -32.3190    82.9750    22.3900    37.9540    48.1250    50.4940     2.2050 
  184.8750   -32.3510    89.0160    22.4600    39.1640    51.2630    53.7670     2.2020 
  185.0000   -32.3930    92.0690    22.4670    39.0880    55.9220    58.6270     2.2070 
  185.1250   -32.4400    90.4930    22.5150    38.5290    62.9600    65.9680     2.2140 
  185.2500   -32.4860    87.8490    22.5740    41.1460    71.7700    75.1560     2.2150 
  185.3750   -32.5260    84.9810    22.6920    53.3390    81.0580    84.8430     2.2030 
  185.5000   -32.5550    80.3040    22.9630    84.8290    88.6980    92.8120     2.1760 
  185.6250   -32.5690    74.6000    23.4410   139.3040    91.3990    95.6290     2.1500 
  185.7500   -32.5640    71.9610    24.0010   182.2370    88.6360    92.7480     2.1440 
  185.8750   -32.5360    72.6550    24.4370   178.4460    81.3290    85.1270     2.1630 
  186.0000   -32.4760    74.1580    24.6060   129.6510    71.7090    75.0930     2.1930 
  186.1250   -32.3700    75.3010    24.5350    79.7370    62.6660    65.6610     2.2150 
  186.2500   -32.2240    77.5960    24.4030    52.3870    56.1250    58.8380     2.2260 
  186.3750   -32.0460    80.7320    24.3410    43.1360    52.8150    55.3860     2.2280 
  186.5000   -31.8520    83.0590    24.3080    43.5840    52.6650    55.2290     2.2270 
  186.6250   -31.6600    83.4790    24.2920    49.8830    55.4620    58.1470     2.2250 
  186.7500   -31.4800    82.2450    24.2830    57.8470    59.9500    62.8280     2.2240 
  186.8750   -31.3080    79.4400    24.2810    64.2870    65.3760    68.4870     2.2220 
  187.0000   -31.1360    75.4520    24.2820    69.6640    70.9810    74.3330     2.2180 
  187.1250   -30.9510    71.8870    24.2830    78.9370    75.9380    79.5030     2.2070 
  187.2500   -30.7530    69.7780    24.2800    91.8870    80.0710    83.8140     2.1900 
  187.3750   -30.5400    68.9380    24.2640   101.5640    83.7700    87.6720     2.1750 
  187.5000   -30.3140    68.9240    24.2310   100.3380    87.7880    91.8630     2.1720 
  187.6250   -30.0670    69.5260    24.1900    89.7260    93.0230    97.3230     2.1930 
  187.7500   -29.7970    69.8590    24.1710    85.7150    99.2020   103.7680     2.2190 
  187.8750   -29.4970    68.2460    24.1640    96.1390   105.2690   110.0960     2.2360 
  188.0000   -29.1630    63.7980    24.1580   125.1450   109.4580   114.4650     2.2450 
  188.1250   -28.7880    58.8060    24.1370   167.0420   109.0980   114.0890     2.2590 
  188.2500   -28.3820    57.0140    24.0910   192.9440   103.8650   108.6320     2.2800 
  188.3750   -27.9540    58.8630    23.9970   181.1890    94.4760    98.8390     2.3030 
  188.5000   -27.5140    61.8350    23.8470   136.9570    82.8500    86.7120     2.3240 
  188.6250   -27.0750    63.7800    23.7510    90.5880    71.5900    74.9680     2.3410 
  188.7500   -26.6470    65.6500    23.7790    61.0320    62.4290    65.4130     2.3510 
  188.8750   -26.2320    67.8210    23.8690    46.2720    55.9430    58.6480     2.3480 
  189.0000   -25.8320    68.9490    23.9930    39.8610    51.9540    54.4880     2.3280 
  189.1250   -25.4510    67.2840    24.0510    38.9430    49.9440    52.3920     2.2900 
  189.2500   -25.0910    64.4420    24.0100    40.6920    48.6160    51.0070     2.2590 
  189.3750   -24.7550    62.8360    23.8820    42.3620    47.2630    49.5960     2.2560 
  189.5000   -24.4410    63.6900    23.7530    43.7740    45.4850    47.7410     2.2860 
  189.6250   -24.1410    65.8210    23.7370    47.7750    43.0730    45.2250     2.3210 
  189.7500   -23.8360    67.6620    23.6930    51.5010    40.2390    42.2690     2.3340 
  189.8750   -23.5130    70.7790    23.5930    49.4610    37.2030    39.1030     2.3300 
