~V
VERS. 2.00: Ver 2.00
~W
STRT.M 60.0000:
STOP.M 273.0000:
STEP.M 0.1250:
NULL. -999.2500:
UWI. DF5008:
~C
DEPT.M :
GR.API :
CALI.CM :
RXO.OHMM :
RI. :
RML.OHMM :
DEN.GM/CC :
SP.MV :
~A
# ...
  183.7500    64.9040    24.8300   141.4590   145.1340   179.1560     2.2250   -57.8520 
  183.8750    66.7490    24.7960   139.6680   142.3590   175.6970     2.2320   -57.6500 
  184.0000    65.0280    24.7740   140.6250   138.9150   171.2170     2.2370   -57.4930 
  184.1250    63.3390    24.7530   143.3280   135.3830   166.2230     2.2380   -57.2470 
  184.2500    64.0230    24.7240   144.7640   132.4740   161.4580     2.2340   -57.0140 
  184.3750    66.4280    24.7060   140.7270   130.7210   157.4200     2.2270   -56.7570 
  184.5000    68.8070    24.7200   129.4890   130.1520   153.9630     2.2220   -56.5530 
  184.6250    68.9960    24.7550   122.9480   129.2510   148.9880     2.2250   -56.2880 
  184.7500    66.3310    24.7710   130.4220   125.1380   139.6980     2.2350   -56.0830 
  184.8750    63.4840    24.7580   135.4800   116.0080   125.0910     2.2500   -55.8740 
  185.0000    62.9540    24.7400   121.8250   102.8730   107.4870     2.2640   -55.6560 
  185.1250    64.2440    24.7300    91.6800    89.4140    91.5920     2.2720   -55.4960 
  185.2500    65.5310    24.7040    59.0130    78.4460    79.4390     2.2750   -55.3730 
  185.3750    66.5400    24.6470    38.0120    69.9450    70.2240     2.2820   -55.2900 
  185.5000    67.4350    24.5810    48.3380    62.2450    61.8660     2.2970   -55.1500 
  185.6250    68.8010    24.5600    73.6960    53.3940    52.5210     2.3220   -55.1520 
  185.7500    70.4730    24.5610    87.2760    43.9350    42.8770     2.3430   -55.0650 
  185.8750    73.3270    24.5270    70.9950    35.7210    34.8230     2.3460   -55.0420 
  186.0000    78.1020    24.4560    39.7930    30.2550    30.0160     2.3290   -55.0530 
  186.1250    82.4590    24.4290    20.6490    28.7860    30.0730     2.2980   -55.0880 
  186.2500    82.8070    24.4680    23.9730    31.1130    34.5720     2.2710   -55.1560 
  186.3750    78.8320    24.5260    46.9060    37.5630    43.2630     2.2530   -55.2290 
  186.5000    74.2820    24.5670    74.3840    47.9380    55.0810     2.2450   -55.3450 
  186.6250    73.0190    24.5910    82.8510    60.3520    67.3100     2.2430   -55.3610 
  186.7500    72.2020    24.5990    78.2530    70.5490    76.3910     2.2400   -55.5100 
  186.8750    70.6420    24.5970    68.6180    76.1400    80.8930     2.2350   -55.6320 
  187.0000    69.4640    24.6070    60.2120    77.7050    81.9790     2.2290   -55.7420 
  187.1250    69.2790    24.6090    62.6020    77.5660    82.0540     2.2270   -55.8090 
  187.2500    67.7980    24.5380    76.8560    77.6620    82.6330     2.2270   -55.8300 
  187.3750    65.1390    24.4060    92.1870    78.0940    83.6720     2.2300   -55.8240 
  187.5000    64.6600    24.2920    90.2900    78.5910    85.0530     2.2310   -55.7660 
  187.6250    67.4870    24.2260    75.3350    79.5040    87.6150     2.2270   -55.7850 
  187.7500    70.9300    24.1150    70.3650    81.8430    92.4370     2.2170   -55.6900 
  187.8750    73.5380    23.9690    76.1120    86.5600   100.0990     2.2060   -55.5950 
  188.0000    73.1260    23.9290    85.8510    93.2650   109.2540     2.1990   -55.4860 
  188.1250    67.7860    24.0780    96.8050    97.8760   113.9050     2.2020   -55.3640 
  188.2500    62.0910    24.2250   121.5660    95.1220   108.2840     2.2120   -55.2360 
  188.3750    58.3220    24.2530   133.9910    83.7740    92.5560     2.2230   -55.1120 
  188.5000    56.5550    24.2240   110.6450    68.3640    73.8260     2.2260   -55.0770 
  188.6250    56.8060    24.2250    61.6800    56.1840    61.3820     2.2150   -54.9350 
  188.7500    60.7960    24.2110    33.8300    50.7160    58.1610     2.2000   -54.8760 
  188.8750    66.5410    24.1530    52.4120    53.6830    65.1490     2.1900   -54.8210 
  189.0000    68.0780    24.0930   127.8920    66.7750    83.1570     2.1860   -54.7840 
  189.1250    64.5960    24.0890   224.9220    93.8510   115.1480     2.1900   -54.7830 
  189.2500    60.7350    24.1370   265.2490   131.2970   156.8540     2.1950   -54.8240 
  189.3750    59.1000    24.2430   245.6170   169.2950   197.4780     2.2010   -54.9020 
  189.5000    59.8610    24.3910   201.2470   191.8100   219.0520     2.2070   -54.9550 
  189.6250    60.6460    24.5170   179.9290   187.7330   210.3340     2.2120   -55.0910 
  189.7500    61.3460    24.5800   173.3390   171.3800   189.9050     2.2150   -55.1620 
  189.8750    62.3290    24.6050   162.8990   153.5830   169.9990     2.2150   -55.2290 
  190.0000    64.1430    24.6420   144.5430   138.8900   154.5850     2.2150   -55.3030 
  190.1250    66.1320    24.6970   125.3340   128.5000   144.2500     2.2170   -55.3830 
  190.2500    68.2560    24.7350   115.5240   121.1200   137.1670     2.2210   -55.4400 
  190.3750    71.2910    24.7660   116.8950   115.9180   132.2600     2.2230   -55.4600 
  190.5000    72.1690    24.8090   118.6560   112.1590   128.6220     2.2210   -55.4610 
  190.6250    70.3510    24.8470   118.0820   109.4190   125.6700     2.2160   -55.3770 
  190.7500    69.1090    24.8520   113.3980   107.2000   122.9550     2.2110   -55.3730 
  190.8750    69.3500    24.8380   108.3790   105.3340   120.3940     2.2090   -55.3540 
  191.0000    70.2330    24.8310   106.3530   103.7510   118.0130     2.2100   -55.3150 
  191.1250    69.9360    24.8360   108.5470   102.4440   115.8230     2.2120   -55.2630 
  191.2500    68.4740    24.8430   108.8970   101.1980   113.5850     2.2150   -55.2140 
  191.3750    66.9200    24.8450   106.0300    99.7330   110.9990     2.2180   -55.1700 
  191.5000    66.4860    24.8410   102.9740    97.8030   107.8230     2.2210   -55.1070 
  191.6250    65.8800    24.8380   102.7850    95.1790   103.7920     2.2230   -55.1520 
  191.7500    64.7620    24.8390   101.7720    91.8620    98.8910     2.2260   -55.0860 
  191.8750    65.4930    24.8430    95.7590    87.6160    92.8750     2.2310   -55.0800 
  192.0000    67.9850    24.8440    89.6530    82.1790    85.5860     2.2410   -55.0590 
  192.1250    69.2510    24.8350    86.2050    75.4390    77.2000     2.2550   -55.0370 
  192.2500    69.2120    24.8240    79.7780    68.2650    68.8030     2.2680   -55.0040 
  192.3750    69.1470    24.8130    65.9420    61.5550    61.3500     2.2740   -54.9700 
  192.5000    69.4990    24.7940    52.8440    56.0130    55.4490     2.2720   -54.9920 
  192.6250    69.3590    24.7740    47.6420    52.0700    51.3880     2.2660   -54.9440 
  192.7500    70.3650    24.7690    48.3500    49.1780    48.4300     2.2620   -54.9850 
  192.8750    73.9730    24.7780    49.4170    46.8510    46.0010     2.2630   -54.9950 
  193.0000    77.8080    24.7850    48.5320    44.6640    43.6490     2.2680   -55.0400 
  193.1250    78.6980    24.7660    44.2180    42.4670    41.3210     2.2750   -55.1180 
  193.2500    77.9490    24.7280    39.8190    40.5980    39.5000     2.2790   -55.2260 
  193.3750    78.9710    24.6860    36.5630    39.6140    38.8440     2.2770   -55.3670 
  193.5000    81.3130    24.6520    35.5250    40.0710    39.9340     2.2680   -55.4920 
  193.6250    80.4450    24.6380    37.9810    42.7560    43.4730     2.2580   -55.6580 
  193.7500    76.9250    24.6380    47.1580    47.5140    49.0070     2.2520   -55.8330 
  193.8750    72.7970    24.6490    60.4290    53.9680    55.8700     2.2500   -56.0410 
  194.0000    70.6790    24.6530    70.5510    61.0180    62.7860     2.2530   -56.3090 
  194.1250    69.6170    24.6400    77.7300    66.4610    67.5830     2.2570   -56.5710 
  194.2500    67.4460    24.6250    81.0220    68.8510    69.2740     2.2590   -56.8310 
  194.3750    65.0780    24.6040    78.4640    68.0600    68.1220     2.2610   -57.0760 
  194.5000    64.4030    24.5510    66.6300    65.2790    65.5570     2.2620   -57.3280 
  194.6250    66.2830    24.4420    56.4060    62.4260    63.6420     2.2610   -57.5860 
  194.7500    68.7340    24.3220    51.1690    61.0750    63.7610     2.2580   -57.8620 
  194.8750    70.6690    24.2140    51.6280    62.1220    66.6980     2.2510   -58.1380 
