~V
VERS. 2.00: Ver 2.00
~W
STRT.M 60.0000:
STOP.M 257.0000:
STEP.M 0.1250:
NULL. -999.2500:
UWI. DF5064:
~C
DEPT.M :
SP.MV :
GR.API :
RML.OHMM :
RI. :
RXO.OHMM :
CALI.CM :
DEN.GM/CC :
~A
   60.0000    76.8300    55.8180    -1.6580     0.0460    -0.8270    26.0330     2.5000 
   60.1250    64.2250    64.0000    -1.5800     0.2270     0.2860    26.3230     2.3930 
   60.2500    51.3810    69.5750    -1.0810     0.6310     2.3270    27.3750     2.2010 
   60.3750    38.8300    71.9590    -0.1330     1.3350     3.8170    29.3850     1.9980 
   60.5000    26.8170    71.8500     1.2040     2.3620     4.3410    31.4930     1.8640 
   60.6250    15.8070    71.1530     2.6800     3.6740     5.1370    31.5860     1.8580 
   60.7500     6.2120    69.9650     3.8890     5.0530     7.2190    29.5980     1.9340 
   60.8750    -1.3790    68.9580     4.7030     6.3480     9.5160    27.7610     2.0370 
   61.0000    -6.5710    69.2550     5.3000     7.4920    10.6180    27.0350     2.1230 
   61.1250    -9.7950    68.8420     5.8770     8.4560    10.6860    27.0090     2.1670 
   61.2500   -12.4180    66.9900     6.4590     9.2530    10.8260    27.0000     2.1830 
   61.3750   -14.8610    65.9260     6.9910     9.8360    13.0640    26.8990     2.1840 
   61.5000   -17.0840    68.2400     7.4220    10.1490    20.6050    26.7110     2.1780 
   61.6250   -18.9170    71.2860     7.7090    10.1100    39.1750    26.4280     2.1720 
   61.7500   -20.2740    71.7170     7.8970     9.8180    44.2270    26.1530     2.1700 
   61.8750   -21.1580    72.2750     7.9930     9.3890    31.8710    26.0070     2.1750 
   62.0000   -21.6930    74.5720     7.9500     8.9660    16.5570    26.0320     2.1830 
   62.1250   -21.9300    76.5240     7.7070     8.6970    11.5900    26.1330     2.1860 
   62.2500   -22.0390    77.6280     7.3480     8.6210    10.7280    26.1690     2.1840 
   62.3750   -21.9860    78.1140     6.9870     8.7260    11.2920    26.1370     2.1820 
   62.5000   -21.8350    78.0500     6.7850     8.9550    11.4760    26.0590     2.1830 
   62.6250   -21.6830    78.3360     6.9450     9.2100    11.8710    26.0050     2.1890 
   62.7500   -21.6930    78.8230     7.3750     9.3840    12.4230    25.9670     2.1960 
   62.8750   -21.8390    77.6430     7.8400     9.4180    13.0880    25.9790     2.2010 
   63.0000   -22.0330    73.9180     8.0590     9.3000    13.7060    26.0400     2.2010 
   63.1250   -22.2090    70.9170     7.8430     9.0530    14.0640    26.1200     2.1970 
   63.2500   -22.2600    70.8250     7.4020     8.7700    13.4230    26.1760     2.1910 
   63.3750   -22.2130    72.8020     6.9920     8.5140    12.5740    26.2290     2.1830 
   63.5000   -22.0670    75.5650     6.7990     8.3270    11.9130    26.2730     2.1770 
   63.6250   -21.8360    76.6690     6.8460     8.2320    11.4560    26.3020     2.1730 
   63.7500   -21.5340    78.2530     6.9500     8.1960    11.4720    26.3340     2.1730 
   63.8750   -21.2490    81.6840     7.0160     8.1920    11.7740    26.3710     2.1740 
   64.0000   -21.0460    84.3040     7.0730     8.2010    11.8980    26.4000     2.1750 
   64.1250   -21.0130    84.3770     7.2680     8.2140    11.7080    26.4060     2.1740 
   64.2500   -21.1340    84.5040     7.6630     8.2350    11.1870    26.3790     2.1710 
   64.3750   -21.4030    84.6190     8.2160     8.2640    11.2190    26.2960     2.1680 
   64.5000   -21.7890    82.5720     8.7830     8.2920    11.8130    26.1570     2.1700 
   64.6250   -22.2500    80.4970     9.1290     8.2900    12.2920    26.0290     2.1820 
   64.7500   -22.7910    80.2120     9.1420     8.2380    11.8790    25.9930     2.1990 
   64.8750   -23.3660    80.3000     8.8110     8.1270    11.1230    26.0590     2.2180 
   65.0000   -23.9180    80.0290     8.2240     7.9640    10.8950    26.0650     2.2310 
   65.1250   -24.2880    78.1510     7.5340     7.7750    11.3280    26.0080     2.2330 
   65.2500   -24.4660    74.4600     6.9270     7.5970    12.0140    26.0670     2.2240 
   65.3750   -24.5190    70.8300     6.5150     7.4540    12.4580    26.2610     2.2080 
   65.5000   -24.5990    70.5360     6.3570     7.3640    11.9000    26.4470     2.1910 
   65.6250   -24.8520    71.9310     6.4870     7.3440     9.4780    26.5060     2.1800 
   65.7500   -25.2060    72.5670     6.7740     7.3650     8.8080    26.4410     2.1770 
   65.8750   -25.6550    72.6670     7.0800     7.3950     9.5150    26.2770     2.1800 
   66.0000   -26.1430    72.1550     7.2670     7.3900    10.6780    26.0920     2.1860 
   66.1250   -26.7530    70.0550     7.2270     7.3070    11.3210    25.9710     2.1890 
   66.2500   -27.5170    66.7970     7.0310     7.1670    11.3440    25.9080     2.1840 
   66.3750   -28.3690    64.6510     6.7760     7.0060    11.2320    25.8860     2.1720 
   66.5000   -29.1970    66.2050     6.5490     6.8630    11.1670    25.8700     2.1580 
   66.6250   -29.8610    70.0390     6.4090     6.7610    10.9380    25.8380     2.1490 
   66.7500   -30.4060    71.6490     6.3570     6.6830    11.1540    25.8010     2.1470 
   66.8750   -30.8100    69.9680     6.4020     6.6190    11.4400    25.7820     2.1510 
   67.0000   -31.1380    66.9160     6.5520     6.5810    11.3140    25.7770     2.1570 
   67.1250   -31.3540    64.0210     6.8260     6.6060    11.3300    25.7580     2.1630 
   67.2500   -31.4270    60.6410     7.1790     6.7040    11.3970    25.7290     2.1660 
   67.3750   -31.3220    59.0220     7.5640     6.8590    11.7730    25.6940     2.1680 
   67.5000   -31.0640    63.0740     7.9240     7.0260    12.4300    25.6690     2.1680 
   67.6250   -30.6530    69.8640     8.1920     7.1400    12.5620    25.6590     2.1670 
   67.7500   -30.1050    72.7340     8.3520     7.1720    12.9080    25.6920     2.1640 
   67.8750   -29.4340    71.4070     8.4130     7.1220    14.5350    25.7480     2.1600 
   68.0000   -28.6860    70.6100     8.4070     7.0110    17.9360    25.8050     2.1570 
   68.1250   -27.8610    70.5880     8.3820     6.8710    18.4970    25.8300     2.1570 
   68.2500   -27.0510    69.0780     8.3690     6.7390    15.1570    25.8370     2.1610 
   68.3750   -26.2830    68.4910     8.3640     6.6280    13.3100    25.8400     2.1680 
   68.5000   -25.5410    69.2430     8.3430     6.5410    12.7820    25.8550     2.1760 
   68.6250   -24.8060    69.8120     8.2600     6.4750    12.5330    25.8850     2.1860 
   68.7500   -24.1480    71.7200     8.0970     6.4270    12.5670    25.9110     2.1960 
   68.8750   -23.5910    73.6650     7.8630     6.4070    12.3990    25.9370     2.2020 
   69.0000   -23.1340    72.7890     7.6170     6.4360    11.8160    25.9610     2.2010 
   69.1250   -22.7480    70.0060     7.5160     6.5750    11.4840    25.9590     2.1860 
   69.2500   -22.3310    68.4490     7.6900     6.8600    11.5760    25.9770     2.1730 
   69.3750   -21.8540    66.8180     8.1980     7.3070    11.4990    26.0770     2.1860 
   69.5000   -21.3460    64.7470     8.9590     7.8800    11.0700    26.2270     2.2450 
   69.6250   -20.8810    66.7720     9.7310     8.4660    11.0990    26.3030     2.3420 
   69.7500   -20.4240    71.6770    10.2470     8.9170    11.0340    26.3130     2.4260 
   69.8750   -19.9590    75.5300    10.3870     9.1350    10.6930    26.2860     2.4550 
   70.0000   -19.4390    76.7300    10.1830     9.0990    10.6250    26.2580     2.4180 
   70.1250   -18.8760    75.9990     9.7610     8.8530    11.0530    26.2230     2.3350 
   70.2500   -18.3120    75.4180     9.2970     8.5260    11.9750    26.2310     2.2590 
   70.3750   -17.7920    75.4330     8.8500     8.1770    14.0530    26.2470     2.2140 
   70.5000   -17.2820    76.1780     8.4410     7.8240    17.0040    26.2320     2.2010 
   70.6250   -16.7660    76.5700     8.0740     7.4690    15.9400    26.1970     2.2110 
   70.7500   -16.1810    78.2480     7.7160     7.1180    12.3430    26.1980     2.2270 
   70.8750   -15.5450    83.3490     7.3300     6.7950    10.1480    26.2220     2.2400 
   71.0000   -14.8980    88.9980     6.9130     6.5380     8.4910    26.2440     2.2460 
   71.1250   -14.3360    90.9890     6.5540     6.3980     7.6130    26.2300     2.2480 
