~V
VERS. 2.00: Ver 2.00
~W
STRT.M 55.0000:
STOP.M 263.0000:
STEP.M 0.1250:
NULL. -999.2500:
UWI. DF5056:
~C
DEPT.M :
GR.API :
CALI.CM :
RXO.OHMM :
RI. :
RML.OHMM :
DEN.GM/CC :
SP.MV :
~A
# ...
  246.2500    63.3460    24.4720     6.6900     8.3110     9.8750     2.3790   -21.2190 
  246.3750    59.6870    24.5330     6.8300     8.3040     9.8800     2.3880   -21.1170 
  246.5000    56.4420    24.5970     7.0070     8.2950     9.8780     2.4000   -21.0630 
  246.6250    56.4310    24.6730     6.6260     8.2920     9.8790     2.4100   -21.0070 
  246.7500    55.8210    24.7460     6.1540     8.3060     9.9010     2.4210   -20.8930 
  246.8750    52.8690    24.7200     5.9360     8.3420     9.9550     2.4350   -20.8150 
  247.0000    50.5540    24.5100     6.0200     8.3980    10.0350     2.4530   -20.8680 
  247.1250    52.4760    24.2120     6.3480     8.4600    10.1220     2.4680   -20.9370 
  247.2500    55.3820    24.1240     6.6890     8.5140    10.1920     2.4700   -20.8680 
  247.3750    55.5070    24.3340     6.8650     8.5570    10.2420     2.4530   -20.7030 
  247.5000    53.1490    24.6460     6.8870     8.5950    10.2890     2.4220   -20.5330 
  247.6250    51.3860    24.7750     6.7340     8.6440    10.3650     2.3940   -20.4780 
  247.7500    52.9010    24.7370     6.5100     8.7120    10.4740     2.3820   -20.6300 
  247.8750    55.8360    24.6430     6.2710     8.7940    10.6000     2.3840   -20.7920 
  248.0000    57.2440    24.5850     6.2510     8.8790    10.7240     2.3890   -20.7280 
  248.1250    55.7520    24.5860     6.5310     8.9630    10.8360     2.3900   -20.5770 
  248.2500    55.1290    24.6150     7.4100     9.0550    10.9520     2.3830   -20.5750 
  248.3750    56.9440    24.6260     8.9800     9.1720    11.0940     2.3720   -20.6880 
  248.5000    58.9700    24.5960    10.3560     9.3280    11.2720     2.3610   -20.8560 
  248.6250    59.1440    24.5220    10.9590     9.5300    11.4830     2.3570   -20.9610 
  248.7500    59.8170    24.4450    12.4730     9.7580    11.7050     2.3610   -20.9230 
  248.8750    62.5200    24.4080    14.4720     9.9890    11.9180     2.3730   -20.8070 
  249.0000    64.7430    24.4340    15.5770    10.2000    12.0950     2.3920   -20.7030 
  249.1250    62.6710    24.5130    15.1520    10.3530    12.1870     2.4100   -20.6120 
  249.2500    59.6540    24.5780    14.9580    10.4250    12.1620     2.4210   -20.4960 
  249.3750    59.6730    24.5800    14.3070    10.3850    11.9960     2.4280   -20.4300 
  249.5000    62.7140    24.5260    12.5820    10.2170    11.6850     2.4320   -20.3920 
  249.6250    65.3280    24.4820    10.3380     9.9180    11.2510     2.4330   -20.3400 
  249.7500    65.3190    24.4680     8.4590     9.5640    10.7920     2.4310   -20.2030 
  249.8750    62.6140    24.4480     7.2420     9.2260    10.3930     2.4230   -20.1160 
  250.0000    58.4970    24.4030     6.6480     8.9720    10.1300     2.4130   -20.2400 
  250.1250    56.0000    24.3710     6.4730     8.8760    10.0740     2.4060   -20.2930 
  250.2500    56.3590    24.3650     6.4760     8.9250    10.1830     2.4060   -20.2520 
  250.3750    58.7470    24.3740     6.5330     9.0880    10.4020     2.4110   -20.2150 
  250.5000    61.7470    24.3920     6.6470     9.3180    10.6610     2.4200   -20.2030 
  250.6250    62.9270    24.4110     6.6310     9.5560    10.8900     2.4280   -20.2000 
  250.7500    61.8890    24.4070     6.7090     9.7630    11.0690     2.4350   -20.2180 
  250.8750    61.0080    24.3820     7.1650     9.9310    11.2080     2.4390   -20.1910 
  251.0000    61.5800    24.3630     7.6150    10.0690    11.3340     2.4410   -20.1360 
  251.1250    62.0680    24.3600     7.6230    10.1860    11.4590     2.4420   -20.1560 
  251.2500    61.0090    24.3310     7.6500    10.2860    11.5690     2.4440   -20.1910 
  251.3750    60.3580    24.2480     7.5030    10.3510    11.6280     2.4510   -20.1250 
  251.5000    60.8640    24.1370     7.1590    10.3530    11.6060     2.4610   -19.9710 
  251.6250    60.4580    24.0660     6.9590    10.2660    11.4900     2.4730   -19.8910 
  251.7500    58.6170    24.0510     6.9020    10.1290    11.3440     2.4800   -19.8340 
  251.8750    56.7290    24.0620     6.7300    10.0030    11.2430     2.4810   -19.8330 
  252.0000    57.0970    24.0560     6.5540     9.9570    11.2590     2.4790   -19.7270 
  252.1250    60.0690    24.0260     6.4120    10.0660    11.4620     2.4780   -19.6880 
  252.2500    61.6580    24.0040     6.3250    10.3160    11.8050     2.4810   -19.6150 
  252.3750    61.6580    24.0070     6.5980    10.6640    12.2250     2.4850   -19.5090 
  252.5000    61.6580    24.0250     7.3220    11.0500    12.6420     2.4880   -19.4830 
  252.6250    61.6580    24.0250     7.8120    11.3980    12.9760     2.4900   -19.3260 
  252.7500    61.6580    24.0050     7.8360    11.6740    13.2260     2.4900   -19.2460 
  252.8750    61.6580    24.0050     7.5480    11.8830    13.4240     2.4890   -19.1370 
  253.0000    61.6580    24.0690     7.3920    12.0550    13.6160     2.4880   -19.0750 
  253.1250    61.6580    24.1890     7.6490    12.2110    13.8150     2.4840   -18.9530 
  253.2500    61.6580    24.2550     8.0250    12.3470    13.9930     2.4820   -18.8760 
  253.3750    61.6580    24.2100     8.4300    12.4400    14.1150     2.4830   -18.9050 
  253.5000    61.6580    24.1340     8.9140    12.4640    14.1570     2.4900   -18.8060 
  253.6250    61.6580    24.1590     9.2700    12.3840    14.0850     2.4960   -18.8280 
  253.7500    61.6580    24.2470     9.3180    12.2060    13.9060     2.4960   -18.8520 
  253.8750    61.6580    24.3090     9.6470    11.9370    13.6200     2.4860   -18.9400 
  254.0000    61.6580    24.3240    11.5720    11.6040    13.2570     2.4700   -19.0260 
  254.1250    61.6580    24.3290    12.6300    11.2880    12.9310     2.4600   -19.0320 
  254.2500    61.6580    24.3260    11.8230    11.0980    12.7870     2.4620   -19.1080 
  254.3750    61.6580    24.3190    10.3340    11.1240    12.9320     2.4740   -19.1070 
  254.5000    61.6580    24.3390    10.0660    11.4250    13.4160     2.4860   -19.1720 
  254.6250    61.6580    24.3930    11.3900    12.0620    14.2460     2.4920   -19.2030 
  254.7500    61.6580    24.4660    13.1290    12.9240    15.2320     2.4930   -19.2180 
  254.8750    61.6580    24.5450    14.1830    13.8890    16.1980     2.4950   -19.2520 
  255.0000    61.6580    24.6050    13.9950    14.8020    16.9910     2.5030   -19.2210 
  255.1250    61.6580    24.6130    14.6540    15.4860    17.4750     2.5160   -19.3350 
  255.2500    61.6580    24.5780    15.7090    15.9140    17.7050     2.5280   -19.3830 
  255.3750    61.6580    24.5290    16.2240    16.1210    17.7540     2.5330   -19.4210 
  255.5000    61.6580    24.4910    17.0950    16.1860    17.7140     2.5310   -19.5380 
  255.6250    61.6580    24.4720    17.8560    16.1780    17.6480     2.5210   -19.5870 
  255.7500    61.6580    24.4550    16.9450    16.1540    17.5920     2.5100   -19.6540 
  255.8750    61.6580    24.4340    15.2690    16.1310    17.5560     2.4990   -19.6480 
  256.0000    61.6580    24.4120    13.1720    16.1140    17.5090     2.4930   -19.6300 
  256.1250    61.6580    24.3900    10.0550    16.0920    17.3490     2.4910   -19.6120 
  256.2500    61.6580    24.3700     8.0000    16.0530    17.1020     2.4880   -19.6330 
  256.3750    61.6580    24.3560     7.8050    15.9930    16.8430     2.4830   -19.6910 
  256.5000    61.6580    24.3570     9.0370    15.9230    16.6630     2.4740   -19.7030 
  256.6250    61.6580    24.3870    10.5290    15.8580    16.6690     2.4630   -19.7850 
  256.7500    61.6580    24.4210    11.1250    15.8120    16.8240     2.4560   -19.8250 
  256.8750    61.6580    24.4320    10.8090    15.7880    17.0360     2.4570   -19.9790 
  257.0000    61.6580    24.4150    10.4200    15.7770    17.2040     2.4650   -20.2280 
  257.1250    61.6580    24.3880    10.0860    15.7700    17.2950     2.4750   -20.3690 
  257.2500    61.6580    24.3690     9.8640    15.7630    17.3570     2.4820   -20.4080 
  257.3750    61.6580    24.3690     9.4800    15.7580    17.3790     2.4850   -20.4230 
