~V
VERS. 2.00: Ver 2.00
~W
STRT.M 61.0000:
STOP.M 267.0000:
STEP.M 0.1250:
NULL. -999.2500:
UWI. DF5036:
~C
DEPT.M :
SP.MV :
GR.API :
RML.OHMM :
RI. :
RXO.OHMM :
CALI.CM :
DEN.GM/CC :
~A
# ...
  218.5000   -15.8260    55.9910   127.3770   115.3620   140.8990    24.2690     2.2210 
  218.6250   -15.7450    57.8930   127.0690   114.5250   126.7180    24.1960     2.2650 
  218.7500   -15.6790    60.6100   122.8130   110.6530   115.0350    24.0720     2.3040 
  218.8750   -15.5810    62.8040   114.9080   103.9580   106.8930    23.9130     2.3240 
  219.0000   -15.4710    62.3410   104.5830    95.2480    99.2980    23.8740     2.3160 
  219.1250   -15.4250    61.1210    94.0130    86.0800    88.6480    23.9250     2.2880 
  219.2500   -15.4220    62.9410    85.1130    78.1480    74.8960    23.9750     2.2620 
  219.3750   -15.4140    66.7850    78.5620    72.2490    65.6770    23.9790     2.2500 
  219.5000   -15.3840    67.5780    74.2450    68.4470    61.6200    23.9670     2.2550 
  219.6250   -15.3430    63.9320    71.8540    66.5110    61.3890    23.9530     2.2710 
  219.7500   -15.3410    63.0480    71.0630    66.0380    63.3660    23.9770     2.2880 
  219.8750   -15.3440    67.1140    73.6280    68.5780    65.7500    24.0760     2.3010 
  220.0000   -15.3220    71.0640    82.8830    77.2170    67.4530    24.1550     2.3140 
  220.1250   -15.2700    69.6790   103.1280    96.0540    67.9010    24.1440     2.3410 
  220.2500   -15.1960    68.2760   130.3720   121.5160    66.1600    24.0870     2.3890 
  220.3750   -15.0810    69.3890   155.4060   144.9120    65.3310    23.9790     2.4540 
  220.5000   -14.9610    70.1370   164.4150   153.3320    66.6610    23.7770     2.5180 
  220.6250   -14.8580    67.8590   140.7490   131.2140    68.5800    23.7360     2.5490 
  220.7500   -14.7220    63.9610    96.2580    89.6330    65.1620    23.7230     2.5380 
  220.8750   -14.6220    61.9960    53.3290    49.5130    44.6370    23.6070     2.4940 
  221.0000   -14.6170    62.5030    26.0230    23.9930    17.6260    23.4640     2.4350 
  221.1250   -14.7220    63.4240    14.2560    12.9970     7.3730    23.4110     2.3800 
  221.2500   -14.9340    64.9950     9.1870     8.2590     5.1060    23.3740     2.3400 
  221.3750   -15.2510    68.2920     7.1180     6.3210     4.7050    23.3860     2.3180 
  221.5000   -15.5870    74.3580     6.3410     5.5910     4.6590    23.4610     2.3160 
  221.6250   -15.8960    81.0000     6.2790     5.5360     4.8420    23.3940     2.3260 
  221.7500   -16.2510    84.8290     6.5000     5.7700     5.2260    23.1250     2.3370 
  221.8750   -16.6060    87.2740     6.7950     6.0950     5.5860    22.9640     2.3400 
  222.0000   -16.8850    91.8800     7.0210     6.3700     5.6830    23.0610     2.3340 
  222.1250   -17.0410    99.0850     7.0920     6.4810     5.5500    23.2290     2.3270 
  222.2500   -17.1230   105.6230     7.0420     6.3990     5.3980    23.3440     2.3270 
  222.3750   -17.2050   109.1040     6.9120     6.1990     5.3830    23.3890     2.3350 
  222.5000   -17.2930   111.3790     6.7360     5.9680     5.5670    23.4860     2.3460 
  222.6250   -17.3350   112.0790     6.5250     5.7710     5.8610    23.8180     2.3550 
  222.7500   -17.2950   111.1890     6.2900     5.5510     6.1220    24.1100     2.3600 
  222.8750   -17.1960   111.4420     6.0390     5.3170     6.1590    24.2690     2.3630 
  223.0000   -17.0170   113.0370     5.7950     5.0880     5.9150    24.3450     2.3670 
  223.1250   -16.7600   113.0040     5.5950     4.9020     5.7490    24.3730     2.3740 
  223.2500   -16.4400   108.5960     5.4610     4.7770     5.7240    24.3500     2.3800 
  223.3750   -16.0230   103.4280     5.4080     4.7270     5.8720    24.2760     2.3840 
  223.5000   -15.5020   102.0200     5.4350     4.7530     6.0870    24.2150     2.3840 
  223.6250   -14.9650   104.4870     5.5340     4.8450     6.3030    24.1860     2.3840 
  223.7500   -14.4550   108.8490     5.6590     4.9610     6.5820    24.1900     2.3880 
  223.8750   -13.9310   113.1620     5.7770     5.0680     6.9090    24.1910     2.3940 
  224.0000   -13.4320   114.7520     5.8640     5.1500     7.1490    24.1730     2.4020 
  224.1250   -13.0070   111.4630     5.9200     5.2040     7.2310    24.1610     2.4070 
  224.2500   -12.6620   107.8400     5.9760     5.2640     7.2590    24.1570     2.4080 
  224.3750   -12.4040   108.8870     6.0640     5.3640     7.3200    24.1520     2.4070 
  224.5000   -12.2400   113.4380     6.2110     5.5090     7.4690    24.1360     2.4030 
  224.6250   -12.1090   118.4540     6.4430     5.7170     7.7670    24.1050     2.3960 
  224.7500   -12.0020   121.2540     6.7470     5.9810     8.0890    24.0920     2.3880 
  224.8750   -11.9720   121.0550     7.1250     6.3220     8.3760    24.0880     2.3830 
  225.0000   -12.0010   117.7690     7.5750     6.7440     8.6580    24.0880     2.3830 
  225.1250   -12.0020   114.3190     8.1010     7.2460     8.9260    24.0880     2.3910 
  225.2500   -11.9450   112.7780     8.6500     7.8030     9.2510    24.0770     2.4030 
  225.3750   -11.8610   110.2000     9.1450     8.3170     9.5930    24.0400     2.4120 
  225.5000   -11.7680   105.4050     9.4810     8.7000     9.8060    23.9760     2.4130 
  225.6250   -11.6420   104.0320     9.5040     8.7260     9.8910    23.9560     2.4030 
  225.7500   -11.5290   108.1090     9.2290     8.3480     9.5810    23.9790     2.3910 
  225.8750   -11.4340   113.5770     8.6630     7.7770     8.9360    23.9770     2.3820 
  226.0000   -11.3570   115.3750     7.9400     7.1620     8.4510    23.9170     2.3820 
  226.1250   -11.3460   114.5400     7.3770     6.6860     8.4110    23.8630     2.3910 
  226.2500   -11.4270   115.5010     7.4280     6.6400     9.0890    23.8520     2.4050 
  226.3750   -11.5670   116.9660     8.6630     7.4160    12.0490    23.8730     2.4120 
  226.5000   -11.7710   112.0410    11.8520     9.5350    20.5920    23.8830     2.4050 
  226.6250   -12.1450    95.0540    17.7840    13.9320    41.9450    23.8660     2.3760 
  226.7500   -12.6070    75.3060    25.7980    20.5610    70.7220    23.8420     2.3370 
  226.8750   -13.1140    61.8260    34.6770    29.0250   100.6210    23.8320     2.3010 
  227.0000   -13.6500    56.6070    43.6270    38.2480   121.8240    23.8310     2.2770 
  227.1250   -14.1860    56.9000    51.0680    46.4830   104.9610    23.8310     2.2690 
  227.2500   -14.7140    59.6490    56.8310    52.9170    79.7480    23.8310     2.2680 
  227.3750   -15.2550    62.3910    61.6980    57.8860    67.8040    23.8310     2.2670 
  227.5000   -15.7970    62.4190    66.8560    62.4410    70.6010    23.8310     2.2620 
  227.6250   -16.2600    60.8330    73.5220    67.9200    82.1610    23.8290     2.2600 
  227.7500   -16.6510    60.2930    81.8760    74.9010    95.4720    23.8080     2.2700 
  227.8750   -17.0140    60.8690    91.7510    83.3860   106.4990    23.7290     2.2960 
  228.0000   -17.3820    60.0350   102.3200    92.7350   109.8350    23.6080     2.3320 
  228.1250   -17.7160    56.9580   111.8690   101.4730   111.3290    23.5730     2.3580 
  228.2500   -17.9650    53.0990   118.6820   108.1520   117.7220    23.6800     2.3610 
  228.3750   -18.1350    50.6540   121.8590   111.9310   131.5090    23.8170     2.3380 
  228.5000   -18.2720    53.3000   121.5170   112.8880   141.9230    23.9650     2.3030 
  228.6250   -18.3420    59.8140   119.4770   111.9540   128.4060    24.0940     2.2750 
  228.7500   -18.3600    63.1890   118.3770   110.9590   117.3410    24.1460     2.2620 
  228.8750   -18.3320    60.9620   119.2190   110.8640   116.0020    24.1550     2.2630 
  229.0000   -18.2340    57.0390   121.7790   112.0430   121.8090    24.1530     2.2710 
  229.1250   -18.1010    55.5760   125.4450   114.5050   131.0860    24.1450     2.2780 
  229.2500   -18.0110    54.8920   129.1640   117.5730   136.3520    24.1250     2.2820 
  229.3750   -17.9160    55.0860   133.5980   120.8330   138.2510    24.1140     2.2830 
  229.5000   -17.7630    56.9170   137.3440   124.0580   139.9610    24.1390     2.2820 
  229.6250   -17.6470    58.7970   141.2550   127.1930   142.1550    24.1740     2.2780 
