~V
VERS. 2.00: Ver 2.00
~W
STRT.M 59.0000:
STOP.M 264.0000:
STEP.M 0.1250:
NULL. -999.2500:
UWI. DF5022:
~C
DEPT.M :
GR.API :
CALI.CM :
RXO.OHMM :
RI. :
RML.OHMM :
SP.MV :
DEN.GM/CC :
~A
# ...
  194.0000    48.2530    24.7410   179.5480   249.0620   255.0900   -42.1880     2.2080 
  194.1250    50.0360    24.5980   112.4850   226.6400   230.5310   -41.6230     2.2150 
  194.2500    52.4390    24.3350    72.3570   206.5040   209.0380   -41.0320     2.2160 
  194.3750    53.3910    24.0940    56.0070   189.5220   191.1760   -40.6870     2.2180 
  194.5000    53.2690    24.0040    50.5310   176.2230   177.4430   -40.1690     2.2270 
  194.6250    52.8320    24.0800    46.0860   167.9160   169.3470   -39.5070     2.2430 
  194.7500    52.4960    24.2070    46.5570   164.7280   166.9540   -39.1380     2.2580 
  194.8750    53.5270    24.3590    60.3920   167.5620   171.0080   -38.8230     2.2650 
  195.0000    54.7740    24.5230    86.2890   177.0770   182.0040   -38.3020     2.2600 
  195.1250    52.6820    24.6680   134.3620   194.5840   201.3980   -38.0720     2.2440 
  195.2500    49.2070    24.7570   189.7180   218.5660   228.0820   -37.8200     2.2290 
  195.3750    48.0940    24.7880   258.0040   247.9840   261.6480   -37.3210     2.2200 
  195.5000    49.8240    24.7920   321.6710   280.9140   300.7260   -36.9900     2.2160 
  195.6250    50.7150    24.7920   381.2770   314.0340   342.3250   -36.7940     2.2110 
  195.7500    50.0540    24.7920   420.5190   343.2040   381.1910   -36.3040     2.2050 
  195.8750    49.3530    24.7910   438.8540   365.0940   412.9530   -35.5900     2.2010 
  196.0000    48.9470    24.7890   443.0590   378.2710   435.1430   -35.0990     2.1990 
  196.1250    47.9480    24.7850   433.9950   382.4450   445.2740   -34.4920     2.1950 
  196.2500    46.0370    24.7830   429.7500   378.0440   441.0430   -33.6540     2.1870 
  196.3750    45.2910    24.7810   408.2010   359.7840   413.7070   -32.9750     2.1770 
  196.5000    46.1910    24.7880   356.6790   322.4790   358.3190   -32.2320     2.1730 
  196.6250    46.5180    24.7890   259.3190   266.6320   283.5960   -31.2200     2.1830 
  196.7500    47.3180    24.6590   146.9170   207.1790   212.5460   -30.3690     2.2020 
  196.8750    49.2480    24.3290    58.4830   154.9170   156.0600   -29.6550     2.2260 
  197.0000    51.0950    23.9170    28.8720   115.3780   116.3530   -28.7010     2.2550 
  197.1250    52.4330    23.6730    26.7130    90.7410    92.8250   -27.7730     2.2860 
  197.2500    54.0210    23.7000    30.3530    75.9420    79.1380   -27.0810     2.3110 
  197.3750    55.3570    23.9800    34.8770    68.2120    72.3770   -26.1960     2.3200 
  197.5000    55.3330    24.3900    48.0060    65.4460    70.4510   -25.2850     2.3080 
  197.6250    55.7260    24.6770    71.5060    66.4550    72.2030   -24.6850     2.2810 
  197.7500    56.1590    24.7430    86.0200    69.3970    75.8990   -23.9790     2.2590 
  197.8750    53.4430    24.6910    75.9760    73.5880    81.0320   -23.1450     2.2510 
  198.0000    48.6210    24.6470    73.1060    78.8180    87.5760   -22.5580     2.2540 
  198.1250    46.2450    24.6470    96.5140    85.0640    95.7220   -22.0420     2.2600 
  198.2500    46.8560    24.6680   115.5350    91.5200   104.5230   -21.3810     2.2610 
  198.3750    47.5530    24.6860   121.3190    97.0930   112.5110   -20.8930     2.2570 
  198.5000    46.8250    24.6920   125.2770   100.5090   117.7950   -20.4840     2.2500 
  198.6250    46.4720    24.6570   127.8110   100.6910   118.7830   -19.9060     2.2410 
  198.7500    47.7540    24.5750   111.1020    99.2710   117.6730   -19.3710     2.2360 
  198.8750    49.6430    24.4750    96.2810    97.7200   116.3680   -19.0500     2.2460 
  199.0000    49.8940    24.4010    98.1240    96.0990   114.8450   -18.7090     2.2830 
  199.1250    47.7870    24.3930   107.9310    92.5410   110.6260   -18.1840     2.3560 
  199.2500    44.5160    24.4200   128.9440    86.0520   102.5270   -17.8550     2.4520 
  199.3750    41.6870    24.4470   138.3460    76.6240    90.7490   -17.5070     2.5520 
  199.5000    41.0460    24.4570   110.8110    64.7840    76.2320   -16.9950     2.6320 
  199.6250    43.0510    24.4520    64.1650    51.4980    60.2890   -16.6840     2.6680 
  199.7500    47.1390    24.4490    52.0640    38.8120    45.1060   -16.4300     2.6720 
  199.8750    52.1660    24.4500    48.4020    28.2550    32.3870   -16.0310     2.6570 
  200.0000    55.9250    24.4500    38.7080    20.5850    23.1230   -15.6530     2.6370 
  200.1250    55.3350    24.4500    20.9890    16.0690    17.7760   -15.4440     2.6260 
  200.2500    50.7650    24.4510    13.4790    13.5160    14.9080   -15.0940     2.6360 
  200.3750    46.1490    24.4430    12.4710    12.2010    13.5530   -14.8140     2.6650 
  200.5000    44.6380    24.4150    13.5920    11.4890    12.8230   -14.6460     2.6940 
  200.6250    46.2050    24.3800    13.1880    10.7620    11.8990   -14.2790     2.6920 
  200.7500    47.7590    24.3570    11.3360     9.6480    10.4420   -13.9900     2.6600 
  200.8750    49.4540    24.3500     8.4810     8.2180     8.6430   -13.8490     2.6130 
  201.0000    52.8590    24.3730     6.2880     6.7770     6.9360   -13.5600     2.5670 
  201.1250    55.4750    24.4490     4.4980     5.6510     5.7210   -13.2510     2.5070 
  201.2500    56.0460    24.5450     3.9710     4.8720     4.9580   -13.1120     2.4160 
  201.3750    54.2210    24.6160     3.6190     4.3970     4.5350   -12.9000     2.3120 
  201.5000    52.0690    24.6470     3.2640     4.1520     4.3320   -12.7250     2.2380 
  201.6250    51.3510    24.6540     2.7190     4.0740     4.2670   -12.7950     2.2280 
  201.7500    50.9860    24.6560     2.6200     4.0730     4.2590   -12.7730     2.2590 
  201.8750    50.5780    24.6570     3.2000     4.1090     4.2690   -12.7200     2.3030 
  202.0000    48.8100    24.6600     3.8700     4.1420     4.2690   -12.9380     2.3400 
  202.1250    46.3400    24.6600     4.1050     4.1420     4.2380   -13.1060     2.3600 
  202.2500    44.2850    24.6610     4.1810     4.1210     4.2010   -13.2310     2.3680 
  202.3750    42.9570    24.6690     3.9580     4.1140     4.2050   -13.5850     2.3650 
  202.5000    42.9020    24.6660     3.6350     4.1680     4.3000   -13.9510     2.3560 
  202.6250    43.5820    24.5380     3.7550     4.3350     4.5370   -14.1780     2.3420 
  202.7500    44.9760    24.2870     4.1860     4.6000     4.8810   -14.5640     2.3200 
  202.8750    47.7240    24.1000     4.6790     4.9240     5.2890   -15.1140     2.2920 
  203.0000    51.8970    24.1470     4.7220     5.2580     5.7210   -15.5240     2.2640 
  203.1250    55.3490    24.2910     4.8890     5.5550     6.1410   -16.0490     2.2550 
  203.2500    57.3660    24.2320     5.1250     5.7980     6.5290   -16.6260     2.2740 
  203.3750    60.9180    23.9670     5.8840     5.9900     6.8800   -17.0650     2.3190 
  203.5000    68.5290    23.6680     6.7860     6.1520     7.2020   -17.6410     2.3740 
  203.6250    74.8440    23.4980     7.2320     6.3080     7.5210   -18.3670     2.4170 
  203.7500    76.6430    23.4420     7.3530     6.4740     7.8640   -18.8980     2.4430 
  203.8750    78.1090    23.4530     7.3080     6.6620     8.2440   -19.3830     2.4540 
  204.0000    82.8270    23.4740     7.5730     6.8780     8.6550   -20.0810     2.4500 
  204.1250    88.7970    23.4760     7.9740     7.1090     9.0680   -20.6560     2.4370 
  204.2500    91.1260    23.4760     8.1460     7.3260     9.4380   -21.1670     2.4220 
  204.3750    89.9430    23.4730     8.2200     7.5040     9.7340   -21.7920     2.4110 
  204.5000    87.6100    23.4690     8.2730     7.6350     9.9510   -22.3870     2.4070 
  204.6250    86.1090    23.5290     8.1810     7.7250    10.1110   -22.8410     2.4010 
  204.7500    83.7040    23.7380     8.0340     7.8070    10.2690   -23.2680     2.3840 
  204.8750    79.0500    24.1300     8.1440     7.9070    10.4590   -23.7180     2.3610 
  205.0000    74.8120    24.5990     8.4680     8.0440    10.6970   -24.0340     2.3450 
  205.1250    73.3350    24.9200     9.1090     8.2450    11.0030   -24.2520     2.3390 
