~V
VERS. 2.00: Ver 2.00
~W
STRT.M 50.0000:
STOP.M 260.0000:
STEP.M 0.1250:
NULL. -999.2500:
UWI. DF5023:
~C
DEPT.M :
GR.API :
RML.OHMM :
RI. :
RXO.OHMM :
CALI.CM :
DEN.GM/CC :
SP.MV :
~A
# ...
  140.0000    80.8000     8.8110     7.1180     6.9850    23.6730     2.3170   -18.3080 
  140.1250    74.6100     9.7570     8.0220     7.6820    23.5640     2.3510   -19.0770 
  140.2500    67.3610    10.3760     8.6810     8.2560    23.4810     2.3660   -19.8060 
  140.3750    62.3400    10.5620     8.9780     8.5030    23.4240     2.3520   -20.5720 
  140.5000    61.6710    10.3500     8.9070     8.6530    23.3830     2.3120   -21.1890 
  140.6250    64.1670     9.8920     8.5520     8.5070    23.3670     2.2620   -21.7760 
  140.7500    66.2880     9.4390     8.1260     8.2990    23.3630     2.2190   -22.2170 
  140.8750    65.0810     9.0950     7.7390     8.3450    23.3620     2.1890   -22.5210 
  141.0000    62.9870     8.8800     7.4440     8.5360    23.3600     2.1710   -22.7570 
  141.1250    66.2780     8.7810     7.2670     8.5240    23.3620     2.1640   -22.8020 
  141.2500    72.9870     8.7440     7.1760     8.3440    23.3690     2.1630   -22.7820 
  141.3750    76.8110     8.7680     7.1640     8.2320    23.3760     2.1690   -22.5970 
  141.5000    75.0590     8.8890     7.2440     8.2440    23.3790     2.1790   -22.4220 
  141.6250    72.1500     9.1840     7.4670     8.1940    23.3790     2.1910   -22.1840 
  141.7500    73.0480     9.6280     7.8100     8.2000    23.3770     2.2000   -21.9670 
  141.8750    75.9470    10.1220     8.2070     8.6320    23.3720     2.2030   -21.7180 
  142.0000    75.8390    10.5020     8.5350     9.6660    23.3680     2.2010   -21.3840 
  142.1250    71.6390    10.5230     8.6060    11.0000    23.3720     2.2000   -21.0290 
  142.2500    68.3320    10.1470     8.3690    11.6480    23.4100     2.2050   -20.6330 
  142.3750    69.0720     9.4430     7.8540    11.4960    23.5260     2.2180   -20.2570 
  142.5000    73.0430     8.6010     7.1810    10.8130    23.7550     2.2360   -19.9010 
  142.6250    76.4020     7.9150     6.5620     9.0320    23.9910     2.2500   -19.6290 
  142.7500    78.9220     7.5790     6.1820     7.1440    24.0450     2.2530   -19.4280 
  142.8750    80.4030     7.7070     6.1710     6.6420    23.8620     2.2420   -19.3690 
  143.0000    79.3200     8.3100     6.5800     7.6020    23.5870     2.2220   -19.2660 
  143.1250    73.5070     9.3130     7.3920     9.6620    23.4830     2.2060   -19.2370 
  143.2500    67.7260    10.3880     8.3450    11.6510    23.5390     2.2080   -19.1900 
  143.3750    66.3710    11.2290     9.1870    13.4610    23.7200     2.2340   -19.1380 
  143.5000    67.3620    11.5540     9.6620    15.5610    23.9370     2.2770   -18.9670 
  143.6250    66.9020    11.1320     9.5150    17.4100    24.0250     2.3150   -18.6880 
  143.7500    66.9200    10.2430     8.8960    16.1570    24.0480     2.3330   -18.3020 
  143.8750    70.0230     9.1890     8.0170    11.3140    24.0480     2.3270   -17.8110 
  144.0000    75.3980     8.2440     7.1190     7.8220    24.0450     2.3090   -17.4960 
  144.1250    80.4060     7.6350     6.4370     6.3910    24.0330     2.2980   -17.1880 
  144.2500    83.9400     7.3510     6.0270     6.0630    24.0030     2.2970   -17.0140 
  144.3750    87.1600     7.3610     5.8940     6.0710    23.9470     2.3020   -16.9180 
  144.5000    89.9590     7.6080     6.0050     6.2360    23.8620     2.3040   -16.9900 
  144.6250    90.8150     8.0250     6.3140     6.5610    23.7770     2.2970   -17.1710 
  144.7500    88.5180     8.4770     6.6960     6.9750    23.7400     2.2820   -17.3710 
  144.8750    84.7090     8.8800     7.0700     7.1810    23.7330     2.2630   -17.6260 
  145.0000    81.4000     9.1840     7.3720     7.1440    23.7370     2.2440   -17.7710 
  145.1250    78.6210     9.3240     7.5320     7.5750    23.7440     2.2300   -17.9660 
  145.2500    77.0020     9.3160     7.5460     8.3280    23.7600     2.2250   -18.0640 
  145.3750    78.1840     9.1800     7.4230     8.6640    23.7890     2.2290   -18.1430 
  145.5000    81.9470     8.9580     7.1940     8.0970    23.8040     2.2400   -18.1740 
  145.6250    85.9740     8.7030     6.9060     7.0270    23.7540     2.2510   -18.2810 
  145.7500    88.5290     8.4690     6.6230     6.5860    23.6340     2.2550   -18.4580 
  145.8750    88.2570     8.2940     6.3920     6.6270    23.5080     2.2480   -18.6850 
  146.0000    83.3510     8.2160     6.2550     6.8900    23.4460     2.2350   -18.9060 
  146.1250    78.2030     8.2920     6.2740     7.0190    23.4390     2.2240   -19.1660 
  146.2500    79.3280     8.5210     6.4560     7.3290    23.4530     2.2230   -19.4890 
  146.3750    83.4600     8.9220     6.8140     8.0010    23.4930     2.2360   -19.7760 
  146.5000    83.0480     9.5170     7.3670     9.2260    23.5470     2.2580   -20.0350 
  146.6250    76.3460    10.3580     8.1560    11.4090    23.5730     2.2790   -20.1330 
  146.7500    69.2960    11.3770     9.1140    13.8880    23.5750     2.2830   -20.2580 
  146.8750    65.5170    12.4580    10.1480    14.8790    23.5630     2.2620   -20.2460 
  147.0000    65.8020    13.3940    11.0920    14.8260    23.5420     2.2210   -20.2250 
  147.1250    66.8970    13.8430    11.6610    14.5650    23.5520     2.1790   -20.1020 
  147.2500    67.0700    13.7000    11.7310    15.2960    23.5760     2.1520   -19.8400 
  147.3750    67.5070    12.9810    11.2760    15.8950    23.6280     2.1490   -19.5640 
  147.5000    70.3730    11.8610    10.4020    15.4630    23.7330     2.1650   -19.2480 
  147.6250    76.1210    10.6420     9.3150    12.9240    23.8390     2.1910   -19.0210 
  147.7500    81.7210     9.6130     8.2960     9.4880    23.8710     2.2120   -18.7290 
  147.8750    84.9300     8.8940     7.4890     7.2330    23.8170     2.2220   -18.6070 
  148.0000    84.6480     8.5360     6.9790     6.6760    23.6590     2.2190   -18.5580 
  148.1250    82.7480     8.5740     6.8430     7.2190    23.4850     2.2110   -18.5860 
  148.2500    81.9730     8.8650     6.9830     8.0410    23.3930     2.2050   -18.7290 
  148.3750    81.6410     9.2980     7.3200     8.6110    23.3650     2.2030   -18.9460 
  148.5000    80.1600     9.7500     7.7600     8.6420    23.3600     2.2000   -19.2240 
  148.6250    75.8450    10.0820     8.1910     8.8740    23.3580     2.1950   -19.4910 
  148.7500    70.7900    10.2700     8.5440     9.6350    23.3580     2.1860   -19.7300 
  148.8750    68.0620    10.3580     8.8140    10.4340    23.3690     2.1750   -19.8280 
  149.0000    68.1620    10.4280     9.0350    10.8840    23.3990     2.1600   -19.8890 
  149.1250    68.9110    10.5890     9.2770    11.2700    23.4160     2.1440   -19.9040 
  149.2500    68.1800    10.8710     9.5780    11.2950    23.4200     2.1310   -19.9010 
  149.3750    66.1590    11.2120     9.9050    10.9120    23.4180     2.1300   -19.7240 
  149.5000    65.5380    11.4860    10.1640    10.8550    23.4340     2.1530   -19.4430 
  149.6250    67.6690    11.4950    10.2050    11.3830    23.5120     2.2080   -18.9920 
  149.7500    69.8240    11.1440     9.9520    12.3860    23.6830     2.2810   -18.5580 
  149.8750    71.6870    10.4150     9.3730    13.7920    23.8900     2.3450   -18.1070 
  150.0000    76.6590     9.4280     8.5420    13.5470    24.0250     2.3770   -17.6850 
  150.1250    85.7800     8.4380     7.6360     9.7760    24.0700     2.3630   -17.2890 
  150.2500    93.9170     7.6700     6.8590     6.6890    24.0690     2.3250   -16.9650 
  150.3750    97.7970     7.2560     6.3490     5.9830    24.0420     2.2850   -16.8750 
  150.5000    97.0010     7.2490     6.1840     6.0060    24.0050     2.2570   -16.8860 
  150.6250    94.4560     7.6590     6.4150     6.3200    23.9250     2.2450   -17.1670 
  150.7500    92.6310     8.2910     6.9060     6.8400    23.7770     2.2400   -17.4660 
  150.8750    91.3660     8.9680     7.5310     7.6490    23.5710     2.2370   -17.8150 
  151.0000    89.6830     9.5070     8.1400     8.8520    23.4190     2.2320   -18.0700 
  151.1250    88.0660     9.7760     8.5940     9.9270    23.3730     2.2260   -18.1710 
