~V
VERS. 2.00: Ver 2.00
~W
STRT.M 59.0000:
STOP.M 243.0000:
STEP.M 0.1250:
NULL. -999.2500:
UWI. DF5058:
~C
DEPT.M :
GR.API :
CALI.CM :
RXO.OHMM :
RI. :
RML.OHMM :
DEN.GM/CC :
SP.MV :
~A
# ...
  160.2500    69.5120    25.1790    51.7730    72.8350    77.6210     2.2090   -30.7850 
  160.3750    69.5910    25.2750    46.4820    69.4500    73.7420     2.2110   -30.8780 
  160.5000    69.4470    25.3240    45.1780    65.2140    68.9410     2.2140   -30.9030 
  160.6250    71.5200    25.3170    40.1200    60.4990    63.6330     2.2170   -31.0400 
  160.7500    71.9070    25.3170    34.7040    55.7850    58.3620     2.2220   -31.0720 
  160.8750    70.4330    25.3260    29.4210    51.3530    53.4660     2.2270   -31.2010 
  161.0000    69.9210    25.2730    24.3450    47.4570    49.2910     2.2310   -31.3560 
  161.1250    70.6840    25.1020    21.4870    44.6700    46.5510     2.2350   -31.4700 
  161.2500    72.3960    24.8940    20.5030    43.2930    45.5170     2.2370   -31.6890 
  161.3750    73.7320    24.7290    20.1890    43.5830    46.3650     2.2400   -31.8240 
  161.5000    73.1780    24.6510    20.6790    45.5550    48.9370     2.2430   -32.1030 
  161.6250    69.2790    24.6780    24.6730    48.9680    52.6830     2.2430   -32.2510 
  161.7500    65.1270    24.7620    29.3520    52.6000    56.2380     2.2390   -32.4990 
  161.8750    64.8760    24.8450    31.3170    55.3570    58.5800     2.2320   -32.8120 
  162.0000    67.5670    24.8840    28.7970    56.6050    59.3600     2.2280   -33.0210 
  162.1250    69.4100    24.8590    23.8240    56.5440    59.2600     2.2300   -33.3000 
  162.2500    69.7310    24.7990    21.5860    56.5830    59.8920     2.2340   -33.5150 
  162.3750    69.4220    24.7560    25.0310    57.9190    62.4540     2.2370   -33.8310 
  162.5000    69.1320    24.7860    33.8090    61.4410    67.6570     2.2360   -34.0120 
  162.6250    67.3060    24.8790    41.4410    67.9440    76.0150     2.2290   -34.3370 
  162.7500    64.9620    24.9540    43.8930    76.6180    86.4070     2.2210   -34.6660 
  162.8750    63.9540    25.0030    42.7390    86.5310    97.7060     2.2120   -34.8310 
  163.0000    62.9830    25.0500    43.2520    96.4390   108.5220     2.2030   -35.1740 
  163.1250    62.5770    25.0890    49.2190   104.7790   117.1320     2.1940   -35.3650 
  163.2500    64.2800    25.0900    50.9010   111.0270   123.1700     2.1880   -35.5920 
  163.3750    67.1480    25.0140    44.1330   115.2220   126.8250     2.1830   -35.7280 
  163.5000    68.2010    24.7840    33.7980   117.7910   128.6830     2.1810   -35.8700 
  163.6250    65.8130    24.3670    27.0640   119.0710   129.1880     2.1800   -36.0110 
  163.7500    63.6630    23.9640    24.1170   119.5380   128.8650     2.1810   -36.0710 
  163.8750    63.6030    23.7360    23.3070   119.2780   127.7880     2.1830   -36.2400 
  164.0000    64.0910    23.6800    24.0050   118.2750   125.9530     2.1860   -36.2430 
  164.1250    62.9090    23.6870    24.0200   116.4640   123.3440     2.1910   -36.3220 
  164.2500    62.0050    23.6900    23.6980   114.2200   120.3790     2.1960   -36.2970 
  164.3750    61.9740    23.6910    23.7610   111.9190   117.5240     2.2000   -36.3440 
  164.5000    60.6660    23.6910    24.7850   110.1200   115.4910     2.2000   -36.3820 
  164.6250    59.0510    23.6890    25.2260   110.0800   115.7970     2.1990   -36.3990 
  164.7500    61.0110    23.6890    25.0560   112.7900   119.3870     2.1960   -36.4610 
  164.8750    65.0540    23.6910    25.1280   119.2300   126.9790     2.1940   -36.4230 
  165.0000    67.4330    23.6940    26.8460   129.5190   138.1650     2.1930   -36.5450 
  165.1250    67.1120    23.6930    31.3490   141.2340   149.6780     2.1950   -36.5210 
  165.2500    65.7560    23.6940    36.7350   148.8370   155.6840     2.2010   -36.5970 
  165.3750    63.4390    23.7200    39.3250   148.3400   152.5480     2.2090   -36.6850 
  165.5000    61.4380    23.7770    36.3230   139.9040   141.6970     2.2160   -36.7400 
  165.6250    63.0390    23.8250    27.6000   128.1860   129.2980     2.2160   -36.8500 
  165.7500    67.1140    23.8280    19.8230   119.4160   121.1860     2.2120   -36.8820 
  165.8750    69.8240    23.7900    21.9230   116.2680   119.0980     2.2070   -36.9540 
  166.0000    68.6830    23.7260    31.2130   118.7770   122.2580     2.2030   -36.9640 
  166.1250    65.2940    23.6510    37.5390   125.2300   128.3530     2.2000   -37.0570 
  166.2500    64.1270    23.5890    38.9650   131.8220   133.6650     2.1980   -37.2050 
  166.3750    65.7540    23.5460    39.6990   135.9110   135.9500     2.1980   -37.2340 
  166.5000    67.2700    23.5100    41.0220   136.3000   134.7240     2.1990   -37.4040 
  166.6250    66.5720    23.4770    44.5250   133.7790   131.4710     2.2010   -37.4390 
  166.7500    66.0920    23.4490    44.3520   131.0660   128.6730     2.2010   -37.5380 
  166.8750    68.5770    23.4230    42.8590   129.3780   127.1310     2.1990   -37.7040 
  167.0000    71.8870    23.4000    41.4580   128.8510   126.6360     2.1980   -37.7410 
  167.1250    70.2910    23.3860    42.3990   128.9810   126.4610     2.1970   -37.9390 
  167.2500    65.4500    23.3810    41.5510   128.8170   125.7380     2.1950   -38.0690 
  167.3750    62.1150    23.3770    39.1470   127.7440   124.0100     2.1940   -38.3080 
  167.5000    61.4200    23.3870    36.6270   125.5460   121.2300     2.1910   -38.3830 
  167.6250    61.3150    23.4440    37.0150   122.3520   117.6870     2.1880   -38.5820 
  167.7500    61.7300    23.5560    38.4270   118.8980   114.1010     2.1830   -38.7910 
  167.8750    63.9200    23.6820    36.8100   115.6840   110.8690     2.1790   -38.8080 
  168.0000    66.1360    23.7520    32.2560   112.7810   107.9160     2.1770   -38.9500 
  168.1250    64.6140    23.7180    30.8560   109.4480   104.4470     2.1790   -38.9670 
  168.2500    61.1900    23.6290    28.8410   105.0030    99.9460     2.1860   -39.0110 
  168.3750    59.0590    23.5280    28.0400    99.5940    94.7710     2.1960   -38.9120 
  168.5000    58.8970    23.4330    28.1610    94.2790    90.1310     2.2070   -38.9930 
  168.6250    59.1500    23.3520    26.6610    91.1370    88.1700     2.2170   -38.9180 
  168.7500    59.1920    23.2890    24.3460    91.4720    89.9080     2.2240   -38.8200 
  168.8750    60.6310    23.2370    22.7130    96.0870    95.8630     2.2260   -38.8940 
  169.0000    64.0940    23.1870    21.0870   104.9940   105.7880     2.2220   -38.8390 
  169.1250    66.6130    23.1590    18.7600   117.4800   118.7260     2.2110   -38.9090 
  169.2500    66.8700    23.1800    17.8910   130.5490   131.7910     2.1970   -38.9100 
  169.3750    65.9830    23.2380    18.9120   141.5350   142.5250     2.1840   -39.0580 
  169.5000    65.5680    23.3570    22.7400   148.6750   149.4760     2.1720   -39.0400 
  169.6250    64.1250    23.7140    32.7260   151.6940   152.7690     2.1650   -39.0950 
  169.7500    60.5150    24.3240    54.2480   153.0460   154.8940     2.1620   -39.2230 
  169.8750    57.4970    24.9590    81.5680   154.2540   157.2440     2.1650   -39.2110 
  170.0000    57.7620    25.3330   106.7640   156.1490   160.4430     2.1710   -39.3850 
  170.1250    60.0580    25.3670   119.3570   159.0780   164.5920     2.1770   -39.4460 
  170.2500    62.1400    25.2910   133.1850   162.5330   169.0350     2.1810   -39.5980 
  170.3750    63.6060    25.1730   141.5330   165.8170   173.0200     2.1810   -39.6740 
  170.5000    63.9560    24.9510   140.9950   168.1450   175.7460     2.1790   -39.8920 
  170.6250    61.4570    24.6360   138.0060   168.7490   176.3850     2.1740   -40.0800 
  170.7500    59.4410    24.3980   140.8640   167.9230   175.2710     2.1700   -40.2490 
  170.8750    61.2890    24.3130   149.2250   165.9450   172.6860     2.1680   -40.4250 
  171.0000    64.7850    24.3260   154.8370   162.9850   168.8450     2.1700   -40.5680 
  171.1250    65.3700    24.3480   157.2280   158.9350   163.6850     2.1750   -40.7300 
  171.2500    61.7430    24.3670   158.7970   154.1710   157.7030     2.1820   -40.7910 
  171.3750    56.7870    24.3860   156.0700   149.2310   151.4430     2.1900   -40.9130 
