~V
VERS. 2.00: Ver 2.00
~W
STRT.M 60.0000:
STOP.M 249.0000:
STEP.M 0.1250:
NULL. -999.2500:
UWI. DF5060:
~C
DEPT.M :
GR.API :
CALI.CM :
RXO.OHMM :
RI. :
RML.OHMM :
DEN.GM/CC :
SP.MV :
~A
# ...
  228.7500    56.1890    25.0550    17.5640    24.7090    25.3290     2.2480   -12.1970 
  228.8750    55.6200    25.0290    19.0750    26.0470    26.9720     2.2630   -12.1950 
  229.0000    58.1270    25.0090    21.6510    27.6790    28.5600     2.2890   -12.2000 
  229.1250    63.0250    25.0550    23.2590    28.3710    28.7960     2.3160   -12.1530 
  229.2500    67.1500    25.1020    23.8400    27.5020    27.3550     2.3320   -12.0840 
  229.3750    67.7560    25.0390    20.8420    25.3180    24.7100     2.3300   -11.9930 
  229.5000    63.9050    24.8920    15.5010    22.6880    21.8460     2.3180   -11.9070 
  229.6250    58.5760    24.8370    13.2900    20.5880    19.7880     2.3140   -11.8430 
  229.7500    58.2300    24.8910    13.2550    19.2430    18.6320     2.3290   -11.7790 
  229.8750    64.0890    24.9300    13.8420    18.4530    18.0720     2.3610   -11.7520 
  230.0000    70.7570    24.9150    14.1070    17.8780    17.6890     2.3970   -11.7730 
  230.1250    71.6820    24.9300    15.6290    17.2540    17.1940     2.4150   -11.7970 
  230.2500    70.2250    24.9400    15.8940    16.6220    16.6980     2.4010   -11.7970 
  230.3750    70.7940    24.9020    13.0170    16.2230    16.5260     2.3610   -11.7750 
  230.5000    72.2620    24.8380    10.7580    16.3180    16.9760     2.3100   -11.7240 
  230.6250    69.9770    24.8440    13.9850    17.1120    18.1970     2.2670   -11.7010 
  230.7500    67.1990    24.9180    17.9070    18.3520    19.7830     2.2380   -11.7030 
  230.8750    67.8270    24.9900    19.1190    19.7420    21.3500     2.2250   -11.6400 
  231.0000    71.0360    25.0190    18.5910    20.9790    22.6010     2.2230   -11.4620 
  231.1250    72.4270    25.0160    17.8610    21.8520    23.4610     2.2230   -11.2210 
  231.2500    70.7430    25.0110    17.1130    22.5660    24.2760     2.2180   -10.9620 
  231.3750    67.9690    25.0110    17.9800    23.3790    25.3060     2.2090   -10.7300 
  231.5000    64.6990    25.0150    20.0110    24.3750    26.5290     2.2000   -10.5350 
  231.6250    61.8360    25.0200    21.6590    25.2230    27.4540     2.1970   -10.3760 
  231.7500    61.9140    25.0200    22.7570    25.4350    27.5650     2.2020   -10.2850 
  231.8750    64.0140    25.0020    22.4800    24.7370    26.6270     2.2110   -10.3170 
  232.0000    64.9640    24.9630    19.6270    23.1700    24.7370     2.2190   -10.4740 
  232.1250    65.7010    24.9110    17.3050    20.9300    22.1510     2.2280   -10.6670 
  232.2500    71.0020    24.8570    14.8680    18.4810    19.3920     2.2380   -10.8490 
  232.3750    77.4050    24.8120    13.6890    16.1560    16.8320     2.2510   -10.9250 
  232.5000    78.8720    24.7840    13.2250    14.2190    14.7680     2.2690   -10.9010 
  232.6250    78.3030    24.7640    11.1840    12.8800    13.4530     2.2950   -10.7790 
  232.7500    79.8090    24.7610     9.1160    12.0280    12.7130     2.3230   -10.6660 
  232.8750    79.5590    24.7910     9.2300    11.5310    12.3350     2.3510   -10.5580 
  233.0000    75.3320    24.7930    10.8020    11.1950    12.0370     2.3760   -10.4430 
  233.1250    71.1370    24.6380    10.0710    10.7990    11.5500     2.3940   -10.3350 
  233.2500    69.1750    24.4260     8.0130    10.2640    10.8590     2.4030   -10.2360 
  233.3750    68.7140    24.3300     7.0460     9.6380    10.0840     2.4030   -10.2100 
  233.5000    69.1550    24.3810     6.9600     9.0210     9.3850     2.3950   -10.2480 
  233.6250    69.0130    24.4510     6.9740     8.5410     8.9170     2.3810   -10.3140 
  233.7500    67.7690    24.4830     6.6150     8.2160     8.6360     2.3700   -10.2820 
  233.8750    66.3460    24.5090     6.1460     8.0050     8.4480     2.3640   -10.1120 
  234.0000    65.6480    24.5280     5.8760     7.8490     8.2660     2.3630    -9.8520 
  234.1250    65.2780    24.5160     5.8010     7.7180     8.0770     2.3620    -9.5430 
  234.2500    66.5730    24.5040     5.6620     7.6150     7.9330     2.3590    -9.3390 
  234.3750    65.8800    24.5150     5.2280     7.5690     7.8960     2.3590    -9.2260 
  234.5000    61.5540    24.5320     4.5240     7.6170     8.0170     2.3670    -9.0460 
  234.6250    59.2250    24.5360     4.2300     7.8120     8.3330     2.3840    -8.8830 
  234.7500    61.6880    24.5470     4.4210     8.1190     8.7550     2.4060    -8.7990 
  234.8750    65.0410    24.5690     4.7960     8.4640     9.1690     2.4260    -8.7250 
  235.0000    64.4820    24.5830     5.6030     8.7230     9.4320     2.4370    -8.7900 
  235.1250    62.7340    24.5750     6.8270     8.7250     9.3780     2.4270    -8.8890 
  235.2500    62.0600    24.5690     8.1680     8.4720     9.0630     2.4030    -8.8420 
  235.3750    62.0120    24.5760     8.6060     8.0600     8.6190     2.3780    -8.7950 
  235.5000    63.7850    24.5860     7.3980     7.6420     8.2230     2.3610    -8.8080 
  235.6250    67.0430    24.5890     5.3100     7.3880     8.0590     2.3610    -8.8500 
  235.7500    68.6310    24.5910     3.8810     7.3340     8.1330     2.3720    -8.8240 
  235.8750    67.4800    24.5860     3.4250     7.4510     8.3810     2.3870    -8.8980 
  236.0000    65.9660    24.5470     3.3790     7.6610     8.6860     2.3950    -8.8940 
  236.1250    65.0200    24.4510     3.4510     7.8490     8.8970     2.3920    -8.7960 
  236.2500    62.2710    24.3430     3.5000     7.9380     8.9580     2.3840    -8.8820 
  236.3750    60.1240    24.2590     3.5000     7.9190     8.8930     2.3760    -8.9120 
  236.5000    62.0960    24.2130     3.5220     7.8250     8.7820     2.3690    -8.8390 
  236.6250    64.5790    24.1960     3.5990     7.7220     8.7200     2.3660    -8.7860 
  236.7500    63.4490    24.1910     3.7020     7.6720     8.7450     2.3670    -8.7660 
  236.8750    60.5360    24.1880     3.8240     7.7000     8.8550     2.3720    -8.6450 
  237.0000    59.6820    24.1840     3.9960     7.8020     9.0260     2.3800    -8.6310 
  237.1250    60.8320    24.1710     4.2160     7.9560     9.2390     2.3900    -8.7140 
  237.2500    61.3370    24.1500     4.5180     8.1240     9.4720     2.4010    -8.6220 
  237.3750    60.5770    24.1310     5.0220     8.2900     9.7080     2.4100    -8.5580 
  237.5000    58.6390    24.1300     5.8940     8.4340     9.9130     2.4120    -8.5700 
  237.6250    57.3520    24.1540     7.0090     8.5250    10.0230     2.4040    -8.5140 
  237.7500    58.4170    24.1840     8.1890     8.5500    10.0250     2.3900    -8.4240 
  237.8750    60.1300    24.2030     8.9280     8.5020     9.9290     2.3760    -8.3890 
  238.0000    60.5540    24.2110     8.5160     8.3920     9.7740     2.3680    -8.3330 
  238.1250    60.6090    24.1980     7.0180     8.2500     9.6250     2.3710    -8.2990 
  238.2500    60.6090    24.1590     5.9120     8.1280     9.5400     2.3840    -8.2720 
  238.3750    60.6090    24.1050     5.5980     8.0600     9.5450     2.4040    -8.2400 
  238.5000    60.6090    24.0660     5.6090     8.0640     9.6430     2.4310    -8.3140 
  238.6250    60.6090    24.0610     5.9060     8.1470     9.8230     2.4590    -8.3940 
  238.7500    60.6090    24.0590     6.5890     8.2680    10.0320     2.4830    -8.5220 
  238.8750    60.6090    24.0490     7.3370     8.3910    10.2350     2.4960    -8.7180 
  239.0000    60.6090    24.0420     8.1060     8.4930    10.4110     2.4990    -8.8820 
  239.1250    60.6090    24.0480     8.1890     8.5800    10.5770     2.4960    -9.0580 
  239.2500    60.6090    24.0600     7.8940     8.6940    10.7990     2.4920    -9.2230 
  239.3750    60.6090    24.0820     7.9060     8.8840    11.1490     2.4900    -9.3650 
  239.5000    60.6090    24.1180     8.6020     9.1900    11.6780     2.4920    -9.3940 
  239.6250    60.6090    24.1560     9.1740     9.6420    12.3990     2.4960    -9.3960 
  239.7500    60.6090    24.1740     9.8140    10.1770    13.1870     2.4990    -9.4000 
  239.8750    60.6090    24.1780    10.9160    10.7160    13.9080     2.5000    -9.3680 
