~V
VERS. 2.00: Ver 2.00
~W
STRT.M 55.0000:
STOP.M 270.0000:
STEP.M 0.1250:
NULL. -999.2500:
UWI. DF5017:
~C
DEPT.M :
SP.MV :
GR.API :
CALI.CM :
RXO.OHMM :
RI. :
RML.OHMM :
DEN.GM/CC :
~A
# ...
  167.5000   -35.6790    70.6340    24.4210   152.0630   155.5560   162.2630     2.2150 
  167.6250   -36.4890    70.8170    24.4000   152.2980   156.1050   161.4610     2.2160 
  167.7500   -37.2280    67.6240    24.4080   145.4960   149.5190   152.2990     2.2310 
  167.8750   -37.9310    64.4140    24.4520   129.7250   136.8950   136.9100     2.2530 
  168.0000   -38.6130    64.3760    24.5380   107.5830   121.6120   119.9230     2.2670 
  168.1250   -39.2870    66.8680    24.6120    87.6110   108.6210   106.7140     2.2640 
  168.2500   -39.9610    70.0680    24.6790    74.0790   101.0500    99.3340     2.2500 
  168.3750   -40.5710    73.7570    24.6780    69.6410   100.8180    98.7730     2.2320 
  168.5000   -41.1260    76.2740    24.7300    77.3150   109.4640   105.8960     2.2120 
  168.6250   -41.6130    74.2080    24.6290   103.5710   130.1100   123.6670     2.1910 
  168.7500   -42.1570    70.9940    24.5700   140.8760   161.0530   156.8140     2.1740 
  168.8750   -42.6880    70.4190    24.5540   175.4170   199.1640   201.0060     2.1630 
  169.0000   -43.2180    72.1540    24.5550   196.1460   237.2920   244.5450     2.1620 
  169.1250   -43.6940    73.2240    24.5090   201.8330   263.5760   275.6370     2.1700 
  169.2500   -44.1180    72.2760    24.4500   198.3280   274.4020   287.7750     2.1830 
  169.3750   -44.5100    70.2590    24.3770   188.5470   272.2000   285.0350     2.1950 
  169.5000   -44.9080    68.3850    24.2820   179.3690   262.4020   274.9450     2.2040 
  169.6250   -45.3410    66.7310    24.1260   176.8830   249.5970   262.5700     2.2050 
  169.7500   -45.7800    65.7670    23.9960   172.4060   237.0360   250.5260     2.2010 
  169.8750   -46.1920    66.4080    23.9800   160.9290   226.3660   239.6480     2.1990 
  170.0000   -46.5610    67.8060    24.0730   146.9460   219.3480   232.2090     2.2030 
  170.1250   -46.8740    67.8070    24.1430   141.1190   218.8520   231.6830     2.2110 
  170.2500   -47.0800    66.2670    24.1910   142.5710   225.4440   238.6700     2.2140 
  170.3750   -47.2310    64.6190    24.2350   148.4290   239.9140   254.0090     2.2080 
  170.5000   -47.2870    63.6440    24.2460   158.1910   262.1050   277.5320     2.1980 
  170.6250   -47.2610    62.0300    24.1610   171.5390   290.1460   307.2540     2.1970 
  170.7500   -47.1530    60.5570    24.0150   179.5300   316.9820   335.7010     2.2040 
  170.8750   -46.8790    59.7560    23.9400   180.5970   335.3770   355.2000     2.2120 
  171.0000   -46.5060    60.7330    23.7500   175.1990   340.1520   360.2610     2.2120 
  171.1250   -46.0730    64.1470    23.6380   165.1560   330.1890   349.7000     2.2060 
  171.2500   -45.6590    66.7140    23.4290   152.1280   314.0880   332.6330     2.2040 
  171.3750   -45.2890    66.2890    23.2550   136.6590   297.3420   314.8820     2.2090 
  171.5000   -44.8840    63.9940    23.0620   118.8490   281.3690   297.9510     2.2200 
  171.6250   -44.4200    63.0220    23.0390   101.8600   261.7290   277.1320     2.2350 
  171.7500   -43.9140    65.6530    23.2060    88.8650   233.9980   247.7380     2.2500 
  171.8750   -43.3440    70.6580    23.4190    81.3940   198.4590   210.0660     2.2580 
  172.0000   -42.7310    76.0030    23.5150    75.9820   160.4350   169.7610     2.2580 
  172.1250   -42.0760    79.7130    23.5090    66.1240   127.8610   135.2320     2.2580 
  172.2500   -41.3370    81.3710    23.4990    53.3930   103.6630   109.5830     2.2640 
  172.3750   -40.5700    81.5790    23.4600    44.1580    87.6770    92.6370     2.2700 
  172.5000   -39.7780    79.0930    23.4310    41.9460    78.0160    82.3970     2.2700 
  172.6250   -39.0630    75.5010    23.4740    44.8610    72.6720    76.7320     2.2670 
  172.7500   -38.4300    73.3520    23.6920    47.6690    69.0170    72.8580     2.2660 
  172.8750   -37.9160    73.9570    23.8460    49.0740    66.1370    69.8050     2.2690 
  173.0000   -37.4910    77.1760    23.9600    49.2470    63.7560    67.2820     2.2750 
  173.1250   -37.1490    81.7590    23.9200    48.3500    62.3080    65.7470     2.2800 
  173.2500   -36.9230    86.1370    23.9090    47.1340    62.3200    65.7590     2.2770 
  173.3750   -36.7110    89.9240    23.9080    49.0550    64.2050    67.7570     2.2650 
  173.5000   -36.5690    90.4900    23.9140    56.3590    67.8450    71.6150     2.2540 
  173.6250   -36.4660    83.8610    23.9170    65.4310    72.4670    76.5150     2.2600 
  173.7500   -36.3680    74.8170    23.9410    72.6130    76.3540    80.6350     2.2790 
  173.8750   -36.2800    71.9170    24.0200    74.6110    77.8920    82.2660     2.2980 
  174.0000   -36.2400    77.4840    24.1660    71.6760    76.1930    80.4650     2.3040 
  174.1250   -36.1530    82.4470    24.2200    64.8390    71.7770    75.7840     2.2950 
  174.2500   -36.0750    82.7530    24.2090    58.2580    67.1230    70.8500     2.2840 
  174.3750   -36.0660    80.0810    24.2030    52.0880    63.8320    67.3610     2.2830 
  174.5000   -36.0570    77.5480    24.2140    46.0740    62.8680    66.3400     2.2920 
  174.6250   -36.0450    75.8810    24.1850    41.6510    65.1100    68.7170     2.2960 
  174.7500   -36.0420    74.4620    24.1210    43.6160    69.9930    73.8930     2.2860 
  174.8750   -36.0250    74.2070    24.0750    55.5460    76.9260    81.2420     2.2690 
  175.0000   -35.9840    75.0270    24.0560    74.4790    84.7690    89.5550     2.2600 
  175.1250   -36.0080    77.3240    24.0590    88.0830    91.6210    96.8180     2.2680 
  175.2500   -36.0110    79.2340    24.0610    92.8210    96.3160   101.7950     2.2820 
  175.3750   -35.9780    80.3750    24.0660    91.9880    98.9100   104.5440     2.2860 
  175.5000   -35.9230    81.8760    24.0710    90.9660   100.5070   106.2370     2.2750 
  175.6250   -35.8570    81.8860    24.0780    93.0830   102.8280   108.6980     2.2590 
  175.7500   -35.7800    78.7300    24.0710    99.6140   106.7370   112.8410     2.2510 
  175.8750   -35.7610    74.2310    24.0670   110.1630   112.0750   118.4990     2.2520 
  176.0000   -35.7640    71.8720    24.0690   121.6220   117.9570   124.7340     2.2560 
  176.1250   -35.7630    74.4260    24.0850   128.1060   122.9100   129.9840     2.2600 
  176.2500   -35.7520    78.7120    24.1210   127.8540   125.8910   133.1440     2.2650 
  176.3750   -35.7370    80.7820    24.1830   122.4920   126.3190   133.5990     2.2680 
  176.5000   -35.7890    78.3650    24.2300   115.9440   124.2450   131.4000     2.2670 
  176.6250   -35.8830    75.4270    24.2800   111.8440   120.2280   127.1420     2.2640 
  176.7500   -35.9900    76.5650    24.2890   109.3040   115.7400   122.3850     2.2590 
  176.8750   -36.0650    78.9870    24.2170   106.3460   111.7270   118.1300     2.2540 
  177.0000   -36.1850    79.0610    24.1580   103.8900   108.8340   115.0640     2.2500 
  177.1250   -36.2770    76.3130    24.1470   105.3050   107.5650   113.7190     2.2530 
  177.2500   -36.3350    74.7940    24.1640   108.3560   107.5640   113.7180     2.2610 
  177.3750   -36.3610    76.3330    24.1670   109.9080   108.5140   114.7250     2.2680 
  177.5000   -36.3500    79.4880    24.1670   108.9430   109.9810   116.2800     2.2690 
  177.6250   -36.3010    81.4420    24.1690   107.2290   111.2320   117.6060     2.2680 
  177.7500   -36.2710    80.3660    24.1710   106.4910   111.5650   117.9580     2.2700 
  177.8750   -36.1810    78.3580    24.1750   106.3190   110.6100   116.9460     2.2760 
  178.0000   -35.9840    77.5510    24.1790   105.8780   108.2320   114.4260     2.2840 
  178.1250   -35.7890    77.3680    24.1820   103.1990   104.0840   110.0290     2.2900 
  178.2500   -35.6550    77.2210    24.1980    97.3220    98.5830   104.1980     2.2920 
  178.3750   -35.5710    77.0690    24.2610    92.0790    92.4560    97.7030     2.2930 
  178.5000   -35.4840    76.3030    24.3940    88.6520    86.7800    91.6870     2.2940 
  178.6250   -35.4210    73.5040    24.4950    78.4470    82.8100    87.4780     2.2940 
