~V
VERS. 2.00: Ver 2.00
~W
STRT.M 50.0000:
STOP.M 260.0000:
STEP.M 0.1250:
NULL. -999.2500:
UWI. DF5023:
~C
DEPT.M :
GR.API :
RML.OHMM :
RI. :
RXO.OHMM :
CALI.CM :
DEN.GM/CC :
SP.MV :
~A
# ...
  230.0000    63.4750    79.5450    73.3070    63.1450    24.5020     2.1800   -21.5430 
  230.1250    63.8070    75.1720    69.2020    61.0160    24.5890     2.1850   -21.7180 
  230.2500    63.8290    71.2570    65.5890    61.3990    24.6830     2.1920   -21.8390 
  230.3750    64.4000    68.0390    62.6440    61.8770    24.7770     2.2020   -21.9960 
  230.5000    65.8970    65.7340    60.4930    60.2310    24.8640     2.2190   -22.0250 
  230.6250    67.1790    64.6180    59.4000    52.2830    24.9310     2.2390   -22.1320 
  230.7500    69.1700    64.3790    59.1050    48.2210    24.9760     2.2520   -22.1440 
  230.8750    71.4560    64.8430    59.4110    51.1320    24.9940     2.2550   -22.1240 
  231.0000    71.5100    65.8870    60.1990    55.2340    24.9910     2.2450   -22.0860 
  231.1250    70.8090    67.5240    61.4470    52.7410    24.9670     2.2300   -21.9590 
  231.2500    70.2700    69.6660    63.1090    49.1560    24.9160     2.2170   -21.8510 
  231.3750    69.9550    72.4660    65.3740    49.9730    24.8320     2.2090   -21.6600 
  231.5000    70.5630    76.1080    68.4620    53.4970    24.7190     2.2060   -21.4390 
  231.6250    71.1350    80.8230    72.5300    58.9370    24.5870     2.2070   -21.1800 
  231.7500    69.4950    86.2100    77.1850    67.1880    24.4550     2.2140   -20.8780 
  231.8750    66.5680    91.6000    81.8430    77.4740    24.1980     2.2290   -20.5480 
  232.0000    66.0670    95.7410    85.5870    88.5310    24.1320     2.2570   -20.1700 
  232.1250    67.7870    96.6940    86.9170   101.5200    24.1360     2.2930   -19.7730 
  232.2500    69.7810    94.2840    85.4810   109.1600    24.1360     2.3260   -19.3240 
  232.3750    70.4620    88.9550    81.3200   100.8270    24.1350     2.3460   -18.8710 
  232.5000    69.1530    81.6000    75.0440    86.2080    24.1360     2.3480   -18.3930 
  232.6250    68.0030    73.5850    67.7300    76.6460    24.1320     2.3350   -17.9800 
  232.7500    68.4350    66.5490    60.9770    74.8820    24.1290     2.3210   -17.6090 
  232.8750    69.3650    61.4130    55.7280    67.1480    24.1260     2.3130   -17.2750 
  233.0000    69.0490    58.6980    52.6210    51.5180    24.1240     2.3160   -17.0080 
  233.1250    68.4030    59.3750    52.7670    41.4310    24.1230     2.3360   -16.8200 
  233.2500    68.6070    63.6150    56.3720    36.6900    24.1070     2.3630   -16.7300 
  233.3750    68.4090    71.8220    63.7240    41.9490    24.0750     2.3870   -16.6810 
  233.5000    67.6540    83.5520    74.3720    56.8490    24.0510     2.3990   -16.6910 
  233.6250    67.1210    96.0250    86.1280    81.0750    24.0420     2.4060   -16.6510 
  233.7500    66.5600   103.8700    94.5220    96.7510    24.0310     2.4220   -16.6200 
  233.8750    66.4020   102.2560    95.3830    97.5410    23.9940     2.4490   -16.5850 
  234.0000    67.5720    89.2760    86.5410    95.2220    23.9310     2.4750   -16.5620 
  234.1250    68.6470    68.1900    69.1230   105.4000    23.9050     2.4750   -16.5080 
  234.2500    67.1630    47.6670    50.1580   126.8090    23.9010     2.4460   -16.4370 
  234.3750    63.7090    31.6690    33.8850   108.5490    23.9040     2.4070   -16.3440 
  234.5000    61.7970    20.6240    22.0090    41.5000    23.9040     2.3840   -16.2880 
  234.6250    64.6940    14.2230    14.8740    15.7660    23.9030     2.3910   -16.1960 
  234.7500    69.2020    10.6970    10.7090     8.3650    23.9200     2.4100   -16.0340 
  234.8750    73.9640     9.3710     8.5640     8.1700    23.9870     2.4210   -15.7450 
  235.0000    77.2070     9.0170     7.6800    10.0700    24.1390     2.4090   -15.3300 
  235.1250    79.0330     9.2740     7.5720     9.4960    24.2390     2.3770   -14.7590 
  235.2500    81.7880     9.7020     7.7930     8.8390    24.2770     2.3450   -14.0810 
  235.3750    86.9310    10.0800     8.1240     8.6060    24.2800     2.3280   -13.3350 
  235.5000    94.9820    10.2750     8.4010     8.6620    24.2780     2.3330   -12.5220 
  235.6250   101.9790    10.2410     8.5180     8.7370    24.2760     2.3520   -11.7900 
  235.7500   105.1450    10.1160     8.5200     8.7290    24.2740     2.3720   -11.1730 
  235.8750   103.9650     9.9970     8.4670     8.7000    24.2750     2.3840   -10.7260 
  236.0000   101.4070     9.9320     8.3990     8.7150    24.2760     2.3880   -10.4160 
  236.1250   101.1560     9.9450     8.3410     8.7720    24.3350     2.3850   -10.3170 
  236.2500   104.1870    10.0210     8.3050     8.9280    24.3810     2.3800   -10.3400 
  236.3750   109.1750    10.1440     8.2930     9.1550    24.4240     2.3780   -10.4730 
  236.5000   111.2660    10.2960     8.3030     9.2710    24.4730     2.3790   -10.6600 
  236.6250   110.2390    10.4600     8.3330     9.4000    24.5220     2.3840   -10.8850 
  236.7500   111.7640    10.6130     8.3760     9.5410    24.5690     2.3890   -11.0480 
  236.8750   115.8490    10.7340     8.4210     9.7160    24.6130     2.3910   -11.1560 
  237.0000   118.2000    10.8110     8.4630     9.8220    24.6520     2.3860   -11.2040 
  237.1250   117.9230    10.8340     8.4920     9.8220    24.6810     2.3760   -11.1640 
  237.2500   118.4280    10.8190     8.5120     9.8370    24.7030     2.3670   -11.0880 
  237.3750   118.8750    10.7850     8.5310     9.7260    24.7180     2.3650   -10.9430 
  237.5000   117.2280    10.7550     8.5600     9.4690    24.7270     2.3700   -10.7890 
  237.6250   113.8370    10.7580     8.6120     9.4260    24.7230     2.3780   -10.5600 
  237.7500   109.4420    10.8060     8.6890     9.4810    24.6960     2.3810   -10.3890 
  237.8750   105.5840    10.9030     8.7870     9.5820    24.6380     2.3780   -10.2360 
  238.0000   106.7270    11.0370     8.8930     9.5940    24.5420     2.3690   -10.1290 
  238.1250   110.0270    11.1830     8.9780     9.6830    24.4010     2.3600   -10.0880 
  238.2500   109.2270    11.2930     9.0100     9.7200    24.2300     2.3560   -10.0810 
  238.3750   106.1040    11.3120     8.9550     9.6790    24.0410     2.3580   -10.1190 
  238.5000   105.1060    11.1810     8.7840     9.5890    23.8520     2.3630   -10.1540 
  238.6250   105.8530    10.8550     8.4660     9.4710    23.6800     2.3700   -10.2480 
  238.7500   103.3150    10.3860     8.0560     9.3010    23.5350     2.3740   -10.3150 
  238.8750    98.7580     9.9200     7.6570     9.0450    23.4190     2.3760   -10.4150 
  239.0000    98.0030     9.7530     7.4370     8.8570    23.3280     2.3730   -10.5320 
  239.1250   102.2850    10.3390     7.7690     9.0660    23.2670     2.3650   -10.7020 
  239.2500   104.3560    12.2370     9.0750    10.5530    23.2190     2.3530   -10.9500 
  239.3750    99.5190    16.1790    12.1330    15.5170    23.1860     2.3360   -11.2860 
  239.5000    89.6090    23.2650    17.9980    27.8350    23.1730     2.3160   -11.7160 
  239.6250    80.1170    35.6700    28.4020    51.6820    23.1900     2.2930   -12.1420 
  239.7500    71.4440    52.3310    42.9130    93.9920    23.2310     2.2710   -12.6070 
  239.8750    65.4950    72.4100    60.1390   142.0280    23.2900     2.2510   -13.0730 
  240.0000    63.1270    91.9810    76.9370   146.9100    23.3570     2.2350   -13.5230 
  240.1250    62.5280   103.8900    87.9120   140.6280    23.4270     2.2230   -13.9070 
  240.2500    61.1730   105.0350    90.8200   129.7350    23.4930     2.2170   -14.2220 
  240.3750    59.8940    96.6840    86.1640   113.0470    23.5490     2.2140   -14.4260 
  240.5000    61.0990    84.1940    77.0510    92.8680    23.5910     2.2160   -14.5670 
  240.6250    64.0940    73.0010    67.2850    75.0600    23.6180     2.2200   -14.6140 
  240.7500    66.0470    64.5010    59.1050    61.0510    23.6370     2.2230   -14.6610 
  240.8750    67.6830    58.5070    52.9130    49.1970    23.6510     2.2250   -14.6720 
  241.0000    70.6220    54.7100    48.7260    41.1780    23.6620     2.2250   -14.6760 
  241.1250    72.3570    52.9220    46.5660    36.6700    23.6770     2.2230   -14.6830 
