~V
VERS. 2.00: Ver 2.00
~W
STRT.M 55.0000:
STOP.M 278.0000:
STEP.M 0.1250:
NULL. -999.2500:
UWI. DF5019:
~C
DEPT.M :
DEN.GM/CC :
GR.API :
CALI.CM :
RXO.OHMM :
RI. :
RML.OHMM :
SP.MV :
~A
# ...
  223.7500     2.1400    67.8650    25.0610    75.5150    83.7490    83.0820   -26.0530 
  223.8750     2.1440    66.1670    25.2090    76.1060    79.3440    80.9390   -26.1110 
  224.0000     2.1420    65.3890    25.3080    78.3140    76.9030    81.1730   -26.1200 
  224.1250     2.1420    66.9810    25.2340    77.3420    76.4290    82.1490   -26.0030 
  224.2500     2.1470    68.3420    25.1850    80.3210    77.0700    82.2800   -25.8580 
  224.3750     2.1550    67.7470    25.2070    84.5130    78.0350    81.3530   -25.6810 
  224.5000     2.1610    66.4020    25.2830    82.0570    78.7210    80.1280   -25.4920 
  224.6250     2.1620    67.6910    25.3820    73.9530    79.1570    79.9600   -25.3590 
  224.7500     2.1600    69.2940    25.4280    68.4380    79.9200    81.3400   -25.2690 
  224.8750     2.1610    67.4520    25.4420    68.4110    81.4140    84.3330   -25.2660 
  225.0000     2.1650    63.2320    25.3880    75.7010    83.6850    88.7430   -25.2720 
  225.1250     2.1680    61.1220    25.2300    88.2750    86.2490    93.7770   -25.4030 
  225.2500     2.1660    62.3500    25.1740    96.9090    88.2260    97.6560   -25.4830 
  225.3750     2.1590    64.9560    25.1870    97.7840    89.2430    99.3590   -25.6120 
  225.5000     2.1560    67.3270    25.2000    94.7240    89.5800    99.2390   -25.6750 
  225.6250     2.1620    69.0340    25.1830    92.8600    89.8430    98.3920   -25.7160 
  225.7500     2.1740    71.3960    25.1130    94.2470    90.4050    97.7230   -25.6750 
  225.8750     2.1870    74.1160    25.0770    97.8880    91.2420    97.8780   -25.5610 
  226.0000     2.1930    75.0250    25.0630   102.8970    91.9390    99.5340   -25.4490 
  226.1250     2.1930    72.2080    25.0370   106.6730    91.4710   102.2140   -25.2010 
  226.2500     2.1930    68.5320    24.9790   105.9890    89.2320   103.0350   -24.9950 
  226.3750     2.1980    67.5280    24.9050   100.8850    85.0450    99.6620   -24.7290 
  226.5000     2.2080    69.0560    24.8580    94.4250    79.3940    91.9340   -24.4850 
  226.6250     2.2190    71.5680    24.8400    87.4970    73.3690    81.8120   -24.2250 
  226.7500     2.2330    72.9550    24.8340    78.5450    68.3030    72.8800   -23.9150 
  226.8750     2.2510    73.5220    24.8280    69.3270    65.1510    67.3620   -23.5830 
  227.0000     2.2750    73.7260    24.8310    64.5340    64.8410    66.2360   -23.1560 
  227.1250     2.3090    73.7720    24.8350    67.7780    69.4020    70.6930   -22.7670 
  227.2500     2.3680    73.5120    24.8560    75.1840    79.0520    79.9110   -22.2560 
  227.3750     2.4700    72.3520    24.9000    83.6550    91.6220    91.1270   -21.7220 
  227.5000     2.6060    70.2100    25.0220   106.8490    98.7060    93.9800   -21.1180 
  227.6250     2.7070    67.0150    25.0580   160.1670    84.9980    72.9820   -20.4790 
  227.7500     2.7180    63.9820    25.0730   171.9010    58.2370    44.1350   -19.8590 
  227.8750     2.6310    63.0680    24.9260   112.3900    33.7130    23.0110   -19.2520 
  228.0000     2.4960    64.8200    24.6580    36.1300    18.0820    11.4990   -18.6970 
  228.1250     2.3870    68.9940    24.6160    13.6220    10.6870     6.8360   -18.1120 
  228.2500     2.3340    76.8630    24.5340     6.8590     7.0780     4.9530   -17.6380 
  228.3750     2.3330    89.1020    24.4440     5.4040     5.4530     4.4070   -17.1550 
  228.5000     2.3620   102.1880    24.2750     5.3400     4.9390     4.5190   -16.7140 
  228.6250     2.3860   107.7990    24.1490     6.1900     5.2250     5.0900   -16.2200 
  228.7500     2.3990   106.1610    24.1920     7.3200     5.9000     6.0440   -15.7720 
  228.8750     2.4080   102.1440    24.4020     8.1610     6.7020     7.3510   -15.3510 
  229.0000     2.4140   102.6210    24.7280     8.4850     7.3860     8.5970   -14.9450 
  229.1250     2.4120   109.4290    24.8980     8.4920     7.7610     9.0680   -14.6570 
  229.2500     2.4000   115.7940    24.9440     8.4710     7.8880     8.8310   -14.3200 
  229.3750     2.3930   118.9940    24.9420     8.4110     7.8650     8.4290   -14.0470 
  229.5000     2.4000   120.9860    24.9000     8.3380     7.7700     8.3800   -13.8350 
  229.6250     2.4070   124.1600    24.8770     8.2010     7.6270     8.8630   -13.7970 
  229.7500     2.3990   125.7990    24.8730     7.9970     7.4710     9.5090   -13.8350 
  229.8750     2.3790   125.9010    24.9000     7.9050     7.3660    10.0430   -13.9000 
  230.0000     2.3690   125.5060    24.9500     8.0820     7.3670    10.2710   -14.0480 
  230.1250     2.3740   125.4610    24.9980     8.5220     7.4940    10.1760   -14.1170 
  230.2500     2.3900   124.7120    24.9830     8.9200     7.6720     9.9940   -14.2160 
  230.3750     2.4030   123.5240    24.9560     9.1250     7.8140     9.8320   -14.2690 
  230.5000     2.4070   122.1270    24.8990     9.1430     7.8580     9.7850   -14.2920 
  230.6250     2.4050   119.5400    24.8890     9.0170     7.8080     9.9600   -14.1980 
  230.7500     2.4040   116.6150    24.8710     8.8500     7.7550    10.3240   -14.0760 
  230.8750     2.4040   115.4260    24.7790     8.7520     7.7650    10.8170   -13.9170 
  231.0000     2.3980   116.2340    24.6280     8.7720     7.8730    11.3710   -13.6950 
  231.1250     2.3890   117.2770    24.5620     8.6990     8.0480    11.8550   -13.5180 
  231.2500     2.3870   116.7110    24.5560     8.5880     8.1800    12.1200   -13.3680 
  231.3750     2.3970   116.8430    24.5870     8.6950     8.1950    12.0830   -13.2780 
  231.5000     2.4110   119.6080    24.6470     8.9590     8.0730    11.7660   -13.2000 
  231.6250     2.4150   123.6640    24.6580     8.9640     7.8420    11.1760   -13.1960 
  231.7500     2.4050   124.8310    24.6990     8.6300     7.5920    10.4730   -13.1490 
  231.8750     2.3840   121.4700    24.7950     8.3800     7.3700     9.7890   -13.1650 
  232.0000     2.3640   116.3660    24.9130     8.4800     7.1820     9.1600   -13.1580 
  232.1250     2.3510   113.1740    25.0110     8.8040     7.0500     8.4900   -13.1840 
  232.2500     2.3480   110.8680    25.0500     9.1150     7.0420     7.9110   -13.2340 
  232.3750     2.3560   108.7760    25.0720     9.3300     7.2860     7.6770   -13.3440 
  232.5000     2.3830   106.3670    25.0960     9.5210     7.9760     8.0720   -13.5180 
  232.6250     2.4070   101.9570    25.1190    10.7780     9.6470     9.7780   -13.6590 
  232.7500     2.3990    92.8420    25.1390    16.4600    12.9650    13.4220   -13.9140 
  232.8750     2.3450    80.8800    25.1560    37.2110    19.3210    20.1110   -14.1550 
  233.0000     2.2740    71.7300    25.1740    90.1840    30.7100    31.5380   -14.4810 
  233.1250     2.2310    70.0540    25.0740   157.9130    49.4740    50.6070   -14.8090 
  233.2500     2.2250    72.5060    24.9140   195.5450    70.0770    72.6950   -15.1650 
  233.3750     2.2390    74.6940    24.8560   180.9250    81.5890    84.7110   -15.4920 
  233.5000     2.2600    73.3980    24.8800   132.3100    77.2530    78.4040   -15.7990 
  233.6250     2.2790    70.7730    24.8810    86.8570    63.3770    63.9390   -16.1310 
  233.7500     2.2880    71.0840    24.8480    55.9750    51.3760    53.0950   -16.4120 
  233.8750     2.2790    73.5130    24.8010    43.0400    44.4090    47.7280   -16.7290 
  234.0000     2.2580    74.3320    24.7790    44.7220    42.7370    47.6250   -17.0130 
  234.1250     2.2350    71.2180    24.8190    59.9010    47.0210    53.2300   -17.3190 
  234.2500     2.2130    68.0000    24.9100    87.7590    56.2050    63.6320   -17.6080 
  234.3750     2.1940    67.0210    24.9920   121.9970    68.9040    78.0790   -17.9420 
  234.5000     2.1870    66.2710    24.9990   151.6850    81.6310    93.4370   -18.2630 
  234.6250     2.1920    64.9250    24.9570   148.7200    88.7890   102.3440   -18.6390 
  234.7500     2.2020    64.3200    24.9210   130.2260    89.5360   102.4010   -18.9860 
  234.8750     2.2100    65.6930    24.9090   110.7020    85.7480    95.7150   -19.3430 
