~V
VERS. 2.00: Ver 2.00
~W
STRT.M 58.0000:
STOP.M 276.0000:
STEP.M 0.1250:
NULL. -999.2500:
UWI. DF5012:
~C
DEPT.M :
SP.MV :
GR.API :
CALI.CM :
RXO.OHMM :
RI. :
RML.OHMM :
DEN.GM/CC :
~A
# ...
  114.2500   -48.3520    69.9630    24.6150     8.3710     6.7870     8.2540     2.1650 
  114.3750   -47.9840    66.6110    24.6420     9.5940     6.8670     8.3770     2.1670 
  114.5000   -47.6170    63.7790    24.6810    10.2390     7.0200     8.5690     2.1620 
  114.6250   -47.2120    62.4640    24.7080    10.4100     7.2350     8.8110     2.1530 
  114.7500   -46.7600    62.1640    24.7160    10.3700     7.4720     9.0520     2.1450 
  114.8750   -46.2880    64.2200    24.7150    10.3530     7.6790     9.2170     2.1440 
  115.0000   -45.7740    69.0420    24.7180    10.3910     7.7840     9.2110     2.1520 
  115.1250   -45.2030    73.5260    24.7350    10.4360     7.6710     8.9040     2.1660 
  115.2500   -44.6150    74.6290    24.7900    10.1250     7.3360     8.3340     2.1850 
  115.3750   -44.0560    75.9040    24.9210     8.8270     6.8250     7.5970     2.2100 
  115.5000   -43.5720    81.3780    25.1150     7.0320     6.2470     6.8520     2.2400 
  115.6250   -43.1760    90.0610    25.2910     6.1080     5.7630     6.3130     2.2650 
  115.7500   -42.8860    96.1450    25.3960     6.2230     5.4550     6.0420     2.2780 
  115.8750   -42.6370    98.9650    25.4230     6.1670     5.3380     6.0240     2.2760 
  116.0000   -42.4930    99.9960    25.3470     6.1590     5.3820     6.1730     2.2650 
  116.1250   -42.4440    99.9050    25.1460     6.8240     5.5030     6.3330     2.2520 
  116.2500   -42.4560    97.8250    24.9570     7.1470     5.5700     6.3530     2.2410 
  116.3750   -42.5090    94.2930    24.9100     6.9150     5.5290     6.2140     2.2330 
  116.5000   -42.5170    92.6720    25.0130     6.1790     5.4260     6.0370     2.2300 
  116.6250   -42.5290    95.6530    25.1330     5.8260     5.3900     6.0280     2.2360 
  116.7500   -42.4930    98.0130    25.2110     5.7680     5.4960     6.2480     2.2560 
  116.8750   -42.4930    95.8890    25.3180     6.9710     5.7460     6.6450     2.2880 
  117.0000   -42.4800    91.5980    25.4900    10.0740     6.0640     7.0650     2.3280 
  117.1250   -42.5020    89.2940    25.6410    12.7790     6.2790     7.2610     2.3690 
  117.2500   -42.5570    89.0560    25.7010    10.9330     6.2960     7.1750     2.3940 
  117.3750   -42.6440    91.3160    25.7020     7.3480     6.1470     6.9170     2.3900 
  117.5000   -42.7980    95.7440    25.6680     6.2430     5.9530     6.6790     2.3570 
  117.6250   -42.9740    98.1770    25.5000     6.7580     5.8570     6.6390     2.3100 
  117.7500   -43.1820    97.3800    25.2030     7.6220     5.9030     6.7790     2.2690 
  117.8750   -43.3390    94.0630    24.9030     8.0400     6.0600     7.0060     2.2420 
  118.0000   -43.4630    88.3060    24.7320     7.6480     6.2390     7.1890     2.2260 
  118.1250   -43.6210    82.2330    24.7070     7.3820     6.3230     7.2060     2.2180 
  118.2500   -43.6850    81.8600    24.7220     7.1150     6.2840     7.0790     2.2100 
  118.3750   -43.7400    89.0300    24.7580     6.7580     6.1490     6.8670     2.2020 
  118.5000   -43.7430    96.7510    24.8200     6.7160     5.9660     6.6400     2.1960 
  118.6250   -43.7860    95.5490    24.8760     6.5900     5.7990     6.4840     2.1960 
  118.7500   -43.8380    89.8710    24.9000     6.6920     5.6960     6.4350     2.2050 
  118.8750   -43.9350    88.2210    24.8950     6.5080     5.6740     6.4860     2.2190 
  119.0000   -44.0540    91.0780    24.8680     6.4280     5.7200     6.5870     2.2330 
  119.1250   -44.1440    92.1800    24.8230     6.9380     5.7900     6.6500     2.2360 
  119.2500   -44.3070    91.3050    24.7910     7.3440     5.8280     6.6370     2.2280 
  119.3750   -44.4480    91.2110    24.8430     7.0320     5.8190     6.5740     2.2160 
  119.5000   -44.6520    92.8690    25.0370     6.6240     5.7920     6.5330     2.2070 
  119.6250   -44.8120    93.4490    25.2730     6.1720     5.8030     6.5970     2.2030 
  119.7500   -45.0210    92.4460    25.3300     6.4910     5.8680     6.7490     2.1990 
  119.8750   -45.2250    92.3360    25.1830     7.2100     5.9590     6.9160     2.1930 
  120.0000   -45.4570    94.1960    24.9930     7.8270     6.0140     6.9960     2.1850 
  120.1250   -45.6200    95.5240    24.9440     7.5890     5.9460     6.8770     2.1860 
  120.2500   -45.8200    93.3640    25.0280     6.8190     5.7560     6.5950     2.2020 
  120.3750   -46.0240    91.3950    25.2190     6.0700     5.4830     6.2240     2.2280 
  120.5000   -46.2320    94.4070    25.4710     5.8890     5.1960     5.8710     2.2520 
  120.6250   -46.4290    98.4610    25.6500     6.3130     5.0160     5.7390     2.2630 
  120.7500   -46.6560    98.6550    25.7020     6.7980     5.0630     6.0160     2.2610 
  120.8750   -46.8830    95.5460    25.6800     7.2960     5.4530     6.8720     2.2610 
  121.0000   -47.1220    92.8150    25.6600     7.6100     6.2800     8.3860     2.2740 
  121.1250   -47.4690    91.0950    25.6700    11.0110     7.6300    10.4810     2.3120 
  121.2500   -47.7870    85.8520    25.6780    20.9050     9.1880    12.4900     2.3660 
  121.3750   -48.1560    77.5700    25.5960    28.6560    10.3990    13.5960     2.4200 
  121.5000   -48.4400    71.3830    25.3240    23.6500    10.6760    13.2370     2.4440 
  121.6250   -48.7050    70.8050    24.9190    13.9300     9.9010    11.6400     2.4050 
  121.7500   -48.8520    72.6130    24.6250     9.4860     8.8760    10.0400     2.3360 
  121.8750   -48.9390    74.8440    24.5520     8.9500     8.0930     9.0830     2.2730 
  122.0000   -48.9220    79.1240    24.6630     9.3470     7.7440     8.9030     2.2380 
  122.1250   -48.7420    84.2300    24.8730    10.6470     7.8260     9.2590     2.2390 
  122.2500   -48.4800    85.2390    25.0770    12.3160     8.0080     9.5470     2.2650 
  122.3750   -48.1030    82.7260    25.1950    13.0570     7.9880     9.3660     2.3010 
  122.5000   -47.7390    81.4040    25.2310    11.8440     7.5940     8.6180     2.3300 
  122.6250   -47.3300    84.5580    25.3280     8.6420     6.9050     7.5600     2.3320 
  122.7500   -46.9880    89.1230    25.5340     6.9310     6.2260     6.6430     2.3160 
  122.8750   -46.6740    91.8960    25.7320     6.6290     5.7280     6.0620     2.2930 
  123.0000   -46.4330    92.1690    25.8020     6.6230     5.4790     5.8450     2.2730 
  123.1250   -46.3010    90.1720    25.7180     6.5830     5.5040     5.9510     2.2600 
  123.2500   -46.2320    87.9550    25.5530     6.4930     5.6930     6.2080     2.2510 
  123.3750   -46.2180    87.6470    25.3510     6.8830     5.9610     6.5060     2.2420 
  123.5000   -46.1650    87.9730    25.1890     7.2890     6.2240     6.7490     2.2310 
  123.6250   -46.1570    85.8520    25.1500     7.1610     6.3880     6.8290     2.2240 
  123.7500   -46.0760    81.7360    25.1830     7.0320     6.4050     6.7150     2.2220 
  123.8750   -45.9960    80.9750    25.2570     7.2300     6.2480     6.4050     2.2270 
  124.0000   -45.8900    86.6670    25.3910     7.0160     5.9320     5.9580     2.2410 
  124.1250   -45.8370    95.4670    25.5620     6.1630     5.5410     5.5190     2.2610 
  124.2500   -45.7840   101.2330    25.6820     5.4380     5.2160     5.2430     2.2820 
  124.3750   -45.7940   102.0280    25.7210     5.0040     5.0420     5.2050     2.3010 
  124.5000   -45.8840    99.3050    25.6970     4.8280     5.0410     5.3970     2.3150 
  124.6250   -46.0210    94.4060    25.6170     5.6920     5.1930     5.7370     2.3160 
  124.7500   -46.1920    88.1660    25.5020     7.6180     5.3660     6.0210     2.3090 
  124.8750   -46.3720    82.3880    25.4290     8.5670     5.4400     6.0990     2.2990 
  125.0000   -46.5860    79.8310    25.4720     7.4680     5.3600     5.9460     2.2940 
  125.1250   -46.7850    83.9500    25.5990     6.1390     5.2100     5.7650     2.2950 
  125.2500   -47.0000    87.6720    25.6710     6.3420     5.1990     5.9060     2.2950 
  125.3750   -47.1790    85.2070    25.6410     7.3150     5.5250     6.6900     2.2940 
