~V
VERS. 2.00: Ver 2.00
~W
STRT.M 60.0000:
STOP.M 251.0000:
STEP.M 0.1250:
NULL. -999.2500:
UWI. DF5053:
~C
DEPT.M :
GR.API :
RML.OHMM :
RI. :
RXO.OHMM :
CALI.CM :
DEN.GM/CC :
SP.MV :
~A
# ...
  105.0000    59.7830     9.7540     8.6110    13.9230    24.1150     2.1840   -28.5140 
  105.1250    58.5090     9.2030     8.2660    13.3520    24.1660     2.1880   -28.1710 
  105.2500    60.3960     8.5430     7.7820    12.4610    24.1610     2.1960   -27.7180 
  105.3750    64.4450     8.0110     7.3230    11.4130    24.0980     2.2060   -27.1700 
  105.5000    69.4180     7.8640     7.0790    10.8020    23.9860     2.2130   -26.6610 
  105.6250    73.0240     8.0900     7.0930    11.1930    23.8450     2.2150   -26.2430 
  105.7500    73.2080     8.5850     7.3350    12.4570    23.8130     2.2130   -25.9160 
  105.8750    70.5070     9.1550     7.7010    13.6050    23.8780     2.2070   -25.6690 
  106.0000    67.5930     9.5230     8.0230    13.6890    23.9960     2.2000   -25.5380 
  106.1250    66.2980     9.5530     8.1630    13.4600    24.0220     2.1940   -25.4620 
  106.2500    64.4780     9.2590     8.0830    13.3430    23.9660     2.1890   -25.3860 
  106.3750    64.4540     8.8350     7.8610    13.2220    23.8760     2.1820   -25.1870 
  106.5000    68.4600     8.6940     7.7370    13.0100    23.7920     2.1720   -24.6810 
  106.6250    72.4350     9.1550     7.9680    12.9020    23.8440     2.1660   -23.9090 
  106.7500    72.2040    10.2950     8.6940    13.4800    23.9860     2.1750   -22.8850 
  106.8750    69.1730    11.8930     9.8540    15.5920    24.0340     2.2110   -21.6480 
  107.0000    70.5000    13.2790    11.0640    19.0110    23.9750     2.2800   -20.1400 
  107.1250    77.2240    13.7350    11.7230    22.1380    23.9580     2.3600   -18.4860 
  107.2500    88.1590    12.8720    11.3970    23.4700    23.8820     2.4180   -16.8140 
  107.3750    99.7020    10.9530    10.0410    20.1770    23.7740     2.4320   -15.2580 
  107.5000   110.5930     8.6980     8.1210    12.5730    23.8130     2.3990   -13.9260 
  107.6250   117.9620     6.8880     6.4150     7.1830    23.8700     2.3550   -12.7860 
  107.7500   120.3450     5.6420     5.2390     5.1600    23.7990     2.3250   -11.8710 
  107.8750   119.2040     5.1480     4.6230     4.6900    23.6840     2.3160   -11.1690 
  108.0000   116.4630     5.1780     4.5070     4.8380    23.6020     2.3210   -10.7420 
  108.1250   114.6760     5.3750     4.6340     5.1090    23.5370     2.3270   -10.4860 
  108.2500   112.8160     5.5610     4.8450     5.3790    23.4640     2.3260   -10.2840 
  108.3750   112.4520     5.6500     5.0250     5.4970    23.4920     2.3170   -10.0770 
  108.5000   115.5420     5.6410     5.1160     5.4320    23.7610     2.3030    -9.8500 
  108.6250   119.6920     5.6190     5.1620     5.2690    24.0950     2.2880    -9.6260 
  108.7500   121.6700     5.6440     5.2140     5.2110    24.2640     2.2780    -9.4330 
  108.8750   120.8100     5.7360     5.3090     5.3310    24.2760     2.2730    -9.3080 
  109.0000   119.2840     5.8660     5.4390     5.6550    24.2310     2.2720    -9.2760 
  109.1250   116.9900     5.9620     5.5430     6.0250    24.1880     2.2730    -9.3180 
  109.2500   113.7470     5.9640     5.5620     6.2890    24.1610     2.2740    -9.4690 
  109.3750   110.9050     5.8530     5.4650     6.2960    24.1780     2.2780    -9.7420 
  109.5000   113.4670     5.6660     5.2670     5.8080    24.2140     2.2890   -10.1120 
  109.6250   120.0980     5.5120     5.0690     5.3280    24.2460     2.3060   -10.5690 
  109.7500   125.7860     5.4820     4.9540     5.1250    24.2500     2.3250   -11.1100 
  109.8750   126.7360     5.6280     4.9770     5.2190    24.1960     2.3360   -11.7140 
  110.0000   119.6910     5.9520     5.1580     5.6260    24.0940     2.3290   -12.3900 
  110.1250   108.6510     6.3240     5.4030     6.2100    24.0460     2.3060   -13.1640 
  110.2500   101.3520     6.6450     5.6240     6.6820    24.0910     2.2770   -14.0110 
  110.3750   101.9110     6.8350     5.7510     6.8690    24.1080     2.2530   -14.9070 
  110.5000   107.2820     6.8980     5.7730     6.9720    24.0690     2.2470   -15.8890 
  110.6250   109.7530     6.9860     5.8140     6.9810    24.0250     2.2550   -16.9420 
  110.7500   111.6310     7.2710     6.0150     7.0640    23.9650     2.2700   -18.0920 
  110.8750   114.3160     7.8140     6.4930     7.6750    23.8760     2.2760   -19.3750 
  111.0000   107.2880     8.7180     7.3160     9.1790    23.7990     2.2570   -20.8020 
  111.1250    93.4640     9.8190     8.3080    11.1970    23.6760     2.2170   -22.2900 
  111.2500    81.1850    10.9620     9.2520    13.0610    23.4530     2.1690   -23.7960 
  111.3750    73.5660    11.6170     9.9140    14.3910    23.2140     2.1280   -25.2960 
  111.5000    64.0330    11.5630    10.0670    14.7270    23.1740     2.1080   -26.7500 
  111.6250    52.9830    11.0760     9.8390    14.8290    23.2560     2.1050   -28.0910 
  111.7500    46.9240    10.4590     9.4240    14.5600    23.3750     2.1130   -29.2220 
  111.8750    46.9720     9.9700     9.0180    14.1500    23.4320     2.1260   -30.0690 
  112.0000    52.6480     9.7580     8.7650    13.7680    23.3980     2.1380   -30.5910 
  112.1250    62.4960     9.7430     8.6530    13.5950    23.3480     2.1480   -30.8900 
  112.2500    70.0510     9.8210     8.6300    13.6580    23.3380     2.1530   -30.9970 
  112.3750    68.4040     9.8830     8.6270    13.8580    23.2210     2.1510   -30.9420 
  112.5000    62.8040     9.8350     8.5710    13.9330    22.8660     2.1440   -30.7110 
  112.6250    66.3310     9.6800     8.4470    13.8070    22.7250     2.1370   -30.3720 
  112.7500    75.8870     9.4660     8.2790    13.2710    22.9340     2.1350   -29.9970 
  112.8750    78.8130     9.2680     8.1120    12.5240    23.2610     2.1400   -29.6060 
  113.0000    75.4440     9.1740     8.0110    12.0940    23.5570     2.1530   -29.2340 
  113.1250    74.2830     9.1980     7.9930    12.1270    23.6240     2.1650   -28.8980 
  113.2500    75.7540     9.3170     8.0520    12.5260    23.6180     2.1710   -28.6000 
  113.3750    76.5880     9.4820     8.1610    12.8600    23.6810     2.1710   -28.3310 
  113.5000    76.7490     9.6170     8.2810    12.9850    23.7710     2.1680   -28.0920 
  113.6250    76.0990     9.6810     8.3740    13.0150    23.7870     2.1640   -27.8490 
  113.7500    73.2250     9.6720     8.4270    13.1970    23.8150     2.1600   -27.5560 
  113.8750    70.8760     9.6350     8.4550    13.4760    23.9390     2.1550   -27.2090 
  114.0000    70.3670     9.6740     8.5080    13.5700    24.0540     2.1480   -26.7330 
  114.1250    72.4120     9.8420     8.6390    13.5160    24.0170     2.1420   -26.0860 
  114.2500    77.3790    10.1370     8.8650    13.5670    23.9080     2.1400   -25.2560 
  114.3750    79.9120    10.4760     9.1390    13.7270    23.8350     2.1440   -24.2060 
  114.5000    75.6630    10.6050     9.2990    14.0030    23.7490     2.1570   -22.9020 
  114.6250    71.9440    10.3900     9.1840    13.9540    23.6230     2.1800   -21.3960 
  114.7500    77.0710     9.7680     8.7080    13.2600    23.5320     2.2080   -19.7200 
  114.8750    90.1760     8.8290     7.9110    11.9170    23.5100     2.2380   -17.9570 
  115.0000   103.2680     7.8230     6.9670     9.6180    23.5860     2.2620   -16.2320 
  115.1250   110.3470     6.7630     6.1280     7.3260    23.6500     2.2750   -14.6360 
  115.2500   109.2640     6.0920     5.5230     5.8740    23.6490     2.2780   -13.2140 
  115.3750   103.1910     5.7890     5.1910     5.4830    23.6780     2.2730   -12.0180 
  115.5000   100.7240     5.7760     5.1220     5.5090    23.9370     2.2650   -11.1110 
  115.6250   105.6710     5.8610     5.1810     5.5090    24.1560     2.2580   -10.4650 
  115.7500   111.6280     5.9250     5.2680     5.4800    24.2420     2.2540   -10.0670 
  115.8750   110.2780     5.8830     5.3000     5.4390    24.2520     2.2550    -9.8400 
  116.0000   103.2920     5.6950     5.2160     5.3670    24.2540     2.2620    -9.6930 
  116.1250   101.5630     5.4330     5.0500     5.2070    24.2590     2.2750    -9.5680 
