~V
VERS. 2.00: Ver 2.00
~W
STRT.M 55.0000:
STOP.M 273.0000:
STEP.M 0.1250:
NULL. -999.2500:
UWI. DF5004:
~C
DEPT.M :
GR.API :
CALI.CM :
RXO.OHMM :
RI. :
RML.OHMM :
DEN.GM/CC :
SP.MV :
~A
# ...
  122.5000    86.7170    23.5710     6.5780     5.5450     7.3490     2.2470   -20.7580 
  122.6250    91.3990    23.7710     6.2080     5.2540     6.7940     2.2660   -20.7660 
  122.7500    98.0300    23.8510     5.9230     4.9980     6.3570     2.2870   -20.7520 
  122.8750   101.1670    23.8490     5.6650     4.8430     6.1540     2.3110   -20.6790 
  123.0000   101.6180    23.8570     5.5270     4.8220     6.2230     2.3240   -20.5450 
  123.1250   105.4990    23.7630     5.7710     4.9350     6.5400     2.3090   -20.4010 
  123.2500   109.5790    23.5310     6.1960     5.0980     6.9250     2.2780   -20.2790 
  123.3750   107.5930    23.3980     6.5100     5.2350     7.2280     2.2540   -20.2260 
  123.5000    99.5570    23.2970     6.5510     5.2950     7.3480     2.2530   -20.1970 
  123.6250    94.3900    23.2260     6.3980     5.2690     7.2720     2.2640   -20.2400 
  123.7500    95.5850    23.1700     6.2640     5.2220     7.1320     2.2730   -20.2760 
  123.8750    98.1630    23.1270     6.2080     5.2060     7.0360     2.2790   -20.3590 
  124.0000    96.9480    23.0980     6.3500     5.2680     7.0650     2.2880   -20.4470 
  124.1250    92.3760    23.0880     6.7190     5.4520     7.2880     2.2880   -20.6380 
  124.2500    87.9980    23.0880     7.1030     5.7380     7.6730     2.2720   -20.8860 
  124.3750    84.1680    23.0850     7.4250     6.0960     8.1750     2.2540   -21.1900 
  124.5000    82.0060    23.0710     7.8330     6.4600     8.6990     2.2490   -21.5150 
  124.6250    82.3340    23.0390     8.4420     6.6930     9.0250     2.2530   -21.8500 
  124.7500    83.3940    23.0230     8.8100     6.7130     9.0070     2.2520   -22.1000 
  124.8750    84.5300    23.0160     8.4790     6.5140     8.6420     2.2460   -22.2450 
  125.0000    87.5060    23.0130     7.4980     6.1720     8.0600     2.2470   -22.2650 
  125.1250    91.6420    23.0120     6.5770     5.8070     7.4710     2.2570   -22.1290 
  125.2500    94.0230    23.0090     6.3200     5.5440     7.0820     2.2640   -21.8810 
  125.3750    93.0400    23.0100     6.6020     5.4640     7.0120     2.2670   -21.5450 
  125.5000    91.0510    23.0190     6.8750     5.5850     7.2780     2.2790   -21.1300 
  125.6250    92.4260    23.0820     7.1720     5.8680     7.7840     2.3140   -20.6530 
  125.7500    95.7570    23.2600     8.6090     6.1450     8.2390     2.3550   -20.1730 
  125.8750    96.4460    23.5400    11.0230     6.2640     8.3720     2.3770   -19.7610 
  126.0000    92.8430    23.8220    11.8330     6.1450     8.0570     2.3720   -19.4590 
  126.1250    89.9910    24.0290     9.4730     5.8420     7.4400     2.3550   -19.2230 
  126.2500    91.9860    24.2720     7.1080     5.5560     6.8970     2.3520   -19.0410 
  126.3750    96.8630    24.4880     6.3000     5.3990     6.6110     2.3660   -18.9190 
  126.5000   100.2030    24.6270     6.9000     5.4070     6.6210     2.3810   -18.8860 
  126.6250    97.8570    24.6000     8.1590     5.5600     6.8620     2.3770   -18.9150 
  126.7500    91.6740    24.5660     8.7730     5.7400     7.1090     2.3600   -19.0620 
  126.8750    85.1090    24.5460     8.1920     5.8550     7.2120     2.3450   -19.2740 
  127.0000    81.3130    24.5240     7.0710     5.8690     7.1390     2.3450   -19.5320 
  127.1250    80.5990    24.5560     6.5460     5.8240     6.9960     2.3550   -19.8540 
  127.2500    82.6530    24.6500     6.4830     5.7990     6.9280     2.3590   -20.2860 
  127.3750    86.8610    24.6570     6.5930     5.8220     6.9810     2.3480   -20.7630 
  127.5000    88.9320    24.3310     6.7320     5.8770     7.1210     2.3230   -21.2770 
  127.6250    83.5610    24.1840     7.0140     5.9070     7.2480     2.2950   -21.7920 
  127.7500    76.1880    24.1690     7.3240     5.8800     7.2840     2.2770   -22.3500 
  127.8750    74.8870    24.1190     7.4670     5.8010     7.2160     2.2750   -22.8990 
  128.0000    81.2010    24.1440     7.3330     5.7110     7.1000     2.2870   -23.4360 
  128.1250    87.2560    24.2240     7.2470     5.6990     7.0740     2.2980   -23.9790 
  128.2500    87.5720    24.2720     7.5000     5.8330     7.2650     2.2980   -24.5040 
  128.3750    82.5220    24.3000     8.0260     6.1690     7.7530     2.2830   -25.0010 
  128.5000    76.0490    24.1790     8.5650     6.7240     8.5540     2.2560   -25.4980 
  128.6250    72.4380    24.3270     9.1890     7.4690     9.6070     2.2250   -26.0260 
  128.7500    70.9680    24.1870    10.1430     8.2370    10.6580     2.2010   -26.5350 
  128.8750    69.8230    23.8180    11.0610     8.8680    11.4700     2.1870   -27.0120 
  129.0000    68.1360    23.6390    11.6040     9.2530    11.9040     2.1770   -27.4620 
  129.1250    67.7260    23.8960    11.5950     9.3610    11.9470     2.1660   -27.8140 
  129.2500    69.2240    24.2520    11.4490     9.3290    11.8200     2.1610   -28.1000 
  129.3750    69.9620    24.3800    11.3330     9.2520    11.6600     2.1680   -28.3480 
  129.5000    67.8360    24.2270    11.2640     9.1830    11.5390     2.1790   -28.5240 
  129.6250    65.0000    24.1940    11.2090     9.1350    11.4720     2.1760   -28.5970 
  129.7500    63.8850    24.1860    11.0190     9.0940    11.4240     2.1700   -28.6000 
  129.8750    63.9790    24.2460    10.7540     9.0530    11.3880     2.1750   -28.5750 
  130.0000    63.7450    24.1490    10.5140     9.0180    11.3710     2.1910   -28.5240 
  130.1250    64.3990    24.0740    10.5880     8.9900    11.3770     2.1990   -28.5400 
  130.2500    66.6730    24.0800    10.8690     8.9500    11.3780     2.1910   -28.5140 
  130.3750    67.8950    24.0650    11.0800     8.8830    11.3410     2.1750   -28.4840 
  130.5000    67.3950    23.7500    11.0620     8.7800    11.2460     2.1620   -28.4380 
  130.6250    66.6740    23.5210    10.9830     8.6660    11.1170     2.1570   -28.4180 
  130.7500    66.3340    23.5680    10.9050     8.5930    11.0340     2.1660   -28.3920 
  130.8750    66.7050    23.7900    10.9210     8.5990    11.0570     2.1940   -28.3850 
  131.0000    67.1250    23.6040    11.1350     8.6920    11.2000     2.2380   -28.4020 
  131.1250    66.9450    23.4730    11.5100     8.8480    11.4180     2.2810   -28.3590 
  131.2500    66.0050    23.4020    11.7840     8.9970    11.5860     2.2970   -28.2950 
  131.3750    65.7690    23.4420    11.7910     9.0820    11.6120     2.2800   -28.2080 
  131.5000    67.6710    23.5140    11.6000     9.0770    11.4740     2.2430   -28.1390 
  131.6250    69.5150    23.6500    11.3990     8.9960    11.2370     2.2120   -28.0720 
  131.7500    69.0300    23.8130    11.3670     8.8950    11.0200     2.1990   -28.0050 
  131.8750    67.2050    24.1530    11.4580     8.8110    10.8760     2.1990   -27.9060 
  132.0000    66.4140    24.4720    11.5790     8.7670    10.8170     2.2020   -27.7790 
  132.1250    68.7610    24.5990    11.6710     8.7740    10.8260     2.2050   -27.6060 
  132.2500    71.7130    24.5830    11.7300     8.8120    10.8630     2.2080   -27.4470 
  132.3750    72.8390    24.5370    11.7360     8.8740    10.9260     2.2100   -27.2880 
  132.5000    72.4140    24.5300    11.6130     8.9380    10.9910     2.2060   -27.0780 
  132.6250    72.3520    24.6290    11.2830     8.9060    10.9210     2.1940   -26.7620 
  132.7500    72.4650    24.6260    10.7510     8.6770    10.5780     2.1810   -26.3730 
  132.8750    69.2170    24.6350    10.1370     8.2000     9.9100     2.1770   -25.9110 
  133.0000    63.5520    24.6760     9.3410     7.5260     9.0080     2.1930   -25.3760 
  133.1250    63.7580    24.7580     7.9740     6.7960     8.0830     2.2330   -24.7900 
  133.2500    71.4550    24.6770     6.8730     6.1790     7.3410     2.2720   -24.1830 
  133.3750    79.9020    24.3710     6.5190     5.7570     6.8680     2.2860   -23.5810 
  133.5000    83.7490    24.1460     6.7100     5.5420     6.6530     2.2750   -23.0210 
  133.6250    82.8120    24.1320     6.9660     5.5190     6.6420     2.2720   -22.5460 
