~V
VERS. 2.00: Ver 2.00
~W
STRT.M 55.0000:
STOP.M 277.0000:
STEP.M 0.1250:
NULL. -999.2500:
UWI. DF5040:
~C
DEPT.M :
GR.API :
CALI.CM :
RXO.OHMM :
RI. :
RML.OHMM :
DEN.GM/CC :
SP.MV :
~A
# ...
  235.0000   112.8370    24.3500     9.1400     7.5940     8.3050     2.4070   -31.1670 
  235.1250   107.6220    24.3590     8.9680     7.3840     8.0820     2.3930   -31.1460 
  235.2500   106.2110    24.3570     8.9260     7.3000     7.9940     2.3840   -31.2150 
  235.3750   109.0820    24.3540     9.1070     7.4440     8.1460     2.3840   -31.3740 
  235.5000   113.9270    24.3410     9.5260     7.9540     8.6840     2.3880   -31.6060 
  235.6250   115.7950    24.3040    10.3020     9.1800     9.9760     2.3900   -31.8920 
  235.7500   111.8420    24.2730    11.8720    11.4070    12.3230     2.3910   -32.1880 
  235.8750   103.1320    24.2670    16.3630    15.0350    16.1750     2.3940   -32.4680 
  236.0000    92.7600    24.2720    27.6250    20.4100    21.9270     2.3890   -32.7110 
  236.1250    83.7870    24.2700    50.0610    27.9990    30.1190     2.3640   -32.9080 
  236.2500    77.2110    24.2660    72.0270    37.0370    39.7770     2.3340   -33.0780 
  236.3750    73.3280    24.2640    84.7870    46.3380    49.6710     2.3160   -33.2380 
  236.5000    71.8750    24.2660    90.4000    54.3200    58.1480     2.3140   -33.4050 
  236.6250    71.8200    24.2660    96.9270    59.2000    63.3310     2.3120   -33.5870 
  236.7500    71.5470    24.2710   103.8470    61.3640    65.6290     2.3070   -33.7770 
  236.8750    70.8200    24.2820   104.4070    62.0080    66.3120     2.3060   -33.9660 
  237.0000    70.3730    24.2960    94.5970    62.8620    67.2190     2.3130   -34.1400 
  237.1250    70.0260    24.3050    81.0060    65.4990    70.0200     2.3210   -34.2790 
  237.2500    68.8130    24.3160    78.9940    69.8350    74.6250     2.3180   -34.3790 
  237.3750    66.4810    24.3360    91.5740    75.2120    80.3350     2.2990   -34.4380 
  237.5000    64.1130    24.3560   108.2670    80.4870    85.9370     2.2740   -34.4650 
  237.6250    62.6570    24.3650   116.1990    83.8770    89.5380     2.2630   -34.4770 
  237.7500    62.1670    24.3650   118.2780    84.5720    90.2760     2.2740   -34.4980 
  237.8750    63.2060    24.3510   116.2490    82.4580    88.0300     2.2930   -34.5470 
  238.0000    65.5750    24.3160   109.1200    78.3590    83.6770     2.3020   -34.6320 
  238.1250    67.5600    24.2360    95.7780    74.0750    79.1270     2.3010   -34.7530 
  238.2500    68.3980    24.1180    81.6540    71.4820    76.3740     2.3070   -34.8830 
  238.3750    68.7720    24.0110    72.3510    71.5370    76.4330     2.3200   -34.9970 
  238.5000    69.2230    23.9710    71.0000    74.5180    79.5980     2.3280   -35.0690 
  238.6250    69.5040    24.0580    79.2190    80.5400    85.9930     2.3210   -35.0670 
  238.7500    69.7200    24.2220    93.1380    88.2970    94.2310     2.3030   -34.9980 
  238.8750    70.0750    24.3610   109.2830    96.5080   102.9520     2.2800   -34.8710 
  239.0000    70.5980    24.3820   123.5020   103.5900   110.4730     2.2580   -34.7050 
  239.1250    71.7590    24.3760   132.3800   107.6450   114.7790     2.2480   -34.5300 
  239.2500    72.8560    24.3590   136.0890   108.5560   115.7470     2.2550   -34.3770 
  239.3750    72.6320    24.3380   136.5210   106.8820   113.9690     2.2720   -34.2630 
  239.5000    71.3090    24.3070   133.5820   103.8930   110.7940     2.2880   -34.1940 
  239.6250    71.0270    24.2860   123.3730   101.3140   108.0560     2.2980   -34.1610 
  239.7500    71.7150    24.2740   109.6820   100.0970   106.7630     2.3030   -34.1360 
  239.8750    71.0730    24.2580   101.6340   100.1930   106.8650     2.3000   -34.0920 
  240.0000    67.9730    24.2490   106.0510   100.8300   107.5410     2.2900   -34.0060 
  240.1250    64.5420    24.2500   119.3130   100.5880   107.2850     2.2900   -33.8500 
  240.2500    63.9570    24.2350   132.4620    98.5460   105.1160     2.3050   -33.6330 
  240.3750    67.0840    24.2020   140.7830    94.5470   100.8690     2.3290   -33.3720 
  240.5000    72.4610    24.1280   139.3910    89.2320    95.2240     2.3440   -33.0940 
  240.6250    77.4690    24.0880   121.5990    84.0480    89.7190     2.3340   -32.8410 
  240.7500    80.8770    24.0290    96.6720    80.5940    86.0510     2.3110   -32.6330 
  240.8750    82.8340    24.0250    77.3390    79.9580    85.3750     2.2850   -32.4810 
  241.0000    83.1700    24.0600    71.1430    82.6100    88.1920     2.2640   -32.3780 
  241.1250    81.1150    23.9680    82.1320    88.5840    94.5360     2.2560   -32.3080 
  241.2500    78.2810    23.8460   105.5070    96.0760   102.4920     2.2670   -32.2340 
  241.3750    76.8970    23.7600   135.9470   103.4690   110.3440     2.2900   -32.1270 
  241.5000    78.0330    23.7660   157.3090   109.0690   116.2910     2.3070   -31.9650 
  241.6250    79.8750    23.7600   151.3630   110.8790   118.2130     2.3110   -31.7280 
  241.7500    79.2730    23.7760   136.2080   109.0160   116.2350     2.3150   -31.4380 
  241.8750    75.7110    23.7490   127.7790   104.1620   111.0800     2.3240   -31.1200 
  242.0000    71.6150    23.7120   122.6990    97.5660   104.0750     2.3270   -30.8040 
  242.1250    71.0440    23.7930   111.8650    90.6960    96.7800     2.3070   -30.5220 
  242.2500    73.6930    23.9220    97.5220    84.7840    90.5010     2.2700   -30.2870 
  242.3750    76.2440    23.9810    86.3420    80.3270    85.7670     2.2360   -30.0980 
  242.5000    75.5050    23.9550    78.1810    77.4230    82.6830     2.2250   -29.9370 
  242.6250    71.6930    23.8510    70.7340    76.1840    81.3670     2.2380   -29.7750 
  242.7500    69.1170    23.6900    64.1780    76.1600    81.3420     2.2560   -29.5810 
  242.8750    69.7040    23.4850    59.5840    77.1170    82.3580     2.2650   -29.3350 
  243.0000    72.4580    23.2050    58.7500    78.9060    84.2580     2.2670   -29.0300 
  243.1250    74.7970    23.0830    63.8210    81.7190    87.2460     2.2690   -28.6710 
  243.2500    74.9070    23.2320    72.4370    85.6560    91.4260     2.2740   -28.2910 
  243.3750    73.1410    23.5430    80.9150    90.9790    97.0790     2.2780   -27.9200 
  243.5000    71.3340    23.8560    88.3150    97.7750   104.2970     2.2750   -27.5870 
  243.6250    70.2690    24.0470   101.3290   105.6590   112.6700     2.2660   -27.3230 
  243.7500    68.4180    24.1640   125.2540   113.1440   120.6190     2.2600   -27.1230 
  243.8750    65.4860    24.2360   156.1590   118.5820   126.3940     2.2620   -26.9730 
  244.0000    63.0820    24.2290   180.7830   120.1180   128.0250     2.2690   -26.8470 
  244.1250    62.5380    24.0830   181.8120   115.4830   123.1030     2.2710   -26.7080 
  244.2500    63.1470    23.8460   167.6630   106.0310   113.0650     2.2710   -26.5280 
  244.3750    65.1620    23.6270   143.8040    93.6170    99.8810     2.2800   -26.2940 
  244.5000    69.0110    23.4500   114.2350    80.5340    85.9870     2.3080   -26.0110 
  244.6250    73.2750    23.3840    86.0600    69.1650    73.9130     2.3430   -25.6970 
  244.7500    75.3580    23.4030    65.5120    60.4630    64.6720     2.3590   -25.3850 
  244.8750    74.9490    23.5160    52.3930    54.6250    58.4720     2.3460   -25.1030 
  245.0000    73.4210    23.6720    47.0160    51.4500    55.1000     2.3170   -24.8660 
  245.1250    71.8620    23.8180    50.8370    50.8660    54.4800     2.2970   -24.6870 
  245.2500    70.5900    23.9390    57.4640    51.9420    55.6220     2.2910   -24.5440 
  245.3750    70.1450    24.0320    62.6100    54.2140    58.0350     2.2900   -24.4140 
  245.5000    71.0380    24.0770    66.0370    57.1500    61.1530     2.2770   -24.2660 
  245.6250    72.0700    24.0620    70.4050    59.6320    63.7890     2.2460   -24.0610 
  245.7500    71.5630    24.0420    76.3260    60.4020    64.6070     2.2140   -23.7880 
  245.8750    69.9620    24.0300    80.1450    58.7250    62.8260     2.2040   -23.4450 
  246.0000    69.2700    24.0370    79.7940    54.7020    58.5530     2.2270   -23.0420 
  246.1250    70.9290    24.0520    77.7930    48.9620    52.4580     2.2710   -22.6060 
