~V
VERS. 2.00: Ver 2.00
~W
STRT.M 58.0000:
STOP.M 256.0000:
STEP.M 0.1250:
NULL. -999.2500:
UWI. DF5024:
~C
DEPT.M :
SP.MV :
GR.API :
CALI.CM :
RXO.OHMM :
RI. :
RML.OHMM :
DEN.GM/CC :
~A
# ...
  249.2500   -13.2150    76.3180    23.6330     6.8420     6.4310     7.0520     2.2920 
  249.3750   -13.2210    76.3180    23.6480     6.5030     6.4060     7.0250     2.3000 
  249.5000   -13.2410    76.3180    23.6600     6.2850     6.3900     7.0090     2.3240 
  249.6250   -13.2710    76.3180    23.6590     6.1990     6.3900     7.0080     2.3520 
  249.7500   -13.3030    76.3180    23.6600     6.1760     6.4030     7.0220     2.3730 
  249.8750   -13.3300    76.3180    23.6760     6.1490     6.4250     7.0450     2.3790 
  250.0000   -13.3460    76.3180    23.6800     6.0780     6.4520     7.0750     2.3720 
  250.1250   -13.3450    76.3180    23.5860     5.9930     6.4820     7.1060     2.3570 
  250.2500   -13.3360    76.3180    23.4730     5.9630     6.5080     7.1340     2.3410 
  250.3750   -13.3250    76.3180    23.5020     6.0160     6.5280     7.1560     2.3260 
  250.5000   -13.3220    76.3180    23.7130     6.1590     6.5430     7.1720     2.3120 
  250.6250   -13.3310    76.3180    23.9650     6.3860     6.5520     7.1810     2.3040 
  250.7500   -13.3540    76.3180    24.1470     6.6310     6.5570     7.1870     2.3000 
  250.8750   -13.3890    76.3180    24.2260     6.8030     6.5610     7.1900     2.3000 
  251.0000   -13.4360    76.3180    24.2540     6.9190     6.5620     7.1910     2.3060 
  251.1250   -13.4900    76.3180    24.2670     7.0540     6.5600     7.1900     2.3220 
  251.2500   -13.5410    76.3180    24.2820     7.0730     6.5580     7.1870     2.3390 
  251.3750   -13.5810    76.3180    24.2830     6.9010     6.5520     7.1810     2.3530 
  251.5000   -13.6090    76.3180    24.2510     6.6470     6.5440     7.1730     2.3590 
  251.6250   -13.6320    76.3180    24.2460     6.4820     6.5380     7.1660     2.3620 
  251.7500   -13.6580    76.3180    24.2540     6.4200     6.5340     7.1620     2.3610 
  251.8750   -13.6870    76.3180    24.2570     6.3690     6.5320     7.1600     2.3520 
  252.0000   -13.7160    76.3180    24.2590     6.2870     6.5310     7.1580     2.3350 
  252.1250   -13.7470    76.3180    24.2500     6.2830     6.5310     7.1580     2.3260 
  252.2500   -13.7870    76.3180    24.2390     6.5080     6.5310     7.1590     2.3350 
  252.3750   -13.8400    76.3180    24.2320     6.8820     6.5320     7.1590     2.3570 
  252.5000   -13.9020    76.3180    24.2250     7.1860     6.5320     7.1600     2.3800 
  252.6250  -999.2500    76.3180    24.2180     7.2290     6.5310     7.1590     2.3930 
  252.7500  -999.2500    76.3180    24.2080     7.0950     6.5300     7.1580     2.4010 
  252.8750  -999.2500    76.3180    24.2010     6.8680     6.5300     7.1570     2.4090 
  253.0000  -999.2500    76.3180    24.1960     6.6330     6.5300     7.1570     2.4140 
  253.1250  -999.2500    76.3180    24.1860     6.5610     6.5300     7.1570     2.4070 
  253.2500  -999.2500    76.3180    24.1740     6.5960     6.5300     7.1570     2.4000 
  253.3750  -999.2500    76.3180    24.1770     6.5450     6.5300     7.1570     2.3770 
  253.5000  -999.2500    76.3180    23.7260     6.3170     6.5300     7.1570     2.2640 
  253.6250  -999.2500    76.3180    21.6520     6.0910     6.5300     7.1570     1.9860 
  253.7500  -999.2500    76.3180    18.3080     5.9750     6.5300     7.1570     1.6710 
  253.8750  -999.2500    76.3180    15.6720     5.9380     6.5300     7.1570     1.4660 
  254.0000  -999.2500    76.3180    14.5500     5.9250     6.5300     7.1570     1.4100 
  254.1250  -999.2500    76.3180    14.3950     5.9240     6.5300     7.1570     1.4310 
  254.2500  -999.2500    76.3180    14.3500     5.9440     6.5300     7.1570     1.4450 
  254.3750  -999.2500    76.3180    14.3360     5.9560     6.5300     7.1570     1.4470 
  254.5000  -999.2500    76.3180    14.3530     5.9480     6.5300     7.1570     1.4460 
  254.6250  -999.2500    76.3180    14.3610     5.9390     6.5300     7.1570     1.4470 
  254.7500  -999.2500    76.3180    14.3640     5.9350     6.5300     7.1570     1.4470 
  254.8750  -999.2500    76.3180    14.3670     5.9370     6.5300     7.1570     1.4480 
  255.0000  -999.2500    76.3180    14.3480     5.9400     6.5300     7.1570     1.4400 
  255.1250  -999.2500    76.3180    14.3510     5.9410     6.5300     7.1570     1.4560 
  255.2500  -999.2500    76.3180    14.3560     5.9360     6.5300     7.1570     1.5790 
  255.3750  -999.2500    76.3180    14.3580     5.9400     6.5300     7.1570     1.6540 
  255.5000  -999.2500    76.3180    14.3390     5.9520     6.5300     7.1570     1.9790 
  255.6250  -999.2500    76.3180    14.3420     5.9540     6.5300     7.1570     2.0190 
  255.7500  -999.2500    76.3180    14.3530     5.9540     6.5300     7.1570     1.9970 
  255.8750  -999.2500    76.3180    14.3310     5.9670     6.5300     7.1570  -999.2500 
  256.0000  -999.2500    76.3180    14.3120     5.9830     6.5300     7.1570  -999.2500 
