~V
VERS. 2.00: Ver 2.00
~W
STRT.M 64.0000:
STOP.M 243.0000:
STEP.M 0.1250:
NULL. -999.2500:
UWI. DF5061:
~C
DEPT.M :
GR.API :
RML.OHMM :
RI. :
RXO.OHMM :
CALI.CM :
DEN.GM/CC :
SP.MV :
~A
# ...
  154.0000    95.0540    15.9760    13.9700    15.8820    24.6090     2.3890   -14.4260 
  154.1250    91.8360    21.7440    18.4410    24.7080    24.6840     2.3610   -14.3110 
  154.2500    85.5650    33.1080    28.5880    43.7500    24.7090     2.3260   -14.1460 
  154.3750    75.5440    53.6790    48.4580    75.6980    24.7270     2.2920   -13.9190 
  154.5000    65.3050    82.3910    76.8550   114.2430    24.7580     2.2660   -13.6630 
  154.6250    58.6720   116.0810   110.1080   147.9770    24.7950     2.2510   -13.4080 
  154.7500    56.2430   148.3290   141.1730   161.5500    24.8160     2.2450   -13.1830 
  154.8750    57.9540   168.8860   159.9030   156.3980    24.8200     2.2450   -13.0020 
  155.0000    61.6790   175.6100   165.3910   150.5280    24.8200     2.2480   -12.8730 
  155.1250    64.8880   172.1860   161.6390   145.4030    24.8180     2.2510   -12.7850 
  155.2500    66.8750   164.7280   154.1800   139.5840    24.8140     2.2540   -12.7240 
  155.3750    66.9580   157.8840   147.1050   133.5170    24.8020     2.2560   -12.6870 
  155.5000    65.1120   153.3580   142.0280   126.4680    24.7790     2.2570   -12.6450 
  155.6250    63.8330   151.1500   139.1850   121.8470    24.7480     2.2570   -12.5760 
  155.7500    66.9280   150.0830   138.0950   119.6860    24.7120     2.2540   -12.4670 
  155.8750    71.6270   148.3720   137.4740   120.4220    24.6720     2.2490   -12.3040 
  156.0000    71.2720   144.2400   135.4020   121.2400    24.6590     2.2450   -12.1050 
  156.1250    66.8520   137.1490   130.3810   118.0270    24.6990     2.2420   -11.8830 
  156.2500    63.6460   126.4970   121.5800   108.6840    24.7460     2.2430   -11.6550 
  156.3750    64.1290   113.7730   108.7510    95.0780    24.7350     2.2510   -11.4350 
  156.5000    66.3170   100.0290    94.1250    81.3800    24.7010     2.2640   -11.2120 
  156.6250    68.0040    85.6180    79.9580    69.3290    24.6610     2.2810   -10.9820 
  156.7500    69.0720    73.2580    68.4920    59.0500    24.6120     2.2990   -10.7280 
  156.8750    69.3420    67.0580    62.3490    50.3070    24.5510     2.3120   -10.4240 
  157.0000    69.3030    67.1420    62.0550    46.8290    24.4870     2.3150   -10.0780 
  157.1250    71.2700    74.1700    68.4940    53.8470    24.4410     2.3080    -9.6920 
  157.2500    75.1850    88.4900    82.1370    70.7480    24.4160     2.2930    -9.2760 
  157.3750    75.0520   110.4460   103.3010    93.2290    24.3980     2.2730    -8.8510 
  157.5000    71.0960   136.2320   128.1470   114.4960    24.3850     2.2550    -8.4680 
  157.6250    69.5300   161.5850   152.5330   132.2980    24.4100     2.2380    -8.1630 
  157.7500    71.2310   181.4750   171.8120   146.7230    24.4810     2.2220    -7.9730 
  157.8750    69.3760   190.1340   180.7810   158.0090    24.5370     2.2120    -7.9680 
  158.0000    64.7160   188.5470   180.1660   159.6490    24.5300     2.2100    -8.1250 
  158.1250    62.6720   179.2220   171.8080   150.7290    24.4310     2.2180    -8.4180 
  158.2500    64.7360   166.4610   159.2070   136.8320    24.2520     2.2300    -8.8050 
  158.3750    66.9920   156.2660   147.6150   119.9680    24.1030     2.2380    -9.2440 
  158.5000    67.2960   152.7160   141.4470   104.7850    24.1130     2.2360    -9.6640 
  158.6250    67.7700   157.5720   142.8920    97.7780    24.2600     2.2270    -9.9890 
  158.7500    69.1040   170.3330   151.9200   105.1120    24.5020     2.2160   -10.1860 
  158.8750    68.7490   188.2860   166.3700   127.8010    24.7450     2.2150   -10.2110 
  159.0000    65.2460   205.3780   180.7170   148.6170    24.8790     2.2220   -10.1060 
  159.1250    60.9980   217.4360   191.2260   152.1680    24.8970     2.2330    -9.9210 
  159.2500    59.1970   223.1110   196.5580   148.8090    24.9140     2.2390    -9.6910 
  159.3750    59.7680   225.6880   199.2060   144.5960    24.9220     2.2320    -9.4510 
  159.5000    59.7850   233.1950   205.9350   134.7860    24.9330     2.2160    -9.2390 
  159.6250    57.0970   252.5380   222.8580   132.9400    24.9620     2.1950    -9.0920 
  159.7500    52.4960   288.2080   253.9650   156.4490    25.0080     2.1740    -9.0170 
  159.8750    51.2360   341.8610   300.6560   189.0410    25.0400     2.1590    -9.0000 
  160.0000    53.3280   401.1330   352.5800   227.1480    25.0380     2.1520    -8.9930 
  160.1250    54.1100   449.2750   396.2110   254.8000    25.0200     2.1530    -8.9610 
  160.2500    51.0880   466.3980   415.5510   266.2560    25.0120     2.1600    -8.9000 
  160.3750    47.3760   430.9620   392.4700   257.9490    25.0220     2.1680    -8.7950 
  160.5000    47.0670   357.2330   335.9060   232.2040    25.0540     2.1750    -8.6760 
  160.6250    49.9760   267.7540   261.2430   193.2530    25.1090     2.1800    -8.5750 
  160.7500    54.0160   186.0070   187.0950   146.6470    25.1420     2.1900    -8.5300 
  160.8750    55.9040   128.3730   129.9600   106.0810    25.1050     2.2130    -8.6040 
  161.0000    55.4280    90.9720    90.9380    75.1530    24.9940     2.2510    -8.8160 
  161.1250    55.3430    68.9900    67.2560    53.4160    24.8260     2.2960    -9.1710 
  161.2500    58.4270    58.0400    54.9350    38.5790    24.6560     2.3340    -9.6420 
  161.3750    62.0210    56.2410    51.7910    34.1100    24.5790     2.3490   -10.2010 
  161.5000    62.5500    60.5210    54.5250    37.2480    24.5820     2.3410   -10.7920 
  161.6250    62.0280    69.7890    62.1260    45.8290    24.6380     2.3180   -11.3560 
  161.7500    63.0910    82.6420    73.4260    57.1550    24.6950     2.2920   -11.8540 
  161.8750    62.5190    96.7210    86.3830    69.9520    24.7360     2.2720   -12.2380 
  162.0000    58.9720   108.6240    97.6830    81.7670    24.7500     2.2600   -12.5110 
  162.1250    55.5400   115.8730   104.8790    90.8100    24.7480     2.2540   -12.6770 
  162.2500    55.3110   117.3770   106.8230    97.1840    24.7310     2.2540   -12.7790 
  162.3750    57.5930   113.4520   103.6540    93.4080    24.6830     2.2570   -12.8410 
  162.5000    60.7400   107.4070    98.3970    85.2980    24.5860     2.2610   -12.9050 
  162.6250    63.3110   101.3560    93.1100    78.7580    24.4310     2.2630   -12.9860 
  162.7500    63.4700    96.5520    89.1400    75.3360    24.2280     2.2630   -13.0770 
  162.8750    63.8690    93.6680    87.2810    76.3360    24.0260     2.2610   -13.1660 
  163.0000    68.2290    92.2330    86.9920    76.2770    23.9070     2.2580   -13.2280 
  163.1250    74.5630    91.8120    87.6930    75.8150    23.8690     2.2540   -13.2520 
  163.2500    76.7580    91.7270    88.5760    74.8930    23.8670     2.2520   -13.2280 
  163.3750    71.7530    90.6800    88.2630    74.1270    23.8700     2.2510   -13.1660 
  163.5000    64.8920    87.3870    85.5420    72.8910    23.8780     2.2510   -13.0680 
  163.6250    61.3570    80.7640    79.3750    69.5040    23.8950     2.2500   -12.9420 
  163.7500    64.7440    70.4660    69.4130    62.0810    23.9210     2.2520   -12.7990 
  163.8750    74.3440    57.1940    56.3150    50.1720    23.9470     2.2600   -12.6610 
  164.0000    81.5040    43.7170    42.9530    38.9350    23.9500     2.2790   -12.5490 
  164.1250    82.6610    32.1140    31.5050    28.8460    23.9510     2.3080   -12.4690 
  164.2500    81.4500    23.6410    23.1730    20.0670    23.9590     2.3430   -12.4160 
  164.3750    83.8430    19.2600    18.6060    14.8670    23.9880     2.3690   -12.3840 
  164.5000    86.1040    18.3690    17.0240    14.2140    24.0530     2.3790   -12.3650 
  164.6250    83.2710    21.0770    18.5710    17.6920    24.1680     2.3690   -12.3520 
  164.7500    76.0940    27.5420    23.6940    26.4310    24.3320     2.3450   -12.3410 
  164.8750    68.3120    37.9500    33.1930    40.8060    24.5180     2.3180   -12.2990 
  165.0000    61.8160    50.2780    45.4460    57.9630    24.6580     2.2980   -12.2100 
  165.1250    57.9510    62.3700    58.3120    71.6280    24.7310     2.2880   -12.0910 
