~V
VERS. 2.00: Ver 2.00
~W
STRT.M 58.0000:
STOP.M 261.0000:
STEP.M 0.1250:
NULL. -999.2500:
UWI. DF5035:
~C
DEPT.M :
DEN.GM/CC :
GR.API :
CALI.CM :
RXO.OHMM :
RI. :
RML.OHMM :
SP.MV :
~A
# ...
  148.0000     2.4770    60.7070    24.3620    11.5970    14.7120    15.8200   -45.5300 
  148.1250     2.4820    61.6140    24.2940    11.4220    14.4680    15.5470   -45.5030 
  148.2500     2.4860    59.2090    24.3030    11.5590    14.4940    15.6110   -45.5090 
  148.3750     2.4870    55.8420    24.3240    11.6030    14.7590    15.9290   -45.5200 
  148.5000     2.4850    56.0270    24.3230    11.8450    15.1260    16.3070   -45.5610 
  148.6250     2.4830    58.4220    24.2750    12.3080    15.3390    16.4640   -45.5260 
  148.7500     2.4840    58.9980    24.1510    12.4630    15.2550    16.3050   -45.5270 
  148.8750     2.4850    57.2440    23.9540    12.1050    14.8840    15.8710   -45.6070 
  149.0000     2.4820    54.9880    23.7600    11.6370    14.3220    15.2710   -45.6280 
  149.1250     2.4670    54.6240    23.7450    11.1030    13.6820    14.6430   -45.6940 
  149.2500     2.4420    58.1410    23.9040    10.8430    13.1000    14.1360   -45.7010 
  149.3750     2.4090    65.3990    24.1020    10.9550    12.6950    13.8780   -45.7590 
  149.5000     2.3730    71.4680    24.2060    10.9960    12.5760    14.0010   -45.8840 
  149.6250     2.3400    74.4030    24.2050    10.6840    12.9410    14.7760   -45.9740 
  149.7500     2.3150    76.1790    24.2050    11.2280    13.8710    16.2940   -46.0980 
  149.8750     2.2970    77.8700    24.2220    13.6260    15.4690    18.6110   -46.1850 
  150.0000     2.2850    79.4090    24.2430    16.9660    17.7330    21.5840   -46.2500 
  150.1250     2.2760    78.7700    24.2520    19.1920    20.4720    24.7350   -46.3490 
  150.2500     2.2690    76.7040    24.2520    20.5540    23.0170    27.2780   -46.4300 
  150.3750     2.2660    74.6620    24.2600    22.1120    24.7070    28.6190   -46.5800 
  150.5000     2.2670    75.3790    24.2820    23.2420    25.1720    28.6080   -46.5430 
  150.6250     2.2710    78.5330    24.2990    22.3440    24.5160    27.6040   -46.5030 
  150.7500     2.2750    79.3710    24.3090    20.3570    23.5590    26.5470   -46.5610 
  150.8750     2.2740    78.2120    24.3300    18.9660    22.8350    26.0240   -46.4730 
  151.0000     2.2710    77.7610    24.3680    19.0940    22.7100    26.3980   -46.4700 
  151.1250     2.2650    78.7790    24.4460    21.2410    23.5250    27.9330   -46.5160 
  151.2500     2.2590    78.7060    24.6030    23.9380    25.1240    30.2350   -46.4790 
  151.3750     2.2530    77.3560    24.8210    26.4870    27.2510    32.8380   -46.4420 
  151.5000     2.2480    76.8660    25.0100    27.9970    29.4650    35.1710   -46.5310 
  151.6250     2.2440    76.8620    25.0820    29.3030    31.1930    36.6240   -46.5670 
  151.7500     2.2440    76.4870    25.0860    30.2810    32.2550    37.2260   -46.5830 
  151.8750     2.2470    75.7270    25.0660    29.3240    32.7130    37.1760   -46.6850 
  152.0000     2.2520    76.0040    25.0310    27.4210    32.7140    36.6870   -46.7500 
  152.1250     2.2590    76.9010    25.0020    27.4620    32.2500    35.7440   -46.7630 
  152.2500     2.2650    77.7930    25.0080    28.5100    31.3180    34.3390   -46.8420 
  152.3750     2.2730    79.0110    25.0440    28.4730    29.9200    32.5220   -46.9350 
  152.5000     2.2800    79.3880    25.0630    25.2060    28.2670    30.5890   -46.8780 
  152.6250     2.2860    76.0420    25.0310    21.0070    26.8430    29.1420   -47.0200 
  152.7500     2.2860    72.1000    24.9770    18.6020    26.0130    28.5110   -47.1620 
  152.8750     2.2790    72.0680    24.9300    19.1550    25.9010    28.7280   -47.2310 
  153.0000     2.2660    77.2670    24.9010    22.2110    26.3960    29.5250   -47.3730 
  153.1250     2.2550    81.6450    24.8770    25.9410    27.1710    30.3920   -47.4020 
  153.2500     2.2510    82.1150    24.8250    26.2980    27.7600    30.8930   -47.5280 
  153.3750     2.2580    81.2630    24.7370    22.8120    28.0250    31.0380   -47.6040 
  153.5000     2.2690    81.8210    24.6490    19.9620    28.1880    31.2460   -47.7200 
  153.6250     2.2750    83.0050    24.6090    20.2040    28.8160    32.2450   -47.8330 
  153.7500     2.2700    82.0270    24.5890    21.2350    30.2200    34.2330   -47.8270 
  153.8750     2.2580    79.2510    24.5640    25.3930    32.4300    37.0340   -47.9400 
  154.0000     2.2470    76.1220    24.5090    30.9160    35.1350    40.1100   -47.9770 
  154.1250     2.2440    74.6190    24.3830    35.3640    37.6070    42.5870   -48.1270 
  154.2500     2.2470    75.9650    24.2060    34.5660    39.2820    44.1000   -48.2450 
  154.3750     2.2520    80.2480    24.0450    31.2840    40.1110    44.8320   -48.2750 
  154.5000     2.2540    83.8860    23.9610    27.8580    40.4590    45.3120   -48.4580 
  154.6250     2.2520    83.0300    23.9540    28.4620    40.8790    46.1320   -48.5270 
  154.7500     2.2510    80.2550    23.9670    30.8050    41.6690    47.4100   -48.5990 
  154.8750     2.2520    79.8040    23.9950    31.9240    42.8060    48.9810   -48.7390 
  155.0000     2.2530    82.0600    24.0530    32.5710    44.0930    50.5760   -48.8670 
  155.1250     2.2520    83.1750    24.1650    33.5460    45.3130    51.9960   -48.9340 
  155.2500     2.2470    80.9570    24.3240    35.0850    46.5050    53.4050   -49.0010 
  155.3750     2.2360    78.2820    24.5000    36.5690    47.9220    55.1300   -49.0680 
  155.5000     2.2260    78.4100    24.6440    38.7130    49.8410    57.4360   -49.1170 
  155.6250     2.2180    81.1110    24.7080    39.9040    52.3940    60.3530   -49.1890 
  155.7500     2.2150    83.4690    24.7250    42.9330    55.1360    63.2750   -49.2730 
  155.8750     2.2150    84.5470    24.7440    49.6590    57.4580    65.4380   -49.2830 
  156.0000     2.2190    84.2530    24.7850    55.5970    58.6810    66.0900   -49.2390 
  156.1250     2.2230    84.0410    24.8170    53.1110    58.1910    64.6840   -49.3030 
  156.2500     2.2240    84.0780    24.8420    48.0330    56.5620    62.1410   -49.3400 
  156.3750     2.2200    82.9520    24.9140    44.0370    54.5430    59.4810   -49.3900 
  156.5000     2.2140    79.7790    25.0580    40.6280    52.9330    57.6390   -49.4530 
  156.6250     2.2100    77.3990    25.2120    41.9320    52.5030    57.3860   -49.4330 
  156.7500     2.2090    77.8280    25.2940    42.4450    53.2060    58.4100   -49.4440 
  156.8750     2.2100    78.8090    25.2980    42.1770    54.7110    60.1430   -49.4910 
  157.0000     2.2100    78.7820    25.2520    42.0480    56.3450    61.7010   -49.5810 
  157.1250     2.2110    78.3810    25.1920    42.0040    56.9700    61.7430   -49.6340 
  157.2500     2.2160    79.5220    25.1650    40.7830    55.8790    59.7140   -49.6170 
  157.3750     2.2250    82.2520    25.1680    37.4390    52.8650    55.6800   -49.6920 
  157.5000     2.2390    83.9250    25.1520    33.2040    48.4890    50.5480   -49.7150 
  157.6250     2.2520    83.0980    25.0690    29.8790    44.1890    46.1330   -49.7180 
  157.7500     2.2620    82.8070    24.9640    28.6030    41.4520    43.9370   -49.7940 
  157.8750     2.2630    83.3970    24.8880    28.1980    41.2020    44.8440   -49.8610 
  158.0000     2.2540    82.9880    24.8680    34.1070    44.0230    49.2490   -49.9040 
  158.1250     2.2390    80.6270    24.9100    53.5000    50.6610    57.3820   -49.9800 
  158.2500     2.2250    78.6930    24.9770    83.4210    59.6150    67.1160   -50.0930 
  158.3750     2.2180    77.5120    25.0280   102.3640    68.4260    75.6260   -50.1470 
  158.5000     2.2190    74.4240    25.0330    98.7780    73.8210    79.7610   -50.2820 
  158.6250     2.2280    70.5640    24.9680    93.8130    73.2080    77.7380   -50.4210 
  158.7500     2.2400    68.9450    24.8540    80.5990    69.3590    73.2780   -50.5020 
  158.8750     2.2470    70.0280    24.7390    60.7870    65.3850    69.7660   -50.5600 
  159.0000     2.2480    71.6740    24.6800    44.5120    63.5620    69.2160   -50.6480 
  159.1250     2.2430    73.2130    24.7110    42.0010    65.1000    72.3010   -50.7550 
