~V
VERS. 2.00: Ver 2.00
~W
STRT.M 59.0000:
STOP.M 253.0000:
STEP.M 0.1250:
NULL. -999.2500:
UWI. DF5043:
~C
DEPT.M :
SP.MV :
GR.API :
CALI.CM :
RXO.OHMM :
RI. :
RML.OHMM :
DEN.GM/CC :
~A
# ...
  205.2500   -27.2880    66.2640    23.7820   194.5300   158.6410   168.1030     2.1760 
  205.3750   -27.3310    67.8030    23.7170   184.1660   143.7760   152.3910     2.1910 
  205.5000   -27.3740    69.1330    23.6950   178.6040   125.6070   133.1870     2.1960 
  205.6250   -27.4120    70.1580    23.6910   169.6790   106.0520   112.5170     2.1910 
  205.7500   -27.4420    71.4080    23.6820   150.1990    87.4870    92.8930     2.1830 
  205.8750   -27.4580    73.4730    23.6580   120.4840    72.6310    77.1910     2.1740 
  206.0000   -27.4600    75.5250    23.6390    87.8180    62.1760    66.1400     2.1660 
  206.1250   -27.4480    76.5250    23.6510    60.1040    56.4960    60.1360     2.1670 
  206.2500   -27.4210    76.5530    23.6860    44.1030    55.6590    59.2510     2.1860 
  206.3750   -27.3850    76.5690    23.6970    44.8960    60.2740    64.1300     2.2150 
  206.5000   -27.3500    76.0740    23.6790    59.3020    69.1810    73.5440     2.2260 
  206.6250   -27.3260    73.5320    23.6670    84.0270    81.7370    86.8160     2.2090 
  206.7500   -27.3190    68.8080    23.7730   109.3490    96.6740   102.6040     2.1820 
  206.8750   -27.3380    64.5890    24.0070   127.1420   111.3320   118.0980     2.1760 
  207.0000   -27.3780    63.3710    24.1900   141.7650   122.4170   129.8150     2.1890 
  207.1250   -27.4370    64.4210    24.2540   156.8680   127.6370   135.3330     2.2010 
  207.2500   -27.5170    65.0450    24.2640   166.2640   126.3430   133.9640     2.1960 
  207.3750   -27.6250    63.8650    24.2850   162.1140   119.2150   126.4300     2.1740 
  207.5000   -27.7610    63.6150    24.2920   150.0570   109.6780   116.3500     2.1510 
  207.6250   -27.9230    66.1800    24.2950   134.0310    99.8170   105.9260     2.1410 
  207.7500   -28.0950    69.8140    24.3100   115.6790    91.0430    96.6520     2.1460 
  207.8750   -28.2500    70.6260    24.3090    99.7170    84.4580    89.6920     2.1590 
  208.0000   -28.3660    70.1080    24.2970    89.0610    79.9040    84.8790     2.1670 
  208.1250   -28.4360    72.9150    24.2900    82.7760    77.1240    81.9400     2.1650 
  208.2500   -28.4670    79.3110    24.2770    79.2610    75.7320    80.4680     2.1590 
  208.3750   -28.4710    82.0680    24.2650    77.9620    75.4630    80.1850     2.1570 
  208.5000   -28.4680    77.8530    24.2780    79.6610    75.8000    80.5410     2.1610 
  208.6250   -28.4690    70.7350    24.2810    81.4390    76.4870    81.2670     2.1660 
  208.7500   -28.4790    66.1700    24.2440    81.0330    77.3700    82.2000     2.1670 
  208.8750   -28.5060    66.0540    24.1810    79.2740    78.4210    83.3110     2.1660 
  209.0000   -28.5470    67.5840    24.2210    80.0150    79.5950    84.5520     2.1630 
  209.1250   -28.5960    68.8710    24.2720    83.7220    80.8440    85.8720     2.1540 
  209.2500   -28.6470    68.9760    24.2960    88.1030    82.1220    87.2230     2.1440 
  209.3750   -28.6870    68.4360    24.3080    90.9910    83.3470    88.5180     2.1400 
  209.5000   -28.7110    68.4240    24.3110    92.9560    84.3520    89.5800     2.1440 
  209.6250   -28.7170    69.0990    24.3000    94.4710    84.8800    90.1380     2.1510 
  209.7500   -28.7010    69.9890    24.3040    95.0980    84.6750    89.9210     2.1590 
  209.8750   -28.6590    70.1400    24.2740    92.7390    83.4170    88.5920     2.1730 
  210.0000   -28.5940    69.7220    24.1860    89.1820    81.3350    86.3920     2.1960 
  210.1250   -28.5070    69.9440    24.1090    88.2170    78.7670    83.6770     2.2180 
  210.2500   -28.4040    71.6060    24.1400    89.3190    76.2270    80.9920     2.2270 
  210.3750   -28.2940    73.4750    24.2090    87.0080    74.5650    79.2350     2.2200 
  210.5000   -28.1960    73.4330    24.2150    80.9880    74.4450    79.1080     2.2090 
  210.6250   -28.1230    72.2060    24.2020    76.4310    76.3910    81.1650     2.2020 
  210.7500   -28.0840    72.9930    24.2360    77.7300    80.6260    85.6420     2.2000 
  210.8750   -28.0810    76.6090    24.2290    87.4720    87.4490    92.8540     2.1930 
  211.0000   -28.0940    78.8470    24.1770   102.5890    96.0060   101.8990     2.1810 
  211.1250   -28.1060    77.3210    24.1440   120.6400   105.4860   111.9190     2.1690 
  211.2500   -28.1090    73.9480    24.1880   140.1110   114.6500   121.6050     2.1610 
  211.3750   -28.1000    73.0410    24.2170   155.8130   121.2470   128.5780     2.1640 
  211.5000   -28.0900    74.1380    24.2400   160.4020   123.7730   131.2480     2.1780 
  211.6250   -28.0870    74.0840    24.2310   153.8710   121.3760   128.7140     2.1970 
  211.7500   -28.0960    71.0610    24.1950   148.5780   114.2780   121.2120     2.2120 
  211.8750   -28.1140    67.2290    24.1990   152.2700   103.4640   109.7810     2.2090 
  212.0000   -28.1380    65.9350    24.2380   152.6560    91.6200    97.2620     2.1970 
  212.1250   -28.1630    66.5800    24.2490   135.3020    80.6620    85.6800     2.1910 
  212.2500   -28.1830    66.9870    24.2540   103.5730    72.0110    76.5360     2.1960 
  212.3750   -28.1910    66.3860    24.2630    76.2110    67.0300    71.2710     2.2030 
  212.5000   -28.1790    66.1320    24.2470    63.4770    65.3530    69.4980     2.1990 
  212.6250   -28.1440    66.9030    24.2390    62.6790    66.7260    70.9490     2.1870 
  212.7500   -28.0840    68.6830    24.2530    68.9820    70.6960    75.1450     2.1690 
  212.8750   -27.9960    71.6310    24.2350    81.3910    76.7990    81.5960     2.1510 
  213.0000   -27.8890    74.9730    24.1860    96.3130    83.6420    88.8300     2.1470 
  213.1250   -27.7670    77.5930    24.1610   108.3360    89.8790    95.4220     2.1600 
  213.2500   -27.6350    78.8090    24.1610   113.3680    93.9480    99.7230     2.1750 
  213.3750   -27.5020    78.4120    24.0800   111.7480    93.9980    99.7760     2.1750 
  213.5000   -27.3800    76.4170    23.9750   106.5720    90.4830    96.0610     2.1660 
  213.6250   -27.2900    73.0080    23.8130    98.9530    84.3000    89.5250     2.1640 
  213.7500   -27.2530    69.4510    23.6180    88.7280    76.8740    81.6760     2.1760 
  213.8750   -27.3020    68.3860    23.3710    75.9790    70.0590    74.4730     2.1990 
  214.0000   -27.4340    70.8420    23.1550    62.3450    65.2000    69.3360     2.2200 
  214.1250   -27.6480    76.1930    23.0140    51.0430    62.9440    66.9510     2.2340 
  214.2500   -27.9330    80.9440    23.0020    46.4970    63.4230    67.4580     2.2390 
  214.3750   -28.2900    80.1400    23.0120    51.6810    66.5280    70.7400     2.2320 
  214.5000   -28.6980    75.7400    23.0570    59.9140    70.8920    75.3530     2.2180 
  214.6250   -29.1550    72.3430    23.0580    65.4730    75.4160    80.1350     2.2020 
  214.7500   -29.6530    72.0660    23.0010    65.8660    79.0750    84.0020     2.1960 
  214.8750   -30.1770    71.8380    22.8670    62.4580    80.8810    85.9110     2.2030 
  215.0000   -30.6930    68.8830    22.7550    59.2140    81.1200    86.1640     2.2130 
  215.1250   -31.1630    64.5890    22.7960    58.1440    80.5290    85.5400     2.2140 
  215.2500   -31.5510    62.2490    23.0430    60.2760    80.2270    85.2200     2.2000 
  215.3750   -31.7990    64.0470    23.4130    65.6950    81.5190    86.5850     2.1750 
  215.5000   -31.9040    66.5920    23.7190    75.1360    84.6560    89.9020     2.1580 
  215.6250   -31.8620    67.0870    23.8880    90.7020    89.5190    95.0420     2.1610 
  215.7500   -31.6850    65.8010    23.9410   111.2460    95.6230   101.4930     2.1830 
  215.8750   -31.3870    66.2680    23.9850   127.2380   101.9740   108.2070     2.2020 
  216.0000   -31.0250    69.4240    24.0160   131.9870   107.3230   113.8610     2.1990 
  216.1250   -30.6260    72.6100    24.0280   131.6340   110.7650   117.4990     2.1830 
  216.2500   -30.2110    73.1570    24.0060   132.8590   111.6770   118.4630     2.1710 
  216.3750   -29.7860    71.1780    23.9740   134.9070   109.4570   116.1160     2.1700 
