~V
VERS. 2.00: Ver 2.00
~W
STRT.M 60.0000:
STOP.M 261.0000:
STEP.M 0.1250:
NULL. -999.2500:
UWI. DF5055:
~C
DEPT.M :
SP.MV :
GR.API :
RML.OHMM :
RI. :
RXO.OHMM :
CALI.CM :
DEN.GM/CC :
~A
# ...
  138.7500    -6.8420    54.8940    19.3260    17.6540    18.0220    24.8670     2.5350 
  138.8750    -6.8280    53.2770    19.5130    17.6210    18.0280    24.8930     2.5320 
  139.0000    -6.8530    52.1780    20.1990    18.0250    18.1550    24.9110     2.5340 
  139.1250    -6.8600    52.1090    21.3290    18.8710    19.2000    24.9020     2.5360 
  139.2500    -6.8670    52.6850    22.6900    19.9810    20.7330    24.8020     2.5440 
  139.3750    -6.9050    51.9630    24.1430    21.2260    22.1100    24.5810     2.5580 
  139.5000    -6.9720    49.4030    25.4760    22.4200    22.6420    24.4160     2.5760 
  139.6250    -7.1110    48.4600    26.1810    23.1470    23.8980    24.3980     2.5920 
  139.7500    -7.2460    50.5360    25.8840    23.0710    24.2900    24.3090     2.5990 
  139.8750    -7.2650    53.0390    24.4750    22.0620    23.8750    23.9650     2.5960 
  140.0000    -7.1900    55.6410    22.2840    20.3700    22.0020    23.6990     2.5820 
  140.1250    -7.1540    59.7260    20.0600    18.5840    18.5040    23.8490     2.5580 
  140.2500    -7.2070    63.2950    18.5290    17.2900    15.5440    24.2300     2.5310 
  140.3750    -7.2490    64.1900    18.0480    16.7760    15.1250    24.6310     2.5130 
  140.5000    -7.2250    62.4110    18.7090    17.1550    16.0830    24.8510     2.5160 
  140.6250    -7.1760    59.3570    20.5550    18.5590    18.4770    24.9400     2.5500 
  140.7500    -7.1160    56.0760    23.0540    20.6540    21.2210    24.9870     2.6000 
  140.8750    -7.1350    53.8700    25.6580    23.0340    23.9820    25.0070     2.6450 
  141.0000    -7.2600    53.2390    27.6870    25.0940    25.9040    25.0120     2.6680 
  141.1250    -7.3580    54.6980    28.2760    25.9810    26.8540    25.0140     2.6620 
  141.2500    -7.3900    56.6230    27.3840    25.5240    27.6910    25.0160     2.6400 
  141.3750    -7.4630    56.0130    25.3050    23.9220    25.3300    25.0150     2.6140 
  141.5000    -7.5830    52.2220    22.6720    21.7280    20.1780    24.9860     2.5910 
  141.6250    -7.6040    50.9460    20.2430    19.6100    17.3360    24.9580     2.5700 
  141.7500    -7.6110    54.1800    18.4380    17.9580    15.4410    24.9910     2.5500 
  141.8750    -7.6180    58.3510    17.3880    16.9010    14.7850    25.0260     2.5300 
  142.0000    -7.6110    60.3810    17.0200    16.4160    14.5600    25.0030     2.5160 
  142.1250    -7.6250    61.1450    17.1340    16.4070    14.7650    24.9460     2.5090 
  142.2500    -7.6560    62.3230    17.3660    16.5870    14.7500    24.9140     2.5080 
  142.3750    -7.6720    63.2500    17.5540    16.8110    15.0690    24.8560     2.5080 
  142.5000    -7.6950    64.3610    17.6630    17.0100    15.2060    24.8550     2.5070 
  142.6250    -7.8140    65.4420    17.7890    17.2220    15.2720    24.9080     2.5070 
  142.7500    -7.9410    64.7000    18.0740    17.5370    15.2490    24.9100     2.5090 
  142.8750    -8.0250    62.4800    18.5580    17.9940    15.8740    24.9220     2.5120 
  143.0000    -8.0810    59.1860    19.1360    18.5170    16.9260    24.9800     2.5140 
  143.1250    -8.1920    56.0760    19.5590    18.9070    17.5620    25.0530     2.5130 
  143.2500    -8.3060    54.9370    19.6490    19.0090    18.1210    25.1110     2.5090 
  143.3750    -8.3300    55.3110    19.3510    18.7610    17.8430    25.1750     2.5060 
  143.5000    -8.2710    57.1640    18.7330    18.2060    16.6690    25.2600     2.5050 
  143.6250    -8.2440    60.5280    17.9230    17.4420    14.9150    25.3530     2.5100 
  143.7500    -8.2530    62.6300    17.0660    16.6150    14.8400    25.4340     2.5170 
  143.8750    -8.2410    61.4430    16.2180    15.7940    15.1430    25.4500     2.5240 
  144.0000    -8.2070    60.4790    15.4480    15.0540    15.1510    25.3920     2.5270 
  144.1250    -8.1420    63.4680    14.9360    14.5400    13.9380    25.3800     2.5230 
  144.2500    -8.0670    65.8410    14.8110    14.3370    13.2050    25.3920     2.5130 
  144.3750    -8.0230    66.1230    15.1700    14.5140    13.6750    25.3640     2.4990 
  144.5000    -8.0110    66.8880    15.9990    15.0840    15.7960    25.3300     2.4810 
  144.6250    -7.9460    68.4770    17.1670    15.9960    18.4080    25.3080     2.4620 
  144.7500    -7.8180    68.9510    18.3300    16.9900    19.5070    25.2940     2.4450 
  144.8750    -7.6900    68.9430    19.2470    17.8490    18.5080    25.2910     2.4310 
  145.0000    -7.5760    69.4600    19.7860    18.4130    17.4780    25.3520     2.4230 
  145.1250    -7.4050    69.7450    19.8960    18.5790    17.3270    25.4320     2.4220 
  145.2500    -7.2350    69.7770    19.7560    18.4810    17.8060    25.4990     2.4300 
  145.3750    -7.1020    68.7220    19.4980    18.2350    17.9290    25.4840     2.4440 
  145.5000    -6.9790    65.8610    19.2370    17.9540    17.2560    25.4300     2.4600 
  145.6250    -6.8580    62.8890    19.0850    17.7370    16.1090    25.4020     2.4710 
  145.7500    -6.8000    61.3390    19.0700    17.6190    15.4720    25.4330     2.4740 
  145.8750    -6.7530    61.2040    19.1590    17.5870    15.5750    25.4660     2.4690 
  146.0000    -6.6630    61.6840    19.2590    17.5820    15.7060    25.4880     2.4580 
  146.1250    -6.5950    62.7970    19.2500    17.5270    15.6380    25.4980     2.4470 
  146.2500    -6.5790    64.9460    19.1150    17.4000    15.3830    25.4780     2.4380 
  146.3750    -6.5680    67.6730    18.8880    17.2130    15.2670    25.4140     2.4340 
  146.5000    -6.5160    68.5230    18.6260    16.9940    14.7970    25.3180     2.4350 
  146.6250    -6.5020    66.7680    18.3850    16.7740    14.1210    25.1350     2.4440 
  146.7500    -6.5330    66.6490    18.1690    16.5610    14.1440    24.9560     2.4590 
  146.8750    -6.5810    69.1130    17.9590    16.3450    14.2490    24.8290     2.4770 
  147.0000    -6.7190    68.7290    17.7490    16.1220    14.3180    24.7730     2.4940 
  147.1250    -6.9120    63.7080    17.5750    15.9120    14.2910    24.7290     2.5040 
  147.2500    -7.0000    61.2330    17.4650    15.7390    14.1430    24.6890     2.5090 
  147.3750    -7.0610    63.9570    17.4340    15.6140    13.9410    24.6490     2.5080 
  147.5000    -7.1970    66.9720    17.4740    15.5420    13.7320    24.6160     2.5060 
  147.6250    -7.3000    65.4640    17.5370    15.5020    13.4760    24.5970     2.5040 
  147.7500    -7.3190    63.4010    17.5350    15.4360    13.4350    24.5830     2.5020 
  147.8750    -7.3330    63.2900    17.4450    15.3210    13.8020    24.6070     2.4970 
  148.0000    -7.3230    64.3820    17.3440    15.2050    13.9900    24.6420     2.4920 
  148.1250    -7.3020    64.9690    17.4250    15.2180    14.0980    24.6630     2.4880 
  148.2500    -7.3760    64.4760    17.8060    15.4390    13.6080    24.6720     2.4860 
  148.3750    -7.5070    64.1500    18.5290    15.9070    13.6120    24.6790     2.4830 
  148.5000    -7.6320    62.9660    19.5110    16.5830    15.0670    24.6450     2.4800 
  148.6250    -7.8300    61.4050    20.4610    17.2940    17.2350    24.5340     2.4760 
  148.7500    -8.0810    61.8420    21.0460    17.7880    17.2510    24.3130     2.4740 
  148.8750    -8.2850    65.9910    21.1120    17.9180    16.7980    24.0750     2.4750 
  149.0000    -8.4180    71.0490    20.7240    17.6980    16.7630    23.9400     2.4790 
  149.1250    -8.5430    71.7850    20.1450    17.2790    15.6830    23.8600     2.4830 
  149.2500    -8.7160    69.9030    19.7240    16.9260    14.7300    23.7890     2.4840 
  149.3750    -8.8640    69.2720    19.6230    16.7770    15.0540    23.7950     2.4820 
  149.5000    -8.9300    70.9200    19.8520    16.8780    15.9980    23.9370     2.4790 
  149.6250    -8.9180    71.8450    20.3590    17.2260    16.9840    24.2150     2.4800 
  149.7500    -8.9720    72.6480    20.9770    17.7070    17.5980    24.3770     2.4860 
  149.8750    -9.1370    72.7520    21.5690    18.2170    18.2540    24.4540     2.4960 
