~V
VERS. 2.00: Ver 2.00
~W
STRT.M 67.0000:
STOP.M 277.0000:
STEP.M 0.1250:
NULL. -999.2500:
UWI. DF5013:
~C
DEPT.M :
SP.MV :
GR.API :
RML.OHMM :
RI. :
RXO.OHMM :
CALI.CM :
DEN.GM/CC :
~A
   67.0000    10.3650    46.7310    -0.7270     0.0280     0.7540    23.6320     2.4670 
   67.1250     5.7400    50.6450    -0.6430     0.0720     1.6330    23.5320     2.4110 
   67.2500     0.6030    57.8690    -0.3970     0.2510     3.0930    23.3020     2.3310 
   67.3750    -4.8430    65.0880     0.0890     0.6630     5.2730    22.8670     2.2600 
   67.5000   -10.2980    67.5250     0.9010     1.4420     6.9850    22.5550     2.2190 
   67.6250   -15.4450    66.3660     1.9090     2.5130     8.0840    22.5610     2.2060 
   67.7500   -20.0740    64.8540     2.8930     3.7280     8.5200    22.7280     2.2090 
   67.8750   -23.9530    64.3000     3.5870     4.8670     8.5810    22.8470     2.2150 
   68.0000   -26.8640    64.6330     3.8690     5.7140     8.4860    22.9150     2.2130 
   68.1250   -28.9000    64.8340     4.0010     6.3150     8.3900    22.9880     2.2090 
   68.2500   -30.2080    64.3410     4.1300     6.7510     8.3530    23.0460     2.2060 
   68.3750   -31.0640    62.4950     4.3130     7.0850     8.3740    23.1020     2.2060 
   68.5000   -31.4820    59.5810     4.5680     7.3440     8.5040    23.1470     2.2080 
   68.6250   -31.6830    58.9120     4.8520     7.5530     8.6950    23.1740     2.2060 
   68.7500   -31.6650    61.0440     5.1070     7.7140     8.8550    23.2180     2.1980 
   68.8750   -31.5030    63.7700     5.2780     7.8150     8.9110    23.3050     2.1820 
   69.0000   -31.1310    63.8860     5.3150     7.8210     8.8710    23.3840     2.1650 
   69.1250   -30.5630    63.5350     5.2600     7.7280     8.7010    23.3740     2.1540 
   69.2500   -29.8860    67.2730     5.1550     7.5390     8.2940    23.2980     2.1560 
   69.3750   -29.0250    77.6270     5.0250     7.2810     7.6850    23.2500     2.1750 
   69.5000   -28.1010    91.0180     4.8590     6.9970     7.0160    23.2870     2.2060 
   69.6250   -27.1880   100.8260     4.6610     6.7430     6.4200    23.2800     2.2360 
   69.7500   -26.3350   105.4070     4.4790     6.5570     6.0710    23.1770     2.2580 
   69.8750   -25.6070   105.3170     4.4070     6.4730     6.0130    23.0570     2.2670 
   70.0000   -25.0900   102.2420     4.5890     6.5580     6.1450    23.0170     2.2680 
   70.1250   -24.8230   100.0820     5.0350     6.8330     6.3470    23.1460     2.2700 
   70.2500   -24.7760   101.5290     5.6960     7.3070     6.6560    23.4630     2.2810 
   70.3750   -25.0090   104.3120     6.4640     7.9370     7.2380    23.7820     2.2990 
   70.5000   -25.5260    99.4390     7.1740     8.5960     8.2000    23.8760     2.3100 
   70.6250   -26.1510    88.6000     7.6740     9.1080     9.3030    23.8040     2.3020 
   70.7500   -26.8750    79.8230     7.8760     9.3550    10.0510    23.6720     2.2710 
   70.8750   -27.5910    81.0960     7.7940     9.3060     9.7190    23.5740     2.2270 
   71.0000   -28.2870    89.7470     7.5580     9.0360     9.2520    23.4800     2.1830 
   71.1250   -28.9340    93.2840     7.3890     8.7580     9.2530    23.3240     2.1510 
   71.2500   -29.4940    88.3560     7.4130     8.6170     9.4420    23.1490     2.1350 
   71.3750   -29.9470    79.4910     7.6790     8.7010     9.4860    23.0380     2.1360 
   71.5000   -30.1880    74.7070     8.1740     9.0490     9.7250    22.9470     2.1540 
   71.6250   -30.3500    73.5410     8.7410     9.5380    10.8350    22.8310     2.1820 
   71.7500   -30.4340    73.0010     9.2410    10.0370    12.8990    22.7470     2.2070 
   71.8750   -30.4900    73.6470     9.5440    10.4000    15.3040    22.7060     2.2190 
   72.0000   -30.5180    74.2990     9.5240    10.4650    16.8980    22.6930     2.2080 
   72.1250   -30.4900    71.8980     9.2670    10.2570    15.8360    22.7660     2.1830 
   72.2500   -30.4810    67.7220     8.8900     9.8670    11.8260    22.9600     2.1540 
   72.3750   -30.4480    67.5000     8.5260     9.4300     9.3890    23.1990     2.1300 
   72.5000   -30.4220    72.7700     8.2900     9.0880     8.8450    23.3190     2.1160 
   72.6250   -30.3710    78.0390     8.1860     8.8780     8.7960    23.3700     2.1110 
   72.7500   -30.2570    80.5320     8.1750     8.7750     8.7380    23.3940     2.1120 
   72.8750   -30.0940    80.3900     8.1930     8.7240     8.6500    23.3770     2.1180 
   73.0000   -29.8800    79.1510     8.1730     8.6600     8.5160    23.2950     2.1270 
   73.1250   -29.6450    80.6340     8.1010     8.5490     8.3820    23.2190     2.1380 
   73.2500   -29.3920    86.5930     7.9970     8.3930     8.1850    23.1790     2.1500 
   73.3750   -29.1230    94.1630     7.8950     8.2190     7.9240    23.1590     2.1630 
   73.5000   -28.9250    98.7310     7.8400     8.0740     7.7300    23.1010     2.1750 
   73.6250   -28.7840    99.1080     7.8480     7.9890     7.6860    22.9680     2.1870 
   73.7500   -28.7310    95.4190     7.9270     7.9780     7.8290    22.7990     2.1960 
   73.8750   -28.7880    89.0740     8.0730     8.0360     8.0540    22.6570     2.1980 
   74.0000   -28.8990    81.3260     8.2740     8.1490     8.3780    22.5940     2.1930 
   74.1250   -29.0740    75.4830     8.4770     8.2770     8.7120    22.5420     2.1830 
   74.2500   -29.2220    73.4830     8.6420     8.3910     8.9370    22.4960     2.1720 
   74.3750   -29.3740    74.1160     8.7430     8.4700     9.0460    22.4840     2.1630 
   74.5000   -29.4390    73.6220     8.7730     8.4860     8.9630    22.5090     2.1560 
   74.6250   -29.3610    70.9540     8.7560     8.4390     8.8360    22.5190     2.1500 
   74.7500   -29.1870    67.8270     8.7070     8.3280     8.6000    22.5020     2.1470 
   74.8750   -28.8300    68.9710     8.6360     8.1640     8.3720    22.4290     2.1510 
   75.0000   -28.3790    78.4160     8.5320     7.9530     8.2200    22.2680     2.1720 
   75.1250   -27.8450    88.4170     8.3820     7.7150     8.1550    22.1550     2.2070 
   75.2500   -27.3240    92.7310     8.1840     7.4600     8.1490    22.1720     2.2480 
   75.3750   -26.9020    93.7570     7.9640     7.2120     8.2450    22.2370     2.2800 
   75.5000   -26.5810    97.3000     7.7960     7.0230     8.1790    22.2630     2.2850 
   75.6250   -26.4530    99.5520     7.7540     6.9340     7.8140    22.2680     2.2670 
   75.7500   -26.4670    95.8010     7.8830     6.9760     7.4290    22.2630     2.2340 
   75.8750   -26.6390    88.1780     8.1690     7.1470     7.5430    22.2410     2.1990 
   76.0000   -26.9600    80.0410     8.5240     7.4090     8.0060    22.1910     2.1740 
   76.1250   -27.3500    73.4790     8.8050     7.6650     8.4440    22.1510     2.1580 
   76.2500   -27.7680    70.4820     8.9290     7.8480     8.6240    22.1280     2.1500 
   76.3750   -28.1100    69.9000     8.8870     7.9250     8.5410    22.0830     2.1450 
   76.5000   -28.4000    67.6440     8.7590     7.9080     8.2580    21.9790     2.1410 
   76.6250   -28.5920    66.4790     8.6810     7.8770     7.8020    21.8940     2.1370 
   76.7500   -28.7020    69.2160     8.7230     7.8890     7.6800    21.9330     2.1350 
   76.8750   -28.8000    72.8090     8.8910     7.9710     7.8560    22.1570     2.1360 
   77.0000   -28.8110    72.4060     9.1440     8.1140     8.3880    22.5510     2.1420 
   77.1250   -28.8120    69.3060     9.3840     8.2600     8.9220    22.9290     2.1510 
   77.2500   -28.7680    67.1080     9.5420     8.3600     9.3000    23.1620     2.1600 
   77.3750   -28.7020    67.8310     9.5730     8.3790     9.3860    23.2340     2.1680 
   77.5000   -28.6050    70.3790     9.4550     8.2920     9.2350    23.2020     2.1730 
   77.6250   -28.4800    71.8840     9.2560     8.1430     9.0470    23.1490     2.1760 
   77.7500   -28.3540    72.7170     9.0350     7.9710     8.8150    23.1080     2.1790 
   77.8750   -28.1410    75.2720     8.8460     7.8190     8.5500    23.0820     2.1830 
   78.0000   -27.9440    78.4800     8.7330     7.7230     8.2960    23.0510     2.1870 
   78.1250   -27.7500    78.9570     8.6840     7.6800     8.0990    23.0210     2.1890 
