~V
VERS. 2.00: Ver 2.00
~W
STRT.M 57.0000:
STOP.M 276.0000:
STEP.M 0.1250:
NULL. -999.2500:
UWI. DF5005:
~C
DEPT.M :
GR.API :
RML.OHMM :
RI. :
RXO.OHMM :
CALI.CM :
DEN.GM/CC :
SP.MV :
~A
# ...
   68.2500    71.4240     8.1000     9.3100    11.1790    23.5980     2.2230   -33.2070 
   68.3750    69.7540     7.8730     9.0700    11.7730    23.5590     2.2160   -33.3870 
   68.5000    64.6280     7.5830     8.7530    12.3590    23.5450     2.1990   -33.5640 
   68.6250    62.1500     7.3480     8.4720    12.3970    23.5430     2.1790   -33.7360 
   68.7500    64.5610     7.2250     8.3040    11.0910    23.5430     2.1640   -33.8530 
   68.8750    65.7150     7.2280     8.2910    10.2920    23.5440     2.1560   -33.8940 
   69.0000    63.8800     7.2880     8.3720     9.9650    23.5470     2.1520   -33.8620 
   69.1250    64.4640     7.3380     8.4740     9.9480    23.5500     2.1490   -33.7060 
   69.2500    68.7690     7.3100     8.5000     9.9630    23.5510     2.1490   -33.3330 
   69.3750    74.1090     7.1140     8.3230     9.7950    23.5510     2.1570   -32.6220 
   69.5000    82.0290     6.7500     7.9310     9.3330    23.5540     2.1740   -31.5990 
   69.6250    94.5590     6.2620     7.3810     8.6320    23.5670     2.1970   -30.3430 
   69.7500   105.5030     5.7650     6.8210     7.8440    23.5870     2.2250   -28.9990 
   69.8750   105.5220     5.5040     6.5290     7.3430    23.5660     2.2550   -27.7060 
   70.0000   101.0420     5.6670     6.6910     7.3250    23.4930     2.2900   -26.5440 
   70.1250    98.5810     6.3760     7.4040     8.2240    23.3940     2.3300   -25.5750 
   70.2500    95.8420     7.6030     8.6160    10.1740    23.3220     2.3710   -24.9450 
   70.3750    87.8570     9.1170    10.0850    12.6600    23.3180     2.3950   -24.7920 
   70.5000    81.3870    10.4150    11.3360    14.9140    23.3390     2.3910   -25.1090 
   70.6250    78.3850    11.1060    12.0040    15.5660    23.3710     2.3560   -25.8150 
   70.7500    76.3920    11.0520    11.9540    13.4470    23.4330     2.3040   -26.7260 
   70.8750    74.8000    10.4420    11.3320    11.8290    23.5100     2.2520   -27.7750 
   71.0000    72.9550     9.7840    10.6120    11.1960    23.5480     2.2120   -28.8520 
   71.1250    71.9940     9.3130    10.0270    10.8280    23.5590     2.1850   -29.8830 
   71.2500    72.4910     9.0690     9.6520    10.3950    23.5610     2.1700   -30.7410 
   71.3750    74.3810     8.9790     9.4760    10.0090    23.5610     2.1630   -31.4350 
   71.5000    73.9140     8.9160     9.4020     9.8030    23.5580     2.1600   -31.9910 
   71.6250    72.2260     8.8460     9.3870     9.7760    23.5520     2.1600   -32.4240 
   71.7500    73.8710     8.7780     9.4080     9.8360    23.5390     2.1590   -32.7720 
   71.8750    77.3060     8.7450     9.4490     9.9530    23.5190     2.1540   -32.9810 
   72.0000    78.4970     8.7630     9.4860    10.0000    23.4950     2.1480   -33.1320 
   72.1250    79.2150     8.8310     9.5030    10.0290    23.4840     2.1450   -33.2370 
   72.2500    80.8500     8.9290     9.4850    10.0180    23.4830     2.1460   -33.3380 
   72.3750    80.7620     9.0280     9.4130     9.9880    23.4810     2.1510   -33.3630 
   72.5000    78.7500     9.1110     9.2960     9.9160    23.4780     2.1570   -33.2920 
   72.6250    77.9930     9.1710     9.1450     9.8230    23.4760     2.1610   -33.1850 
   72.7500    78.6770     9.2060     8.9770     9.8000    23.4760     2.1640   -33.0750 
   72.8750    77.1740     9.2000     8.8110     9.7540    23.4370     2.1640   -32.9860 
   73.0000    73.5140     9.1500     8.6580     9.8010    23.3240     2.1620   -32.8640 
   73.1250    71.0150     9.0790     8.5340     9.9100    23.1820     2.1560   -32.6960 
   73.2500    71.8540     9.0500     8.4720    10.0230    23.1380     2.1490   -32.5300 
   73.3750    74.0970     9.1810     8.5430    10.1010    23.2440     2.1450   -32.4000 
   73.5000    74.0220     9.4930     8.7590    10.2940    23.4240     2.1510   -32.3280 
   73.6250    72.3670     9.9320     9.0960    10.9390    23.5990     2.1720   -32.3160 
   73.7500    72.0310    10.3750     9.4800    11.8590    23.7330     2.2050   -32.3640 
   73.8750    71.9110    10.6260     9.7710    12.9740    23.8200     2.2350   -32.4710 
   74.0000    70.6660    10.6140     9.8730    13.3300    23.8670     2.2450   -32.5780 
   74.1250    69.0540    10.3640     9.7560    12.0410    23.8820     2.2300   -32.6430 
   74.2500    67.5720     9.9820     9.4680    10.4530    23.8790     2.1990   -32.6320 
   74.3750    66.3310     9.6100     9.1080     9.7640    23.8700     2.1680   -32.5570 
   74.5000    67.6510     9.3200     8.7910     9.5330    23.8750     2.1480   -32.3660 
   74.6250    72.5310     9.1130     8.5620     9.3140    23.9010     2.1400   -31.9640 
   74.7500    77.2300     8.9680     8.4150     9.0350    23.9480     2.1390   -31.3490 
   74.8750    80.3110     8.8490     8.3080     8.6650    23.9940     2.1410   -30.5350 
   75.0000    84.2360     8.7420     8.1860     8.4270    24.0150     2.1480   -29.6970 
   75.1250    88.3810     8.5930     8.0370     8.3820    24.0380     2.1610   -28.9230 
   75.2500    91.2840     8.4610     7.8820     8.3410    24.1070     2.1840   -28.1860 
   75.3750    94.3570     8.3600     7.7820     8.0570    24.2310     2.2130   -27.4640 
   75.5000    97.8670     8.3490     7.7800     7.7640    24.3210     2.2380   -26.8790 
   75.6250    97.7620     8.4810     7.8950     7.8450    24.2870     2.2500   -26.5920 
   75.7500    90.4540     8.7150     8.0980     8.2770    24.1170     2.2440   -26.6040 
   75.8750    78.6460     9.0150     8.3060     8.7940    23.9210     2.2260   -26.8420 
   76.0000    68.6910     9.2840     8.4080     9.0940    23.7960     2.2060   -27.1070 
   76.1250    62.3560     9.3830     8.3420     9.1680    23.7530     2.1890   -27.3270 
   76.2500    60.8950     9.2580     8.1260     9.2400    23.7450     2.1750   -27.5250 
   76.3750    64.3330     9.0990     7.9150     9.3180    23.7440     2.1630   -27.7210 
   76.5000    69.7400     9.2360     7.9640     9.4560    23.7420     2.1610   -27.8230 
   76.6250    73.5940     9.9380     8.4810     9.9610    23.7440     2.1800   -27.7150 
   76.7500    73.6730    11.2950     9.5450    11.3690    23.7760     2.2290   -27.4080 
   76.8750    71.4140    13.1090    11.0410    14.3460    23.9030     2.3090   -27.0000 
   77.0000    70.2060    14.7220    12.4510    17.7790    24.1140     2.3880   -26.6680 
   77.1250    71.2070    15.5340    13.2690    20.6160    24.2480     2.4330   -26.5200 
   77.2500    73.1400    15.1730    13.1400    20.7880    24.2050     2.4240   -26.5950 
   77.3750    74.2450    13.6510    12.0360    16.1370    23.9650     2.3640   -26.8980 
   77.5000    77.0090    11.8280    10.6610    11.7950    23.7730     2.2910   -27.3330 
   77.6250    80.1600    10.3500     9.4960     9.7940    23.6930     2.2310   -27.8820 
   77.7500    81.0300     9.5610     8.7620     9.2130    23.6800     2.1910   -28.5400 
   77.8750    79.1930     9.5780     8.5100     9.2020    23.6800     2.1750   -29.2950 
   78.0000    76.9420     9.9870     8.5290     9.2590    23.6800     2.1690   -30.0170 
   78.1250    74.2470    10.4560     8.6770     9.3140    23.6800     2.1680   -30.5870 
   78.2500    70.7960    10.7130     8.8460     9.3680    23.6810     2.1650   -30.9870 
   78.3750    67.9730    10.5710     8.9620     9.4250    23.6920     2.1600   -31.2870 
   78.5000    66.4350    10.4330     9.0160     9.4190    23.7130     2.1540   -31.5080 
   78.6250    66.1090    10.3380     9.0080     9.3790    23.7330     2.1480   -31.6240 
   78.7500    67.0300    10.2240     8.9430     9.3370    23.7410     2.1440   -31.6140 
   78.8750    68.5120    10.1500     8.8290     9.3150    23.7380     2.1430   -31.4370 
   79.0000    68.7050    10.1260     8.6990     9.3220    23.7140     2.1440   -31.1990 
   79.1250    67.1960    10.1320     8.5810     9.3840    23.6340     2.1460   -30.9880 
   79.2500    64.7890    10.1540     8.4970     9.3860    23.4890     2.1470   -30.8260 
   79.3750    61.7990    10.1890     8.4690     9.2340    23.3380     2.1480   -30.6070 
