~V
VERS. 2.00: Ver 2.00
~W
STRT.M 50.0000:
STOP.M 276.0000:
STEP.M 0.1250:
NULL. -999.2500:
UWI. DF5011:
~C
DEPT.M :
DEN.GM/CC :
GR.API :
CALI.CM :
RXO.OHMM :
RI. :
RML.OHMM :
SP.MV :
~A
# ...
  218.7500     2.1730    54.8420    24.6180    98.1620   182.8380   198.0130   -36.6270 
  218.8750     2.1730    53.3700    24.7030   122.3680   202.9790   219.8260   -36.7310 
  219.0000     2.1760    53.0230    24.7310   152.1750   219.1170   237.3040   -36.7530 
  219.1250     2.1830    53.9800    24.7300   175.4220   227.1480   246.0010   -36.7460 
  219.2500     2.1870    55.0330    24.7290   186.9120   223.2200   241.7470   -36.8470 
  219.3750     2.1840    54.8120    24.7290   195.1170   211.0200   228.5350   -36.7830 
  219.5000     2.1760    54.1500    24.7290   195.1400   194.8130   210.9820   -36.7920 
  219.6250     2.1660    54.8800    24.7300   180.8010   178.8380   193.6820   -36.7650 
  219.7500     2.1570    56.5070    24.7280   157.6310   166.4240   180.2370   -36.6500 
  219.8750     2.1550    57.1450    24.6750   138.0580   157.7070   170.7960   -36.6090 
  220.0000     2.1600    57.4000    24.5360   136.2850   152.2310   164.8660   -36.4860 
  220.1250     2.1670    58.3700    24.3590   144.8580   149.3960   161.7960   -36.5150 
  220.2500     2.1660    59.9040    24.2500   144.3760   148.9580   161.3220   -36.4990 
  220.3750     2.1630    61.0430    24.2700   131.9510   150.1280   162.5890   -36.4320 
  220.5000     2.1690    61.1640    24.4190   120.7410   152.6280   165.2960   -36.4250 
  220.6250     2.1810    60.2310    24.6230   123.2360   156.3310   169.3070   -36.3440 
  220.7500     2.1830    59.7240    24.7570   140.6580   161.5350   174.9430   -36.3540 
  220.8750     2.1730    60.0480    24.7880   152.7870   168.1530   182.1090   -36.2680 
  221.0000     2.1620    59.8750    24.7670   162.3740   176.0510   190.6640   -36.2400 
  221.1250     2.1740    58.0470    24.7430   163.9290   184.6420   199.9670   -36.2830 
  221.2500     2.2210    55.3480    24.7250   158.4240   192.5520   208.5340   -36.1000 
  221.3750     2.2790    52.6370    24.7200   176.5660   198.4000   214.8670   -36.0300 
  221.5000     2.3120    50.5420    24.7210   191.5170   201.2510   217.9540   -35.9870 
  221.6250     2.3010    50.0750    24.7200   170.1910   200.7550   217.4180   -35.8440 
  221.7500     2.2600    51.1820    24.7230   148.7950   196.7490   213.0790   -35.7000 
  221.8750     2.2240    52.6160    24.7150   141.4030   190.8840   206.7270   -35.6300 
  222.0000     2.2010    53.9960    24.6810   153.5860   184.7330   200.0660   -35.4590 
  222.1250     2.1890    54.3600    24.6270   165.0950   180.0090   194.9490   -35.2580 
  222.2500     2.1940    54.7100    24.5880   151.2080   178.7090   193.5420   -35.2520 
  222.3750     2.2190    56.6590    24.5770   133.8130   180.6200   195.6110   -35.0900 
  222.5000     2.2520    58.0920    24.5780   132.8660   184.2090   199.4980   -34.8830 
  222.6250     2.2710    56.5510    24.5780   143.9330   186.5370   202.0190   -34.8070 
  222.7500     2.2730    54.0380    24.5760   155.3490   183.7800   199.0340   -34.6980 
  222.8750     2.2740    52.8550    24.5750   153.8590   176.1310   190.7500   -34.5600 
  223.0000     2.2790    51.5900    24.5760   135.1180   165.9210   179.6930   -34.4940 
  223.1250     2.2810    50.1030    24.5760   111.3860   156.7940   169.8080   -34.4830 
  223.2500     2.2720    51.1870    24.5760   109.4680   153.1130   165.8220   -34.3110 
  223.3750     2.2550    53.0470    24.5760   140.9050   155.7230   168.6480   -34.2580 
  223.5000     2.2360    52.7340    24.5760   170.6100   163.9940   177.6060   -34.2410 
  223.6250     2.2190    50.9220    24.5760   177.4100   175.7480   190.3350   -34.1110 
  223.7500     2.2080    50.5280    24.5760   185.8940   187.4150   202.9710   -34.1130 
  223.8750     2.1970    51.3150    24.5760   203.0080   195.2750   211.4830   -34.0500 
  224.0000     2.1830    51.4820    24.5760   222.1120   196.3620   212.6600   -34.0200 
  224.1250     2.1720    50.8900    24.5700   211.7560   188.8380   204.5120   -33.8370 
  224.2500     2.1740    51.0330    24.5480   202.2180   172.2960   186.5960   -33.6750 
  224.3750     2.1860    52.7260    24.5110   188.1920   151.5850   164.1670   -33.6570 
  224.5000     2.2040    54.3260    24.4710   153.9740   130.5670   141.4040   -33.4600 
  224.6250     2.2230    54.5540    24.4440   100.2110   112.4100   121.7400   -33.3730 
  224.7500     2.2420    55.2120    24.4380    67.2060    99.6000   107.8670   -33.2110 
  224.8750     2.2550    57.3030    24.4380    51.6550    91.2040    98.7740   -33.0280 
  225.0000     2.2570    59.2810    24.4390    47.6860    86.2630    93.4220   -32.8870 
  225.1250     2.2470    59.4020    24.4400    50.3020    83.7140    90.6620   -32.6230 
  225.2500     2.2340    57.3690    24.4330    53.6040    82.3230    89.1560   -32.6010 
  225.3750     2.2210    55.7870    24.4180    59.4440    80.5230    87.2060   -32.5310 
  225.5000     2.2070    55.3620    24.4050    59.7480    77.6300    84.0740   -32.4520 
  225.6250     2.1940    56.6840    24.3810    55.5300    73.6530    79.7670   -32.4760 
  225.7500     2.1870    58.3740    24.2950    50.8110    69.1150    74.8510   -32.4280 
  225.8750     2.1860    59.1440    24.1550    47.5610    64.9740    70.3660   -32.4340 
  226.0000     2.1890    59.5420    24.0230    44.0400    61.9620    67.1050   -32.4170 
  226.1250     2.1940    59.5610    23.9560    40.2420    60.5210    65.5440   -32.4890 
  226.2500     2.1990    58.9860    23.9480    38.1860    60.9530    66.0120   -32.5500 
  226.3750     2.2020    58.6030    23.9520    41.8130    62.6880    67.8910   -32.4180 
  226.5000     2.2020    59.8530    23.9520    45.8450    65.3830    70.8100   -32.3470 
  226.6250     2.1970    61.3560    23.9520    49.3050    68.8290    74.5410   -32.2570 
  226.7500     2.1940    57.6140    23.9520    54.3700    73.1350    79.2050   -32.0860 
  226.8750     2.2060    52.4080    23.9520    61.0370    78.3440    84.8470   -31.9240 
  227.0000     2.2430    51.2200    23.9520    67.2770    84.6100    91.6330   -31.6900 
  227.1250     2.3030    53.3060    23.9490    78.1610    91.7050   101.4840   -31.4760 
  227.2500     2.3630    53.4280    23.9540    76.0830    98.1350   109.4090   -31.0490 
  227.3750     2.3900    51.9750    23.9990    74.4300   101.8130   113.9030   -30.6310 
  227.5000     2.3710    51.9590    24.0790    77.8620   101.4580   113.4850   -30.3000 
  227.6250     2.3190    53.7100    24.1490    79.4280    97.3340   108.7150   -29.7860 
  227.7500     2.2640    56.5100    24.1690    70.4360    91.0990   101.8980   -29.3380 
  227.8750     2.2230    59.7150    24.1660    63.4240    85.3440    95.9820   -28.8710 
  228.0000     2.1970    61.3150    24.1650    63.5830    81.2780    92.1440   -28.3270 
  228.1250     2.1930    60.4660    24.1660    69.9790    79.1180    90.4440   -27.8470 
  228.2500     2.2190    59.5760    24.1600    75.5370    78.5690    90.4410   -27.4730 
  228.3750     2.2540    59.5310    24.1830    72.1070    78.6990    91.0760   -27.0600 
  228.5000     2.2760    59.1490    24.2790    66.7650    78.9810    91.7750   -26.6100 
  228.6250     2.2770    57.3650    24.4410    64.6770    79.2160    92.3850   -26.2730 
  228.7500     2.2650    56.0330    24.5880    65.2230    79.8720    93.5490   -25.9310 
  228.8750     2.2550    55.9530    24.6700    64.6340    81.6950    96.1390   -25.6200 
  229.0000     2.2510    56.6240    24.7010    66.3920    85.3600   100.8350   -25.3680 
  229.1250     2.2520    58.3470    24.7090    76.7570    91.3310   107.9780   -25.1260 
  229.2500     2.2480    60.0270    24.7050    94.7890   100.1310   117.8240   -24.7660 
  229.3750     2.2380    58.8620    24.7030   109.8490   110.8240   129.2310   -24.4550 
  229.5000     2.2270    55.5920    24.7020   115.2410   122.3990   141.1670   -24.2030 
  229.6250     2.2250    53.0700    24.7020   123.4590   133.8170   152.8590   -23.8330 
  229.7500     2.2430    52.9060    24.6790   137.2190   144.2680   164.0480   -23.4740 
  229.8750     2.2800    53.3510    24.6220   150.7240   152.8110   173.5580   -23.0610 
