~V
VERS. 2.00: Ver 2.00
~W
STRT.M 58.0000:
STOP.M 256.0000:
STEP.M 0.1250:
NULL. -999.2500:
UWI. DF5024:
~C
DEPT.M :
SP.MV :
GR.API :
CALI.CM :
RXO.OHMM :
RI. :
RML.OHMM :
DEN.GM/CC :
~A
# ...
  148.0000   -15.9650    57.8320    24.1520    25.1760    18.8660    20.3110     2.5610 
  148.1250   -15.9760    55.1880    24.1560    25.6570    19.2460    20.7150     2.5490 
  148.2500   -16.0100    53.4630    24.1590    26.3220    19.6300    21.1210     2.5410 
  148.3750   -16.0670    52.2490    24.1520    27.0580    19.9960    21.4820     2.5340 
  148.5000   -16.1370    52.0900    24.1590    27.9840    20.2760    21.7040     2.5340 
  148.6250   -16.2040    53.9940    24.1800    28.1480    20.3880    21.7170     2.5460 
  148.7500   -16.2690    56.4670    24.1630    27.0260    20.3760    21.6060     2.5580 
  148.8750   -16.3450    57.2260    24.1340    25.7550    20.3150    21.4730     2.5630 
  149.0000   -16.4460    55.4700    24.1170    25.5880    20.2930    21.4160     2.5610 
  149.1250   -16.5690    53.2160    24.1160    25.9910    20.3760    21.5140     2.5510 
  149.2500   -16.6930    52.9910    24.1140    25.8230    20.5410    21.7250     2.5390 
  149.3750   -16.8080    54.3560    24.0890    25.4310    20.7430    21.9840     2.5360 
  149.5000   -16.9200    55.1450    24.0280    25.5840    20.9160    22.2090     2.5520 
  149.6250   -17.0480    53.6680    23.9320    26.2070    20.9810    22.3050     2.5780 
  149.7500   -17.1960    51.5130    23.8810    26.2930    20.9340    22.2730     2.5930 
  149.8750   -17.3520    50.5690    23.8210    25.5060    20.8100    22.1620     2.5910 
  150.0000   -17.4980    51.3000    23.7330    24.4190    20.6770    22.0470     2.5750 
  150.1250   -17.6210    52.7810    23.6010    24.1280    20.6330    22.0370     2.5530 
  150.2500   -17.7340    54.2350    23.4740    24.3040    20.7300    22.1790     2.5320 
  150.3750   -17.8490    55.6970    23.3620    24.5780    20.9910    22.4950     2.5150 
  150.5000   -17.9640    57.1050    23.3160    24.8320    21.3900    22.9490     2.5060 
  150.6250   -18.0600    58.3980    23.3120    24.9700    21.8360    23.4160     2.5130 
  150.7500   -18.1240    59.9060    23.3420    25.6210    22.1580    23.7080     2.5330 
  150.8750   -18.1600    61.5670    23.3820    27.0850    22.2120    23.6760     2.5600 
  151.0000   -18.1850    62.8580    23.4280    28.6960    21.9000    23.2310     2.5860 
  151.1250   -18.2180    63.7980    23.5300    29.1580    21.1590    22.3340     2.5910 
  151.2500   -18.2530    65.4580    23.5880    28.2270    20.1680    21.2020     2.5680 
  151.3750   -18.2730    67.9940    23.6010    26.6710    19.1090    20.0530     2.5240 
  151.5000   -18.2670    70.3560    23.5910    24.6360    18.1860    19.1140     2.4780 
  151.6250   -18.2400    71.0190    23.5750    21.8960    17.6340    18.6450     2.4570 
  151.7500   -18.2110    70.4320    23.5590    19.4550    17.4980    18.6610     2.4640 
  151.8750   -18.1820    69.6540    23.5390    18.5640    17.7700    19.1130     2.4860 
  152.0000   -18.1420    69.8210    23.4860    19.3380    18.3320    19.8250     2.5070 
  152.1250   -18.0720    71.7610    23.3790    21.4950    18.9570    20.4940     2.5130 
  152.2500   -17.9790    73.9980    23.3770    23.8050    19.3750    20.8520     2.5070 
  152.3750   -17.8810    74.4800    23.4850    25.6020    19.4220    20.7540     2.4940 
  152.5000   -17.7950    72.8030    23.6370    26.1470    19.0330    20.1730     2.4790 
  152.6250   -17.7220    71.2080    23.7040    25.2920    18.2060    19.1700     2.4640 
  152.7500   -17.6430    71.5190    23.7770    23.2560    17.1720    18.0150     2.4520 
  152.8750   -17.5500    72.7180    23.8640    20.5210    16.0910    16.8810     2.4490 
  153.0000   -17.4480    73.2720    23.9780    18.0490    15.0890    15.8830     2.4640 
  153.1250   -17.3580    72.6720    24.1050    17.4000    14.2840    15.1200     2.4880 
  153.2500   -17.2830    71.2190    24.1810    17.7390    13.6910    14.5700     2.5010 
  153.3750   -17.2170    68.5500    24.2130    17.6200    13.3140    14.2100     2.4870 
  153.5000   -17.1450    65.1050    24.2300    16.5400    13.1260    13.9940     2.4570 
  153.6250   -17.0680    62.2270    24.2300    15.4560    13.1050    13.8780     2.4360 
  153.7500   -17.0040    59.8100    24.2200    15.4190    13.1750    13.8030     2.4350 
  153.8750   -16.9700    57.4020    24.2160    16.2510    13.2900    13.7520     2.4510 
  154.0000   -16.9690    56.0330    24.2090    17.6030    13.4340    13.7490     2.4780 
  154.1250   -16.9900    57.1800    24.2160    18.5900    13.6300    13.8660     2.5080 
  154.2500   -17.0170    59.9790    24.2240    18.3070    13.8860    14.1230     2.5280 
  154.3750   -17.0560    63.4790    24.2160    17.0530    14.1850    14.4870     2.5330 
  154.5000   -17.1220    66.5640    24.2000    15.9480    14.4350    14.8210     2.5310 
  154.6250   -17.2340    67.3330    24.1860    15.6740    14.3780    14.8180     2.5290 
  154.7500   -17.3770    66.3180    24.1890    15.9760    13.8260    14.2630     2.5230 
  154.8750   -17.5370    65.5170    24.2150    16.5590    12.7030    13.0720     2.5070 
  155.0000   -17.7060    66.5450    24.2580    16.8090    11.1390    11.3880     2.4830 
  155.1250   -17.8950    70.1970    24.2640    15.4930     9.4670     9.6080     2.4580 
  155.2500   -18.1080    76.2330    24.2520    12.3920     8.0920     8.2350     2.4300 
  155.3750   -18.3370    83.6780    24.2440     8.5870     7.2800     7.5910     2.3940 
  155.5000   -18.5530    89.4090    24.1740     5.7660     7.1770     7.8140     2.3530 
  155.6250   -18.7200    89.1550    23.9070     5.6070     7.9100     8.9330     2.3130 
  155.7500   -18.8350    84.2920    23.4650     8.1280     9.2420    10.5460     2.2770 
  155.8750   -18.9130    78.7200    23.0720    13.7120    10.9400    12.3070     2.2430 
  156.0000   -18.9690    75.9530    22.9760    20.9500    12.6330    13.8040     2.2180 
  156.1250   -19.0050    77.0630    23.3090    25.4530    13.7570    14.5110     2.2170 
  156.2500   -19.0190    79.9250    23.7590    24.5910    14.1310    14.4270     2.2370 
  156.3750   -19.0130    83.0940    24.1090    20.0210    13.8570    13.7710     2.2620 
  156.5000   -19.0070    85.0650    24.3050    15.3890    13.2310    12.9070     2.2780 
  156.6250   -19.0370    84.4760    24.3470    14.2360    12.5700    12.1730     2.2820 
  156.7500   -19.1140    82.9750    24.3580    15.7290    12.0050    11.6300     2.2810 
  156.8750   -19.2330    83.0130    24.4030    17.5070    11.4700    11.1600     2.2760 
  157.0000   -19.3780    86.2310    24.4720    17.5500    10.8830    10.6390     2.2790 
  157.1250   -19.5460    92.1280    24.6070    15.0740    10.2080    10.0120     2.2970 
  157.2500   -19.7460    97.2060    24.8120    11.5990     9.5120     9.3560     2.3110 
  157.3750   -19.9950    99.0510    24.9770     8.7980     8.8850     8.7830     2.3060 
  157.5000   -20.2970    98.8340    24.8900     7.4850     8.4150     8.3990     2.2930 
  157.6250   -20.6450   100.3390    24.6130     7.3920     8.1960     8.2980     2.2990 
  157.7500   -21.0120   102.8240    24.4980     7.8200     8.2050     8.4380     2.3170 
  157.8750   -21.3950   102.9440    24.4810     8.4990     8.4380     8.8170     2.3330 
  158.0000   -21.8010   100.1870    24.4860     9.2960     8.9110     9.4780     2.3500 
  158.1250   -22.2370    97.6740    24.4860    10.0780     9.7620    10.6250     2.3750 
  158.2500   -22.6790    96.2340    24.4940    11.0910    11.0940    12.3810     2.3970 
  158.3750   -23.1020    93.7570    24.5060    13.1610    13.0860    14.9130     2.3980 
  158.5000   -23.4870    89.1640    24.5130    17.5380    15.9080    18.3210     2.3740 
  158.6250   -23.8330    83.9560    24.5110    25.7880    19.7750    22.6770     2.3300 
  158.7500   -24.1610    80.1270    24.5090    36.4290    24.3400    27.5340     2.2860 
  158.8750   -24.4760    78.3350    24.5090    47.4140    29.1460    32.3810     2.2560 
  159.0000   -24.7690    78.7480    24.5030    55.6980    33.5170    36.5500     2.2390 
  159.1250   -25.0230    81.0380    24.5070    58.5720    36.3810    39.0220     2.2310 
