~V
VERS. 2.00: Ver 2.00
~W
STRT.M 55.0000:
STOP.M 250.0000:
STEP.M 0.1250:
NULL. -999.2500:
UWI. DF5052:
~C
DEPT.M :
SP.MV :
GR.API :
CALI.CM :
RXO.OHMM :
RI. :
RML.OHMM :
DEN.GM/CC :
~A
# ...
   66.2500   -24.7670    80.4240    23.1640     8.0480     6.5640     7.3280     2.1660 
   66.3750   -24.6060    83.3590    23.2840     7.7830     6.4350     7.1910     2.1580 
   66.5000   -24.4370    85.6220    23.5050     7.3270     6.2180     6.9610     2.1420 
   66.6250   -24.2500    86.8540    23.8430     7.0680     5.9340     6.6600     2.1410 
   66.7500   -24.0390    89.7660    24.1000     6.8630     5.6290     6.3370     2.1590 
   66.8750   -23.8120    95.0840    24.2140     6.4400     5.3400     6.0310     2.1850 
   67.0000   -23.5860    99.4950    24.2250     5.8310     5.1010     5.7770     2.2080 
   67.1250   -23.3860    98.4050    24.1520     5.5200     4.9660     5.6340     2.2190 
   67.2500   -23.2150    93.6350    24.0260     5.6890     4.9720     5.6410     2.2200 
   67.3750   -23.0730    88.6160    23.9220     6.1570     5.1920     5.8730     2.2120 
   67.5000   -22.9640    85.7520    23.8800     6.8330     5.7190     6.4320     2.1980 
   67.6250   -22.8990    85.6320    23.9000     7.6890     6.7590     7.5340     2.1910 
   67.7500   -22.8640    86.7740    23.9650     9.0830     8.3660     9.2370     2.2120 
   67.8750   -22.8420    87.5110    24.0830    11.8730    10.5860    11.5920     2.2750 
   68.0000   -22.8140    86.1120    24.2260    17.4950    13.2980    14.4660     2.3740 
   68.1250   -22.7800    81.6120    24.3230    26.6970    16.0110    17.3410     2.4790 
   68.2500   -22.7610    76.7480    24.3520    36.1550    17.9140    19.3580     2.5610 
   68.3750   -22.7720    74.7460    24.3240    42.2940    18.3500    19.8210     2.6110 
   68.5000   -22.8240    77.8560    24.2560    43.7030    17.1280    18.5250     2.6290 
   68.6250   -22.9340    85.6200    24.2140    40.3980    14.6110    15.8580     2.6170 
   68.7500   -23.1140    93.0930    24.2100    32.7290    11.8690    12.9510     2.5790 
   68.8750   -23.3890    97.7300    24.2380    22.0580     9.4840    10.4230     2.5190 
   69.0000   -23.7680   100.0810    24.2700    12.2760     7.7200     8.5530     2.4440 
   69.1250   -24.2530   100.8820    24.2080     7.4810     6.6880     7.4590     2.3680 
   69.2500   -24.7970    98.5970    24.0310     6.1110     6.1470     6.8860     2.2950 
   69.3750   -25.3730    92.6270    23.7290     6.2820     5.9550     6.6820     2.2250 
   69.5000   -25.9620    86.1990    23.3340     6.8200     5.9800     6.7090     2.1610 
   69.6250   -26.5310    84.3790    22.9810     7.1670     6.0980     6.8340     2.1190 
   69.7500   -27.0490    86.6160    22.7580     7.2460     6.1890     6.9300     2.1040 
   69.8750   -27.4890    89.5520    22.6770     7.2570     6.2040     6.9470     2.1130 
   70.0000   -27.8390    90.0260    22.6960     7.3150     6.1450     6.8840     2.1370 
   70.1250   -28.0890    87.3520    22.7800     7.3890     6.0370     6.7690     2.1540 
   70.2500   -28.2620    84.0420    22.8810     7.3940     5.9250     6.6500     2.1490 
   70.3750   -28.3650    81.2850    22.9230     7.3430     5.8270     6.5460     2.1290 
   70.5000   -28.4140    79.2640    22.9040     7.2820     5.7470     6.4620     2.1110 
   70.6250   -28.4280    77.6680    22.8470     7.2790     5.6870     6.3980     2.1120 
   70.7500   -28.4420    76.3470    22.7400     7.3670     5.6370     6.3450     2.1260 
   70.8750   -28.4690    75.0500    22.5580     7.4980     5.5930     6.2980     2.1420 
   71.0000   -28.5120    74.2180    22.2900     7.5400     5.5500     6.2530     2.1500 
   71.1250   -28.5720    74.9060    22.0060     7.4050     5.5110     6.2120     2.1410 
   71.2500   -28.6480    75.6750    21.8640     7.2670     5.4790     6.1770     2.1280 
   71.3750   -28.7340    74.7180    21.9490     7.2610     5.4570     6.1540     2.1180 
   71.5000   -28.8120    72.8700    22.2670     7.3890     5.4430     6.1400     2.1190 
   71.6250   -28.8540    75.7960    22.6360     7.5690     5.4280     6.1240     2.1310 
   71.7500   -28.8510    83.9010    22.9460     7.7480     5.4010     6.0950     2.1450 
   71.8750   -28.8020    90.9650    23.1610     7.9140     5.3590     6.0510     2.1490 
   72.0000   -28.7100    90.9510    23.2820     8.0410     5.3020     5.9900     2.1360 
   72.1250   -28.5550    85.3600    23.2600     8.0700     5.2300     5.9130     2.1190 
   72.2500   -28.3340    82.1910    23.1470     8.0250     5.1540     5.8330     2.1130 
   72.3750   -28.0490    83.3830    23.0420     7.9400     5.0810     5.7560     2.1190 
   72.5000   -27.7150    85.7740    23.0130     7.8740     5.0120     5.6830     2.1240 
   72.6250   -27.3440    85.7690    23.0720     7.8700     4.9470     5.6140     2.1200 
   72.7500   -26.9430    83.7730    23.1010     7.9090     4.8920     5.5560     2.1120 
   72.8750   -26.5010    81.6400    23.1100     7.9440     4.8530     5.5140     2.1040 
   73.0000   -26.0160    80.7330    23.0880     7.9480     4.8310     5.4910     2.1010 
   73.1250   -25.5000    81.8840    23.0490     7.8960     4.8320     5.4920     2.1060 
   73.2500   -24.9800    85.1550    23.0920     7.9920     4.8540     5.5160     2.1220 
   73.3750   -24.4680    90.0780    23.2740     8.8990     4.8990     5.5630     2.1540 
   73.5000   -23.9690    94.4570    23.5350    11.3000     4.9650     5.6330     2.2040 
   73.6250   -23.4990    94.7640    23.7360    14.3150     5.0570     5.7310     2.2540 
   73.7500   -23.0760    91.4610    23.8260    14.8270     5.1780     5.8590     2.2780 
   73.8750   -22.7170    87.1360    23.8730    12.3380     5.3190     6.0080     2.2730 
   74.0000   -22.4200    83.9300    23.8760     9.2510     5.4630     6.1610     2.2540 
   74.1250   -22.1710    81.5380    23.8060     8.1040     5.5740     6.2790     2.2420 
   74.2500   -21.9380    79.4930    23.7080     7.9740     5.6140     6.3200     2.2390 
   74.3750   -21.7100    80.6270    23.6590     8.2120     5.5510     6.2540     2.2430 
   74.5000   -21.4800    89.2390    23.7270     8.5060     5.3760     6.0690     2.2530 
   74.6250   -21.2310   104.7930    23.9290     8.0370     5.0930     5.7680     2.2680 
   74.7500   -20.9580   117.6140    24.1490     6.7640     4.7580     5.4140     2.2810 
   74.8750   -20.6670   121.2770    24.3400     5.2720     4.4270     5.0630     2.2850 
   75.0000   -20.3840   115.9900    24.4880     4.3080     4.1460     4.7650     2.2830 
   75.1250   -20.1530   108.0950    24.5660     4.0240     3.9590     4.5670     2.2860 
   75.2500   -19.9940   104.3190    24.6020     3.9880     3.8650     4.4670     2.2990 
   75.3750   -19.9170   106.4120    24.6250     4.0210     3.8590     4.4600     2.3170 
   75.5000   -19.9370   112.2550    24.6210     4.0550     3.9270     4.5330     2.3330 
   75.6250   -20.0900   117.6860    24.5710     4.0550     4.0660     4.6800     2.3390 
   75.7500   -20.3670   119.5560    24.5000     4.1330     4.2620     4.8880     2.3300 
   75.8750   -20.7600   116.3200    24.4550     4.4180     4.5190     5.1600     2.3050 
   76.0000   -21.2450   108.9540    24.4160     4.9360     4.8380     5.4990     2.2770 
   76.1250   -21.8090   101.2240    24.3450     5.4220     5.2270     5.9100     2.2600 
   76.2500   -22.4260    95.0210    24.2530     5.7710     5.6610     6.3710     2.2410 
   76.3750   -23.0850    88.7290    24.2040     6.1730     6.1190     6.8560     2.2100 
   76.5000   -23.7620    81.5370    24.2430     6.9550     6.5660     7.3300     2.1780 
   76.6250   -24.4200    75.3810    24.3740     8.1440     6.9430     7.7290     2.1800 
   76.7500   -25.0360    71.6150    24.5200     9.1510     7.2230     8.0260     2.2040 
   76.8750   -25.6010    69.9780    24.5910     9.7010     7.3970     8.2110     2.2200 
   77.0000   -26.1120    70.2580    24.5390     9.7100     7.4800     8.2980     2.2060 
   77.1250   -26.5460    72.5120    24.4750     9.2460     7.4850     8.3040     2.1710 
   77.2500   -26.8990    75.7420    24.4260     8.7020     7.4590     8.2770     2.1360 
   77.3750   -27.1630    79.3400    24.3630     8.4000     7.4370     8.2540     2.1100 
