~V
VERS. 2.00: Ver 2.00
~W
STRT.M 60.0000:
STOP.M 256.0000:
STEP.M 0.1250:
NULL. -999.2500:
UWI. DF5048:
~C
DEPT.M :
GR.API :
CALI.CM :
RXO.OHMM :
RI. :
RML.OHMM :
DEN.GM/CC :
SP.MV :
~A
# ...
  127.5000    66.7040    24.6140     8.9400     6.8910     8.0050     2.1160   -26.8890 
  127.6250    64.8880    24.7500    11.8070     6.8860     7.8790     2.1340   -26.9800 
  127.7500    65.4170    24.8880    11.7280     6.7480     7.6350     2.1470   -27.0020 
  127.8750    66.1480    24.9640     9.0500     6.5370     7.3560     2.1560   -27.0050 
  128.0000    66.1590    24.9730     7.2020     6.3140     7.1160     2.1600   -27.0050 
  128.1250    68.1430    24.9480     6.9020     6.1450     6.9970     2.1610   -26.9710 
  128.2500    69.6970    24.9270     6.9180     6.0660     7.0120     2.1580   -26.9350 
  128.3750    67.9490    24.9300     6.8810     6.0910     7.1510     2.1530   -26.9120 
  128.5000    63.9850    24.9530     6.9830     6.2100     7.3730     2.1500   -26.8460 
  128.6250    61.9290    24.9710     7.4330     6.3920     7.6090     2.1530   -26.8320 
  128.7500    63.0030    24.9700     7.7480     6.5690     7.7930     2.1590   -26.8030 
  128.8750    65.3060    24.9520     7.7630     6.7010     7.8910     2.1650   -26.8020 
  129.0000    66.2210    24.9320     7.6710     6.7620     7.8920     2.1700   -26.7420 
  129.1250    64.7960    24.9220     7.5810     6.7440     7.8090     2.1710   -26.6800 
  129.2500    63.5340    24.9190     7.5110     6.6940     7.7070     2.1700   -26.5720 
  129.3750    64.6240    24.9180     7.4370     6.6510     7.6390     2.1710   -26.4590 
  129.5000    67.2690    24.9220     7.2090     6.6490     7.6390     2.1750   -26.3890 
  129.6250    69.1830    24.9410     7.3070     6.7120     7.7270     2.1840   -26.3350 
  129.7500    68.2530    24.9630     7.6260     6.8210     7.8570     2.1960   -26.2450 
  129.8750    65.4400    24.9740     7.9020     6.9320     7.9610     2.2080   -26.1550 
  130.0000    64.6630    24.9610     8.0000     6.9840     7.9670     2.2170   -26.0530 
  130.1250    67.6150    24.9220     7.9150     6.8990     7.8000     2.2190   -26.0520 
  130.2500    70.3100    24.8790     7.6300     6.6940     7.5070     2.2170   -26.0320 
  130.3750    70.6640    24.8550     7.1110     6.4140     7.1670     2.2110   -26.0120 
  130.5000    69.7800    24.8500     6.5610     6.1300     6.8660     2.2030   -25.9490 
  130.6250    70.1080    24.8510     6.2300     5.9150     6.6780     2.1930   -25.8850 
  130.7500    71.0850    24.8490     6.2640     5.7810     6.5850     2.1820   -25.8300 
  130.8750    72.4030    24.8590     6.3280     5.7170     6.5500     2.1710   -25.8080 
  131.0000    72.7200    24.8920     6.4050     5.6980     6.5400     2.1590   -25.7730 
  131.1250    72.6460    24.9360     6.4870     5.7270     6.5750     2.1520   -25.7150 
  131.2500    72.6970    24.9670     6.5420     5.8320     6.7190     2.1540   -25.6320 
  131.3750    71.4420    24.9880     6.5610     6.0690     7.0530     2.1690   -25.5410 
  131.5000    69.1840    25.0030     6.8020     6.4900     7.6210     2.1970   -25.4550 
  131.6250    67.2100    25.0090     8.9740     7.1100     8.3800     2.2350   -25.3700 
  131.7500    65.4000    25.0140    11.9550     7.7680     9.0820     2.2680   -25.2750 
  131.8750    63.4220    25.0270    12.4250     8.2510     9.4720     2.2840   -25.1760 
  132.0000    61.6560    25.0300    10.1040     8.3670     9.3810     2.2780   -25.0830 
  132.1250    61.8050    24.9740     8.8450     8.0250     8.8120     2.2550   -25.0120 
  132.2500    63.9030    24.8860     7.5230     7.4740     8.1080     2.2280   -24.9400 
  132.3750    67.0120    24.8130     6.6140     6.9340     7.5290     2.2030   -24.8730 
  132.5000    68.9100    24.7850     6.3610     6.5600     7.2210     2.1840   -24.8150 
  132.6250    68.9290    24.7880     6.4550     6.4500     7.2430     2.1770   -24.7600 
  132.7500    68.7360    24.7870     6.5530     6.5320     7.4550     2.1840   -24.7420 
  132.8750    68.4990    24.7990     6.7830     6.7280     7.7400     2.2020   -24.7140 
  133.0000    66.7660    24.8460     7.3690     6.9410     7.9840     2.2200   -24.7170 
  133.1250    64.1730    24.9170     7.6730     7.0730     8.1050     2.2290   -24.6710 
  133.2500    63.5400    24.9660     7.2760     7.1150     8.1370     2.2290   -24.6590 
  133.3750    65.3010    24.9580     7.0420     7.1090     8.1590     2.2290   -24.6560 
  133.5000    67.9530    24.8940     7.5930     7.1360     8.2670     2.2350   -24.6680 
  133.6250    68.8870    24.8370     8.7180     7.2960     8.5600     2.2550   -24.6530 
  133.7500    67.8030    24.8320     9.9130     7.6010     9.0270     2.2850   -24.6410 
  133.8750    66.0040    24.8430    10.2960     8.0530     9.6800     2.3220   -24.6100 
  134.0000    63.1440    24.8170    10.2070     8.6820    10.5750     2.3660   -24.5890 
  134.1250    58.7850    24.8330    11.0120     9.5810    11.8060     2.4110   -24.6010 
  134.2500    55.4380    24.9730    11.4930    10.7000    13.2130     2.4490   -24.6200 
  134.3750    54.6820    25.1680    12.9780    11.8690    14.4970     2.4720   -24.6740 
  134.5000    55.7420    25.2840    17.8960    12.7540    15.2160     2.4680   -24.7600 
  134.6250    56.3550    25.2530    22.8560    12.8070    14.8110     2.4190   -24.8350 
  134.7500    57.3690    25.1440    21.2260    12.0450    13.5140     2.3440   -24.9000 
  134.8750    59.3220    24.9990    14.1430    10.7920    11.8090     2.2640   -24.9660 
  135.0000    61.2130    24.8830     8.5720     9.4780    10.2100     2.2020   -25.0160 
  135.1250    62.1390    24.8600     7.9380     8.4350     9.0900     2.1680   -24.9840 
  135.2500    62.8250    24.8770     7.8730     7.7070     8.4040     2.1570   -24.9460 
  135.3750    64.6200    24.8790     7.8310     7.2420     8.0190     2.1620   -24.8300 
  135.5000    67.7650    24.8610     7.5660     6.9330     7.7620     2.1720   -24.6930 
  135.6250    71.4400    24.8340     7.1650     6.6860     7.5260     2.1780   -24.4810 
  135.7500    71.8070    24.7950     6.8030     6.4780     7.3250     2.1780   -24.3150 
  135.8750    69.3160    24.7540     6.5690     6.3510     7.2230     2.1750   -24.1210 
  136.0000    67.8320    24.7320     6.4600     6.3410     7.2530     2.1720   -23.9550 
  136.1250    70.8750    24.7080     6.6960     6.4630     7.4090     2.1700   -23.7440 
  136.2500    73.9680    24.6720     7.0820     6.6580     7.6170     2.1690   -23.5280 
  136.3750    72.0790    24.6640     7.3750     6.8730     7.8230     2.1650   -23.3160 
  136.5000    67.7300    24.7010     7.4340     7.0610     7.9950     2.1600   -23.0950 
  136.6250    67.2120    24.7000     7.4420     7.1920     8.1170     2.1550   -22.8920 
  136.7500    70.1760    24.6120     7.5280     7.2790     8.2020     2.1510   -22.6490 
  136.8750    73.3430    24.5050     7.9850     7.3320     8.2540     2.1480   -22.3570 
  137.0000    74.0920    24.4680     9.0160     7.3510     8.2640     2.1440   -22.0270 
  137.1250    74.5970    24.5050     8.9350     7.2870     8.1650     2.1430   -21.7190 
  137.2500    75.4730    24.5370     8.1020     7.0780     7.8930     2.1460   -21.4140 
  137.3750    76.1160    24.5400     7.2300     6.6810     7.4160     2.1570   -21.1040 
  137.5000    77.0230    24.5580     6.7420     6.1360     6.7860     2.1780   -20.7460 
  137.6250    79.1830    24.6750     6.2810     5.5710     6.1650     2.2030   -20.4180 
  137.7500    82.8680    24.8500     5.5050     5.1290     5.7240     2.2190   -20.0960 
  137.8750    85.2090    24.9570     4.8340     4.8960     5.5640     2.2230   -19.8300 
  138.0000    83.6980    24.8780     5.0250     4.9230     5.7200     2.2190   -19.6050 
  138.1250    79.9990    24.6860     5.8550     5.2460     6.1740     2.2210   -19.3400 
  138.2500    76.5830    24.6300     6.6460     5.7330     6.7180     2.2360   -19.0870 
  138.3750    74.0900    24.7600     6.9350     6.2270     7.1460     2.2640   -18.8430 
  138.5000    71.5650    24.9510     7.9340     6.5380     7.2750     2.2910   -18.6480 
  138.6250    69.1320    25.0560     9.5710     6.4700     6.9770     2.2990   -18.4830 
