~V
VERS. 2.00: Ver 2.00
~W
STRT.M 60.0000:
STOP.M 277.0000:
STEP.M 0.1250:
NULL. -999.2500:
UWI. DF5010:
~C
DEPT.M :
GR.API :
CALI.CM :
RXO.OHMM :
RI. :
RML.OHMM :
SP.MV :
DEN.GM/CC :
~A
# ...
  150.0000   112.7730    24.6880     4.5760     4.4030     4.3180   -33.6410     2.3470 
  150.1250   111.8350    24.6890     4.6870     4.4320     4.3480   -33.7740     2.3530 
  150.2500   109.0160    24.6880     4.7250     4.5030     4.4310   -33.8640     2.3510 
  150.3750   108.0270    24.6880     4.7300     4.5870     4.5340   -33.9910     2.3440 
  150.5000   110.7290    24.6880     4.6830     4.6510     4.6190   -34.1230     2.3390 
  150.6250   113.9520    24.6880     4.6610     4.6490     4.6350   -34.2760     2.3430 
  150.7500   114.1230    24.6880     4.6820     4.5630     4.5700   -34.4680     2.3490 
  150.8750   112.5240    24.6880     4.6180     4.3910     4.4240   -34.6740     2.3500 
  151.0000   111.7540    24.6880     4.3780     4.1500     4.2160   -34.8680     2.3420 
  151.1250   113.4170    24.6880     4.1680     3.8700     3.9730   -35.0610     2.3360 
  151.2500   115.1070    24.6880     4.0320     3.6040     3.7510   -35.2760     2.3420 
  151.3750   115.9620    24.6880     4.0080     3.4090     3.6170   -35.5140     2.3550 
  151.5000   115.6180    24.6880     4.0860     3.3410     3.6360   -35.7760     2.3650 
  151.6250   114.2550    24.6890     4.2310     3.4590     3.8660   -36.0190     2.3720 
  151.7500   112.6120    24.6880     4.4880     3.7320     4.2590   -36.1910     2.3860 
  151.8750   109.3930    24.6870     5.9690     4.1410     4.7740   -36.3860     2.4050 
  152.0000   103.6290    24.6860     8.2580     4.6600     5.3690   -36.6300     2.4130 
  152.1250    95.0140    24.6870     9.1410     5.3020     6.0700   -36.8620     2.4080 
  152.2500    88.7610    24.6860     7.8610     6.0950     6.9730   -37.0730     2.4120 
  152.3750    87.7870    24.6840     8.2420     7.1200     8.2120   -37.3200     2.4380 
  152.5000    89.7710    24.6840    10.9380     8.4240     9.8250   -37.4480     2.4810 
  152.6250    89.1790    24.6870    14.7470     9.9090    11.5810   -37.6540     2.5180 
  152.7500    85.1680    24.6720    16.7170    11.1290    12.8750   -37.9450     2.5290 
  152.8750    81.4560    24.6390    17.2220    11.5680    13.1350   -38.1770     2.5060 
  153.0000    81.2290    24.5900    15.3990    10.9900    12.1970   -38.4910     2.4570 
  153.1250    85.1990    24.4330    12.0330     9.6900    10.5290   -38.6760     2.3900 
  153.2500    89.2020    24.1620     9.0370     8.4050     9.0260   -38.9030     2.3160 
  153.3750    90.4630    23.8980     7.6280     7.4850     8.0930   -39.0700     2.2470 
  153.5000    88.1000    23.7690     7.3320     7.0680     7.8480   -39.1440     2.2090 
  153.6250    85.5710    23.7720     7.8670     7.2530     8.3300   -39.3020     2.2290 
  153.7500    83.1250    23.7780    10.0900     7.8490     9.1990   -39.3020     2.2910 
  153.8750    80.8790    23.7780    13.4260     8.6100    10.0760   -39.2250     2.3680 
  154.0000    80.6720    23.8060    15.7080     9.1600    10.5090   -39.1130     2.4250 
  154.1250    84.5570    23.8870    15.5850     9.0470    10.0710   -38.9710     2.4320 
  154.2500    90.3880    24.0360    13.7380     8.3710     9.0430   -38.8750     2.4020 
  154.3750    93.9920    24.2420    10.3040     7.4260     7.8270   -38.7200     2.3570 
  154.5000    95.3070    24.4420     7.2200     6.5190     6.7850   -38.6740     2.3190 
  154.6250    95.1150    24.5430     6.3500     5.8860     6.1620   -38.6050     2.2960 
  154.7500    95.7680    24.5600     6.1630     5.5330     5.8940   -38.4760     2.2820 
  154.8750    97.9130    24.5540     5.7420     5.4230     5.8960   -38.4420     2.2670 
  155.0000    98.4610    24.5540     5.7320     5.4760     6.0430   -38.4120     2.2490 
  155.1250    95.2610    24.5540     5.9850     5.5890     6.1890   -38.4770     2.2370 
  155.2500    91.4970    24.5540     6.4360     5.6570     6.2330   -38.5060     2.2370 
  155.3750    90.7390    24.5540     6.5210     5.6550     6.1750   -38.5170     2.2460 
  155.5000    92.1440    24.5550     6.1540     5.6280     6.1020   -38.5950     2.2540 
  155.6250    92.9860    24.5490     5.8610     5.7200     6.2230   -38.5400     2.2580 
  155.7500    91.2600    24.5350     6.2100     6.0600     6.7060   -38.6040     2.2780 
  155.8750    86.4670    24.5220     7.7660     6.7580     7.6870   -38.7000     2.3310 
  156.0000    81.7830    24.5160    11.4440     7.8680     9.2000   -38.7290     2.4170 
  156.1250    82.0220    24.5170    17.5000     9.3070    11.0380   -38.7910     2.5040 
  156.2500    83.7720    24.5250    22.0660    10.5560    12.4910   -38.7590     2.5530 
  156.3750    81.9540    24.4890    22.8550    11.0500    12.8930   -38.8280     2.5460 
  156.5000    77.3290    24.3530    21.1270    10.5900    12.0980   -38.8330     2.4860 
  156.6250    75.0950    24.1630    17.4700     9.5890    10.7300   -38.8020     2.4030 
  156.7500    75.4430    24.0470    12.7460     8.7950     9.8130   -38.8390     2.3490 
  156.8750    75.9440    24.0230     9.5120     8.5950     9.9060   -38.7750     2.3560 
  157.0000    75.1460    24.0330    12.7500     9.2090    11.2770   -38.6920     2.4250 
  157.1250    72.4250    24.0610    18.4260    10.8750    14.0350   -38.5600     2.5120 
  157.2500    67.7450    24.1190    21.4280    13.2070    17.2930   -38.4450     2.5630 
  157.3750    63.1440    24.1810    22.1390    15.4140    19.7320   -38.3670     2.5670 
  157.5000    60.4480    24.2150    22.8430    16.2930    19.9050   -38.3020     2.5390 
  157.6250    60.3110    24.2190    22.1120    15.0380    17.3420   -38.2680     2.4850 
  157.7500    63.2810    24.2170    17.0510    12.8930    14.0510   -38.2320     2.4080 
  157.8750    69.5860    24.2140    12.0800    10.8440    11.3090   -38.2270     2.3230 
  158.0000    76.9760    24.2120     8.7210     9.3180     9.5120   -38.2290     2.2650 
  158.1250    81.7360    24.2110     8.2250     8.4070     8.5970   -38.2930     2.2590 
  158.2500    84.5870    24.2130     8.2280     7.8590     8.0990   -38.3420     2.2780 
  158.3750    85.9330    24.2150     8.2230     7.4920     7.7460   -38.3540     2.2930 
  158.5000    86.1690    24.2150     7.4780     7.1490     7.3600   -38.3510     2.2970 
  158.6250    87.2310    24.2130     6.4910     6.7620     6.9090   -38.3370     2.2940 
  158.7500    89.3720    24.2100     6.1820     6.3870     6.4930   -38.3630     2.2880 
  158.8750    90.8420    24.2080     6.0480     6.1090     6.2200   -38.4070     2.2760 
  159.0000    91.1120    24.2080     5.9880     6.0140     6.1730   -38.5280     2.2590 
  159.1250    91.9330    24.2080     5.9070     6.2020     6.4390   -38.5370     2.2530 
  159.2500    90.9680    24.2100     6.3890     6.6110     6.9150   -38.6250     2.2670 
  159.3750    87.1120    24.2130     7.0870     7.1380     7.4660   -38.7090     2.2960 
  159.5000    81.7160    24.2150     8.0970     7.6280     7.9310   -38.6560     2.3280 
  159.6250    75.9580    24.2160    10.2110     7.9380     8.1950   -38.7820     2.3480 
  159.7500    72.2070    24.2330    10.3910     8.1470     8.4000   -38.7900     2.3560 
  159.8750    72.8500    24.2740     8.6610     8.4330     8.7860   -38.7330     2.3650 
  160.0000    77.7400    24.3230     7.8780     8.9860     9.5810   -38.6860     2.3890 
  160.1250    80.7640    24.3490    11.2560     9.9640    10.9340   -38.6110     2.4330 
  160.2500    79.5440    24.3530    17.3410    11.1540    12.4600   -38.5790     2.4700 
  160.3750    76.0120    24.3520    20.4770    12.0890    13.5120   -38.4830     2.4740 
  160.5000    72.8760    24.3510    16.5410    12.1450    13.3690   -38.5760     2.4360 
  160.6250    73.9380    24.3530    12.8480    10.9560    11.7250   -38.5990     2.3740 
  160.7500    78.2450    24.3520    11.1260     9.3210     9.6450   -38.5370     2.3260 
  160.8750    84.7360    24.3300     9.3240     7.9190     7.9950   -38.5520     2.3070 
  161.0000    92.4490    24.2660     6.7110     7.1290     7.2340   -38.5150     2.3030 
  161.1250   101.0200    24.1710     6.2190     7.2010     7.5980   -38.5990     2.2850 
