~V
VERS. 2.00: Ver 2.00
~W
STRT.M 60.0000:
STOP.M 273.0000:
STEP.M 0.1250:
NULL. -999.2500:
UWI. DF5008:
~C
DEPT.M :
GR.API :
CALI.CM :
RXO.OHMM :
RI. :
RML.OHMM :
DEN.GM/CC :
SP.MV :
~A
# ...
  240.0000    69.7290    24.3870    54.2940    46.3330    42.4100     2.2510   -39.4370 
  240.1250    76.5820    24.2870    27.2980    33.8130    31.4760     2.2450   -39.4350 
  240.2500    83.9330    24.2070    22.6130    26.9310    25.8520     2.2350   -39.4370 
  240.3750    87.4300    24.1560    22.2190    24.2340    24.4350     2.2310   -39.4750 
  240.5000    87.6860    24.1390    23.0700    24.9750    26.7710     2.2430   -39.5160 
  240.6250    87.4460    24.1950    32.0530    30.0780    33.5040     2.2770   -39.6010 
  240.7500    84.3680    24.3280    57.6980    39.4050    43.7840     2.3260   -39.6500 
  240.8750    76.8440    24.4770   114.1340    51.9690    56.1170     2.3730   -39.6990 
  241.0000    69.4580    24.5000   162.7050    64.1200    66.7790     2.3910   -39.7540 
  241.1250    65.9110    24.3160   192.0780    68.9660    69.2730     2.3540   -39.8150 
  241.2500    64.4420    24.0790   170.8910    65.6790    63.9590     2.2930   -39.8880 
  241.3750    64.3160    23.9480   110.4780    57.8130    55.1630     2.2380   -39.9520 
  241.5000    65.2780    24.0160    48.5730    49.7660    47.1730     2.2010   -39.9670 
  241.6250    68.1120    24.2560    40.5840    44.2640    42.1220     2.1870   -39.9350 
  241.7500    72.1430    24.4880    46.1420    40.9730    39.2520     2.1840   -39.9670 
  241.8750    73.6920    24.6170    45.2530    39.3020    37.8730     2.1870   -39.9720 
  242.0000    71.9570    24.6740    41.7730    38.7180    37.3920     2.1910   -39.9790 
  242.1250    71.1160    24.7160    42.1360    38.7390    37.2780     2.1950   -39.9690 
  242.2500    71.3000    24.7060    43.2020    38.6580    36.9020     2.2000   -39.9370 
  242.3750    69.7690    24.6420    41.1870    37.9480    35.8160     2.2060   -39.9090 
  242.5000    67.5910    24.5710    41.2960    36.2380    33.7470     2.2130   -39.9240 
  242.6250    69.2150    24.5220    40.4680    33.3300    30.6380     2.2210   -39.9530 
  242.7500    73.0720    24.4790    35.4560    29.8460    27.1580     2.2290   -39.9430 
  242.8750    76.2590    24.4440    27.4790    26.4260    23.9190     2.2360   -39.9550 
  243.0000    78.2130    24.4290    24.0410    23.6030    21.3830     2.2400   -39.8820 
  243.1250    79.5520    24.4310    23.0120    21.7770    19.9060     2.2370   -39.8150 
  243.2500    81.4340    24.4330    21.6470    20.8250    19.3440     2.2310   -39.7630 
  243.3750    84.4150    24.4320    19.7030    20.7340    19.6920     2.2250   -39.6790 
  243.5000    85.2180    24.4310    21.9410    21.5440    20.9830     2.2240   -39.5650 
  243.6250    81.9290    24.4310    25.6260    23.4900    23.3880     2.2310   -39.3590 
  243.7500    78.2800    24.4330    28.1760    26.4020    26.6130     2.2440   -39.1830 
  243.8750    75.9750    24.4350    33.5290    30.0560    30.2860     2.2570   -39.0030 
  244.0000    74.5140    24.4250    43.4610    33.8630    33.7200     2.2650   -38.8940 
  244.1250    73.8640    24.3810    48.6730    36.6150    35.7580     2.2630   -38.8110 
  244.2500    76.3510    24.3420    40.8670    37.6840    36.1170     2.2560   -38.7290 
  244.3750    79.3360    24.3500    33.9740    37.2520    35.2460     2.2460   -38.7200 
  244.5000    80.1140    24.3900    34.6470    36.1630    34.1370     2.2370   -38.6800 
  244.6250    79.9290    24.4020    33.6550    35.5240    33.8930     2.2310   -38.6690 
  244.7500    79.7760    24.3800    32.4250    35.7200    34.5780     2.2280   -38.6440 
  244.8750    79.5730    24.3530    35.1520    36.3380    35.5110     2.2290   -38.6220 
  245.0000    80.3110    24.3250    39.2320    36.3410    35.5290     2.2310   -38.5830 
  245.1250    81.8950    24.2910    43.8180    34.3910    33.3980     2.2340   -38.5340 
  245.2500    80.9840    24.2600    42.7990    30.9720    29.8860     2.2390   -38.4790 
  245.3750    78.2390    24.2300    33.6090    27.3240    26.4280     2.2500   -38.3740 
  245.5000    77.0850    24.2060    23.2930    24.7280    24.4570     2.2730   -38.2840 
  245.6250    77.7660    24.1920    19.5840    24.4620    25.4290     2.3100   -38.2550 
  245.7500    79.0960    24.1830    23.0490    26.9070    29.5010     2.3520   -38.1770 
  245.8750    81.4320    24.1970    36.2840    32.7180    36.9940     2.3900   -38.1040 
  246.0000    84.0090    24.2580    61.5370    42.3250    47.9560     2.4170   -38.0270 
  246.1250    81.7300    24.3460    79.3300    55.2920    61.6950     2.4360   -37.9420 
  246.2500    76.4240    24.4080    75.7300    67.9710    74.7360     2.4550   -37.8510 
  246.3750    71.6650    24.3960    70.9600    76.8030    83.4660     2.4760   -37.7500 
  246.5000    69.6910    24.2920    80.3350    80.0420    86.1350     2.4960   -37.6130 
  246.6250    68.6760    24.1610   102.0690    78.4540    84.0240     2.5090   -37.4020 
  246.7500    67.0600    24.1430   107.7200    75.8850    81.4840     2.5180   -37.2310 
  246.8750    67.5210    24.2520    98.7470    74.8690    81.1540     2.5320   -36.9640 
  247.0000    70.4020    24.3770    78.9820    77.3370    84.8850     2.5540   -36.7400 
  247.1250    73.9240    24.4000    74.0130    85.6020    94.7590     2.5830   -36.4570 
  247.2500    74.9260    24.3500    86.9790    98.3540   108.8930     2.5980   -36.1550 
  247.3750    72.8850    24.2820   140.5720   110.3780   120.6610     2.5790   -35.8530 
  247.5000    66.1930    24.2560   202.3070   110.4840   116.2700     2.5170   -35.5750 
  247.6250    54.9990    24.3010   201.9650    87.5070    86.3740     2.4300   -35.3280 
  247.7500    46.0820    24.3590   133.8090    56.6920    52.6540     2.3500   -35.0480 
  247.8750    42.0430    24.3670    64.1730    32.1190    28.5240     2.2890   -34.8400 
  248.0000    41.4700    24.3290    22.4370    17.4130    14.9390     2.2490   -34.5810 
  248.1250    42.7270    24.3010     9.2070    10.7070     8.9460     2.2300   -34.3950 
  248.2500    46.0550    24.2640     5.1820     7.4800     6.1600     2.2250   -34.2420 
  248.3750    50.7080    24.1600     4.7010     5.9970     4.9970     2.2280   -34.0850 
  248.5000    53.5710    24.0120     4.5180     5.4160     4.6310     2.2320   -33.9830 
  248.6250    53.6050    23.9360     4.5910     5.3720     4.6630     2.2350   -33.8460 
  248.7500    53.4510    23.9370     4.6540     5.5130     4.7870     2.2400   -33.7850 
  248.8750    54.0220    23.9370     4.7220     5.6840     4.8900     2.2470   -33.7650 
  249.0000    54.9090    23.9000     4.8130     5.8040     4.9330     2.2570   -33.7700 
  249.1250    55.5700    23.8530     4.8050     5.8430     4.9190     2.2700   -33.7860 
  249.2500    56.8620    23.8120     4.7880     5.8320     4.8860     2.2870   -33.8120 
  249.3750    59.3820    23.7740     4.8490     5.7930     4.8590     2.3050   -33.8700 
  249.5000    61.1410    23.7950     4.9780     5.7470     4.8610     2.3240   -33.8670 
  249.6250    60.4830    23.9280     4.9380     5.7060     4.9120     2.3440   -33.9920 
  249.7500    57.7560    24.0500     4.8210     5.6760     5.0020     2.3580   -34.0320 
  249.8750    55.2940    24.0440     4.7870     5.6550     5.1180     2.3630   -34.0400 
  250.0000    55.7890    23.9390     5.1320     5.6450     5.2450     2.3590   -34.0320 
  250.1250    58.5820    23.8820     5.4270     5.6440     5.3730     2.3490   -34.0320 
  250.2500    59.3270    23.8970     5.5930     5.6520     5.4990     2.3400   -33.9620 
  250.3750    56.9020    23.9120     5.9060     5.6710     5.6240     2.3370   -33.9240 
  250.5000    52.6530    23.8830     6.5400     5.7010     5.7470     2.3380   -33.8980 
  250.6250    50.4600    23.8400     7.1030     5.7430     5.8610     2.3390   -33.8570 
  250.7500    51.8840    23.8210     6.9820     5.7920     5.9600     2.3350   -33.7670 
  250.8750    56.1960    23.8230     6.7290     5.8370     6.0380     2.3280   -33.6720 
  251.0000    58.6640    23.8330     7.1380     5.8700     6.0940     2.3230   -33.5990 
  251.1250    54.6180    23.8400     7.7400     5.8780     6.1210     2.3230   -33.5120 
