~V
VERS. 2.00: Ver 2.00
~W
STRT.M 61.0000:
STOP.M 267.0000:
STEP.M 0.1250:
NULL. -999.2500:
UWI. DF5036:
~C
DEPT.M :
SP.MV :
GR.API :
RML.OHMM :
RI. :
RXO.OHMM :
CALI.CM :
DEN.GM/CC :
~A
# ...
  139.7500   -14.4480    89.9600     6.7650     6.1730     5.6510    23.9280     2.3010 
  139.8750   -14.3600    91.6170     6.7020     6.0940     5.4970    23.9780     2.3120 
  140.0000   -14.2640    94.9810     6.6690     6.0330     5.4150    23.9500     2.3220 
  140.1250   -14.1960    96.3040     6.6520     5.9900     5.4350    23.8860     2.3300 
  140.2500   -14.1530    99.6250     6.6010     5.9310     5.4720    23.8540     2.3350 
  140.3750   -14.1150   104.6870     6.4760     5.8170     5.5070    23.8710     2.3330 
  140.5000   -14.0670   105.3440     6.2560     5.6220     5.4640    23.9530     2.3190 
  140.6250   -14.0380   102.2170     5.9510     5.3400     5.1620    24.0780     2.2860 
  140.7500   -14.0390   102.7730     5.6160     5.0260     4.7070    24.1780     2.2410 
  140.8750   -14.0770   106.3770     5.2890     4.7290     4.3600    24.2250     2.1980 
  141.0000   -14.1270   108.1040     5.0000     4.4860     4.2130    24.2430     2.1700 
  141.1250   -14.1980   107.9440     4.7680     4.3290     4.3160    24.2410     2.1720 
  141.2500   -14.3000   107.6350     4.6550     4.2640     4.6280    24.1990     2.1980 
  141.3750   -14.4300   105.9860     4.7480     4.3330     5.1370    24.1540     2.2420 
  141.5000   -14.5960   103.5710     5.1490     4.6090     5.7790    24.1150     2.2930 
  141.6250   -14.7580    98.5840     5.9950     5.2230     6.6860    24.0880     2.3480 
  141.7500   -14.9180    91.3370     7.0440     6.1500     8.0990    24.0270     2.4020 
  141.8750   -15.0830    84.3380     8.3210     7.3120    10.0770    23.9110     2.4450 
  142.0000   -15.2410    79.3610     9.6060     8.5400    12.2180    23.7850     2.4590 
  142.1250   -15.3800    76.1750    10.6010     9.5520    13.3830    23.7430     2.4300 
  142.2500   -15.4970    74.3580    11.1830    10.1740    12.6790    23.7350     2.3730 
  142.3750   -15.5770    74.8210    11.3370    10.3480    11.2590    23.7840     2.3050 
  142.5000   -15.6180    75.4270    11.1490    10.1440    10.8020    23.9580     2.2480 
  142.6250   -15.6200    73.9280    10.7770     9.7270    11.3590    24.1960     2.2200 
  142.7500   -15.5570    71.5760    10.4800     9.3570    12.1450    24.3370     2.2270 
  142.8750   -15.4430    69.6780    10.4570     9.2200    12.4680    24.3320     2.2660 
  143.0000   -15.3000    69.1240    10.8600     9.4520    12.5300    24.2480     2.3290 
  143.1250   -15.1090    67.0700    11.8170    10.1930    13.6800    24.1930     2.4040 
  143.2500   -14.9020    61.4350    13.1660    11.3370    15.4980    24.1690     2.4730 
  143.3750   -14.7100    55.6600    14.7370    12.7670    17.4310    24.1290     2.5270 
  143.5000   -14.5350    53.4860    16.3110    14.3040    19.8510    24.0990     2.5610 
  143.6250   -14.3960    53.2290    17.6310    15.7020    21.6860    24.0640     2.5710 
  143.7500   -14.3060    50.8450    18.6530    16.8320    22.0480    24.0020     2.5660 
  143.8750   -14.2340    47.5380    19.4530    17.6970    21.8460    23.9590     2.5550 
  144.0000   -14.1680    44.5800    20.1760    18.3910    21.3390    24.0630     2.5470 
  144.1250   -14.1260    42.0190    20.9590    19.0420    21.4940    24.1720     2.5500 
  144.2500   -14.0820    40.8690    21.8150    19.7400    22.6540    24.2170     2.5610 
  144.3750   -14.0330    41.5670    22.6680    20.4700    24.0720    24.2210     2.5750 
  144.5000   -13.9840    42.8580    23.3970    21.1570    25.3720    24.2130     2.5870 
  144.6250   -13.9420    42.4770    23.8800    21.6800    25.8950    24.1940     2.5920 
  144.7500   -13.9000    41.2160    24.1900    22.0470    25.4190    24.1690     2.5910 
  144.8750   -13.8730    40.9160    24.4620    22.3400    24.9040    24.1550     2.5860 
  145.0000   -13.8540    42.4280    24.8370    22.6770    24.7000    24.1400     2.5800 
  145.1250   -13.8290    43.6800    25.3850    23.1460    24.9690    24.1130     2.5780 
  145.2500   -13.8170    43.3440    25.9660    23.6740    26.2550    24.1120     2.5820 
  145.3750   -13.8180    43.8310    26.4090    24.1340    28.3280    24.1480     2.5900 
  145.5000   -13.8220    44.8850    26.5960    24.4130    29.6400    24.1940     2.5990 
  145.6250   -13.8280    42.5580    26.5220    24.4670    29.0490    24.2130     2.6020 
  145.7500   -13.8430    40.1820    26.3880    24.4310    27.1990    24.2220     2.6000 
  145.8750   -13.8720    41.3930    26.3300    24.4190    25.8890    24.2390     2.5940 
  146.0000   -13.9190    44.6100    26.3890    24.4870    25.1200    24.2650     2.5880 
  146.1250   -13.9780    46.0250    26.4590    24.5830    25.1070    24.2580     2.5830 
  146.2500   -14.0460    47.3110    26.3350    24.5420    25.2220    24.2320     2.5780 
  146.3750   -14.1240    48.4300    25.8370    24.1910    25.0390    24.2190     2.5720 
  146.5000   -14.2160    48.1650    24.8700    23.4140    23.9880    24.2170     2.5630 
  146.6250   -14.3200    49.8980    23.4310    22.1680    22.0160    24.2170     2.5530 
  146.7500   -14.4260    54.2690    21.8150    20.7070    20.4660    24.2170     2.5450 
  146.8750   -14.5240    57.6040    20.2950    19.2770    19.0460    24.2170     2.5400 
  147.0000   -14.5930    57.5940    19.1180    18.1140    17.7740    24.2170     2.5350 
  147.1250   -14.6400    56.4860    18.5100    17.4470    17.0120    24.2170     2.5330 
  147.2500   -14.6660    57.1870    18.3530    17.2160    16.9200    24.2170     2.5330 
  147.3750   -14.6730    58.6450    18.4890    17.3130    17.2580    24.2170     2.5330 
  147.5000   -14.6470    58.9050    18.7100    17.5680    17.7900    24.2170     2.5300 
  147.6250   -14.5870    56.9800    18.8080    17.7850    18.3040    24.2170     2.5180 
  147.7500   -14.5030    54.7840    18.7560    17.8720    18.3470    24.2170     2.5030 
  147.8750   -14.4000    52.8940    18.6650    17.8700    17.9850    24.2120     2.4890 
  148.0000   -14.3160    51.1560    18.7090    17.9060    17.3510    24.1840     2.4850 
  148.1250   -14.2700    50.1710    19.0450    18.1280    17.2020    24.1090     2.4960 
  148.2500   -14.2420    50.6730    19.5460    18.4970    17.5660    24.0520     2.5150 
  148.3750   -14.2240    52.1320    19.9770    18.8570    18.8420    24.0710     2.5330 
  148.5000   -14.2170    53.9070    20.0820    18.9980    20.2360    24.1260     2.5420 
  148.6250   -14.2310    54.6200    19.6770    18.7190    20.6010    24.1420     2.5370 
  148.7500   -14.2560    54.6380    18.9800    18.1440    19.7600    24.1230     2.5250 
  148.8750   -14.2910    55.4400    18.2640    17.4760    18.0560    24.0990     2.5160 
  149.0000   -14.3200    55.6780    17.7650    16.9350    16.0060    24.1010     2.5160 
  149.1250   -14.3560    53.7620    17.6130    16.6910    15.6540    24.1400     2.5290 
  149.2500   -14.3980    51.2990    17.6620    16.6780    16.4020    24.1910     2.5450 
  149.3750   -14.4550    50.0660    17.7690    16.7920    17.3040    24.2140     2.5600 
  149.5000   -14.5500    50.7000    17.8250    16.9260    17.9180    24.2170     2.5660 
  149.6250   -14.6610    52.0060    17.7680    16.9990    18.0190    24.2170     2.5660 
  149.7500   -14.7720    52.7110    17.6450    17.0070    17.3090    24.2170     2.5620 
  149.8750   -14.8790    51.8140    17.5080    16.9650    16.3410    24.2170     2.5580 
  150.0000   -14.9640    49.2640    17.3760    16.8570    15.8130    24.2240     2.5520 
  150.1250   -15.0030    47.5020    17.2180    16.5930    15.7640    24.2440     2.5400 
  150.2500   -15.0310    47.2030    16.9750    16.1280    15.4370    24.2720     2.5190 
  150.3750   -15.0530    48.4140    16.6230    15.4610    14.8640    24.2840     2.4920 
  150.5000   -15.0540    50.0340    16.1180    14.6760    13.9590    24.2860     2.4610 
  150.6250   -15.0480    51.4010    15.3770    13.9480    12.7790    24.2860     2.4360 
  150.7500   -15.0690    54.3770    14.6530    13.4160    12.0520    24.2860     2.4170 
  150.8750   -15.1360    58.1530    14.1680    13.1320    11.8170    24.2810     2.4080 
