~V
VERS. 2.00: Ver 2.00
~W
STRT.M 67.0000:
STOP.M 277.0000:
STEP.M 0.1250:
NULL. -999.2500:
UWI. DF5013:
~C
DEPT.M :
SP.MV :
GR.API :
RML.OHMM :
RI. :
RXO.OHMM :
CALI.CM :
DEN.GM/CC :
~A
# ...
  112.0000   -27.3820    68.9240    12.5410    10.6190     9.3100    23.8530     2.2120 
  112.1250   -27.4110    68.2470    12.8230    10.9930     9.4070    23.6600     2.2080 
  112.2500   -27.4680    68.9930    12.5100    10.9060     9.4260    23.5550     2.2060 
  112.3750   -27.5210    71.6620    11.7680    10.4300     9.4100    23.5220     2.2070 
  112.5000   -27.5730    70.4250    10.9330     9.7800     9.3800    23.5020     2.2080 
  112.6250   -27.5940    65.1300    10.2870     9.2140     9.3140    23.4570     2.2080 
  112.7500   -27.5790    61.7590     9.8910     8.8300     9.2710    23.3830     2.2070 
  112.8750   -27.5330    65.1480     9.6690     8.6270     9.3050    23.2780     2.2060 
  113.0000   -27.4200    71.0670     9.5280     8.5550     9.4190    23.1550     2.2050 
  113.1250   -27.2980    73.4780     9.4030     8.5200     9.5320    23.0380     2.2030 
  113.2500   -27.1670    74.2110     9.3480     8.4790     9.5120    22.9990     2.2000 
  113.3750   -27.0570    76.4920     9.2890     8.4190     9.3200    23.1050     2.1950 
  113.5000   -26.9530    77.3280     9.2520     8.3430     9.1360    23.3090     2.1900 
  113.6250   -26.8830    73.5900     9.1840     8.2670     9.0070    23.5210     2.1870 
  113.7500   -26.8500    68.7010     9.0870     8.1940     8.8920    23.6370     2.1860 
  113.8750   -26.8370    65.8850     8.9900     8.1250     8.7740    23.6630     2.1860 
  114.0000   -26.8340    64.7520     8.9010     8.0540     8.6850    23.6440     2.1860 
  114.1250   -26.8190    65.4040     8.8600     7.9830     8.8090    23.6120     2.1840 
  114.2500   -26.7900    68.6060     8.8700     7.9220     9.2630    23.5810     2.1800 
  114.3750   -26.7280    71.2160     8.9170     7.8870     9.9430    23.5480     2.1750 
  114.5000   -26.6680    69.0510     9.0500     7.8980    10.5630    23.5260     2.1750 
  114.6250   -26.6390    65.4270     9.2460     7.9530    11.1470    23.4980     2.1780 
  114.7500   -26.6330    63.7050     9.4580     8.0350    11.2530    23.4740     2.1830 
  114.8750   -26.6540    63.9380     9.6360     8.1120    10.1930    23.4710     2.1860 
  115.0000   -26.6620    65.0300     9.6920     8.1230     9.6230    23.4920     2.1860 
  115.1250   -26.6450    66.0470     9.5820     8.0370     9.3800    23.5050     2.1860 
  115.2500   -26.5960    66.2480     9.3280     7.8520     9.2290    23.4950     2.1890 
  115.3750   -26.5510    66.6250     9.0070     7.6050     8.9510    23.4920     2.1970 
  115.5000   -26.4770    71.8090     8.7370     7.3680     8.5020    23.5130     2.2090 
  115.6250   -26.4040    79.7990     8.6020     7.2100     8.1820    23.5240     2.2190 
  115.7500   -26.3400    83.8460     8.6360     7.1670     8.2360    23.5270     2.2220 
  115.8750   -26.2880    80.4810     8.8230     7.2350     8.5990    23.5270     2.2180 
  116.0000   -26.2790    74.3490     9.1000     7.3860     8.7030    23.5260     2.2070 
  116.1250   -26.3100    71.7400     9.3540     7.5430     8.6510    23.5140     2.1940 
  116.2500   -26.3680    72.4910     9.5100     7.6520     8.6180    23.4770     2.1820 
  116.3750   -26.4650    72.7040     9.5290     7.6850     8.6320    23.4010     2.1730 
  116.5000   -26.5660    70.6320     9.4190     7.6360     8.6190    23.2200     2.1680 
  116.6250   -26.6360    70.7860     9.2710     7.5500     8.5400    22.9650     2.1680 
  116.7500   -26.6930    74.1260     9.1480     7.4670     8.4340    22.7030     2.1710 
  116.8750   -26.7340    77.7880     9.0860     7.4180     8.3640    22.5200     2.1740 
  117.0000   -26.7490    78.2220     9.0850     7.4310     8.3930    22.5450     2.1730 
  117.1250   -26.7370    75.2880     9.1040     7.5010     8.4880    22.7710     2.1700 
  117.2500   -26.6740    69.8500     9.1330     7.6100     8.5740    23.1300     2.1650 
  117.3750   -26.5020    64.4570     9.1830     7.7300     8.5140    23.4430     2.1590 
  117.5000   -26.2550    64.0570     9.2680     7.8090     8.2750    23.5410     2.1520 
  117.6250   -25.9220    68.4910     9.3360     7.8010     7.9990    23.5060     2.1480 
  117.7500   -25.4840    73.6810     9.3150     7.6790     7.7540    23.4710     2.1470 
  117.8750   -24.9330    77.0080     9.1530     7.4430     7.5410    23.4640     2.1520 
  118.0000   -24.2450    81.2680     8.8360     7.1270     7.3010    23.5190     2.1650 
  118.1250   -23.5020    89.3070     8.4600     6.8070     7.0100    23.6900     2.1830 
  118.2500   -22.7730    98.1970     8.0920     6.5290     6.7800    23.9080     2.2040 
  118.3750   -22.1140   100.4720     7.7700     6.3100     6.7710    23.9490     2.2240 
  118.5000   -21.4940    96.7490     7.5020     6.1400     7.1050    23.7860     2.2420 
  118.6250   -20.9300    95.4480     7.2690     5.9840     7.4180    23.7520     2.2570 
  118.7500   -20.4430    98.1340     7.0700     5.8260     7.3160    23.9510     2.2680 
  118.8750   -20.0750   101.7050     6.9240     5.6730     6.5680    24.1810     2.2730 
  119.0000   -19.8520   104.4150     6.8630     5.5610     6.0570    24.2750     2.2700 
  119.1250   -19.7060   107.3680     6.8700     5.5130     5.9540    24.2390     2.2640 
  119.2500   -19.6100   109.0450     6.9120     5.5370     6.0420    24.1790     2.2580 
  119.3750   -19.5500   107.3830     6.9560     5.6210     6.0990    24.1330     2.2530 
  119.5000   -19.5400   102.7360     6.9980     5.7460     6.2210    24.1150     2.2500 
  119.6250   -19.5590    98.1760     7.0700     5.8820     6.3990    24.1080     2.2470 
  119.7500   -19.5840    95.1540     7.1940     6.0230     6.6490    24.1140     2.2490 
  119.8750   -19.5750    93.5430     7.3580     6.1590     6.8970    24.1310     2.2620 
  120.0000   -19.5500    95.2450     7.4840     6.2670     7.0970    24.1150     2.2920 
  120.1250   -19.5080   100.4930     7.5030     6.3200     7.3620    24.1000     2.3290 
  120.2500   -19.4740   106.2360     7.3980     6.2970     7.5580    24.1290     2.3600 
  120.3750   -19.4340   108.7350     7.2010     6.1990     7.6060    24.1620     2.3700 
  120.5000   -19.4100   104.6190     6.9840     6.0470     7.2080    24.1490     2.3490 
  120.6250   -19.3980   100.5160     6.8140     5.8960     6.4820    24.0700     2.3140 
  120.7500   -19.3860   101.1730     6.7100     5.7800     6.0520    23.9390     2.2810 
  120.8750   -19.4040   104.5830     6.6420     5.7090     6.0130    23.8350     2.2580 
  121.0000   -19.4220   102.6510     6.5850     5.6790     6.1090    23.8030     2.2500 
  121.1250   -19.4650    96.3370     6.5660     5.6670     6.2150    23.8050     2.2470 
  121.2500   -19.4800    91.5710     6.6270     5.6730     6.3080    23.8350     2.2460 
  121.3750   -19.4960    92.2320     6.7330     5.7170     6.3450    23.8880     2.2450 
  121.5000   -19.4960    95.9060     6.9560     5.8340     6.3810    23.9670     2.2490 
  121.6250   -19.4770    96.5160     7.2450     6.0100     6.7740    24.0270     2.2620 
  121.7500   -19.4540    94.1630     7.4930     6.2050     7.4300    24.0760     2.2820 
  121.8750   -19.4410    93.4720     7.6430     6.3610     8.1410    24.0720     2.3020 
  122.0000   -19.4890    95.3890     7.6590     6.4040     8.5470    23.9360     2.3080 
  122.1250   -19.5660    95.2740     7.5600     6.3330     8.0770    23.6460     2.2990 
  122.2500   -19.6560    92.6870     7.4020     6.1810     6.8490    23.2960     2.2790 
  122.3750   -19.7280    92.0060     7.2470     6.0020     6.1850    23.0660     2.2610 
  122.5000   -19.7720    96.3890     7.1300     5.8570     6.0750    23.0320     2.2540 
  122.6250   -19.8190   101.6410     7.0420     5.7690     6.0450    23.0540     2.2570 
  122.7500   -19.8760   104.0590     6.9800     5.7420     5.8930    23.0570     2.2630 
  122.8750   -19.9110   102.1930     6.9560     5.7670     5.7350    23.0430     2.2670 
  123.0000   -19.9020    98.9820     7.0110     5.8420     5.6450    23.0770     2.2650 
  123.1250   -19.8620    96.2440     7.1410     5.9490     5.7000    23.2320     2.2580 
