~V
VERS. 2.00: Ver 2.00
~W
STRT.M 59.0000:
STOP.M 264.0000:
STEP.M 0.1250:
NULL. -999.2500:
UWI. DF5022:
~C
DEPT.M :
GR.API :
CALI.CM :
RXO.OHMM :
RI. :
RML.OHMM :
SP.MV :
DEN.GM/CC :
~A
# ...
  227.7500    52.9280    24.3130    84.2020    61.8360    70.8970   -17.0400     2.3120 
  227.8750    52.0500    24.3110    61.8990    59.4870    68.4330   -16.8650     2.3340 
  228.0000    52.6160    24.3060    45.2950    58.2670    67.5460   -16.8060     2.3470 
  228.1250    54.3770    24.3360    44.4130    59.7560    69.9890   -16.7720     2.3390 
  228.2500    57.4900    24.4440    58.3810    63.6330    75.0680   -16.6740     2.3200 
  228.3750    59.0570    24.5960    91.9470    68.5830    80.9020   -16.4810     2.3000 
  228.5000    57.4470    24.7150   130.1100    72.3590    84.5520   -16.2380     2.2890 
  228.6250    56.7160    24.7370   133.8850    72.6520    83.4400   -16.0350     2.2990 
  228.7500    59.0110    24.6770   113.9690    70.8920    80.2990   -15.8140     2.3400 
  228.8750    60.6300    24.5660    81.6840    69.8000    78.8860   -15.5890     2.4110 
  229.0000    59.7270    24.4520    69.3520    71.4620    81.3950   -15.3350     2.5050 
  229.1250    58.0180    24.3950    96.5020    74.5820    85.5890   -15.0960     2.6040 
  229.2500    56.4420    24.3820   169.0370    72.6270    83.2660   -14.8320     2.6840 
  229.3750    53.2340    24.3800   234.0560    60.6900    68.7740   -14.5450     2.7240 
  229.5000    48.0810    24.3820   205.3310    42.0680    46.5590   -14.2010     2.7170 
  229.6250    46.0780    24.3830   112.9500    26.0370    27.8790   -13.8010     2.6620 
  229.7500    48.3660    24.3840    33.8550    15.7830    16.2590   -13.4170     2.5810 
  229.8750    50.6600    24.3840     8.4970    10.1570    10.1620   -13.0560     2.4970 
  230.0000    50.7140    24.3820     4.6770     7.3590     7.3600   -12.8220     2.4270 
  230.1250    50.5540    24.3810     4.5530     6.1970     6.3810   -12.6940     2.3890 
  230.2500    51.6280    24.3810     4.5970     5.7000     6.0380   -12.6420     2.3740 
  230.3750    52.1220    24.3820     4.4390     5.5130     5.9060   -12.6000     2.3670 
  230.5000    51.8020    24.3800     4.1240     5.4040     5.7540   -12.5970     2.3540 
  230.6250    50.8440    24.3780     3.8480     5.2830     5.5400   -12.6250     2.3330 
  230.7500    50.1800    24.4150     3.8120     5.2130     5.3960   -12.6940     2.3130 
  230.8750    53.4820    24.5040     3.9290     5.2830     5.4300   -12.7720     2.3040 
  231.0000    61.6920    24.6050     4.5280     5.5480     5.6920   -12.8280     2.3100 
  231.1250    70.0560    24.6510     4.9540     6.0360     6.1910   -12.9590     2.3240 
  231.2500    76.4470    24.6440     5.7940     6.6310     6.7930   -13.1420     2.3340 
  231.3750    81.9250    24.6220     6.7610     7.1980     7.3650   -13.3250     2.3420 
  231.5000    85.8250    24.6070     7.3000     7.5950     7.7800   -13.4140     2.3600 
  231.6250    85.6830    24.6030     7.2350     7.7100     7.9480   -13.4150     2.3860 
  231.7500    83.9340    24.6030     7.1480     7.6290     7.9500   -13.3830     2.4020 
  231.8750    83.5230    24.6040     7.1750     7.4530     7.8790   -13.2830     2.4040 
  232.0000    85.4220    24.6030     7.2760     7.2760     7.8180   -13.0720     2.3980 
  232.1250    89.1110    24.6040     7.3360     7.1630     7.8180   -12.8450     2.3950 
  232.2500    92.7000    24.6030     7.3540     7.1040     7.8620   -12.7000     2.3940 
  232.3750    94.0390    24.6040     7.3300     7.0770     7.9300   -12.7290     2.3890 
  232.5000    92.7170    24.6060     7.3090     7.0590     8.0060   -12.9010     2.3820 
  232.6250    91.2790    24.6040     7.2760     7.0450     8.0760   -13.0910     2.3770 
  232.7500    91.5310    24.5960     7.2030     7.0420     8.1280   -13.3040     2.3800 
  232.8750    92.7240    24.5840     7.1850     7.0640     8.1610   -13.4950     2.3910 
  233.0000    92.2360    24.5770     7.3070     7.1170     8.1880   -13.6580     2.4000 
  233.1250    90.0790    24.5770     7.4930     7.2040     8.2370   -13.7830     2.3990 
  233.2500    90.6210    24.5800     7.5010     7.3140     8.3170   -13.9630     2.3920 
  233.3750    93.2420    24.5880     7.5000     7.4410     8.4200   -14.0930     2.3850 
  233.5000    95.0730    24.5940     7.9300     7.5800     8.5240   -14.1150     2.3800 
  233.6250    95.4850    24.5960     8.2600     7.7220     8.6030   -14.1060     2.3750 
  233.7500    95.7930    24.5940     8.2150     7.8590     8.6710   -14.0570     2.3710 
  233.8750    95.3690    24.5730     8.0470     7.9980     8.7630   -14.0450     2.3680 
  234.0000    93.5150    24.5300     8.1030     8.1490     8.9080   -14.0910     2.3700 
  234.1250    93.6630    24.4840     8.0520     8.3200     9.1100   -14.2240     2.3800 
  234.2500    94.3810    24.4490     8.1280     8.4900     9.3140   -14.3010     2.3950 
  234.3750    92.4060    24.4160     8.2900     8.6060     9.4550   -14.3650     2.4100 
  234.5000    88.2690    24.3880     8.3590     8.6020     9.4690   -14.4870     2.4150 
  234.6250    84.8140    24.3800     8.1240     8.3980     9.3020   -14.6000     2.4050 
  234.7500    84.1280    24.3810     7.7780     8.0310     8.9940   -14.7040     2.3910 
  234.8750    86.3270    24.3810     7.4750     7.5580     8.5780   -14.8120     2.3820 
  235.0000    89.7980    24.3810     7.2640     7.0720     8.1350   -15.0000     2.3820 
  235.1250    91.4280    24.3810     7.1140     6.7540     7.8960   -15.1980     2.3950 
  235.2500    91.7050    24.3810     7.2380     6.7840     8.1750   -15.3780     2.4070 
  235.3750    92.5750    24.3840     7.8200     7.4050     9.4430   -15.5440     2.4050 
  235.5000    91.3100    24.3920     9.4750     9.0570    12.4530   -15.7140     2.3860 
  235.6250    82.8420    24.4010    20.0370    13.2420    19.1620   -15.9770     2.3660 
  235.7500    71.4710    24.3920    48.3720    21.6460    31.0750   -16.3050     2.3630 
  235.8750    62.1900    24.3760    87.9490    36.5780    50.1920   -16.6330     2.3710 
  236.0000    55.4610    24.3820   136.9060    59.1460    77.2790   -16.8730     2.3670 
  236.1250    50.7560    24.4170   206.9920    85.3550   107.7410   -17.0800     2.3340 
  236.2500    48.8050    24.4450   274.1800   104.7770   129.2650   -17.2970     2.2890 
  236.3750    49.6390    24.4490   246.1310   112.1260   135.2930   -17.5680     2.2500 
  236.5000    50.3070    24.4440   143.4610   109.2270   129.2000   -17.8790     2.2270 
  236.6250    51.4150    24.4420   113.0260   100.1980   117.2840   -18.1460     2.2250 
  236.7500    54.3260    24.4410   100.3450    89.2180   104.0400   -18.3520     2.2330 
  236.8750    57.2980    24.4410    96.4620    77.9410    90.8740   -18.4710     2.2440 
  237.0000    57.0770    24.4410    91.7720    67.6290    78.9220   -18.5500     2.2520 
  237.1250    55.4850    24.4410    72.7940    59.6680    69.6970   -18.5410     2.2520 
  237.2500    56.1240    24.4410    53.5940    54.3960    63.6560   -18.4950     2.2500 
  237.3750    57.6070    24.4410    46.6110    52.1390    61.2530   -18.4490     2.2520 
  237.5000    57.4790    24.4410    49.3100    53.0870    62.6840   -18.4160     2.2540 
  237.6250    55.8880    24.4430    65.6070    57.7890    68.4530   -18.4590     2.2520 
  237.7500    54.8560    24.4380    80.1510    65.1280    77.1530   -18.5410     2.2490 
  237.8750    53.9250    24.4170    89.3580    73.6790    87.0610   -18.7560     2.2530 
  238.0000    53.1560    24.3870    99.0240    81.2870    95.5410   -19.0870     2.2680 
  238.1250    52.7730    24.3700   111.5990    85.0910    98.9500   -19.4680     2.2860 
  238.2500    52.6590    24.3740   110.4220    84.6850    96.9580   -19.8040     2.2910 
  238.3750    53.4820    24.3900    94.9600    80.7450    90.7690   -19.9970     2.2810 
  238.5000    54.9760    24.3820    80.4530    74.7970    82.6110   -20.1180     2.2620 
  238.6250    57.0790    24.3320    76.3840    68.6880    74.9730   -20.2060     2.2450 
  238.7500    59.5980    24.2950    71.0260    63.7590    69.1780   -20.3340     2.2400 
  238.8750    61.8590    24.3040    60.4430    60.4870    65.4800   -20.4850     2.2460 
