~V
VERS. 2.00: Ver 2.00
~W
STRT.M 55.0000:
STOP.M 253.0000:
STEP.M 0.1250:
NULL. -999.2500:
UWI. DF5051:
~C
DEPT.M :
SP.MV :
GR.API :
RML.OHMM :
RI. :
RXO.OHMM :
CALI.CM :
DEN.GM/CC :
~A
# ...
  122.5000   -15.6030    62.1120     9.7690     8.9000     9.7930    23.6680     2.2540 
  122.6250   -15.6440    58.2240     9.7380     8.8190    10.1650    23.6710     2.2670 
  122.7500   -15.6640    58.1430     9.7250     8.7410    10.2780    23.6760     2.2670 
  122.8750   -15.6890    58.5710     9.7400     8.6670     9.9690    23.6800     2.2540 
  123.0000   -15.7010    59.7070     9.7840     8.6460     9.5820    23.6810     2.2380 
  123.1250   -15.6870    63.7720     9.8490     8.7210     9.4570    23.6840     2.2260 
  123.2500   -15.6640    68.6600     9.9080     8.8230     9.4450    23.6870     2.2220 
  123.3750   -15.6550    70.7350     9.9330     8.9030     9.4430    23.6810     2.2200 
  123.5000   -15.6220    69.0790     9.9090     8.9030     9.4570    23.6710     2.2150 
  123.6250   -15.6000    66.0960     9.8280     8.8050     9.4990    23.6680     2.2060 
  123.7500   -15.5480    63.4030     9.7200     8.6760     9.4950    23.6710     2.1970 
  123.8750   -15.4690    61.9210     9.6140     8.5690     9.4460    23.6730     2.1920 
  124.0000   -15.3470    62.1980     9.5350     8.4910     9.4050    23.6720     2.1930 
  124.1250   -15.2390    64.6410     9.5200     8.4580     9.3930    23.6670     2.2000 
  124.2500   -15.0940    66.5690     9.5870     8.5090     9.3900    23.6530     2.2070 
  124.3750   -14.9070    65.3040     9.7510     8.6810     9.3580    23.6370     2.2130 
  124.5000   -14.7000    61.5420    10.0010     8.9210     9.2890    23.6540     2.2160 
  124.6250   -14.3760    60.6940    10.2620     9.1810     9.2670    23.7110     2.2160 
  124.7500   -14.0160    63.2510    10.3940     9.3550     9.3690    23.7590     2.2160 
  124.8750   -13.5690    64.4820    10.2690     9.3340     9.5200    23.7520     2.2190 
  125.0000   -13.0700    61.5360     9.8120     9.0430     9.5840    23.6950     2.2280 
  125.1250   -12.4660    59.5450     9.0370     8.4630     9.2780    23.6710     2.2430 
  125.2500   -11.8190    64.9910     8.1640     7.7580     8.6500    23.6950     2.2600 
  125.3750   -11.1450    75.3290     7.3770     7.0750     7.8960    23.7910     2.2750 
  125.5000   -10.4950    82.9030     6.7990     6.5250     7.2500    23.9390     2.2840 
  125.6250    -9.9240    82.8310     6.4910     6.1840     7.0680    24.1110     2.2870 
  125.7500    -9.4080    81.0380     6.3450     5.9950     7.0430    24.2170     2.2880 
  125.8750    -8.9750    82.3840     6.2690     5.9000     6.9440    24.2830     2.2900 
  126.0000    -8.6330    84.5730     6.1960     5.8450     6.6450    24.3120     2.2970 
  126.1250    -8.4100    82.6740     6.1080     5.7990     6.4400    24.3170     2.3050 
  126.2500    -8.2640    81.4600     6.0370     5.7650     6.3330    24.3060     2.3110 
  126.3750    -8.1860    84.7490     6.0090     5.7550     6.2470    24.2820     2.3110 
  126.5000    -8.1450    88.1140     6.0200     5.7720     6.2160    24.2560     2.3050 
  126.6250    -8.1390    86.6400     6.0350     5.7980     6.2730    24.2280     2.2970 
  126.7500    -8.1420    84.8280     6.0090     5.8000     6.3350    24.2030     2.2930 
  126.8750    -8.1450    85.8150     5.9250     5.7580     6.3100    24.1940     2.2970 
  127.0000    -8.1570    88.3510     5.7890     5.6690     6.1500    24.1940     2.3090 
  127.1250    -8.1770    89.9460     5.6410     5.5480     6.0950    24.1920     2.3260 
  127.2500    -8.2330    88.8800     5.5390     5.4370     6.1400    24.1910     2.3440 
  127.3750    -8.3360    86.7290     5.5380     5.3780     6.1890    24.1890     2.3560 
  127.5000    -8.4930    87.1510     5.6710     5.4000     6.1580    24.1800     2.3600 
  127.6250    -8.6850    90.5770     5.9510     5.5190     6.0940    24.1170     2.3540 
  127.7500    -8.9320    91.1090     6.2730     5.6760     6.2510    23.9620     2.3430 
  127.8750    -9.2160    85.9630     6.5120     5.7920     6.5430    23.7210     2.3300 
  128.0000    -9.5000    78.7110     6.5260     5.7830     6.8420    23.4830     2.3200 
  128.1250    -9.7380    75.8740     6.1480     5.5650     6.9370    23.3780     2.3110 
  128.2500    -9.9390    76.3600     5.5770     5.2210     6.8180    23.4180     2.3040 
  128.3750   -10.0990    77.2640     5.0970     4.9150     6.6150    23.6100     2.3000 
  128.5000   -10.2260    76.9140     5.2910     4.9230     6.7810    23.8550     2.3050 
  128.6250   -10.3650    76.4190     6.8090     5.7900     9.2200    23.9600     2.3310 
  128.7500   -10.5280    74.2330     9.9450     7.7560    15.4770    23.9830     2.3840 
  128.8750   -10.7460    67.7650    14.3830    10.8400    25.9400    23.9810     2.4610 
  129.0000   -11.0010    59.1210    18.7880    14.5750    39.1690    23.9790     2.5460 
  129.1250   -11.3830    54.1330    21.7290    17.6960    50.2950    23.9750     2.6080 
  129.2500   -11.8370    54.4210    22.1110    18.9270    51.2160    23.9510     2.6230 
  129.3750   -12.3420    57.2380    19.7950    17.7770    41.3560    23.8790     2.5880 
  129.5000   -12.8750    57.6600    16.0210    14.9940    28.0970    23.7750     2.5120 
  129.6250   -13.3510    57.4520    12.7110    12.1000    17.9510    23.6440     2.4170 
  129.7500   -13.7290    59.8850    10.6860    10.0070    12.2540    23.5590     2.3270 
  129.8750   -13.9570    64.1230     9.8890     8.8200    10.2700    23.5260     2.2590 
  130.0000   -14.0710    66.2370     9.9510     8.3630    10.0520    23.5340     2.2290 
  130.1250   -13.9840    63.4820    10.3780     8.3670    10.6840    23.6060     2.2480 
  130.2500   -13.7690    60.6300    10.5950     8.3960    11.4360    23.7550     2.3020 
  130.3750   -13.4620    60.6900    10.3080     8.1950    12.0050    23.9530     2.3670 
  130.5000   -13.1310    64.4550     9.5000     7.6740    11.6600    24.1720     2.4150 
  130.6250   -12.8870    71.1820     8.4730     6.9610     9.5260    24.3930     2.4180 
  130.7500   -12.7710    77.4720     7.7240     6.3780     7.3590    24.4100     2.3830 
  130.8750   -12.8250    80.3550     7.5340     6.1460     7.1910    24.1980     2.3260 
  131.0000   -12.9790    80.1310     7.9840     6.3820     8.0890    23.8930     2.2650 
  131.1250   -13.2150    79.9960     9.0040     7.1260     9.1780    23.6600     2.2260 
  131.2500   -13.4490    81.0330    10.1700     8.1020    10.2230    23.5460     2.2210 
  131.3750   -13.6500    80.5480    11.0960     9.0070    11.5120    23.5700     2.2580 
  131.5000   -13.7420    79.0880    11.4600     9.5360    12.9240    23.7310     2.3320 
  131.6250   -13.6840    79.3550    11.0710     9.4280    14.0270    23.9370     2.4110 
  131.7500   -13.5430    80.6040    10.2950     8.8890    13.9040    24.0200     2.4600 
  131.8750   -13.3430    80.1800     9.4880     8.2090    11.7920    24.0110     2.4670 
  132.0000   -13.1800    77.3520     9.0100     7.6870     9.7960    23.9910     2.4380 
  132.1250   -13.1220    73.5740     9.0020     7.5830    10.6540    23.9860     2.3870 
  132.2500   -13.1950    71.3480     9.3700     7.8500    12.4190    23.9790     2.3300 
  132.3750   -13.3470    70.3760     9.8430     8.3630    14.3010    23.9320     2.2740 
  132.5000   -13.6010    70.4670    10.1740     8.9330    14.6310    23.8030     2.2260 
  132.6250   -13.9000    68.3780    10.5500     9.3350    12.1960    23.6400     2.1950 
  132.7500   -14.1750    64.9780    10.5960     9.5080    10.4230    23.5490     2.1790 
  132.8750   -14.4090    64.2890    10.4320     9.5020     9.8430    23.5220     2.1750 
  133.0000   -14.5410    67.5640    10.2170     9.4120     9.7400    23.5200     2.1770 
  133.1250   -14.5430    71.0710    10.0600     9.3170     9.6670    23.5190     2.1810 
  133.2500   -14.4040    70.2800     9.9560     9.2340     9.5440    23.5090     2.1850 
  133.3750   -14.2060    67.1400     9.8590     9.1370     9.4970    23.4720     2.1940 
  133.5000   -13.9490    67.3300     9.7240     8.9940     9.4850    23.4100     2.2080 
  133.6250   -13.6590    72.3490     9.5240     8.7830     9.4060    23.3240     2.2280 
