~V
VERS. 2.00: Ver 2.00
~W
STRT.M 55.0000:
STOP.M 273.0000:
STEP.M 0.1250:
NULL. -999.2500:
UWI. DF5004:
~C
DEPT.M :
GR.API :
CALI.CM :
RXO.OHMM :
RI. :
RML.OHMM :
DEN.GM/CC :
SP.MV :
~A
# ...
  167.5000    80.4440    23.5110    23.7800    19.3590    23.1780     2.3790   -23.7780 
  167.6250    82.5700    23.5110    36.2970    25.8630    31.1960     2.3520   -23.8050 
  167.7500    83.3920    23.5190    58.6560    36.4540    43.6660     2.3130   -23.8910 
  167.8750    81.4630    23.5260    83.1400    52.0330    61.8290     2.2750   -24.0490 
  168.0000    77.8740    23.5160    98.6320    71.7250    85.5620     2.2430   -24.2470 
  168.1250    74.5240    23.5090   101.9740    91.0130   110.3110     2.2220   -24.4760 
  168.2500    72.0680    23.5050   102.1400   104.3990   127.7530     2.2170   -24.6840 
  168.3750    71.1770    23.5060   103.0330   110.1810   134.5910     2.2260   -24.8770 
  168.5000    70.8880    23.5050   103.6990   110.2010   133.8360     2.2400   -25.0400 
  168.6250    71.4170    23.5000   100.8660   107.3160   130.1690     2.2460   -25.1810 
  168.7500    73.0290    23.4920    95.6990   104.0420   126.5780     2.2440   -25.2880 
  168.8750    73.2130    23.4950    90.3330   101.0290   123.4840     2.2380   -25.3620 
  169.0000    70.2860    23.5060    85.4670    98.5000   120.8460     2.2330   -25.3880 
  169.1250    66.4340    23.5110    83.5820    96.5640   118.5430     2.2350   -25.3680 
  169.2500    65.4330    23.5150    82.1510    94.9550   116.1940     2.2450   -25.3120 
  169.3750    66.6040    23.5190    80.5570    93.4470   113.5060     2.2610   -25.2600 
  169.5000    66.7940    23.5500    78.9620    91.9660   110.4490     2.2750   -25.2110 
  169.6250    66.1580    23.6160    77.7440    90.7410   107.3800     2.2810   -25.2040 
  169.7500    67.9430    23.6640    76.4900    89.9290   104.7000     2.2800   -25.1750 
  169.8750    72.5250    23.6410    75.1680    89.3930   102.3760     2.2780   -25.1050 
  170.0000    76.2220    23.6090    74.5760    88.4630    99.6470     2.2770   -25.0280 
  170.1250    76.4100    23.6380    73.0410    85.7050    94.8990     2.2760   -24.9630 
  170.2500    75.2840    23.6560    70.0310    80.3670    87.3980     2.2750   -24.9280 
  170.3750    74.6270    23.6350    62.3610    72.0710    76.9070     2.2730   -24.8930 
  170.5000    74.8150    23.6330    49.6890    61.3800    64.2380     2.2730   -24.8510 
  170.6250    75.7950    23.6450    39.2450    50.1330    51.5500     2.2840   -24.7430 
  170.7500    77.7230    23.6170    32.4030    40.3050    40.7400     2.3080   -24.6260 
  170.8750    80.6820    23.6390    27.4970    32.5580    32.3200     2.3370   -24.5270 
  171.0000    84.3750    23.7650    23.1800    26.8490    26.1420     2.3620   -24.4790 
  171.1250    88.3070    23.9050    20.5260    23.1490    22.1360     2.3790   -24.4400 
  171.2500    90.6650    23.8970    20.0630    20.8860    19.6800     2.3900   -24.4090 
  171.3750    91.8810    23.8450    19.3510    19.9830    18.7110     2.3950   -24.3690 
  171.5000    94.0460    23.9860    18.0260    20.5400    19.3620     2.3880   -24.3450 
  171.6250    94.6790    24.1320    18.5180    23.1070    22.2210     2.3640   -24.3510 
  171.7500    90.3220    24.1490    22.8410    27.5790    27.1080     2.3320   -24.4180 
  171.8750    82.2830    23.9850    32.7740    33.3720    33.3600     2.3050   -24.5220 
  172.0000    75.4580    23.8010    45.9260    38.3340    38.6510     2.2960   -24.6070 
  172.1250    74.0770    23.7340    50.6210    38.4170    38.5760     2.3090   -24.6560 
  172.2500    76.4990    23.7950    44.1980    34.3260    33.9570     2.3320   -24.7110 
  172.3750    80.8400    23.8780    33.0350    29.2380    28.3960     2.3510   -24.7750 
  172.5000    84.0120    23.9530    23.8000    25.7480    24.8280     2.3560   -24.8570 
  172.6250    84.8670    23.9970    22.1240    25.6470    25.1960     2.3410   -24.9630 
  172.7500    84.5820    23.9900    31.7710    29.4230    29.7760     2.3160   -25.0530 
  172.8750    82.1040    23.9620    51.8500    38.3240    39.7280     2.2930   -25.1290 
  173.0000    77.0960    23.9270    73.5930    53.7180    56.6700     2.2760   -25.1990 
  173.1250    73.7880    23.9550    88.6660    76.0250    82.1970     2.2610   -25.3210 
  173.2500    71.7060    23.9540    97.9600    99.0230   109.7940     2.2470   -25.4160 
  173.3750    68.9630    23.8230   102.2140   116.4780   130.7490     2.2400   -25.5060 
  173.5000    66.3750    23.6930   104.5630   126.3770   141.4070     2.2390   -25.5590 
  173.6250    66.9300    23.7700   106.4550   130.8940   145.3080     2.2430   -25.6230 
  173.7500    68.5960    23.8840   106.8760   133.9750   148.0300     2.2450   -25.6470 
  173.8750    68.5040    23.9210   104.9760   137.1670   151.3520     2.2450   -25.6540 
  174.0000    66.9630    23.8720   104.7510   141.4330   156.3270     2.2430   -25.6630 
  174.1250    65.8710    23.7910   107.7440   146.7480   162.9840     2.2360   -25.7080 
  174.2500    66.4560    23.6480   107.7980   151.0140   168.6240     2.2290   -25.7660 
  174.3750    67.2100    23.5840   106.5230   151.1160   168.8430     2.2240   -25.8150 
  174.5000    67.1390    23.5740   105.0220   144.0410   159.2680     2.2230   -25.8460 
  174.6250    69.1760    23.5740    99.2000   128.5090   139.2220     2.2320   -25.8060 
  174.7500    73.1930    23.5740    85.9610   110.0530   117.2250     2.2500   -25.7570 
  174.8750    74.2760    23.5740    68.8860    93.6260    99.1590     2.2690   -25.6950 
  175.0000    71.5180    23.5740    54.3020    82.5460    87.7260     2.2800   -25.6440 
  175.1250    72.0300    23.5730    48.0110    79.4250    84.7280     2.2800   -25.5270 
  175.2500    75.8160    23.5710    52.9950    83.2930    88.8140     2.2740   -25.3820 
  175.3750    76.2950    23.5710   106.7090    93.5250    99.6080     2.2640   -25.2050 
  175.5000    72.3970    23.5730   149.4760   108.4090   115.9080     2.2550   -25.0530 
  175.6250    69.8570    23.5740   160.2060   124.0500   133.9350     2.2450   -24.9540 
  175.7500    69.4930    23.5740   154.5320   135.2020   146.9220     2.2350   -24.9120 
  175.8750    69.2630    23.5900   146.5400   139.2830   151.2090     2.2320   -24.8850 
  176.0000    68.8120    23.6580   137.6200   137.3820   148.5370     2.2430   -24.8270 
  176.1250    67.8570    23.8270   127.0490   132.9050   143.7320     2.2640   -24.7490 
  176.2500    66.2490    23.9580   119.1640   128.8490   140.0220     2.2760   -24.6960 
  176.3750    65.6290    23.9580   116.2880   125.6660   137.5890     2.2690   -24.7020 
  176.5000    67.2520    23.8990   124.4830   122.7970   135.5480     2.2510   -24.7230 
  176.6250    67.6290    23.6950   133.5710   119.2890   132.5940     2.2420   -24.7680 
  176.7500    65.0650    23.5500   128.8640   115.2560   128.8380     2.2500   -24.7660 
  176.8750    63.4430    23.4400   115.5020   111.9330   125.7320     2.2690   -24.7600 
  177.0000    65.3750    23.2110   109.7410   111.0250   125.2230     2.2830   -24.7540 
  177.1250    68.1660    23.0390   114.5860   114.8600   129.8830     2.2750   -24.8090 
  177.2500    67.4010    22.8930   127.0190   123.8470   140.2810     2.2530   -24.8240 
  177.3750    65.6930    22.8380   152.0830   138.0480   156.8380     2.2300   -24.8300 
  177.5000    67.0780    22.8270   178.6460   156.1450   178.5560     2.2130   -24.7840 
  177.6250    70.0140    22.8270   193.6450   174.9610   202.0780     2.2060   -24.6710 
  177.7500    71.1070    22.8270   205.4450   190.4080   221.9220     2.2080   -24.5190 
  177.8750    69.9170    22.8270   218.5570   199.7760   234.1360     2.2180   -24.3800 
  178.0000    67.5790    22.8270   226.7230   201.8780   236.9120     2.2320   -24.2720 
  178.1250    64.6790    22.8210   220.6330   196.0680   229.4800     2.2420   -24.1580 
  178.2500    62.0620    22.7770   205.9850   184.9260   215.3770     2.2470   -24.0770 
  178.3750    61.4940    22.6620   189.6140   170.0990   196.9770     2.2540   -23.9680 
  178.5000    62.7380    22.5390   172.9190   153.7680   177.3230     2.2690   -23.8820 
  178.6250    64.6530    22.5460   151.6920   138.8440   160.1030     2.2790   -23.8510 
