~V
VERS. 2.00: Ver 2.00
~W
STRT.M 58.0000:
STOP.M 250.0000:
STEP.M 0.1250:
NULL. -999.2500:
UWI. DF5046:
~C
DEPT.M :
GR.API :
CALI.CM :
RXO.OHMM :
RI. :
RML.OHMM :
DEN.GM/CC :
SP.MV :
~A
# ...
  136.7500    88.6290    23.6520     4.8000     5.3710     5.9200     2.3360   -22.9600 
  136.8750    83.5250    23.6800     5.1790     5.2770     6.3060     2.2970   -22.9630 
  137.0000    80.8690    23.7090     5.8600     5.5580     7.1080     2.2750   -22.9630 
  137.1250    81.2160    23.6670     6.9970     5.9240     7.8100     2.2650   -23.0210 
  137.2500    84.3310    23.6210     7.9520     6.0830     7.9710     2.2640   -23.1520 
  137.3750    87.7780    23.6820     7.8010     5.9460     7.5550     2.2680   -23.3650 
  137.5000    88.0950    23.9200     6.5100     5.6170     6.8820     2.2740   -23.6890 
  137.6250    86.6820    24.3110     5.3910     5.3180     6.3800     2.2710   -24.1170 
  137.7500    85.9230    24.6440     5.3960     5.2080     6.2340     2.2570   -24.5980 
  137.8750    82.9660    24.7270     6.3380     5.3410     6.4690     2.2330   -25.0870 
  138.0000    75.7490    24.4460     7.5940     5.7010     7.0260     2.2030   -25.5130 
  138.1250    68.2650    23.8820     8.5280     6.2220     7.7790     2.1790   -25.8100 
  138.2500    66.6040    23.4730     8.9350     6.7400     8.4890     2.1690   -25.9670 
  138.3750    68.1540    23.4340     8.9570     7.1470     9.0160     2.1720   -25.9870 
  138.5000    68.3030    23.6560     8.9380     7.4060     9.3380     2.1790   -25.8730 
  138.6250    66.4570    23.8750     9.1860     7.5360     9.5000     2.1750   -25.5890 
  138.7500    65.0960    24.0230     9.4880     7.6140     9.5900     2.1600   -25.1620 
  138.8750    64.8870    24.1160     9.4770     7.6730     9.6430     2.1440   -24.6070 
  139.0000    64.2250    24.0630     8.9890     7.7290     9.6730     2.1310   -23.9510 
  139.1250    63.6040    23.7570     8.2230     7.7510     9.6310     2.1220   -23.2250 
  139.2500    65.9330    23.3710     7.6630     7.6820     9.4460     2.1180   -22.5050 
  139.3750    71.2300    23.1600     7.4960     7.4580     9.0390     2.1250   -21.8360 
  139.5000    79.2410    23.3130     7.4940     7.0520     8.3740     2.1530   -21.2490 
  139.6250    87.9450    23.8010     7.0640     6.4780     7.4850     2.2030   -20.7910 
  139.7500    94.5580    24.3010     6.1680     5.8640     6.5700     2.2590   -20.4680 
  139.8750    97.8290    24.6280     5.2380     5.3070     5.7850     2.3070   -20.2680 
  140.0000    97.4060    24.7700     4.6640     4.8710     5.2250     2.3380   -20.1810 
  140.1250    96.3870    24.8090     4.4840     4.6060     4.9630     2.3470   -20.1830 
  140.2500    96.4470    24.7760     4.4070     4.4740     4.9180     2.3410   -20.2330 
  140.3750    96.2480    24.6530     4.3110     4.4340     4.9990     2.3300   -20.3020 
  140.5000    94.5260    24.4880     4.2100     4.4270     5.0760     2.3210   -20.3520 
  140.6250    90.4050    24.3780     4.2470     4.3960     5.0390     2.3160   -20.3700 
  140.7500    87.9290    24.3200     4.4510     4.3500     4.9460     2.3140   -20.3610 
  140.8750    88.6170    24.2600     4.6700     4.3610     4.9460     2.3170   -20.3250 
  141.0000    88.4830    24.2000     4.9720     4.5360     5.2290     2.3340   -20.2790 
  141.1250    82.2710    24.1800     6.3720     5.0770     6.0900     2.3750   -20.2280 
  141.2500    72.5940    24.1970     9.5560     6.0860     7.6310     2.4360   -20.1570 
  141.3750    64.3850    24.2290    13.6330     7.6620     9.9570     2.5060   -20.0810 
  141.5000    61.0060    24.2400    16.5410     9.8000    13.0190     2.5730   -20.0040 
  141.6250    62.7280    24.2140    17.3490    12.2730    16.4140     2.6250   -19.9560 
  141.7500    64.6030    24.1890    17.8560    14.5050    19.3070     2.6560   -19.9280 
  141.8750    61.7520    24.1860    18.7180    16.1220    21.2250     2.6670   -19.9190 
  142.0000    55.0650    24.1810    19.6570    17.0940    22.2720     2.6660   -19.9370 
  142.1250    51.9640    24.1620    20.6310    17.5890    22.8180     2.6630   -19.9630 
  142.2500    53.9750    24.1910    21.5270    17.8510    23.1380     2.6610   -20.0070 
  142.3750    56.4840    24.2920    21.7240    17.9240    23.2030     2.6590   -20.0650 
  142.5000    55.6260    24.4140    20.8000    17.8580    23.0310     2.6570   -20.1390 
  142.6250    51.9540    24.4780    19.2860    17.7750    22.8100     2.6510   -20.2210 
  142.7500    50.6920    24.4740    18.5890    17.8300    22.8160     2.6390   -20.2940 
  142.8750    50.8180    24.4330    19.8730    18.1200    23.2090     2.6280   -20.3580 
  143.0000    49.0510    24.3930    23.4500    18.6700    24.0010     2.6260   -20.4010 
  143.1250    46.1760    24.3840    27.4550    19.4190    25.0170     2.6330   -20.4480 
  143.2500    46.1470    24.4230    28.9330    20.1550    25.8980     2.6420   -20.4980 
  143.3750    48.0130    24.5090    27.6900    20.7180    26.4350     2.6490   -20.5350 
  143.5000    48.2100    24.5870    25.7010    21.0310    26.6030     2.6530   -20.5590 
  143.6250    47.0130    24.6050    24.3530    21.0720    26.4720     2.6470   -20.5810 
  143.7500    46.2240    24.6010    23.2600    20.9460    26.1820     2.6330   -20.5960 
  143.8750    45.3800    24.6310    22.3050    20.6760    25.7190     2.6160   -20.6070 
  144.0000    45.4620    24.6770    21.7720    20.2150    24.9810     2.6030   -20.6140 
  144.1250    47.4580    24.6680    21.4630    19.4210    23.7980     2.5920   -20.6040 
  144.2500    49.7130    24.6270    20.6340    18.3300    22.2750     2.5790   -20.5810 
  144.3750    51.2270    24.5990    18.8290    17.0640    20.6090     2.5690   -20.5620 
  144.5000    53.0600    24.6130    16.3510    15.8230    19.0550     2.5690   -20.5470 
  144.6250    56.1680    24.6480    14.3740    14.8700    17.9340     2.5750   -20.5240 
  144.7500    58.4310    24.6420    13.7580    14.2980    17.3240     2.5820   -20.4950 
  144.8750    58.4140    24.5830    14.4250    14.1180    17.2070     2.5840   -20.4660 
  145.0000    56.2700    24.5020    15.5870    14.2530    17.4520     2.5810   -20.4500 
  145.1250    55.3290    24.4650    16.3390    14.5670    17.8580     2.5700   -20.4420 
  145.2500    57.5490    24.4540    16.5920    14.8840    18.2060     2.5590   -20.4280 
  145.3750    61.2030    24.4270    16.5640    15.1550    18.4580     2.5560   -20.4050 
  145.5000    63.0680    24.3890    16.3900    15.4160    18.7020     2.5650   -20.3760 
  145.6250    62.4690    24.3920    16.2880    15.7110    19.0390     2.5810   -20.3370 
  145.7500    61.7540    24.4290    16.8350    15.9640    19.3650     2.5960   -20.2970 
  145.8750    61.0460    24.4600    18.2340    16.0250    19.4550     2.6050   -20.2710 
  146.0000    59.0060    24.4570    19.2840    15.7590    19.0950     2.6090   -20.2360 
  146.1250    56.6200    24.4400    17.8310    15.1220    18.2070     2.6050   -20.1870 
  146.2500    54.6010    24.4560    14.9540    14.3500    17.1440     2.5940   -20.1200 
  146.3750    52.1920    24.4880    12.9210    13.6370    16.2200     2.5820   -20.0390 
  146.5000    50.8000    24.4740    12.7710    13.0960    15.6160     2.5740   -19.9550 
  146.6250    52.9410    24.3890    13.7430    12.7690    15.3680     2.5710   -19.8720 
  146.7500    55.2580    24.3040    14.3860    12.5750    15.2820     2.5690   -19.7880 
  146.8750    54.7570    24.2680    14.3060    12.4640    15.2310     2.5660   -19.7040 
  147.0000    53.1490    24.2830    13.7560    12.4180    15.1860     2.5640   -19.6320 
  147.1250    54.7240    24.3070    13.3030    12.5030    15.2860     2.5600   -19.5860 
  147.2500    58.1750    24.2920    13.3410    12.7740    15.6640     2.5510   -19.5930 
  147.3750    60.4160    24.2450    13.8680    13.2390    16.3270     2.5370   -19.6540 
  147.5000    59.9780    24.2160    14.6260    13.8070    17.1140     2.5190   -19.7660 
  147.6250    58.4790    24.2470    15.4290    14.2640    17.6870     2.4990   -19.9430 
  147.7500    57.3930    24.3030    16.0940    14.4260    17.8110     2.4840   -20.1720 
  147.8750    56.8010    24.3400    16.1110    14.2130    17.4170     2.4820   -20.4280 
