~V
VERS. 2.00: Ver 2.00
~W
STRT.M 55.0000:
STOP.M 253.0000:
STEP.M 0.1250:
NULL. -999.2500:
UWI. DF5051:
~C
DEPT.M :
SP.MV :
GR.API :
RML.OHMM :
RI. :
RXO.OHMM :
CALI.CM :
DEN.GM/CC :
~A
# ...
  246.2500   -13.5980    67.7890    18.4920    16.5670    16.8730    24.0550     2.5180 
  246.3750   -13.7480    67.7890    18.5270    16.6190    16.8510    24.0550     2.5230 
  246.5000   -13.9310    67.7890    18.5410    16.6410    16.8100    24.0450     2.5310 
  246.6250   -14.1320    67.7890    18.5450    16.6450    17.4960    24.0170     2.5400 
  246.7500   -14.3370    67.7890    18.5480    16.6440    18.6880    23.9970     2.5500 
  246.8750   -14.5870    67.7890    18.5530    16.6420    20.0830    24.0340     2.5570 
  247.0000   -14.8280    67.7890    18.5580    16.6400    21.1420    24.0950     2.5580 
  247.1250   -15.0660    67.7890    18.5660    16.6380    19.0730    24.1270     2.5520 
  247.2500   -15.3190    67.7890    18.5760    16.6370    16.6390    24.1380     2.5410 
  247.3750   -15.5590    67.7890    18.5840    16.6380    15.1130    24.1250     2.5280 
  247.5000   -15.7190    67.7890    18.5900    16.6400    14.2410    24.0990     2.5170 
  247.6250   -15.8380    67.7890    18.5920    16.6410    13.7460    24.0650     2.5110 
  247.7500   -15.9150    67.7890    18.5910    16.6420    13.4720    24.0530     2.5100 
  247.8750   -15.9220    67.7890    18.5880    16.6420    13.3250    24.0460     2.5140 
  248.0000   -15.9270    67.7890    18.5840    16.6410    13.1900    24.0330     2.5220 
  248.1250   -15.9150    67.7890    18.5800    16.6400    13.2220    24.0030     2.5300 
  248.2500   -15.9180    67.7890    18.5740    16.6400    13.4610    23.9900     2.5350 
  248.3750   -15.9250    67.7890    18.5670    16.6390    13.8450    23.9870     2.5340 
  248.5000   -15.9690    67.7890    18.5590    16.6390    14.2310    23.9840     2.5300 
  248.6250   -16.0460    67.7890    18.5550    16.6390    14.5280    23.9560     2.5250 
  248.7500   -16.1710    67.7890    18.5530    16.6400    14.5860    23.8950     2.5220 
  248.8750   -16.3190    67.7890    18.5530    16.6400    14.3740    23.8270     2.5170 
  249.0000   -16.4580    67.7890    18.5530    16.6400    13.8780    23.7990     2.5100 
  249.1250   -16.6130    67.7890    18.5530    16.6400    13.2950    23.8150     2.5000 
  249.2500   -16.7840    67.7890    18.5530    16.6400    12.8070    23.8520     2.4930 
  249.3750   -16.9640    67.7890    18.5530    16.6400    12.3740    23.8970     2.4930 
  249.5000   -17.1470    67.7890    18.5530    16.6400    12.3800    23.9440     2.4970 
  249.6250   -17.3750    67.7890    18.5530    16.6400    12.6040    24.0030     2.5030 
  249.7500   -17.9290    67.7890    18.5530    16.6400    12.7000    24.0350     2.5060 
  249.8750   -18.6570    67.7890    18.5530    16.6400    12.7660    24.0410     2.5060 
  250.0000   -19.3750    67.7890    18.5530    16.6400    13.0150    24.0280     2.5060 
  250.1250   -20.0890    67.7890    18.5530    16.6400    13.2760    23.9890     2.5090 
  250.2500   -20.7610    67.7890    18.5530    16.6400    13.4790    23.9490     2.5130 
  250.3750   -21.4410    67.7890    18.5530    16.6400    13.7970    23.9080     2.5260 
  250.5000   -22.1160    67.7890    18.5530    16.6400    14.1890    23.8630     2.5300 
  250.6250   -22.6650    67.7890    18.5530    16.6400    14.6630    23.8190     2.5210 
  250.7500   -22.6650    67.7890    18.5530    16.6400    14.9310    23.3710     2.4940 
  250.8750   -22.6650    67.7890    18.5530    16.6400    14.7050    21.7320     2.4510 
  251.0000  -999.2500    67.7890    18.5530    16.6400    14.1200    18.1580     2.4010 
  251.1250  -999.2500    67.7890    18.5530    16.6400    13.3180    16.1890     2.3590 
  251.2500  -999.2500    67.7890    18.5530    16.6400    13.0350    15.5100     2.3310 
  251.3750  -999.2500    67.7890    18.5530    16.6400    12.9680    15.4820     2.3160 
  251.5000  -999.2500    67.7890    18.5530    16.6400    12.9680    15.4820     2.3110 
  251.6250  -999.2500    67.7890    18.5530    16.6400    12.9680    15.4820     2.3100 
  251.7500  -999.2500    67.7890    18.5530    16.6400    12.9680    15.4820     2.3090 
  251.8750  -999.2500    67.7890    18.5530    16.6400    12.9690    15.4820     2.3080 
  252.0000  -999.2500    67.7890    18.5530    16.6400    12.9690    15.4820     2.3070 
  252.1250  -999.2500    67.7890    18.5530    16.6400    12.9690    15.4820     2.3070 
  252.2500  -999.2500    67.7890    18.5530    16.6400    12.9680    15.4820     2.3060 
  252.3750  -999.2500    67.7890    18.5530    16.6400    12.9670    15.4820     2.3050 
  252.5000  -999.2500    67.7890    18.5530    16.6400    12.9660    15.4820     2.3050 
  252.6250  -999.2500    67.7890    18.5530    16.6400    12.9650    15.4820     2.3070 
  252.7500  -999.2500    67.7890    18.5530    16.6400    12.9660    15.4820     2.3100 
  252.8750  -999.2500    67.7890    18.5530    16.6400    12.9660    15.4810     2.3140 
  253.0000  -999.2500    67.7890    18.5530    16.6400    12.9660    15.4770     2.3170 
