~V
VERS. 2.00: Ver 2.00
~W
STRT.M 55.0000:
STOP.M 247.0000:
STEP.M 0.1250:
NULL. -999.2500:
UWI. DF5063:
~C
DEPT.M :
SP.MV :
GR.API :
RML.OHMM :
RI. :
RXO.OHMM :
CALI.CM :
DEN.GM/CC :
~A
# ...
  178.7500   -18.8870    68.8700   134.5200   133.6790   109.4360    24.6570     2.2280 
  178.8750   -18.7780    67.5380   130.3000   129.3420   102.4840    24.6150     2.2250 
  179.0000   -18.7470    65.8330   127.8560   126.8000   105.1760    24.5810     2.2180 
  179.1250   -18.7810    66.3200   127.7760   126.7200   118.2410    24.5780     2.2110 
  179.2500   -18.8770    67.8670   129.7900   128.8260   112.7760    24.5730     2.2050 
  179.3750   -19.0700    68.7770   133.6770   132.8940   110.8410    24.5610     2.1990 
  179.5000   -19.3490    67.6030   138.7450   138.2590   127.9390    24.5540     2.1910 
  179.6250   -19.6510    64.4570   143.4620   143.4570   141.3140    24.5510     2.1860 
  179.7500   -20.0220    62.8040   146.0430   146.6900   143.5930    24.5400     2.1880 
  179.8750   -20.4130    64.6520   145.2390   146.6540   137.9750    24.5230     2.1960 
  180.0000   -20.7570    68.7740   140.8080   142.9530   127.0990    24.5080     2.2030 
  180.1250   -20.9960    69.0900   133.6230   136.1870   121.3980    24.5140     2.2060 
  180.2500   -21.1940    66.9470   126.2080   128.7910   110.3640    24.4900     2.2060 
  180.3750   -21.3720    66.9940   120.2510   122.4990   102.9330    24.3960     2.2030 
  180.5000   -21.5430    69.8100   116.8600   118.5460   105.6760    24.3140     2.1980 
  180.6250   -21.6730    71.3800   117.1730   118.1860   106.1420    24.2860     2.1940 
  180.7500   -21.7210    70.2370   120.8020   121.1480   101.2610    24.2580     2.1910 
  180.8750   -21.7330    68.0800   127.4610   127.2310   101.0830    24.2320     2.1880 
  181.0000   -21.7820    65.8430   136.3160   135.7090   118.6450    24.2650     2.1850 
  181.1250   -21.9700    65.2970   145.5900   144.9910   132.3320    24.3010     2.1820 
  181.2500   -22.2610    65.4670   152.8240   152.6120   140.1310    24.3060     2.1840 
  181.3750   -22.6180    65.2300   156.1990   156.6800   137.3760    24.2950     2.1870 
  181.5000   -22.9650    63.5920   155.0110   156.2930   132.7540    24.2960     2.1840 
  181.6250   -23.3390    61.6800   149.9720   151.7910   131.8930    24.3130     2.1750 
  181.7500   -23.7410    62.3230   144.5110   146.3570   122.6820    24.2990     2.1680 
  181.8750   -24.1420    65.6010   141.2320   142.5620   111.3320    24.2800     2.1680 
  182.0000   -24.5440    68.4980   141.6560   142.0740   109.0520    24.2860     2.1730 
  182.1250   -24.8940    67.9240   146.3520   145.6510   119.2220    24.3070     2.1800 
  182.2500   -25.1180    67.1500   153.3310   151.4940   135.4720    24.2980     2.1820 
  182.3750   -25.1930    69.0240   160.8890   158.0270   149.6200    24.2720     2.1820 
  182.5000   -25.1800    72.1180   167.5710   163.9370   151.8060    24.2290     2.1810 
  182.6250   -25.0690    72.9310   172.4940   168.5000   141.3060    24.1460     2.1810 
  182.7500   -24.9100    71.0840   176.3980   172.3560   131.2440    24.0390     2.1800 
  182.8750   -24.6840    68.0870   180.0180   176.1620   136.0890    23.9830     2.1780 
  183.0000   -24.3180    65.4230   183.4080   179.9660   155.8160    24.0030     2.1770 
  183.1250   -23.7850    63.7270   184.9240   182.2730   161.9760    23.9260     2.1840 
  183.2500   -23.2110    62.8150   182.7100   181.2580   160.3000    23.7950     2.2010 
  183.3750   -22.6570    63.8170   175.5250   175.5950   157.9700    23.7160     2.2190 
  183.5000   -22.1720    66.6860   163.6500   165.2560   153.2680    23.7150     2.2280 
  183.6250   -21.8490    67.5900   149.0900   151.6520   134.7790    23.7470     2.2230 
  183.7500   -21.5840    65.2450   135.5500   138.2540   116.1220    23.8070     2.2120 
  183.8750   -21.4010    63.6270   125.4400   127.5640   102.7790    23.9890     2.2000 
  184.0000   -21.3520    64.4410   120.1850   121.3200    91.2970    24.2790     2.1910 
  184.1250   -21.4680    65.5350   121.3650   121.4350    91.3480    24.5010     2.1860 
  184.2500   -21.7070    65.9950   128.1320   127.2240    98.9450    24.5840     2.1810 
  184.3750   -22.0180    67.0730   140.1240   138.2420   118.5090    24.6330     2.1760 
  184.5000   -22.2950    68.5940   156.6060   153.5240   138.5510    24.6880     2.1720 
  184.6250   -22.4160    68.8740   176.8060   171.9420   156.9050    24.7310     2.1720 
  184.7500   -22.4690    68.7690   198.3610   191.1870   165.7980    24.7300     2.1740 
  184.8750   -22.4660    67.5530   219.0120   209.3410   174.2680    24.7330     2.1770 
  185.0000   -22.3430    64.6800   235.7950   224.0380   177.2320    24.7470     2.1800 
  185.1250   -22.0860    62.4180   243.3830   230.8280   185.8520    24.7600     2.1820 
  185.2500   -21.7170    61.9580   239.5740   227.6740   197.9960    24.7700     2.1830 
  185.3750   -21.2460    61.2280   223.6860   213.5780   203.7420    24.7910     2.1830 
  185.5000   -20.7360    59.2940   198.9430   190.7230   188.6450    24.8010     2.1810 
  185.6250   -20.2480    59.1520   173.0360   165.2110   150.5840    24.7860     2.1820 
  185.7500   -19.7760    61.3130   154.1180   145.0950   113.1250    24.7620     2.1830 
  185.8750   -19.3250    64.2560   146.5050   135.2620    92.3960    24.7740     2.1820 
  186.0000   -18.9730    65.8950   151.6580   137.6850    93.4880    24.8040     2.1750 
  186.1250   -18.6970    64.2250   169.1020   152.1100   129.2960    24.8050     2.1660 
  186.2500   -18.4800    60.4010   190.3530   170.5980   196.9980    24.7860     2.1610 
  186.3750   -18.3400    56.6550   206.2670   185.1380   261.9920    24.7760     2.1660 
  186.5000   -18.2410    55.6180   207.7040   188.2020   281.0490    24.7850     2.1820 
  186.6250   -18.1950    55.2280   188.0360   174.1660   210.7740    24.7220     2.2070 
  186.7500   -18.1830    54.9000   157.4590   149.8800   130.8870    24.6320     2.2260 
  186.8750   -18.1510    55.9390   126.1690   122.7230    96.1460    24.6040     2.2350 
  187.0000   -18.0020    56.5140    99.8840    98.2040   100.3110    24.6410     2.2420 
  187.1250   -17.7690    56.0470    79.6720    78.6260    94.9950    24.6550     2.2750 
  187.2500   -17.5340    57.2980    62.8540    62.2510    72.9830    24.5920     2.3480 
  187.3750   -17.2820    61.7290    48.4190    48.1320    54.0650    24.4660     2.4420 
  187.5000   -16.9490    68.5150    36.1880    36.0440    40.2040    24.2500     2.5010 
  187.6250   -16.5070    75.4130    26.8160    26.6120    23.4910    24.0070     2.4710 
  187.7500   -16.0470    81.8560    19.9560    19.5830    11.7790    23.7760     2.4090 
  187.8750   -15.6540    87.5100    15.3180    14.7240     6.7510    23.6590     2.3560 
  188.0000   -15.3910    92.5060    12.4330    11.5960     5.1370    23.6430     2.3150 
  188.1250   -15.2900    94.5310    10.9420     9.8680     5.1750    23.7690     2.2810 
  188.2500   -15.2780    93.4100    10.1720     8.8970     5.9420    23.9690     2.2550 
  188.3750   -15.3020    92.5940     9.8010     8.3910     7.0680    24.2240     2.2430 
  188.5000   -15.4040    92.9860     9.6260     8.1510     7.8110    24.4160     2.2460 
  188.6250   -15.5910    92.7180     9.6680     8.1530     7.8680    24.5120     2.2700 
  188.7500   -15.7290    92.4140    10.1660     8.5280     7.8510    24.5730     2.3070 
  188.8750   -15.7140    92.0360    11.5220     9.5660     8.2750    24.6110     2.3540 
  189.0000   -15.5000    87.4920    14.0350    11.5130    10.1450    24.6260     2.4200 
  189.1250   -15.0270    75.3410    17.7450    14.4170    18.3400    24.6270     2.5150 
  189.2500   -14.3520    64.6610    21.6430    17.4860    42.4240    24.5780     2.6080 
  189.3750   -13.5740    60.5500    24.4120    19.7260    65.2410    24.4860     2.6570 
  189.5000   -12.7250    60.6130    24.8680    20.1410    42.4980    24.3800     2.6440 
  189.6250   -11.7760    59.6310    21.9650    18.0650    18.1440    24.3440     2.5830 
  189.7500   -10.8410    58.2410    17.4570    14.7750    10.9660    24.4440     2.5150 
  189.8750    -9.9530    59.3150    12.7800    11.4610     8.9550    24.5400     2.4660 
