~V
VERS. 2.00: Ver 2.00
~W
STRT.M 60.0000:
STOP.M 261.0000:
STEP.M 0.1250:
NULL. -999.2500:
UWI. DF5055:
~C
DEPT.M :
SP.MV :
GR.API :
RML.OHMM :
RI. :
RXO.OHMM :
CALI.CM :
DEN.GM/CC :
~A
# ...
  150.0000    -9.3440    69.6570    21.9730    18.6200    18.1760    24.4970     2.5050 
  150.1250    -9.5530    65.3570    21.9850    18.7460    18.3340    24.5690     2.5060 
  150.2500    -9.7690    64.1480    21.6100    18.5780    18.0740    24.6680     2.4990 
  150.3750   -10.0480    65.5490    20.8920    18.1370    17.3680    24.7370     2.4870 
  150.5000   -10.3620    65.9060    19.9490    17.4980    16.8680    24.7720     2.4750 
  150.6250   -10.6480    65.0410    18.9740    16.7910    15.2690    24.7590     2.4690 
  150.7500   -10.8320    63.3340    18.1480    16.1700    14.9960    24.7370     2.4720 
  150.8750   -10.8540    61.1620    17.5250    15.7020    14.6780    24.7250     2.4830 
  151.0000   -10.7200    59.2660    17.0650    15.3820    13.8280    24.7290     2.4990 
  151.1250   -10.4710    57.2730    16.6620    15.1580    13.7040    24.7350     2.5210 
  151.2500   -10.1310    54.3310    16.1930    14.9290    13.8020    24.7880     2.5430 
  151.3750    -9.6590    50.4230    15.6160    14.6470    13.1330    24.8190     2.5630 
  151.5000    -9.1200    48.7110    14.9700    14.3260    12.1110    24.8160     2.5750 
  151.6250    -8.5670    50.6750    14.3620    14.0340    11.6580    24.8150     2.5760 
  151.7500    -8.0530    54.6070    13.8840    13.8360    11.6040    24.8160     2.5670 
  151.8750    -7.6860    57.8570    13.5940    13.7690    11.2310    24.8550     2.5500 
  152.0000    -7.4770    58.7710    13.4900    13.8340    10.7970    24.9530     2.5270 
  152.1250    -7.3830    58.5140    13.4920    13.9650    10.7590    24.9960     2.5020 
  152.2500    -7.3620    57.3170    13.4220    14.0090    11.0380    25.0150     2.4770 
  152.3750    -7.4930    55.1680    13.1500    13.8320    10.7670    25.0480     2.4550 
  152.5000    -7.8280    54.2440    12.6210    13.3630    10.4590    25.1000     2.4390 
  152.6250    -8.3070    57.7380    11.8550    12.6020    10.0310    25.0840     2.4300 
  152.7500    -8.8710    65.3670    11.0060    11.7220     9.3610    25.0000     2.4250 
  152.8750    -9.5130    75.3470    10.1880    10.8520     8.6100    24.8490     2.4200 
  153.0000   -10.2010    84.3920     9.5130    10.1120     8.2440    24.7100     2.4160 
  153.1250   -10.8690    91.2640     9.1800     9.6770     8.4560    24.5930     2.4120 
  153.2500   -11.4820    97.4480     9.3120     9.6300     8.5670    24.5280     2.4080 
  153.3750   -11.9570   101.9860    10.0600    10.0760     8.8490    24.5520     2.4010 
  153.5000   -12.2570   101.9380    11.5560    11.1230    10.0540    24.7350     2.3890 
  153.6250   -12.4700    97.1900    14.0360    13.0110    13.6950    25.0300     2.3690 
  153.7500   -12.6260    92.9830    17.3190    15.6840    18.7940    25.2840     2.3430 
  153.8750   -12.7080    91.0130    21.2230    19.0740    22.9680    25.4670     2.3180 
  154.0000   -12.7700    89.4520    25.5070    22.9900    25.8760    25.6470     2.2960 
  154.1250   -12.8730    85.0800    34.9030    27.2630    29.3780    25.7860     2.2820 
  154.2500   -13.0190    79.0540    40.5120    31.8480    35.1800    25.8780     2.2740 
  154.3750   -13.2120    74.8270    46.9990    37.0300    40.8100    25.9130     2.2660 
  154.5000   -13.4510    73.0210    54.7990    43.1720    47.8400    25.9190     2.2570 
  154.6250   -13.7350    71.7670    64.1850    50.5550    60.4170    25.9190     2.2440 
  154.7500   -14.0230    70.2700    74.1780    58.4740    77.1430    25.9160     2.2320 
  154.8750   -14.2580    69.1790    83.4100    65.9170    88.1860    25.9190     2.2240 
  155.0000   -14.4400    69.2370    90.2190    71.6600    94.1230    25.9400     2.2250 
  155.1250   -14.6140    70.7810    92.8500    74.3550    93.6780    25.9630     2.2330 
  155.2500   -14.7810    71.5970    92.6150    74.8020    86.9340    25.9740     2.2450 
  155.3750   -14.9470    70.6800    91.6560    74.4810    79.0850    25.9750     2.2540 
  155.5000   -15.0860    71.2250    92.3280    75.1960    68.4730    25.9800     2.2570 
  155.6250   -15.1280    73.6270    97.1130    79.0560    64.5800    26.0000     2.2510 
  155.7500   -15.1460    72.1080   106.0510    86.3800    71.2900    26.0320     2.2370 
  155.8750   -15.2370    67.6860   118.1040    96.5660    97.9320    26.0570     2.2180 
  156.0000   -15.3530    65.7440   130.4660   107.5690   136.3410    26.0880     2.2000 
  156.1250   -15.3930    66.8480   137.7170   115.3430   158.2750    26.1030     2.1910 
  156.2500   -15.4400    67.5820   137.1940   117.3800   150.3420    26.1150     2.1900 
  156.3750   -15.5620    69.7280   129.6140   113.4920   120.1660    26.1240     2.1950 
  156.5000   -15.7110    73.6870   118.6190   105.8930    88.1250    26.1050     2.2020 
  156.6250   -15.8600    75.5630   108.3810    97.8160    86.2050    26.0620     2.2080 
  156.7500   -16.0230    75.3830   100.3180    91.0880    83.5410    26.0050     2.2130 
  156.8750   -16.0860    74.9240    94.0890    85.7550    75.0830    25.9770     2.2200 
  157.0000   -16.1180    73.0960    89.0200    81.3820    71.2040    25.9580     2.2300 
  157.1250   -16.2270    70.8360    84.6120    77.5780    72.6540    25.9110     2.2430 
  157.2500   -16.2650    71.5690    80.5740    74.0740    67.6680    25.8460     2.2550 
  157.3750   -16.1830    73.2950    77.1840    71.0920    56.3560    25.7860     2.2660 
  157.5000   -16.1040    73.6630    74.9220    69.0490    54.8420    25.7760     2.2740 
  157.6250   -16.0600    72.8260    74.5410    68.5890    59.6330    25.8200     2.2750 
  157.7500   -15.9880    72.3440    76.1600    69.8340    55.9910    25.8710     2.2680 
  157.8750   -15.9630    72.6320    79.9380    72.9750    53.9400    25.9030     2.2540 
  158.0000   -15.9420    73.3150    85.6220    77.8620    62.6360    25.9240     2.2380 
  158.1250   -15.8370    72.6800    92.5610    83.9680    76.5530    25.9910     2.2240 
  158.2500   -15.7670    70.2160    99.4660    90.1440    81.3490    26.0720     2.2140 
  158.3750   -15.7860    68.5300   105.3370    95.5110    75.6870    26.0160     2.2100 
  158.5000   -15.7810    69.6850   109.2750    99.2740    75.1710    25.8090     2.2110 
  158.6250   -15.6900    69.5010   110.4810   100.6500    74.0020    25.5880     2.2170 
  158.7500   -15.6330    67.8370   109.8550   100.3170    82.7010    25.3840     2.2250 
  158.8750   -15.5830    67.9770   108.2060    98.9540    93.0260    25.2160     2.2320 
  159.0000   -15.5070    70.1710   106.1390    97.1300    95.8070    25.1060     2.2360 
  159.1250   -15.4720    71.6160   104.1230    95.2740    82.8210    25.0590     2.2370 
  159.2500   -15.4650    71.6060   102.6780    93.8640    72.1330    25.0760     2.2370 
  159.3750   -15.4110    71.5870   102.2000    93.2850    80.0700    25.1410     2.2380 
  159.5000   -15.3600    72.3040   102.7390    93.6320    86.4290    25.2020     2.2390 
  159.6250   -15.4390    71.4130   104.0240    94.7400    82.9750    25.2000     2.2380 
  159.7500   -15.4690    68.4080   105.2740    95.9580    83.9140    25.1930     2.2340 
  159.8750   -15.3930    65.1710   105.8440    96.7260    94.8690    25.1860     2.2310 
  160.0000   -15.3600    64.1320   105.4160    96.7150    98.8800    25.2170     2.2290 
  160.1250   -15.4160    66.1250   104.1220    95.9730    92.2110    25.3400     2.2300 
  160.2500   -15.4400    69.6070   102.5720    94.9980    90.3370    25.5260     2.2310 
  160.3750   -15.4650    73.1600   101.0990    94.0760    88.6550    25.6910     2.2290 
  160.5000   -15.5420    73.5040    99.9750    93.4440    85.8440    25.7970     2.2220 
  160.6250   -15.6050    67.6370    99.4520    93.3500    72.9350    25.8570     2.2150 
  160.7500   -15.6260    63.0000    99.3420    93.6190    59.1160    25.8680     2.2110 
  160.8750   -15.7740    62.7230    99.4330    94.0240    51.8810    25.7560     2.2120 
  161.0000   -16.0130    63.0750    99.4470    94.3080    64.6510    25.5530     2.2180 
  161.1250   -16.1950    62.0410    98.7710    93.9400    80.7550    25.4890     2.2250 
