~V
VERS. 2.00: Ver 2.00
~W
STRT.M 55.0000:
STOP.M 274.0000:
STEP.M 0.1250:
NULL. -999.2500:
UWI. DF5015:
~C
DEPT.M :
DEN.GM/CC :
GR.API :
CALI.CM :
RXO.OHMM :
RI. :
RML.OHMM :
SP.MV :
~A
# ...
   66.2500     2.2500   103.9240    24.4190     5.8960     5.6970     5.1500   -22.3040 
   66.3750     2.2330   101.0990    24.5390     6.0450     5.6860     5.2410   -22.2710 
   66.5000     2.2240    99.9470    24.5360     6.3110     5.7000     5.3370   -22.2760 
   66.6250     2.2280   102.5780    24.2730     6.6240     5.7090     5.4000   -22.2880 
   66.7500     2.2370   106.2590    23.9720     6.9110     5.6920     5.4180   -22.2690 
   66.8750     2.2480   108.3320    23.8850     7.0070     5.6520     5.3980   -22.2450 
   67.0000     2.2570   109.1880    24.0430     6.8810     5.6080     5.3690   -22.2710 
   67.1250     2.2520   110.4940    24.2030     6.6210     5.6020     5.3770   -22.3640 
   67.2500     2.2360   111.2120    24.2570     6.4930     5.6550     5.4500   -22.4630 
   67.3750     2.2170   109.2780    24.2580     6.4530     5.7700     5.5980   -22.5460 
   67.5000     2.2090   104.7670    24.2070     6.5210     5.9320     5.8020   -22.6540 
   67.6250     2.2230   100.3220    24.0980     6.8240     6.1020     6.0160   -22.8420 
   67.7500     2.2450    97.8450    23.9220     7.4440     6.2260     6.1810   -23.0720 
   67.8750     2.2610    97.1050    23.7090     8.2350     6.2620     6.2510   -23.2820 
   68.0000     2.2630    96.8630    23.4950     8.8040     6.1910     6.2090   -23.4520 
   68.1250     2.2600    96.5410    23.4010     8.7210     6.0210     6.0690   -23.6180 
   68.2500     2.2570    97.1490    23.4280     8.1810     5.8300     5.9040   -23.8000 
   68.3750     2.2510    98.4630    23.5210     7.6870     5.6720     5.7730   -23.9660 
   68.5000     2.2410    99.0640    23.6050     7.5370     5.5890     5.7190   -24.0880 
   68.6250     2.2290    97.9000    23.6240     7.6420     5.6210     5.7770   -24.1800 
   68.7500     2.2130    95.0930    23.5310     7.8340     5.7500     5.9310   -24.2830 
   68.8750     2.1920    90.4860    23.2890     8.5510     5.9820     6.1940   -24.3790 
   69.0000     2.1710    84.4970    22.9680     9.7910     6.3380     6.6040   -24.4120 
   69.1250     2.1600    79.2130    22.7500    10.7820     6.8900     7.2370   -24.3360 
   69.2500     2.1590    76.1930    22.6070    11.1260     7.6300     8.0570   -24.2080 
   69.3750     2.1710    75.9920    22.5910    11.4750     8.5260     8.9850   -24.0600 
   69.5000     2.2110    79.1130    22.7680    13.6840     9.4810     9.8740   -23.8650 
   69.6250     2.3000    84.7400    23.1030    21.5820    10.2510    10.4570   -23.5820 
   69.7500     2.4100    89.4000    23.4830    34.4050    10.6210    10.5810   -23.2720 
   69.8750     2.4880    91.7790    23.8390    43.5180    10.4700    10.1930   -23.0150 
   70.0000     2.4890    93.3330    24.0670    40.5990     9.8430     9.3990   -22.8490 
   70.1250     2.4090    95.3320    24.0880    26.9500     8.9280     8.4390   -22.7670 
   70.2500     2.3160    96.5560    23.9660    15.3480     8.0440     7.6100   -22.7350 
   70.3750     2.2500    96.5020    23.7370     9.7030     7.3640     7.0600   -22.7710 
   70.5000     2.2190    96.4410    23.4050     8.4940     6.9610     6.8240   -22.8940 
   70.6250     2.2200    96.8990    23.1180     8.9450     6.8560     6.8680   -23.0710 
   70.7500     2.2310    96.8370    22.9320     9.3000     6.9110     7.0170   -23.2260 
   70.8750     2.2370    95.7390    22.8230     9.4370     7.0130     7.1450   -23.3450 
   71.0000     2.2330    93.6880    22.7980     9.4350     7.0560     7.1640   -23.4640 
   71.1250     2.2240    91.1720    22.8070     9.4130     6.9730     7.0420   -23.6070 
   71.2500     2.2160    89.4430    22.7440     9.3730     6.8170     6.8630   -23.7420 
   71.3750     2.2150    89.4500    22.6350     9.1990     6.6500     6.7010   -23.8610 
   71.5000     2.2210    90.6010    22.5830     8.7280     6.5340     6.6200   -24.0030 
   71.6250     2.2330    89.9840    22.5670     8.2930     6.5340     6.6810   -24.2170 
   71.7500     2.2400    85.8860    22.5700     8.3860     6.6540     6.8660   -24.4630 
   71.8750     2.2290    79.1360    22.5870     9.2270     6.8810     7.1490   -24.6890 
   72.0000     2.1970    72.4940    22.6050    10.5810     7.1820     7.4820   -24.8760 
   72.1250     2.1580    69.2950    22.6590    11.7770     7.4930     7.7920   -25.0460 
   72.2500     2.1300    69.4800    22.7820    12.5750     7.7500     8.0180   -25.2040 
   72.3750     2.1220    71.0720    22.8110    13.0170     7.9140     8.1290   -25.3010 
   72.5000     2.1270    72.1020    22.7180    13.1980     7.9670     8.1230   -25.2930 
   72.6250     2.1370    73.2570    22.6010    13.1270     7.8970     8.0170   -25.2020 
   72.7500     2.1480    76.0130    22.5560    12.7900     7.7540     7.8780   -25.1080 
   72.8750     2.1610    78.9810    22.5060    12.1660     7.5760     7.7440   -25.0220 
   73.0000     2.1760    79.6680    22.4700    11.4520     7.4010     7.6370   -24.9010 
   73.1250     2.1820    78.1030    22.4620    11.0030     7.2650     7.5800   -24.7270 
   73.2500     2.1750    76.9660    22.4410    10.7520     7.1840     7.5700   -24.5620 
   73.3750     2.1640    76.4010    22.4420    10.5090     7.1660     7.6070   -24.4440 
   73.5000     2.1640    75.1750    22.4610    10.3260     7.2140     7.6820   -24.3540 
   73.6250     2.1790    73.5070    22.4580    10.4920     7.3250     7.7880   -24.2510 
   73.7500     2.1880    73.3760    22.4560    10.9300     7.4610     7.9010   -24.1480 
   73.8750     2.1810    75.2460    22.4910    11.4100     7.5910     8.0010   -24.0850 
   74.0000     2.1690    78.0140    22.5230    11.8050     7.6880     8.0700   -24.0730 
   74.1250     2.1630    79.6660    22.5440    12.1700     7.7170     8.0860   -24.0620 
   74.2500     2.1620    79.7450    22.5650    12.4230     7.6810     8.0490   -24.0060 
   74.3750     2.1600    79.0400    22.5890    12.4470     7.5890     7.9700   -23.9320 
   74.5000     2.1540    78.8230    22.5950    12.2370     7.4690     7.8820   -23.8910 
   74.6250     2.1470    79.5230    22.6510    11.8840     7.3720     7.8530   -23.8790 
   74.7500     2.1450    80.0190    22.6980    11.5830     7.3520     7.9440   -23.8340 
   74.8750     2.1500    79.7500    22.7300    11.4810     7.4650     8.2080   -23.7520 
   75.0000     2.1590    78.3110    22.7710    11.6510     7.7550     8.6620   -23.6830 
   75.1250     2.1670    75.1500    22.8570    12.0880     8.2540     9.2860   -23.6750 
   75.2500     2.1710    72.1420    22.9670    12.7130     8.8730     9.9520   -23.6900 
   75.3750     2.1730    71.8380    23.0510    13.7180     9.5120    10.5310   -23.6870 
   75.5000     2.1720    74.2500    23.1160    15.6610    10.0410    10.8920   -23.6660 
   75.6250     2.1670    75.6450    23.1620    19.0530    10.2820    10.8850   -23.6770 
   75.7500     2.1570    73.9560    23.1390    22.0580    10.2120    10.5640   -23.7180 
   75.8750     2.1410    70.9840    23.0960    22.2510     9.8710    10.0240   -23.7350 
   76.0000     2.1250    69.0910    23.0820    19.1590     9.3650     9.4050   -23.6830 
   76.1250     2.1190    69.0770    23.0620    15.3960     8.8390     8.8610   -23.5840 
   76.2500     2.1260    70.3720    23.0070    13.2160     8.4040     8.4660   -23.4910 
   76.3750     2.1380    72.9390    22.9190    12.4810     8.1030     8.2310   -23.3900 
   76.5000     2.1460    76.0580    22.8010    12.2760     7.9390     8.1320   -23.2310 
   76.6250     2.1520    77.4710    22.6950    12.0140     7.9070     8.1480   -22.9950 
   76.7500     2.1620    76.9750    22.6490    11.6600     7.9520     8.2270   -22.7340 
   76.8750     2.1750    76.8460    22.6760    11.3270     8.0420     8.3460   -22.4690 
   77.0000     2.1900    78.9180    22.7120    11.0880     8.1580     8.4860   -22.1800 
   77.1250     2.1990    81.3070    22.7170    11.0280     8.2750     8.6210   -21.8340 
   77.2500     2.1970    80.3700    22.6980    11.0550     8.3550     8.7120   -21.4600 
   77.3750     2.1810    76.1940    22.6530    11.0390     8.3580     8.7160   -21.0920 
