~V
VERS. 2.00: Ver 2.00
~W
STRT.M 59.0000:
STOP.M 275.0000:
STEP.M 0.1250:
NULL. -999.2500:
UWI. DF5021:
~C
DEPT.M :
SP.MV :
GR.API :
CALI.CM :
RXO.OHMM :
RI. :
RML.OHMM :
DEN.GM/CC :
~A
# ...
  126.5000   -12.6320    74.4300    23.9430     9.8010    10.4710    12.3260     2.3230 
  126.6250   -12.5400    72.3540    24.0030    14.0540    11.9010    13.7860     2.4080 
  126.7500   -12.5020    70.1480    23.9870    19.8460    13.1560    14.8850     2.5090 
  126.8750   -12.2900    68.9280    23.8390    24.0210    13.8460    15.2480     2.5730 
  127.0000   -12.0070    68.4980    23.6190    23.9520    13.8720    14.8960     2.5620 
  127.1250   -11.8920    69.2360    23.4390    19.9020    13.2900    13.9650     2.4820 
  127.2500   -11.7550    72.0420    23.3600    14.4070    12.3160    12.7330     2.3770 
  127.3750   -11.5230    77.0930    23.3200    10.5770    11.2630    11.5620     2.2970 
  127.5000   -11.4040    82.0840    23.3310     8.8490    10.3910    10.6830     2.2530 
  127.6250   -11.4000    85.2310    23.3300     8.1940     9.7870    10.1450     2.2320 
  127.7500   -11.2990    85.8250    23.3300     7.9990     9.4440     9.8900     2.2260 
  127.8750   -11.2760    84.5240    23.3290     8.2680     9.3270     9.8390     2.2250 
  128.0000   -11.3620    82.9820    23.3380     8.6510     9.3150     9.8560     2.2180 
  128.1250   -11.3020    80.9740    23.3950     8.8390     9.3470     9.8890     2.2060 
  128.2500   -11.2710    77.9420    23.5160     8.8110     9.3980     9.9300     2.1990 
  128.3750   -11.3710    75.7030    23.6800     8.8230     9.4690     9.9930     2.2050 
  128.5000   -11.4040    76.8660    23.8280     9.0600     9.5550    10.0790     2.2140 
  128.6250   -11.3430    80.6540    23.8990     9.4260     9.6540    10.1840     2.2150 
  128.7500   -11.4180    83.2960    23.8860     9.6970     9.7550    10.2920     2.2080 
  128.8750   -11.4570    81.8770    23.8450     9.7160     9.8360    10.3770     2.1960 
  129.0000   -11.4250    79.1730    23.7960     9.5920     9.8840    10.4310     2.1820 
  129.1250   -11.5710    78.3760    23.7590     9.4820     9.8970    10.4600     2.1710 
  129.2500   -11.6740    80.1930    23.7260     9.4780     9.8800    10.4750     2.1690 
  129.3750   -11.6570    82.3520    23.6890     9.5280     9.8470    10.4930     2.1810 
  129.5000   -11.7410    83.2320    23.6570     9.5180     9.8200    10.5280     2.1970 
  129.6250   -11.8930    83.4300    23.6590     9.4130     9.8080    10.5820     2.2130 
  129.7500   -11.8880    83.2530    23.6850     9.2960     9.8110    10.6550     2.2260 
  129.8750   -11.9200    82.0660    23.6750     9.2780     9.8250    10.7350     2.2310 
  130.0000   -12.0350    80.4730    23.6420     9.3730     9.8390    10.8050     2.2310 
  130.1250   -11.9860    79.2280    23.6300     9.5270     9.8510    10.8540     2.2310 
  130.2500   -11.9370    77.8150    23.6500     9.6560     9.8580    10.8790     2.2280 
  130.3750   -12.0200    75.5030    23.6660     9.6500     9.8580    10.8780     2.2180 
  130.5000   -12.0420    73.5430    23.6470     9.4860     9.8510    10.8600     2.2050 
  130.6250   -11.9510    72.4090    23.6380     9.2590     9.8400    10.8350     2.1990 
  130.7500   -12.0110    71.3070    23.6270     9.1110     9.8290    10.8110     2.2020 
  130.8750   -12.1070    69.9810    23.6440     9.1160     9.8230    10.7950     2.2090 
  131.0000   -12.0700    69.7630    23.6760     9.1680     9.8260    10.7860     2.2100 
  131.1250   -12.1320    71.0730    23.7040     9.2360     9.8340    10.7830     2.2050 
  131.2500   -12.2560    72.5790    23.6950     9.3420     9.8430    10.7830     2.2020 
  131.3750   -12.2330    72.6290    23.6420     9.4640     9.8460    10.7770     2.2070 
  131.5000   -12.2180    72.3710    23.5860     9.5520     9.8420    10.7460     2.2110 
  131.6250   -12.3470    72.8720    23.5210     9.6030     9.8240    10.6750     2.2070 
  131.7500   -12.3330    73.7150    23.4910     9.6120     9.7850    10.5590     2.1970 
  131.8750   -12.2620    74.0330    23.5190     9.5570     9.7190    10.4090     2.1940 
  132.0000   -12.3300    74.6930    23.5640     9.4060     9.6530    10.2840     2.1990 
  132.1250   -12.3110    76.3380    23.5600     9.1470     9.6380    10.2560     2.2110 
  132.2500   -12.2210    77.9420    23.5080     8.8180     9.7450    10.3970     2.2260 
  132.3750   -12.2740    77.1990    23.4800     8.4960    10.0380    10.7430     2.2380 
  132.5000   -12.2950    74.8470    23.4930     8.2450    10.4390    11.1650     2.2430 
  132.6250   -12.1760    73.6030    23.5400     8.3770    10.8300    11.5020     2.2490 
  132.7500   -12.2000    75.1620    23.5700     9.9260    11.0530    11.5730     2.2750 
  132.8750   -12.2560    77.4490    23.6090    14.9780    10.8740    11.2810     2.3410 
  133.0000   -12.1550    78.0700    23.7450    21.7470    10.2680    10.7270     2.4170 
  133.1250   -12.1460    78.7200    24.0110    24.7400     9.3060     9.8930     2.4640 
  133.2500   -12.2040    81.9260    24.2960    20.3660     8.1640     8.7900     2.4610 
  133.3750   -12.1250    87.4040    24.4150    12.4400     7.0750     7.6580     2.4230 
  133.5000   -12.0630    92.7860    24.4240     7.4000     6.1970     6.7450     2.3840 
  133.6250   -12.1620    97.5560    24.3960     5.6400     5.5860     6.1100     2.3570 
  133.7500   -12.1720   101.1130    24.3920     5.3930     5.2400     5.7490     2.3420 
  133.8750   -12.1140   101.9810    24.4210     5.3640     5.1460     5.6520     2.3400 
  134.0000   -12.2040   101.5860    24.4570     5.4090     5.1950     5.7030     2.3460 
  134.1250   -12.2980   101.6480    24.4800     5.5080     5.3140     5.8260     2.3530 
  134.2500   -12.2880   101.6470    24.5030     5.5360     5.4450     5.9630     2.3560 
  134.3750   -12.3930    99.5230    24.5480     5.5050     5.5440     6.0650     2.3490 
  134.5000   -12.5680    96.4380    24.5240     5.6080     5.5890     6.1120     2.3300 
  134.6250   -12.5840    94.9470    24.4880     5.8270     5.5650     6.0870     2.3100 
  134.7500   -12.6630    96.0420    24.5040     5.8530     5.4580     5.9760     2.3030 
  134.8750   -12.8630    98.6220    24.5780     5.6180     5.2490     5.7590     2.3100 
  135.0000   -12.9540   100.7560    24.5830     5.3830     4.9690     5.4680     2.3170 
  135.1250   -13.0350   101.6920    24.5220     5.2410     4.6460     5.1320     2.3230 
  135.2500   -13.2800   101.8230    24.4850     4.9840     4.3250     4.7980     2.3340 
  135.3750   -13.4680   102.1980    24.5220     4.5680     4.0880     4.5520     2.3530 
  135.5000   -13.6210   103.2340    24.5820     4.1930     4.0020     4.4620     2.3670 
  135.6250   -13.9610   103.8230    24.5630     3.9800     4.1270     4.5920     2.3760 
  135.7500   -14.2380   102.1840    24.4490     3.9450     4.5080     4.9880     2.3850 
  135.8750   -14.4630    97.1000    24.3550     4.3370     5.2060     5.7270     2.3930 
  136.0000   -14.8550    90.7440    24.2880     5.4120     6.1300     6.7740     2.3850 
  136.1250   -15.2390    84.8800    24.2270     7.0710     7.1730     8.0340     2.3600 
  136.2500   -15.4730    79.9880    24.1200     8.6260     8.1790     9.1360     2.3210 
  136.3750   -15.7850    77.1390    24.0420     9.4290     8.9250     9.7810     2.2710 
  136.5000   -16.1110    76.9440    24.0000     9.7120     9.3260    10.0010     2.2200 
  136.6250   -16.2410    78.4750    23.9960     9.7920     9.3930     9.9300     2.1860 
  136.7500   -16.4550    79.4130    24.0090     9.7290     9.2540     9.7470     2.1740 
  136.8750   -16.7110    78.7990    23.9730     9.5480     9.1150     9.6890     2.1760 
  137.0000   -16.7770    78.5950    23.8350     9.4150     9.1340     9.8680     2.1800 
  137.1250   -16.8160    79.3920    23.5830     9.4260     9.3560    10.2830     2.1900 
  137.2500   -16.9810    79.8080    23.2800     9.6860     9.7550    10.8520     2.2230 
  137.3750   -17.0560    78.4990    23.1300    11.0700    10.2370    11.4110     2.3040 
  137.5000   -17.0300    77.3490    23.0880    14.4290    10.6410    11.7910     2.4080 
  137.6250   -17.1580    77.8390    23.0770    18.9740    10.8490    11.8950     2.4750 
