~V
VERS. 2.00: Ver 2.00
~W
STRT.M 55.0000:
STOP.M 278.0000:
STEP.M 0.1250:
NULL. -999.2500:
UWI. DF5019:
~C
DEPT.M :
DEN.GM/CC :
GR.API :
CALI.CM :
RXO.OHMM :
RI. :
RML.OHMM :
SP.MV :
~A
# ...
  100.0000     2.3130    88.4200    24.6030     5.7010     4.7310     7.2680   -15.6040 
  100.1250     2.3250    88.4180    24.4990     6.2130     5.0230     7.6840   -15.7320 
  100.2500     2.3410    89.3120    24.3720     6.8120     5.3120     8.1000   -15.7990 
  100.3750     2.3570    88.5580    24.2220     7.7040     5.5190     8.3870   -15.8750 
  100.5000     2.3640    86.7300    24.1370     8.7070     5.5830     8.4410   -15.9090 
  100.6250     2.3520    85.1040    24.1080     8.2850     5.4690     8.2110   -15.9360 
  100.7500     2.3330    84.3150    24.0780     7.0180     5.2460     7.8310   -15.9670 
  100.8750     2.3190    83.8250    24.0610     6.0640     4.9740     7.4150   -15.9330 
  101.0000     2.3140    85.6860    24.2880     5.8390     4.7010     7.0360   -15.9090 
  101.1250     2.3110    90.5720    24.5590     5.9390     4.4620     6.7320   -15.8460 
  101.2500     2.3090    93.6780    24.8560     5.9320     4.2730     6.5030   -15.8260 
  101.3750     2.3080    93.8900    24.9560     5.8700     4.1520     6.3730   -15.8840 
  101.5000     2.3030    93.8780    24.7630     5.7700     4.1190     6.3830   -16.0610 
  101.6250     2.2850    93.5450    24.3590     5.6440     4.2220     6.6080   -16.3510 
  101.7500     2.2580    89.8550    24.1580     5.6570     4.4470     7.0220   -16.7630 
  101.8750     2.2370    83.5130    24.1360     6.1380     4.7590     7.5620   -17.2290 
  102.0000     2.2270    78.6280    24.0630     6.8660     5.0760     8.0960   -17.7570 
  102.1250     2.2210    79.6770    23.7000     7.1100     5.2890     8.4270   -18.2710 
  102.2500     2.2120    81.6470    23.4300     6.8670     5.3750     8.5190   -18.8400 
  102.3750     2.2000    80.7280    23.4530     6.7850     5.3620     8.4360   -19.3490 
  102.5000     2.1930    78.7350    23.5620     6.9670     5.3110     8.3020   -19.8190 
  102.6250     2.1950    78.5760    23.7020     7.1770     5.3000     8.2790   -20.2260 
  102.7500     2.2030    78.6220    24.0040     7.3470     5.3810     8.4360   -20.5450 
  102.8750     2.2110    76.7450    24.1380     7.5350     5.5680     8.7770   -20.8680 
  103.0000     2.2140    74.5320    24.1390     7.7330     5.8410     9.2530   -21.1240 
  103.1250     2.1990    75.1800    24.1280     8.2160     6.1640     9.7870   -21.4370 
  103.2500     2.1710    76.8550    24.1390     8.7570     6.4730    10.2760   -21.6340 
  103.3750     2.1470    76.4590    24.1500     9.1160     6.7280    10.6630   -21.8210 
  103.5000     2.1430    72.7290    24.1480     9.2770     6.9210    10.9380   -21.9230 
  103.6250     2.1580    69.6540    24.1380     9.4610     7.0460    11.1000   -21.9890 
  103.7500     2.1720    70.9460    24.1200     9.7260     7.0970    11.1340   -22.0450 
  103.8750     2.1740    75.3270    24.0500     9.8640     7.0330    10.9710   -22.0010 
  104.0000     2.1700    79.9760    23.8440     9.7720     6.8390    10.5820   -21.9300 
  104.1250     2.1790    83.6660    23.6410     9.3940     6.5440    10.0180   -21.7880 
  104.2500     2.1990    86.8530    23.5820     8.8190     6.2570     9.4750   -21.7100 
  104.3750     2.2190    87.9320    23.6260     8.2880     6.0750     9.1210   -21.6180 
  104.5000     2.2280    85.0340    23.6430     8.1130     6.0650     9.0770   -21.6060 
  104.6250     2.2250    79.9760    23.6330     8.7060     6.2720     9.4290   -21.5820 
  104.7500     2.2100    75.3850    23.6080     9.3600     6.6140    10.0210   -21.5570 
  104.8750     2.1850    73.2630    23.6070     9.7640     6.9790    10.6440   -21.4920 
  105.0000     2.1630    73.6910    23.6050     9.8230     7.2080    10.9890   -21.3740 
  105.1250     2.1620    76.9380    23.6170     9.7000     7.0730    10.6580   -21.1240 
  105.2500     2.1830    83.4520    23.7510     9.3520     6.6000     9.7550   -20.7920 
  105.3750     2.2190    91.4970    24.0370     8.4610     5.9260     8.5830   -20.3770 
  105.5000     2.2570    97.0080    24.3150     7.1710     5.2430     7.4920   -19.8740 
  105.6250     2.2810    96.1170    24.4440     6.1030     4.7490     6.7950   -19.4100 
  105.7500     2.2850    93.7540    24.5600     5.7910     4.4990     6.5200   -18.9340 
  105.8750     2.2740    91.0180    24.5560     6.1510     4.4980     6.6310   -18.5820 
  106.0000     2.2590    85.7110    24.5610     6.7460     4.6980     7.0240   -18.2700 
  106.1250     2.2510    80.0560    24.5690     7.0840     5.0050     7.5210   -18.1090 
  106.2500     2.2480    79.7860    24.5150     7.1290     5.2710     7.8930   -17.9250 
  106.3750     2.2440    84.1160    24.4700     6.9800     5.4080     8.0210   -17.7720 
  106.5000     2.2400    88.3660    24.3780     6.7290     5.4000     7.9020   -17.6230 
  106.6250     2.2430    90.3360    24.5170     6.6640     5.2700     7.6220   -17.3870 
  106.7500     2.2560    91.6810    24.5340     6.5930     5.0860     7.3150   -17.1780 
  106.8750     2.2770    92.7210    24.5780     6.3490     4.8870     7.0370   -16.9090 
  107.0000     2.3000    93.6310    24.7020     6.0740     4.7040     6.8070   -16.7140 
  107.1250     2.3170    94.4540    24.7580     5.8460     4.5840     6.6630   -16.5450 
  107.2500     2.3290    94.9980    24.8050     5.7800     4.5440     6.6300   -16.5520 
  107.3750     2.3320    95.0480    24.8110     5.8700     4.5910     6.7400   -16.6880 
  107.5000     2.3220    95.5820    24.7850     6.1730     4.7120     6.9880   -16.9400 
  107.6250     2.2930    95.2950    24.6400     6.5250     4.8740     7.2990   -17.2830 
  107.7500     2.2580    92.0000    24.5650     6.8690     5.0080     7.5050   -17.6720 
  107.8750     2.2300    86.1180    24.4480     7.1540     5.0660     7.4970   -18.0970 
  108.0000     2.2190    79.4060    24.3350     7.2790     5.0640     7.3270   -18.5380 
  108.1250     2.2340    76.8500    24.2450     7.2200     5.1370     7.2820   -18.9530 
  108.2500     2.2730    79.5220    24.1610     7.0760     5.4330     7.6320   -19.3490 
  108.3750     2.3380    84.2230    24.1520     7.4500     6.0460     8.5190   -19.7270 
  108.5000     2.4150    84.5870    24.2740     9.3470     6.9680     9.9230   -20.1240 
  108.6250     2.4640    79.8000    24.3130    14.3200     7.9830    11.4820   -20.5570 
  108.7500     2.4510    77.5400    24.4640    18.7970     8.6410    12.4110   -21.0180 
  108.8750     2.3780    78.5500    24.3660    18.2000     8.6480    12.2270   -21.5190 
  109.0000     2.2830    79.1630    24.1240    13.4220     8.0790    11.1600   -22.0210 
  109.1250     2.2140    77.7230    23.7820     9.9280     7.3090     9.9360   -22.5670 
  109.2500     2.1790    75.4630    23.6240     8.8430     6.7180     9.1140   -23.0820 
  109.3750     2.1690    72.2680    23.6350     8.6950     6.4430     8.8350   -23.5840 
  109.5000     2.1630    70.2760    23.8180     8.8560     6.4870     9.0490   -23.9850 
  109.6250     2.1490    72.0820    23.9300     9.1320     6.8060     9.6280   -24.3790 
  109.7500     2.1330    75.2600    24.0200     9.5710     7.2410    10.3120   -24.6780 
  109.8750     2.1290    76.0720    23.9970    10.0970     7.6870    10.9340   -24.9580 
  110.0000     2.1400    75.1870    23.8910    10.4340     8.0430    11.3660   -25.1690 
  110.1250     2.1550    75.1310    23.9980    10.3990     8.2140    11.4880   -25.4110 
  110.2500     2.1610    76.9610    24.1080    10.2380     8.2310    11.3790   -25.6290 
  110.3750     2.1550    79.2810    24.1370    10.1450     8.1530    11.1380   -25.8060 
  110.5000     2.1400    79.3570    24.0320    10.2200     8.0450    10.8810   -25.9740 
  110.6250     2.1260    75.7170    23.8750    10.4370     7.9620    10.7130   -26.0900 
  110.7500     2.1220    71.5460    23.7250    10.7680     7.9150    10.6430   -26.2150 
  110.8750     2.1280    68.6060    23.6360    11.1280     7.8960    10.6380   -26.3030 
  111.0000     2.1380    67.3160    23.6530    11.3490     7.8910    10.6560   -26.3760 
  111.1250     2.1430    67.2410    23.7540    11.1520     7.8870    10.6690   -26.3250 
