~V
VERS. 2.00: Ver 2.00
~W
STRT.M 55.0000:
STOP.M 271.0000:
STEP.M 0.1250:
NULL. -999.2500:
UWI. DF5028:
~C
DEPT.M :
SP.MV :
GR.API :
RML.OHMM :
RI. :
RXO.OHMM :
CALI.CM :
DEN.GM/CC :
~A
# ...
  235.0000   -23.1710    64.9900   115.6410    98.8260   136.4160    23.2920     2.2600 
  235.1250   -23.1690    66.8270   118.0260   101.1980   118.5180    23.3340     2.2700 
  235.2500   -23.1340    65.7570   119.7370   103.0450    95.1720    23.4240     2.2740 
  235.3750   -23.0940    64.6720   121.4820   104.8740    81.6980    23.5630     2.2690 
  235.5000   -23.0360    64.3990   123.5220   106.8950    80.2020    23.6830     2.2540 
  235.6250   -22.9870    62.6030   125.0930   108.6250    88.4100    23.7050     2.2390 
  235.7500   -22.9230    59.8540   124.9420   109.1380    99.2060    23.6850     2.2300 
  235.8750   -22.8550    61.6520   122.2540   107.6930   106.1880    23.6710     2.2340 
  236.0000   -22.7980    68.7080   116.9430   104.0560   106.8590    23.6600     2.2510 
  236.1250   -22.7340    74.6940   109.1530    98.2270   102.3750    23.6680     2.2810 
  236.2500   -22.6640    77.1520   100.1640    91.1630    90.5810    23.7030     2.3150 
  236.3750   -22.5530    79.3490    91.0460    83.6210    74.3360    23.7540     2.3450 
  236.5000   -22.4320    82.0190    82.8720    76.5050    60.8700    23.7870     2.3650 
  236.6250   -22.2310    80.9780    76.8630    70.8820    53.0150    23.7480     2.3720 
  236.7500   -22.0140    77.7840    73.2470    67.1390    48.9640    23.6750     2.3740 
  236.8750   -21.7420    77.4790    72.2250    65.5910    47.4960    23.6380     2.3700 
  237.0000   -21.5040    79.0330    73.7610    66.3060    45.6260    23.6550     2.3590 
  237.1250   -21.1960    77.5150    77.8810    69.3390    42.7030    23.6680     2.3380 
  237.2500   -20.9240    73.2260    83.4360    73.6800    44.5770    23.6560     2.3100 
  237.3750   -20.6480    67.6170    89.3840    78.4690    53.5240    23.6570     2.2840 
  237.5000   -20.4120    62.6570    94.6180    82.7900    69.0620    23.6580     2.2660 
  237.6250   -20.1710    61.6270    98.1180    85.8150    84.2570    23.6150     2.2650 
  237.7500   -19.9940    64.3010   100.2100    87.8050    85.6360    23.5610     2.2760 
  237.8750   -19.8350    69.4110   101.7910    89.3850    77.6500    23.5400     2.2930 
  238.0000   -19.6790    73.5340   104.1280    91.5240    70.0270    23.5620     2.3100 
  238.1250   -19.5040    74.7870   108.6670    95.5790    66.3050    23.5190     2.3200 
  238.2500   -19.3530    72.5500   115.0500   101.6100    66.9630    23.3880     2.3200 
  238.3750   -19.1790    66.8990   121.7500   108.6420    73.3140    23.3210     2.3090 
  238.5000   -19.0140    61.4320   125.9580   114.4420    85.6890    23.4040     2.2890 
  238.6250   -18.8190    59.4510   123.3950   115.2140   102.9620    23.4700     2.2700 
  238.7500   -18.5690    59.0210   113.7450   109.8550   112.8060    23.4010     2.2590 
  238.8750   -18.2910    58.6210    98.4180    98.6920   102.6310    23.3490     2.2600 
  239.0000   -17.9700    58.7860    80.4470    83.6080    82.5050    23.4760     2.2700 
  239.1250   -17.6870    62.4860    63.5290    67.5390    69.1610    23.6720     2.2810 
  239.2500   -17.3690    68.5980    49.6740    53.2870    55.5730    23.7830     2.2870 
  239.3750   -17.0930    74.6900    39.3180    42.0590    37.7820    23.8280     2.2860 
  239.5000   -16.7800    77.8690    32.1460    34.0800    25.1490    23.8650     2.2840 
  239.6250   -16.5670    78.2530    27.7920    29.2600    20.1270    23.9140     2.2850 
  239.7500   -16.3800    79.3450    25.1350    26.2860    18.0200    23.9640     2.2910 
  239.8750   -16.2630    81.2170    23.7120    24.5610    16.8450    24.0130     2.3000 
  240.0000   -16.2000    82.0690    23.2860    23.7700    15.8500    24.0500     2.3070 
  240.1250   -16.2680    81.4910    23.8860    23.9510    15.3150    24.0540     2.3060 
  240.2500   -16.3800    80.2650    25.3280    25.0370    15.3340    23.9580     2.3000 
  240.3750   -16.5710    79.0090    27.6980    27.2270    15.9000    23.7460     2.2930 
  240.5000   -16.8350    78.5370    31.2110    30.7710    16.9200    23.5430     2.2880 
  240.6250   -17.1630    78.1280    36.1870    36.0960    18.7370    23.4960     2.2810 
  240.7500   -17.5280    76.3410    42.3960    42.7810    22.3670    23.5080     2.2690 
  240.8750   -17.9430    72.1080    49.6060    50.3280    29.0870    23.4670     2.2540 
  241.0000   -18.3790    65.5730    57.3010    57.9810    39.8870    23.4200     2.2390 
  241.1250   -18.7650    59.2010    64.5620    64.5310    53.0960    23.4650     2.2340 
  241.2500   -19.1330    56.9810    70.5830    69.2570    59.9460    23.5610     2.2400 
  241.3750   -19.4500    59.7340    74.7970    71.7790    60.2370    23.6500     2.2530 
  241.5000   -19.7160    62.4980    76.9670    72.1310    60.4390    23.6960     2.2640 
  241.6250   -19.9510    61.0830    77.1270    70.6380    61.1210    23.6980     2.2640 
  241.7500   -20.1250    58.7670    76.4500    68.5560    60.9000    23.6820     2.2580 
  241.8750   -20.2440    60.9160    75.7090    66.8120    59.7620    23.6680     2.2500 
  242.0000   -20.2900    67.0130    75.5650    66.0960    57.3780    23.6520     2.2460 
  242.1250   -20.3050    70.0170    76.8470    67.1930    53.1820    23.6350     2.2480 
  242.2500   -20.3050    66.9270    79.6560    69.9580    48.8580    23.6350     2.2530 
  242.3750   -20.2780    61.5860    83.7210    73.8840    47.9050    23.6570     2.2560 
  242.5000   -20.2350    58.1520    88.2070    78.0840    52.6720    23.6910     2.2570 
  242.6250   -20.1100    57.6050    91.6490    81.1800    63.7670    23.6940     2.2600 
  242.7500   -19.9690    57.7260    92.9450    82.2660    75.8920    23.6550     2.2720 
  242.8750   -19.7600    59.8360    91.4790    80.9750    79.8630    23.5310     2.2970 
  243.0000   -19.5450    64.5220    87.7030    77.7560    70.4550    23.2180     2.3330 
  243.1250   -19.2690    68.5470    82.8160    73.6940    54.6000    22.7450     2.3680 
  243.2500   -18.9710    69.3970    78.3080    70.0440    44.2510    22.3960     2.3890 
  243.3750   -18.6330    68.3090    75.0780    67.5690    42.0300    22.3400     2.3900 
  243.5000   -18.2690    68.0260    73.5800    66.5520    45.9340    22.4940     2.3780 
  243.6250   -17.8830    70.5060    73.7810    66.8070    53.7060    22.6200     2.3710 
  243.7500   -17.4910    73.3110    74.8350    67.5100    61.5190    22.7290     2.3860 
  243.8750   -17.1270    74.2810    76.2250    68.1740    67.1350    22.9360     2.4250 
  244.0000   -16.7860    73.2270    77.5180    68.4750    70.7660    23.2240     2.4800 
  244.1250   -16.4750    72.6920    78.4660    68.3610    76.1870    23.4430     2.5310 
  244.2500   -16.2030    73.0090    79.2040    68.1830    83.6510    23.5300     2.5610 
  244.3750   -15.9360    72.9450    79.6850    68.0780    87.6710    23.5770     2.5630 
  244.5000   -15.6820    71.4100    79.4460    67.7920    78.3950    23.6520     2.5380 
  244.6250   -15.4370    68.2190    77.4160    66.5050    65.9480    23.7010     2.5010 
  244.7500   -15.2300    64.8860    73.1840    63.6170    59.7780    23.6930     2.4710 
  244.8750   -15.0220    62.9120    66.8480    58.9180    56.6270    23.6510     2.4600 
  245.0000   -14.8090    62.3060    59.3150    52.8420    51.6560    23.6300     2.4720 
  245.1250   -14.5840    63.6450    52.0280    46.3370    43.8990    23.6650     2.4990 
  245.2500   -14.3270    68.4780    46.0070    40.4460    36.8110    23.7150     2.5270 
  245.3750   -14.0820    76.3680    41.6170    35.7350    32.1680    23.8220     2.5500 
  245.5000   -13.8140    82.7450    38.6740    32.3800    31.5290    23.9950     2.5660 
  245.6250   -13.5820    81.8100    36.9860    30.4040    37.9020    24.0720     2.5780 
  245.7500   -13.3380    77.5890    35.6990    29.0590    50.5670    23.9960     2.5870 
  245.8750   -13.1120    73.5630    34.0450    27.6590    68.0260    23.8470     2.5930 
  246.0000   -12.8620    68.3870    31.4740    25.6840    77.5370    23.7250     2.5950 
  246.1250   -12.6360    59.4420    27.7430    22.9290    61.5730    23.7260     2.6010 
