~V
VERS. 2.00: Ver 2.00
~W
STRT.M 55.0000:
STOP.M 253.0000:
STEP.M 0.1250:
NULL. -999.2500:
UWI. DF5051:
~C
DEPT.M :
SP.MV :
GR.API :
RML.OHMM :
RI. :
RXO.OHMM :
CALI.CM :
DEN.GM/CC :
~A
# ...
  190.0000    -8.7550    94.0790    12.9900    10.6670    12.9890    24.6320     2.5170 
  190.1250    -9.1240    83.7940    13.7470    11.4020    14.3570    24.6330     2.5360 
  190.2500    -9.5360    80.9170    13.7840    11.6010    14.7480    24.6390     2.5370 
  190.3750    -9.9530    84.7420    13.1390    11.2670    13.8960    24.6540     2.5220 
  190.5000   -10.3730    89.4300    12.0010    10.5810    12.1860    24.6830     2.4950 
  190.6250   -10.7110    89.6330    10.8400     9.8190    10.8520    24.7080     2.4660 
  190.7500   -11.0230    86.7800    10.0350     9.1980     9.9030    24.7360     2.4400 
  190.8750   -11.2790    84.6600     9.7840     8.7820     9.4610    24.7540     2.4200 
  191.0000   -11.5260    86.9650     9.7570     8.5630     9.2560    24.7470     2.4080 
  191.1250   -11.7460    92.7380     9.8920     8.5230     9.3430    24.7050     2.4030 
  191.2500   -11.9350    94.6610    10.1220     8.6080     9.7290    24.6600     2.4040 
  191.3750   -12.0920    91.4990    10.4490     8.8120    10.1110    24.6160     2.4090 
  191.5000   -12.1790    86.5630    10.8850     9.1360    10.2900    24.5890     2.4210 
  191.6250   -12.2710    83.2830    11.4150     9.5680    10.7130    24.5820     2.4420 
  191.7500   -12.3320    82.3850    11.9330    10.0190    11.5210    24.5810     2.4690 
  191.8750   -12.4070    85.0220    12.3330    10.4030    12.5250    24.5810     2.4930 
  192.0000   -12.4230    89.5610    12.5360    10.6450    13.2470    24.5820     2.5040 
  192.1250   -12.4000    89.4210    12.5030    10.6900    13.0720    24.5850     2.5000 
  192.2500   -12.3440    85.5670    12.3450    10.6010    12.7110    24.5880     2.4930 
  192.3750   -12.2230    83.8960    12.1350    10.4310    12.4110    24.5870     2.4940 
  192.5000   -12.0690    89.1690    11.9030    10.2110    12.2940    24.5770     2.5050 
  192.6250   -11.7920    98.0690    11.5850     9.9210    12.2140    24.5490     2.5200 
  192.7500   -11.3860   100.3360    11.1240     9.5340    11.8600    24.5250     2.5260 
  192.8750   -10.8470    96.5180    10.5200     9.0540    11.1460    24.5480     2.5160 
  193.0000   -10.2510    93.2940     9.8730     8.5460    10.5460    24.5590     2.4930 
  193.1250    -9.5270    94.1670     9.4020     8.1590     9.7690    24.4810     2.4670 
  193.2500    -8.8070    93.8370     9.2420     7.9950     9.0590    24.3920     2.4510 
  193.3750    -8.1330    88.0410     9.4160     8.0810     8.8020    24.4060     2.4500 
  193.5000    -7.4860    79.4320     9.8120     8.3510     9.3490    24.4910     2.4620 
  193.6250    -6.8950    74.8550    10.1690     8.6320    10.1920    24.5480     2.4770 
  193.7500    -6.3560    76.7220    10.2380     8.7270    10.5330    24.5500     2.4870 
  193.8750    -5.9090    79.9230     9.9200     8.5380     9.9880    24.4960     2.4870 
  194.0000    -5.5260    76.3730     9.2840     8.0920     8.8330    24.3900     2.4790 
  194.1250    -5.2840    64.4390     8.5570     7.5280     7.6250    24.2630     2.4670 
  194.2500    -5.1080    52.6090     7.9930     7.0480     6.8130    24.1750     2.4550 
  194.3750    -4.9790    47.2400     7.6950     6.7450     6.5450    24.1340     2.4460 
  194.5000    -4.9470    47.8200     7.6480     6.6380     6.6230    24.1230     2.4410 
  194.6250    -4.9920    49.3980     7.7910     6.7140     6.7580    24.1240     2.4400 
  194.7500    -5.1660    51.1760     8.0020     6.8820     6.9170    24.1390     2.4420 
  194.8750    -5.3910    54.3200     8.2200     7.0930     7.0920    24.1780     2.4470 
  195.0000    -5.6300    56.7250     8.4110     7.3040     7.2600    24.2260     2.4530 
  195.1250    -5.8930    60.4670     8.5490     7.4820     7.4160    24.2750     2.4550 
  195.2500    -6.1030    69.3750     8.6350     7.6170     7.5740    24.3450     2.4520 
  195.3750    -6.2860    79.1220     8.6800     7.7100     7.7020    24.4170     2.4420 
  195.5000    -6.3930    83.3730     8.7040     7.7730     7.7230    24.4620     2.4300 
  195.6250    -6.4910    85.6220     8.7410     7.8220     7.7840    24.4930     2.4200 
  195.7500    -6.5330    90.0070     8.8030     7.8680     7.9810    24.5120     2.4160 
  195.8750    -6.5670    92.1970     8.8770     7.9030     8.2890    24.5290     2.4180 
  196.0000    -6.6070    89.9180     8.9300     7.9070     8.6540    24.5320     2.4240 
  196.1250    -6.6540    88.4140     8.9090     7.8450     8.6550    24.4660     2.4260 
  196.2500    -6.7410    89.9020     8.8040     7.7180     8.4840    24.3660     2.4210 
  196.3750    -6.8600    90.4720     8.6320     7.5440     8.0240    24.3420     2.4080 
  196.5000    -7.0460    86.4120     8.4510     7.3680     7.3800    24.3610     2.3890 
  196.6250    -7.2110    80.1510     8.3770     7.2780     7.2010    24.3890     2.3680 
  196.7500    -7.4090    76.3840     8.4710     7.3330     7.4420    24.4220     2.3500 
  196.8750    -7.6260    74.4020     8.7740     7.5800     8.1170    24.4610     2.3380 
  197.0000    -7.8880    73.3390     9.3280     8.0410     9.0680    24.4740     2.3320 
  197.1250    -8.1880    73.7390    10.1490     8.7350     9.9650    24.4640     2.3330 
  197.2500    -8.5110    74.6980    11.2250     9.5820    10.9340    24.4760     2.3340 
  197.3750    -8.8390    75.1740    12.4920    10.5230    12.0090    24.4900     2.3310 
  197.5000    -9.1340    78.0110    13.8540    11.5070    13.3700    24.4660     2.3240 
  197.6250    -9.5090    82.2790    15.2120    12.4950    15.2950    24.4060     2.3160 
  197.7500    -9.8870    83.3450    16.1740    13.4820    16.9360    24.3880     2.3120 
  197.8750   -10.2840    81.6890    17.1550    14.4800    17.4160    24.4610     2.3120 
  198.0000   -10.6590    80.1970    18.1790    15.5010    17.0760    24.5190     2.3160 
  198.1250   -10.9980    77.6340    19.2530    16.5400    17.4720    24.4850     2.3210 
  198.2500   -11.3000    74.1920    20.3330    17.5650    19.2700    24.3910     2.3230 
  198.3750   -11.5890    73.3440    21.3520    18.5260    21.5240    24.2670     2.3210 
  198.5000   -11.8740    74.8310    22.2490    19.3670    23.3480    24.1750     2.3160 
  198.6250   -12.1110    73.7350    22.9210    20.0300    24.0200    24.1340     2.3090 
  198.7500   -12.3290    71.4140    23.4030    20.5980    23.9210    24.1580     2.3030 
  198.8750   -12.5100    70.9940    24.0130    21.2320    23.7190    24.2620     2.2960 
  199.0000   -12.7160    71.7880    25.0650    22.1910    24.5210    24.4180     2.2880 
  199.1250   -12.9160    70.9010    27.7360    23.9800    27.0900    24.5190     2.2800 
  199.2500   -13.1770    70.0360    32.1390    26.9070    31.3370    24.5030     2.2760 
  199.3750   -13.4660    70.0050    38.7850    31.3030    37.0230    24.3280     2.2790 
  199.5000   -13.7780    68.1960    47.6920    37.3670    43.1970    23.9910     2.2900 
  199.6250   -14.0940    64.5540    56.9820    45.2890    50.1980    23.7220     2.3010 
  199.7500   -14.4160    63.0300    67.1690    54.2940    59.4820    23.7080     2.3030 
  199.8750   -14.7750    63.8400    77.2520    63.5380    70.8330    23.9750     2.2900 
  200.0000   -15.0970    64.6060    86.0400    71.9490    79.3690    24.3590     2.2660 
  200.1250   -15.4340    62.7840    91.9220    78.0560    85.4120    24.6390     2.2410 
  200.2500   -15.7220    59.4410    94.7880    81.5630    88.8660    24.7290     2.2240 
  200.3750   -16.0020    58.0010    95.0830    82.6860    89.3470    24.7220     2.2170 
  200.5000   -16.2810    60.9500    93.9950    82.3170    86.7100    24.7000     2.2210 
  200.6250   -16.5330    65.4860    93.1500    81.8100    82.8010    24.6920     2.2320 
  200.7500   -16.8000    66.5900    93.5820    82.2480    81.5780    24.6910     2.2450 
  200.8750   -17.0070    64.2360    95.4910    83.9740    84.3280    24.6910     2.2560 
  201.0000   -17.2150    60.9640    98.5070    86.8020    89.2170    24.6910     2.2620 
  201.1250   -17.3900    59.8370   101.8450    90.1680    94.1510    24.6900     2.2610 
