~V
VERS. 2.00: Ver 2.00
~W
STRT.M 53.0000:
STOP.M 257.0000:
STEP.M 0.1250:
NULL. -999.2500:
UWI. DF5014:
~C
DEPT.M :
GR.API :
RML.OHMM :
RI. :
RXO.OHMM :
CALI.CM :
DEN.GM/CC :
SP.MV :
~A
# ...
  188.0000    60.0750   232.8740   203.3310   140.3570    24.3290     2.2150    -9.2150 
  188.1250    61.2680   241.1360   210.6630   147.7920    24.3220     2.2060    -9.4200 
  188.2500    59.9700   241.3540   211.8310   153.7160    24.3020     2.1990    -9.5600 
  188.3750    60.6840   230.9820   204.5510   154.6870    24.2560     2.1970    -9.6400 
  188.5000    63.4840   214.1360   191.6190   148.1480    24.2170     2.1990    -9.6800 
  188.6250    64.1250   194.9260   176.0490   134.9990    24.2060     2.2060    -9.7240 
  188.7500    61.7680   176.8690   160.7810   119.8600    24.2180     2.2170    -9.7200 
  188.8750    61.3960   162.2130   148.1250   109.2720    24.2460     2.2280    -9.7380 
  189.0000    65.1450   150.3460   138.0820   105.1940    24.2630     2.2350    -9.7900 
  189.1250    68.9630   140.5850   130.0470   105.1470    24.2720     2.2380    -9.9020 
  189.2500    69.7600   131.7930   123.0510    99.3620    24.2830     2.2380   -10.0680 
  189.3750    66.8520   123.6260   115.9980    88.7370    24.2970     2.2380   -10.2710 
  189.5000    64.8000   115.0800   108.2170    82.6740    24.2760     2.2410   -10.4650 
  189.6250    65.1690   106.5490    99.7140    80.3990    24.2050     2.2500   -10.6270 
  189.7500    67.9890    98.5010    91.0300    75.9820    24.0540     2.2620   -10.7650 
  189.8750    70.3690    89.2280    83.2180    66.4590    23.8780     2.2740   -10.8460 
  190.0000    70.4990    82.0250    76.9060    58.4220    23.7030     2.2820   -10.8530 
  190.1250    67.3890    77.0290    72.3550    54.1940    23.6160     2.2850   -10.8110 
  190.2500    63.7140    73.9400    69.4520    52.3380    23.6080     2.2820   -10.7470 
  190.3750    64.4240    72.3040    67.9270    51.7890    23.5170     2.2780   -10.6680 
  190.5000    67.7880    71.2230    67.0080    51.3310    23.2730     2.2760   -10.5550 
  190.6250    69.4550    70.3230    66.3310    51.1160    23.0160     2.2780   -10.4280 
  190.7500    67.5620    69.5830    65.8170    50.7790    22.9270     2.2860   -10.3200 
  190.8750    65.2570    69.4510    65.7930    51.8160    23.0730     2.2940   -10.2490 
  191.0000    65.7860    70.3150    66.6020    54.2290    23.2390     2.2970   -10.1740 
  191.1250    67.7320    72.4350    68.5070    56.4580    23.3640     2.2930   -10.0950 
  191.2500    69.1330    75.7570    71.5210    58.5990    23.5170     2.2820    -9.9850 
  191.3750    68.9380    79.8480    75.3240    60.8720    23.7550     2.2690    -9.8970 
  191.5000    68.1170    83.6380    78.9610    62.6270    23.9420     2.2570    -9.8360 
  191.6250    67.6210    86.1310    81.4900    64.3220    23.9980     2.2490    -9.8110 
  191.7500    68.6760    86.5180    82.0780    65.5900    23.9680     2.2460    -9.7780 
  191.8750    71.6740    84.2620    80.0550    65.1670    23.9000     2.2480    -9.7090 
  192.0000    73.0940    80.5610    76.4290    63.2120    23.7190     2.2550    -9.6530 
  192.1250    71.2570    76.6400    72.3210    58.5710    23.3780     2.2650    -9.6150 
  192.2500    67.2940    73.6520    68.8880    51.2240    23.0100     2.2760    -9.5890 
  192.3750    63.9390    72.8180    67.3880    48.5730    22.8460     2.2850    -9.5240 
  192.5000    63.8020    74.3250    68.1010    52.7620    22.9730     2.2900    -9.4460 
  192.6250    66.7580    78.3290    71.1700    62.1160    23.3320     2.2930    -9.3460 
  192.7500    71.4460    84.8510    76.5720    71.8040    23.7930     2.2920    -9.2420 
  192.8750    74.1250    94.2080    84.5820    80.5380    24.1470     2.2870    -9.1340 
  193.0000    73.4500   105.6420    94.5870    91.7820    24.2940     2.2780    -9.0230 
  193.1250    70.1420   118.4710   106.0840   102.6570    24.3270     2.2660    -8.9020 
  193.2500    64.0730   131.6620   118.2440   107.7920    24.3290     2.2530    -8.8090 
  193.3750    59.1390   143.5590   129.6860   110.0480    24.3290     2.2430    -8.7320 
  193.5000    58.4760   152.9550   139.1910   115.4770    24.3290     2.2360    -8.6720 
  193.6250    62.0640   159.1800   145.9980   122.2110    24.3270     2.2350    -8.5810 
  193.7500    64.2330   162.2590   149.9290   127.1530    24.3180     2.2390    -8.4990 
  193.8750    60.7770   162.0660   150.6810   125.2940    24.2950     2.2480    -8.4270 
  194.0000    58.7450   159.0380   148.6630   119.7050    24.2710     2.2570    -8.3650 
  194.1250    60.9400   152.7620   143.5920   115.8590    24.2620     2.2600    -8.2610 
  194.2500    63.8350   142.8400   135.2170   113.1070    24.2620     2.2570    -8.1020 
  194.3750    63.7370   128.9220   123.1850   107.2050    24.2630     2.2520    -7.8740 
  194.5000    62.9830   113.0210   109.0920    98.1530    24.2590     2.2510    -7.6450 
  194.6250    64.6570    97.4590    94.8020    85.8680    24.2460     2.2560    -7.4120 
  194.7500    68.6660    84.9280    82.6960    71.6630    24.2190     2.2680    -7.1810 
  194.8750    72.8020    79.1260    76.3400    57.7220    24.2140     2.2790    -6.9830 
  195.0000    72.8160    81.3120    77.3840    50.6830    24.2290     2.2830    -6.8340 
  195.1250    67.8720    92.7750    87.4450    55.8390    24.2480     2.2770    -6.7300 
  195.2500    63.3160   113.3500   106.7330    77.1840    24.2580     2.2610    -6.6940 
  195.3750    61.3750   140.4790   133.1020   114.4270    24.2640     2.2420    -6.7490 
  195.5000    58.1280   166.2590   158.7260   153.3930    24.2660     2.2240    -6.8250 
  195.6250    53.3070   183.5410   176.4760   175.0190    24.2640     2.2110    -6.9430 
  195.7500    52.1040   187.9820   181.8590   167.7130    24.2540     2.2060    -7.0660 
  195.8750    56.7690   180.7510   175.2830   146.3640    24.2160     2.2060    -7.1830 
  196.0000    59.8980   171.9350   166.0420   126.4440    24.1450     2.2110    -7.2830 
  196.1250    58.3980   167.4080   160.0450   120.3990    24.0910     2.2160    -7.4300 
  196.2500    53.9060   168.7880   159.4540   129.8030    24.1170     2.2230    -7.5920 
  196.3750    51.2380   175.0590   163.7590   135.5310    24.1880     2.2280    -7.7460 
  196.5000    53.2710   182.6450   169.6990   137.9500    24.2670     2.2330    -7.8910 
  196.6250    57.5950   189.1670   175.1230   138.7350    24.3080     2.2360    -8.0960 
  196.7500    58.0520   193.0240   178.5710   139.8970    24.3200     2.2380    -8.3190 
  196.8750    55.5060   193.3410   179.2130   141.2190    24.3200     2.2420    -8.5460 
  197.0000    57.6300   191.4430   178.0200   139.9660    24.3210     2.2460    -8.7650 
  197.1250    62.6620   188.3760   175.8090   135.6040    24.3230     2.2510    -8.9510 
  197.2500    64.1060   184.8930   173.2200   129.1680    24.3220     2.2530    -9.0880 
  197.3750    61.6440   181.0310   170.3800   120.8690    24.3210     2.2520    -9.2230 
  197.5000    59.2680   176.0940   166.7500   112.8760    24.3220     2.2460    -9.3690 
  197.6250    57.9740   169.0390   161.3670   106.0500    24.3380     2.2390    -9.4570 
  197.7500    59.7130   159.1370   153.3850   101.7420    24.3800     2.2310    -9.4980 
  197.8750    66.6900   146.3440   142.3720   102.6890    24.4360     2.2270    -9.5150 
  198.0000    72.1340   132.7160   130.0150   100.8770    24.4600     2.2270    -9.5130 
  198.1250    71.5230   120.1510   118.0810    92.1000    24.4650     2.2300    -9.5210 
  198.2500    66.4840   110.1850   108.1930    79.8880    24.4770     2.2350    -9.5410 
  198.3750    62.0980   104.1350   101.8250    72.3290    24.5070     2.2390    -9.5470 
  198.5000    61.4040   101.2030    98.4030    69.9950    24.5320     2.2410    -9.5200 
  198.6250    62.8640   100.5690    97.2060    72.1320    24.5160     2.2390    -9.5020 
  198.7500    63.7780   101.1930    97.2790    76.2840    24.4770     2.2360    -9.5050 
  198.8750    64.2070   102.0810    97.7090    79.2390    24.4610     2.2310    -9.5010 
  199.0000    66.1590   102.6960    97.9240    80.0610    24.4560     2.2260    -9.4930 
  199.1250    68.4760   103.1820    97.9560    80.0750    24.4560     2.2230    -9.4950 
