~V
VERS. 2.00: Ver 2.00
~W
STRT.M 58.0000:
STOP.M 250.0000:
STEP.M 0.1250:
NULL. -999.2500:
UWI. DF5046:
~C
DEPT.M :
GR.API :
CALI.CM :
RXO.OHMM :
RI. :
RML.OHMM :
DEN.GM/CC :
SP.MV :
~A
# ...
   91.7500    61.5250    22.1070    16.0140    10.0840    14.7150     2.4060   -20.0260 
   91.8750    58.0050    22.3570    29.8070    14.0530    20.8030     2.5150   -20.3370 
   92.0000    57.4230    23.1790    46.6120    18.9220    28.2120     2.6120   -20.7730 
   92.1250    59.2480    24.0720    54.4080    22.2650    32.3630     2.6550   -21.2960 
   92.2500    63.4340    24.5470    48.9400    21.8950    29.8130     2.6460   -21.8340 
   92.3750    68.6360    24.6000    35.0770    18.4230    23.2120     2.5940   -22.3500 
   92.5000    70.4800    24.4400    20.6930    14.1710    16.9210     2.5090   -22.8100 
   92.6250    66.8570    24.2160    12.3220    10.9190    12.9250     2.4050   -23.1530 
   92.7500    63.9240    23.9810     8.8240     8.7830    10.6150     2.3120   -23.3560 
   92.8750    65.2830    23.7730     7.9300     7.5370     9.4900     2.2470   -23.4130 
   93.0000    69.3510    23.6120     7.8760     6.9390     9.1540     2.2130   -23.3100 
   93.1250    72.3000    23.5140     7.8910     6.8300     9.3270     2.2060   -22.9990 
   93.2500    73.6320    23.4650     7.9590     6.9440     9.6590     2.2070   -22.5240 
   93.3750    74.6700    23.4380     8.0670     7.1500     9.9970     2.2100   -21.9010 
   93.5000    74.5810    23.4210     8.1350     7.3620    10.2580     2.2080   -21.1820 
   93.6250    71.7450    23.4190     8.1930     7.4910    10.3410     2.2040   -20.4480 
   93.7500    67.7530    23.4170     8.2540     7.4810    10.1910     2.2030   -19.7730 
   93.8750    66.0560    23.3950     8.1210     7.2950     9.7800     2.2100   -19.1980 
   94.0000    69.7690    23.3640     7.5900     6.9460     9.1670     2.2320   -18.7660 
   94.1250    77.5220    23.4830     6.7980     6.4990     8.4940     2.2690   -18.6070 
   94.2500    83.1760    23.8420     6.1970     6.0650     7.9200     2.3030   -18.6780 
   94.3750    83.3920    24.3250     5.9460     5.7090     7.5210     2.3200   -18.9440 
   94.5000    79.8680    24.6680     5.9250     5.4610     7.3130     2.3200   -19.3450 
   94.6250    78.3910    24.6780     5.9050     5.3440     7.2940     2.3180   -19.8300 
   94.7500    79.0360    24.5690     5.8090     5.3230     7.3920     2.3200   -20.3250 
   94.8750    79.2480    24.4680     5.7600     5.3840     7.5700     2.3170   -20.8090 
   95.0000    77.1620    24.3320     5.9040     5.5150     7.8090     2.3030   -21.2670 
   95.1250    76.1340    24.1070     6.2480     5.7130     8.1060     2.2770   -21.6210 
   95.2500    77.3070    23.8640     6.5860     5.9530     8.4410     2.2530   -21.9070 
   95.3750    76.5590    23.6780     6.8310     6.2120     8.7960     2.2390   -22.1480 
   95.5000    73.0510    23.5640     7.0220     6.4570     9.1350     2.2340   -22.3650 
   95.6250    69.7500    23.5190     7.2250     6.6480     9.4000     2.2270   -22.5710 
   95.7500    68.2490    23.5030     7.4420     6.7690     9.5680     2.2140   -22.7830 
   95.8750    67.8670    23.4780     7.6120     6.8160     9.6350     2.2000   -23.0090 
   96.0000    67.2410    23.4550     7.6800     6.7960     9.6100     2.1910   -23.2430 
   96.1250    65.9630    23.4480     7.6550     6.7210     9.5050     2.1880   -23.4860 
   96.2500    64.6960    23.4490     7.6250     6.6230     9.3670     2.1850   -23.7130 
   96.3750    65.2500    23.4470     7.6340     6.5300     9.2460     2.1820   -23.9130 
   96.5000    67.3480    23.4360     7.6670     6.4720     9.2050     2.1800   -24.0850 
   96.6250    67.5720    23.4170     7.6640     6.4890     9.3090     2.1770   -24.2000 
   96.7500    66.5080    23.4000     7.7290     6.5700     9.5170     2.1750   -24.2740 
   96.8750    67.2260    23.4820     8.0140     6.6950     9.7640     2.1790   -24.3080 
   97.0000    69.2810    23.7790     8.4340     6.8310     9.9670     2.1960   -24.3110 
   97.1250    71.5290    24.1260     8.5810     6.9290    10.0250     2.2160   -24.3170 
   97.2500    74.8920    24.1810     8.4190     6.9650     9.9380     2.2170   -24.3080 
   97.3750    77.6240    23.9290     8.2090     6.9410     9.7500     2.2030   -24.2440 
   97.5000    75.1710    23.6300     8.1060     6.8760     9.5260     2.1870   -24.0970 
   97.6250    67.8290    23.5040     8.0250     6.8010     9.3430     2.1830   -23.8370 
   97.7500    64.0800    23.4620     7.9040     6.7500     9.2360     2.1870   -23.4200 
   97.8750    65.6450    23.4490     7.7830     6.7340     9.2030     2.1900   -22.8300 
   98.0000    68.1860    23.4480     7.6570     6.7350     9.2010     2.1870   -22.0970 
   98.1250    69.9850    23.4450     7.5220     6.6950     9.1220     2.1780   -21.2760 
   98.2500    71.0660    23.4740     7.4250     6.5580     8.8790     2.1750   -20.4560 
   98.3750    71.0150    23.5860     7.2760     6.2940     8.4390     2.1830   -19.7180 
   98.5000    71.1400    23.7740     6.8100     5.9230     7.8450     2.2000   -19.1080 
   98.6250    72.9030    24.0030     5.9010     5.5040     7.2010     2.2290   -18.7580 
   98.7500    76.0230    24.2510     5.0890     5.1130     6.6190     2.2640   -18.7020 
   98.8750    78.2870    24.4460     4.8180     4.8010     6.1710     2.2900   -18.9610 
   99.0000    79.9740    24.4920     5.0560     4.6100     5.9180     2.2960   -19.4860 
   99.1250    80.2390    24.3910     5.2940     4.6040     5.9600     2.2890   -20.2030 
   99.2500    77.6310    24.3800     5.4960     4.7690     6.2810     2.2970   -20.9800 
   99.3750    72.7230    24.5020     6.3270     5.0930     6.8570     2.3180   -21.7490 
   99.5000    68.0290    24.5260     8.0660     5.5340     7.5950     2.3290   -22.4630 
   99.6250    67.7050    24.2260     9.3140     5.9960     8.2890     2.3060   -23.0070 
   99.7500    70.5530    23.8570     8.9850     6.3600     8.7400     2.2610   -23.3780 
   99.8750    73.7480    23.6970     7.8210     6.5600     8.8840     2.2170   -23.5560 
  100.0000    74.5420    23.7600     7.0780     6.6000     8.7980     2.1910   -23.5610 
  100.1250    71.3980    23.8190     7.0560     6.5410     8.6390     2.1890   -23.3940 
  100.2500    68.0170    23.7670     7.2030     6.4760     8.5240     2.1910   -23.1730 
  100.3750    67.5070    23.6520     7.3140     6.4180     8.4330     2.1870   -22.9660 
  100.5000    69.4020    23.5560     7.3020     6.3290     8.2880     2.1740   -22.8290 
  100.6250    70.8120    23.4890     7.0160     6.1680     8.0290     2.1670   -22.8130 
  100.7500    73.5350    23.4240     6.5050     5.9750     7.7470     2.1750   -22.8930 
  100.8750    78.9040    23.3760     6.0320     5.8280     7.5700     2.1980   -23.0590 
  101.0000    82.7690    23.3730     5.9710     5.8130     7.6350     2.2250   -23.3040 
  101.1250    79.5340    23.4010     6.4920     6.0310     8.0930     2.2430   -23.6460 
  101.2500    73.5190    23.4150     7.1650     6.4480     8.8680     2.2460   -24.0060 
  101.3750    70.5750    23.4270     7.6900     6.9910     9.8110     2.2420   -24.3290 
  101.5000    71.8530    23.4560     7.9970     7.5300    10.6600     2.2390   -24.5790 
  101.6250    71.4910    23.4930     8.1090     7.8590    11.0320     2.2390   -24.7410 
  101.7500    68.7420    23.5160     8.1020     7.9170    10.9020     2.2330   -24.8200 
  101.8750    66.9580    23.5270     8.0390     7.7530    10.4500     2.2180   -24.8310 
  102.0000    66.4700    23.5420     7.9780     7.4870     9.9390     2.2040   -24.7560 
  102.1250    64.7910    23.5640     7.9420     7.2480     9.5970     2.2060   -24.5990 
  102.2500    63.9030    23.5800     7.9420     7.0970     9.4570     2.2210   -24.4150 
  102.3750    65.2140    23.5870     7.9770     7.0370     9.4790     2.2330   -24.2300 
  102.5000    65.7700    23.5830     7.9960     7.0360     9.5870     2.2310   -24.0730 
  102.6250    64.3980    23.5580     7.9500     7.0620     9.7210     2.2170   -23.9630 
  102.7500    64.2210    23.5160     7.8950     7.0950     9.8650     2.2050   -23.9270 
  102.8750    64.2070    23.4710     7.8990     7.1450    10.0310     2.1980   -23.9810 
