~V
VERS. 2.00: Ver 2.00
~W
STRT.M 50.0000:
STOP.M 260.0000:
STEP.M 0.1250:
NULL. -999.2500:
UWI. DF5023:
~C
DEPT.M :
GR.API :
RML.OHMM :
RI. :
RXO.OHMM :
CALI.CM :
DEN.GM/CC :
SP.MV :
~A
# ...
  173.7500    64.5500   168.3170   172.7480   126.2660    24.3600     2.1930   -31.9680 
  173.8750    65.9950   146.0640   150.3750    98.4600    24.3210     2.2060   -31.6730 
  174.0000    65.4120   127.9160   131.7640    84.8460    24.3170     2.2210   -31.4310 
  174.1250    64.1350   114.7310   117.9840    79.5480    24.3820     2.2370   -31.2370 
  174.2500    63.9510   105.7850   108.4990    81.2210    24.4980     2.2500   -31.0610 
  174.3750    64.2770   100.9940   103.2800    79.2670    24.5750     2.2560   -30.8860 
  174.5000    63.8390   100.2200   102.1800    74.0220    24.6000     2.2560   -30.7710 
  174.6250    63.8030   103.7220   105.4750    71.1750    24.5910     2.2490   -30.6810 
  174.7500    64.7610   109.8340   111.4890    74.4390    24.6160     2.2400   -30.6100 
  174.8750    64.4360   116.8840   118.4940    89.2430    24.6940     2.2310   -30.4880 
  175.0000    62.7610   122.8590   124.4550   111.7610    24.7700     2.2240   -30.3810 
  175.1250    63.7390   125.2030   126.8450   125.2290    24.8430     2.2210   -30.3040 
  175.2500    66.2990   123.6160   125.2380   128.3670    24.9200     2.2230   -30.2160 
  175.3750    65.9630   118.9500   120.2870   118.7990    24.9950     2.2310   -30.1600 
  175.5000    62.8990   113.2060   113.7770    98.8790    25.0650     2.2420   -30.0570 
  175.6250    65.0780   109.2060   108.4350    79.6460    25.1250     2.2530   -29.9660 
  175.7500    70.5370   108.6790   106.2920    73.0340    25.1720     2.2600   -29.7920 
  175.8750    72.6210   112.4690   108.4680    76.5380    25.2090     2.2610   -29.7090 
  176.0000    69.4270   120.5150   115.0030    86.6900    25.2370     2.2570   -29.5080 
  176.1250    66.0900   132.3510   125.3610   102.7900    25.2400     2.2480   -29.3840 
  176.2500    65.6290   145.6850   137.2750   120.9030    25.2190     2.2390   -29.2210 
  176.3750    64.9150   158.3570   148.8260   132.1650    25.1810     2.2320   -29.0940 
  176.5000    62.8030   167.8690   157.7900   131.3860    25.1300     2.2260   -28.9530 
  176.6250    64.0350   170.8520   161.1240   133.4200    25.0690     2.2200   -28.8530 
  176.7500    69.2910   167.3230   158.6730   136.0800    25.0050     2.2130   -28.8240 
  176.8750    72.6370   158.1650   150.9910   139.3490    24.9420     2.2080   -28.7680 
  177.0000    70.2950   145.2900   139.5950   134.4030    24.8850     2.2080   -28.8120 
  177.1250    67.1850   131.3650   126.7110   115.2670    24.8410     2.2190   -28.7800 
  177.2500    68.5160   119.1140   114.9460    89.9860    24.8070     2.2380   -28.7970 
  177.3750    71.7430   109.9430   105.8120    72.3710    24.7750     2.2610   -28.7950 
  177.5000    73.5320   104.4680   100.2510    65.3740    24.7430     2.2790   -28.8300 
  177.6250    73.3760   103.1720    99.0650    67.2240    24.7130     2.2850   -28.8790 
  177.7500    71.3960   104.6230   100.8080    76.9810    24.6780     2.2790   -28.9800 
  177.8750    69.1650   107.5910   104.1730    91.1660    24.6350     2.2680   -29.0810 
  178.0000    68.4920   110.7530   107.7660   102.5770    24.5860     2.2550   -29.1970 
  178.1250    70.5780   112.6180   110.0450   103.0920    24.5280     2.2450   -29.3220 
  178.2500    72.3490   112.6220   110.3850    99.2720    24.4670     2.2390   -29.5110 
  178.3750    71.6390   110.8470   108.7690    94.7470    24.4080     2.2380   -29.6910 
  178.5000    67.8180   107.8510   105.6820    88.3670    24.3530     2.2410   -29.9110 
  178.6250    63.0210   104.3440   101.8090    79.9850    24.3060     2.2500   -30.0710 
  178.7500    63.3940   101.0420    98.0420    82.3090    24.2700     2.2620   -30.1980 
  178.8750    68.9280    98.4940    94.9700    89.7360    24.2430     2.2720   -30.3560 
  179.0000    73.6490    97.2940    93.0960    92.7980    24.2230     2.2810   -30.4600 
  179.1250    73.4550    98.4520    93.3220    88.3430    24.2120     2.2860   -30.7030 
  179.2500    72.0250   102.3760    96.1400    83.7180    24.2130     2.2900   -30.8690 
  179.3750    71.0820   109.7150   102.2510    81.3670    24.2250     2.2900   -31.1310 
  179.5000    70.2160   120.8110   112.0040    81.3670    24.2500     2.2880   -31.3510 
  179.6250    68.5160   135.8470   125.4010    93.1240    24.2860     2.2790   -31.6760 
  179.7500    66.2870   152.9740   140.5380   112.0080    24.3300     2.2650   -31.9310 
  179.8750    64.6580   170.2550   155.6570   130.4560    24.3770     2.2480   -32.1540 
  180.0000    64.8650   185.2210   168.7160   140.8030    24.4240     2.2310   -32.3640 
  180.1250    66.9310   194.7600   177.1720   141.7990    24.4680     2.2180   -32.4680 
  180.2500    67.7090   198.9560   181.0440   135.9020    24.5040     2.2090   -32.5290 
  180.3750    66.0020   198.6980   181.0950   126.3620    24.5330     2.2050   -32.4900 
  180.5000    63.5820   195.8280   178.8550   124.6480    24.5560     2.2030   -32.3770 
  180.6250    62.6810   192.6080   176.2600   130.4100    24.5710     2.2020   -32.2470 
  180.7500    62.3180   190.3720   174.4310   129.2570    24.5830     2.2020   -32.1390 
  180.8750    61.6780   189.0000   173.1860   122.7100    24.5920     2.2010   -32.0760 
  181.0000    61.6490   187.7500   171.8240   118.0430    24.5980     2.1990   -31.9860 
  181.1250    62.6700   185.5350   169.3490   119.0740    24.6000     2.1970   -31.8560 
  181.2500    62.2840   181.9750   165.4360   121.7630    24.6000     2.1970   -31.7200 
  181.3750    59.4240   177.3980   160.4310   124.2330    24.6000     2.2010   -31.6210 
  181.5000    57.1850   172.8590   155.4550   123.5420    24.6000     2.2100   -31.5400 
  181.6250    58.8620   170.6260   152.7790   116.9060    24.6000     2.2230   -31.3800 
  181.7500    62.0840   172.5560   154.1370   106.5280    24.6000     2.2330   -31.2600 
  181.8750    63.1920   180.0130   160.6300    99.8390    24.6000     2.2370   -31.1160 
  182.0000    62.3100   192.6760   171.8750   104.4980    24.5950     2.2320   -31.1010 
  182.1250    62.1260   207.4280   185.1790   118.4140    24.5830     2.2180   -31.0600 
  182.2500    61.7810   218.3770   195.5980   136.6130    24.5620     2.2010   -31.1100 
  182.3750    60.3030   220.7160   199.2900   150.2530    24.5350     2.1830   -31.0600 
  182.5000    59.5700   212.1490   194.2240   155.9880    24.5040     2.1690   -31.0460 
  182.6250    59.6530   193.6990   180.2490   148.4650    24.4720     2.1660   -31.1020 
  182.7500    58.5310   172.5120   162.4800   127.2280    24.4400     2.1730   -31.0800 
  182.8750    56.9040   153.3140   144.8340    98.5510    24.4100     2.1880   -31.0290 
  183.0000    58.7740   138.6140   130.2040    78.7820    24.3840     2.2020   -30.8570 
  183.1250    64.4210   129.2890   120.4960    75.7820    24.3620     2.2040   -30.7740 
  183.2500    67.8190   123.1580   114.2460    81.4910    24.3400     2.1950   -30.5880 
  183.3750    65.7110   118.6950   109.9550    91.7900    24.3160     2.1820   -30.4800 
  183.5000    61.0420   114.9660   106.4690    97.8330    24.2890     2.1760   -30.3500 
  183.6250    59.3910   111.8940   103.4330    88.0890    24.2610     2.1860   -30.2050 
  183.7500    59.9170   110.0610   101.2520    74.0290    24.2330     2.2070   -30.0660 
  183.8750    60.7440   110.4470   100.8540    67.6930    24.2060     2.2320   -29.9460 
  184.0000    62.7670   114.0190   103.2230    73.0650    24.1770     2.2510   -29.8070 
  184.1250    64.7840   122.2480   109.7670    87.9140    24.1540     2.2570   -29.6290 
  184.2500    63.7440   134.8380   120.1290   104.7470    24.1370     2.2540   -29.4130 
  184.3750    60.7460   151.5430   133.8750   114.3690    24.1300     2.2450   -29.1430 
  184.5000    62.0370   171.4090   149.9420   123.0700    24.1310     2.2330   -28.7510 
  184.6250    67.4690   192.9310   166.7480   136.3700    24.1410     2.2200   -28.3070 
  184.7500    68.7770   214.0160   182.6160   149.7510    24.1590     2.2090   -27.8450 
  184.8750    65.7460   233.4680   196.6270   162.0530    24.1810     2.2020   -27.2950 
