~V
VERS. 2.00: Ver 2.00
~W
STRT.M 55.0000:
STOP.M 250.0000:
STEP.M 0.1250:
NULL. -999.2500:
UWI. DF5052:
~C
DEPT.M :
SP.MV :
GR.API :
CALI.CM :
RXO.OHMM :
RI. :
RML.OHMM :
DEN.GM/CC :
~A
# ...
  201.2500   -20.7770    74.8140    24.1710    40.0830    37.3850    44.8970     2.1930 
  201.3750   -21.0990    71.2370    24.2500    46.5260    41.7750    50.2930     2.1880 
  201.5000   -21.4470    69.8510    24.3090    56.4410    46.4310    56.0450     2.1880 
  201.6250   -21.8220    70.8300    24.2830    67.8640    50.7630    61.3320     2.2010 
  201.7500   -22.2160    73.4890    24.2190    76.9510    54.4350    65.6050     2.2240 
  201.8750   -22.6230    76.9680    24.1340    81.2060    57.6190    69.0170     2.2480 
  202.0000   -23.0420    79.1350    24.0230    78.4800    60.8490    72.2910     2.2570 
  202.1250   -23.4750    77.7770    23.9150    77.2470    64.9160    76.4640     2.2350 
  202.2500   -23.9210    74.6560    23.8450    81.9590    70.1880    82.0410     2.2000 
  202.3750   -24.3790    72.5890    23.8270    90.2630    76.6460    89.1080     2.1740 
  202.5000   -24.8390    73.0600    23.8390    95.4500    83.8990    97.2900     2.1660 
  202.6250   -25.2820    75.0600    23.8130    93.4980    91.2640   105.8450     2.1710 
  202.7500   -25.6980    75.8120    23.6620    89.5650    97.7570   113.4170     2.1740 
  202.8750   -26.0860    74.0980    23.4040    88.0950   102.3140   118.5170     2.1700 
  203.0000   -26.4520    71.4820    23.1740    90.4630   104.1340   120.0630     2.1610 
  203.1250   -26.8050    70.4640    23.1510    93.1630   102.7020   117.5470     2.1530 
  203.2500   -27.1530    70.5230    23.2660    94.9620    99.0790   112.5180     2.1490 
  203.3750   -27.4940    70.6630    23.4130    97.2450    94.1750   106.1800     2.1470 
  203.5000   -27.8200    70.7950    23.5490    98.7160    89.1130    99.8920     2.1520 
  203.6250   -28.1190    70.6840    23.6890    93.8110    85.5240    95.4880     2.1700 
  203.7500   -28.3910    69.1400    23.8060    83.0990    84.5340    94.0130     2.1990 
  203.8750   -28.6450    66.3910    23.9530    73.4270    87.0000    96.2380     2.2380 
  204.0000   -28.8920    64.2720    24.0930    72.7550    93.2590   102.5340     2.2820 
  204.1250   -29.1380    64.1980    24.2110    87.5420   103.5240   113.5080     2.3190 
  204.2500   -29.3790    65.5090    24.2670   112.5350   116.1700   127.7080     2.3310 
  204.3750   -29.6010    68.6280    24.3480   137.8990   129.8120   143.6460     2.3070 
  204.5000   -29.7940    74.5370    24.4450   151.9410   142.8330   159.1880     2.2570 
  204.6250   -29.9480    82.0840    24.5270   149.0980   153.1310   171.2680     2.2040 
  204.7500   -30.0740    87.0850    24.5340   142.2650   160.1190   178.8770     2.1690 
  204.8750   -30.1800    86.0590    24.5050   141.3430   163.9190   182.3140     2.1520 
  205.0000   -30.2750    78.6990    24.4400   150.6480   165.3160   182.8730     2.1410 
  205.1250   -30.3610    69.8620    24.4120   165.0760   164.9120   181.5300     2.1350 
  205.2500   -30.4350    65.1460    24.3830   173.4610   163.3160   178.9450     2.1370 
  205.3750   -30.4920    64.8940    24.3580   172.4300   160.6020   175.1220     2.1460 
  205.5000   -30.5280    66.2700    24.3540   167.4050   157.0080   170.3580     2.1620 
  205.6250   -30.5410    67.6980    24.3900   164.2330   153.0960   165.3740     2.1770 
  205.7500   -30.5430    69.1320    24.4000   161.4180   149.6760   161.0780     2.1860 
  205.8750   -30.5420    69.6580    24.3970   155.4440   147.4340   158.1520     2.1860 
  206.0000   -30.5390    68.4630    24.3930   144.5640   146.8450   157.0690     2.1840 
  206.1250   -30.5240    66.3580    24.3880   134.4490   148.1960   158.1340     2.1840 
  206.2500   -30.4880    64.8010    24.3810   134.9760   150.7120   160.4840     2.1860 
  206.3750   -30.4250    64.4060    24.3840   146.6320   153.7190   163.3600     2.1820 
  206.5000   -30.3430    65.3540    24.4190   158.6840   156.5110   165.9970     2.1760 
  206.6250   -30.2620    67.7960    24.4550   159.0500   158.5140   167.7300     2.1730 
  206.7500   -30.1990    70.4690    24.4850   152.1400   159.9200   168.7980     2.1750 
  206.8750   -30.1530    72.5370    24.5050   143.4470   161.1820   169.7200     2.1780 
  207.0000   -30.1130    73.6330    24.5090   135.7440   162.8490   171.0960     2.1750 
  207.1250   -30.0560    72.8080    24.4900   132.2150   165.4010   173.4170     2.1640 
  207.2500   -29.9790    70.9490    24.4660   137.4050   168.3230   176.1050     2.1500 
  207.3750   -29.8890    69.7820    24.4550   149.7190   170.4970   177.9020     2.1380 
  207.5000   -29.8070    69.9530    24.4540   163.7070   170.5770   177.2530     2.1320 
  207.6250   -29.7490    69.9900    24.4540   173.8700   166.9630   172.4070     2.1360 
  207.7500   -29.7130    69.6450    24.4530   178.3350   159.9900   163.9580     2.1430 
  207.8750   -29.6870    70.2370    24.4490   175.2900   150.3600   152.9110     2.1450 
  208.0000   -29.6570    71.4620    24.4420   162.3110   139.3780   140.8670     2.1440 
  208.1250   -29.6110    71.1840    24.3940   139.5440   128.9100   129.8830     2.1480 
  208.2500   -29.5510    70.4840    24.2970   119.9290   120.3050   121.0800     2.1510 
  208.3750   -29.4810    71.6140    24.1970   111.0960   114.1210   114.8190     2.1500 
  208.5000   -29.4050    74.4830    24.1400   110.5850   110.1970   110.8290     2.1490 
  208.6250   -29.3220    76.1510    24.0930   108.7880   107.9260   108.4720     2.1540 
  208.7500   -29.2280    75.1120    24.0430   104.5840   105.9390   106.3560     2.1590 
  208.8750   -29.1190    72.2470    24.0790   105.0850   103.3040   103.5070     2.1600 
  209.0000   -28.9950    69.5050    24.2460   112.5830    99.3750    99.2650     2.1610 
  209.1250   -28.8610    68.4720    24.3750   121.6240    93.7940    93.3190     2.1670 
  209.2500   -28.7260    68.2210    24.4130   118.5970    87.3240    86.5360     2.1750 
  209.3750   -28.5990    67.3780    24.4270   103.3250    80.7950    79.8120     2.1780 
  209.5000   -28.4820    66.2370    24.4420    84.4210    75.0510    74.0190     2.1790 
  209.6250   -28.3750    67.0890    24.4360    71.9660    71.0490    70.1070     2.1790 
  209.7500   -28.2700    69.6010    24.3770    66.9070    68.8120    68.0660     2.1790 
  209.8750   -28.1630    71.7300    24.2490    65.9020    68.2450    67.7760     2.1820 
  210.0000   -28.0530    72.0760    24.0900    66.1650    68.9910    68.8800     2.1880 
  210.1250   -27.9460    71.3400    24.0100    67.5710    70.6040    70.9340     2.1950 
  210.2500   -27.8510    70.9420    24.0050    71.2680    72.3500    73.1750     2.1960 
  210.3750   -27.7690    70.5680    24.0590    76.2940    73.7900    75.1120     2.1860 
  210.5000   -27.6970    69.5340    24.1590    80.7680    74.6440    76.4160     2.1730 
  210.6250   -27.6180    68.5800    24.2870    83.2850    74.7750    76.9000     2.1750 
  210.7500   -27.5190    68.5570    24.4360    83.0650    74.4850    76.8970     2.1880 
  210.8750   -27.4000    69.1840    24.5750    80.3520    74.0320    76.7000     2.2000 
  211.0000   -27.2690    70.8380    24.6600    77.1330    73.6580    76.5760     2.2000 
  211.1250   -27.1480    75.2390    24.6880    75.8140    73.5030    76.6840     2.1890 
  211.2500   -27.0490    79.9300    24.6890    75.6350    73.3800    76.8270     2.1810 
  211.3750   -26.9710    80.6220    24.6810    76.8080    72.9860    76.6710     2.1800 
  211.5000   -26.9080    76.1990    24.6500    78.5910    72.0450    75.8920     2.1830 
  211.6250   -26.8550    70.4210    24.5560    79.0090    70.2950    74.1730     2.1860 
  211.7500   -26.8070    67.3150    24.3740    77.6840    67.9640    71.7550     2.1880 
  211.8750   -26.7670    67.1480    24.1120    74.6210    65.3880    69.0280     2.1880 
  212.0000   -26.7400    69.0600    23.8010    68.4110    63.0140    66.5210     2.1800 
  212.1250   -26.7340    71.1250    23.5560    59.9110    61.4080    64.8870     2.1670 
  212.2500   -26.7460    71.6450    23.4430    54.9210    60.7300    64.3010     2.1660 
  212.3750   -26.7690    70.7260    23.4440    55.8620    60.9610    64.7410     2.1850 
