~V
VERS. 2.00: Ver 2.00
~W
STRT.M 55.0000:
STOP.M 271.0000:
STEP.M 0.1250:
NULL. -999.2500:
UWI. DF5032:
~C
DEPT.M :
SP.MV :
GR.API :
CALI.CM :
RXO.OHMM :
RI. :
RML.OHMM :
DEN.GM/CC :
~A
   55.0000    -7.0710    56.6540    25.5850    -0.9620     0.1470     0.7930  -999.2500 
   55.1250    -6.9500    55.5340    25.5890    -0.9620     0.1520     0.7970  -999.2500 
   55.2500    -6.8300    54.0150    25.5830    -0.9620     0.1570     0.8020  -999.2500 
   55.3750    -6.7310    52.0790    25.5750    -0.9620     0.1640     0.8090  -999.2500 
   55.5000    -6.6700    50.8800    25.5640    -0.9620     0.1760     0.8200     2.1420 
   55.6250    -6.6730    50.4060    25.5620    -0.9620     0.1900     0.8340     2.1420 
   55.7500    -6.7510    48.9290    25.5610    -0.9620     0.2020     0.8460     2.1350 
   55.8750    -6.9130    46.3650    25.5600    -0.9620     0.2110     0.8550     2.1030 
   56.0000    -7.1540    44.2590    25.5690    -0.9620     0.2160     0.8600     2.0730 
   56.1250    -7.4630    43.8750    25.5740    -0.9620     0.2180     0.8610     2.0860 
   56.2500    -7.7980    44.3580    25.5790    -0.9620     0.2130     0.8560     2.1160 
   56.3750    -8.1290    45.1380    25.5770    -0.9620     0.2010     0.8450     2.1290 
   56.5000    -8.4250    46.1090    25.5810    -0.9620     0.1840     0.8290     2.1270 
   56.6250    -8.6590    46.7730    25.5840    -0.9620     0.1670     0.8120     2.1450 
   56.7500    -8.8300    46.8880    25.5850    -0.9620     0.1570     0.8030     2.1810 
   56.8750    -8.9400    47.1040    25.5850    -0.9620     0.1600     0.8050     2.1920 
   57.0000    -8.9900    48.5450    25.5820    -0.9620     0.1700     0.8150     2.1460 
   57.1250    -8.9710    51.0520    25.5830    -0.9620     0.1840     0.8290     2.0670 
   57.2500    -8.8950    52.4160    25.5770    -0.9620     0.2030     0.8460     2.0180 
   57.3750    -8.7680    51.3820    25.5710    -0.9620     0.2240     0.8670     2.0240 
   57.5000    -8.5970    48.7270    25.5570    -0.9620     0.2470     0.8890     2.0730 
   57.6250    -8.3770    46.4550    25.5580    -0.9620     0.2630     0.9050     2.1230 
   57.7500    -8.1150    45.0610    25.5660    -0.9620     0.2740     0.9150     2.1510 
   57.8750    -7.8170    44.0830    25.5750    -0.9620     0.2770     0.9190     2.1580 
   58.0000    -7.5020    43.5150    25.5780    -0.9620     0.2760     0.9170     2.1560 
   58.1250    -7.2170    43.8980    25.5700    -0.9620     0.2660     0.9080     2.1560 
   58.2500    -7.0150    45.0680    25.5730    -0.9620     0.2460     0.8890     2.1500 
   58.3750    -6.9430    46.7720    25.5760    -0.9620     0.2180     0.8610     2.1310 
   58.5000    -7.0450    49.0430    25.5860    -0.9620     0.1850     0.8290     2.1100 
   58.6250    -7.4070    51.3490    25.5850    -0.9620     0.1520     0.7980     2.1170 
   58.7500    -8.0420    52.4000    25.5600    -0.9620     0.1260     0.7730     2.1430 
   58.8750    -8.9900    51.5480    25.5030    -0.9620     0.1100     0.7570     2.1600 
   59.0000   -10.2780    49.4590    25.3890    -0.9620     0.1060     0.7520     2.1490 
   59.1250   -11.9540    48.1030    25.1190    -0.9030     0.1300     0.7760     2.1400 
   59.2500   -13.9200    49.5210    24.6420    -0.4160     0.2070     0.8510     2.1780 
   59.3750   -16.1080    54.8650    23.9470     1.0160     0.3810     1.0200     2.2560 
   59.5000   -18.4340    63.1880    23.1740     3.2120     0.7200     1.3480     2.3220 
   59.6250   -20.7990    70.7220    22.3910     5.8790     1.3440     1.9530     2.3170 
   59.7500   -23.0890    74.7020    21.7980     8.0350     2.2450     2.8280     2.2660 
   59.8750   -25.2180    76.3960    21.3830     9.1910     3.3620     3.9110     2.2110 
   60.0000   -27.1160    78.6120    21.1160     9.4920     4.5400     5.0540     2.1820 
   60.1250   -28.6920    80.9940    21.0110     9.4220     5.5420     6.0260     2.1820 
   60.2500   -29.9880    80.6480    20.9820     9.3470     6.2620     6.7240     2.1810 
   60.3750   -31.0310    77.5670    20.9560     9.3460     6.7120     7.1610     2.1670 
   60.5000   -31.8690    74.8040    20.9280     9.4660     6.9810     7.4210     2.1470 
   60.6250   -32.5400    74.7670    20.8930     9.6980     7.1520     7.5870     2.1380 
   60.7500   -33.1240    76.0190    20.8820     9.8780     7.2990     7.7300     2.1330 
   60.8750   -33.6590    77.0160    20.8440     9.8680     7.4540     7.8800     2.1240 
   61.0000   -34.1690    76.4870    20.7700     9.6990     7.6230     8.0450     2.1150 
   61.1250   -34.6570    74.2070    20.7060     9.6340     7.7970     8.2130     2.1250 
   61.2500   -35.1180    72.4910    20.6910     9.7770     7.9510     8.3620     2.1480 
   61.3750   -35.5360    72.2620    20.7370     9.9760     8.0680     8.4760     2.1700 
   61.5000   -35.8950    72.3400    20.8350    10.0780     8.1390     8.5450     2.1780 
   61.6250   -36.1740    71.1070    20.9260    10.1400     8.1580     8.5640     2.1710 
   61.7500   -36.3810    69.1700    20.9800    10.4940     8.1360     8.5420     2.1610 
   61.8750   -36.5230    67.3360    21.0460    11.4080     8.0860     8.4930     2.1490 
   62.0000   -36.6070    66.0240    21.1550    12.7240     8.0290     8.4380     2.1360 
   62.1250   -36.6390    65.2350    21.2340    12.9830     7.9960     8.4060     2.1290 
   62.2500   -36.6390    64.3120    21.2680    12.1220     7.9910     8.4010     2.1310 
   62.3750   -36.6220    63.5230    21.2710    10.9470     8.0060     8.4160     2.1340 
   62.5000   -36.6020    64.0360    21.2760    10.2500     8.0340     8.4430     2.1330 
   62.6250   -36.5910    66.6070    21.2840    10.0630     8.0690     8.4770     2.1360 
   62.7500   -36.5920    68.9300    21.2990     9.9810     8.1080     8.5140     2.1490 
   62.8750   -36.6030    69.1790    21.3110     9.8240     8.1440     8.5500     2.1630 
   63.0000   -36.6200    68.2500    21.3160     9.5430     8.1660     8.5720     2.1680 
   63.1250   -36.6370    68.9050    21.3150     9.2550     8.1710     8.5760     2.1610 
   63.2500   -36.6520    70.5250    21.3230     9.0750     8.1680     8.5730     2.1550 
   63.3750   -36.6590    70.5280    21.3630     8.9900     8.1670     8.5720     2.1510 
   63.5000   -36.6490    69.0360    21.4620     8.9150     8.1650     8.5710     2.1490 
   63.6250   -36.6090    68.9630    21.5870     8.7670     8.1610     8.5670     2.1460 
   63.7500   -36.5360    70.5910    21.6980     8.5550     8.1620     8.5670     2.1460 
   63.8750   -36.4280    72.0800    21.7920     8.3510     8.1730     8.5780     2.1520 
   64.0000   -36.2870    72.0630    21.8330     8.2480     8.1970     8.6010     2.1620 
   64.1250   -36.1150    70.2140    21.8320     8.3050     8.2280     8.6320     2.1700 
   64.2500   -35.9170    67.8650    21.7850     8.4790     8.2640     8.6660     2.1700 
   64.3750   -35.6930    66.4190    21.7140     8.7310     8.3010     8.7020     2.1630 
   64.5000   -35.4440    66.9340    21.6690     8.9810     8.3390     8.7390     2.1570 
   64.6250   -35.1700    68.7290    21.6630     9.1300     8.3710     8.7700     2.1630 
   64.7500   -34.8750    69.3480    21.6550     9.1250     8.3980     8.7960     2.1760 
   64.8750   -34.5570    68.1190    21.6700     8.9890     8.4290     8.8260     2.1840 
   65.0000   -34.2100    66.9960    21.6750     8.7560     8.4790     8.8750     2.1790 
   65.1250   -33.8220    68.5870    21.6730     8.5190     8.5460     8.9400     2.1660 
   65.2500   -33.3930    71.1090    21.6420     8.4100     8.6080     9.0000     2.1590 
   65.3750   -32.9250    72.5410    21.6220     8.5400     8.6430     9.0340     2.1540 
   65.5000   -32.4180    72.6840    21.6210     8.8680     8.6250     9.0160     2.1430 
   65.6250   -31.8650    72.3530    21.6360     9.1900     8.5530     8.9460     2.1230 
   65.7500   -31.2680    71.4540    21.6440     9.3810     8.5110     8.9060     2.1060 
   65.8750   -30.6230    69.8500    21.6450     9.4420     8.6030     8.9950     2.1010 
   66.0000   -29.9330    68.6110    21.6380     9.4420     8.9140     9.2970     2.1130 
   66.1250   -29.1940    68.8280    21.6130     9.5700     9.5340     9.8980     2.1430 
