~V
VERS. 2.00: Ver 2.00
~W
STRT.M 55.0000:
STOP.M 262.0000:
STEP.M 0.1250:
NULL. -999.2500:
UWI. DF5047:
~C
DEPT.M :
GR.API :
CALI.CM :
RXO.OHMM :
RI. :
RML.OHMM :
DEN.GM/CC :
SP.MV :
~A
# ...
   88.7500    90.1900    24.7350     6.5600     5.6950     6.4210     2.2520   -24.4790 
   88.8750    91.8520    24.7960     6.1970     5.7080     6.3820     2.2540   -24.3880 
   89.0000    91.7350    24.8000     6.1250     5.6150     6.2140     2.2640   -24.1990 
   89.1250    87.6280    24.7580     6.0500     5.4490     5.9820     2.2790   -24.1700 
   89.2500    85.6030    24.7760     5.6880     5.2890     5.7820     2.2960   -24.3660 
   89.3750    88.9390    24.8560     5.4140     5.1820     5.6630     2.3140   -24.5490 
   89.5000    93.6880    24.9300     5.7440     5.1570     5.6470     2.3320   -24.5830 
   89.6250    93.0210    24.9490     5.8990     5.2350     5.7540     2.3420   -24.7190 
   89.7500    86.1140    24.9300     5.9580     5.3960     5.9560     2.3350   -25.0010 
   89.8750    78.6420    24.8770     6.0080     5.6190     6.2300     2.3120   -25.2560 
   90.0000    75.1530    24.7850     6.0500     5.8640     6.5240     2.2830   -25.5280 
   90.1250    77.0760    24.6450     6.2070     6.0520     6.7390     2.2560   -25.8300 
   90.2500    79.5380    24.4660     6.4700     6.1180     6.7980     2.2370   -26.1720 
   90.3750    79.7990    24.2670     6.6090     6.0170     6.6660     2.2270   -26.5460 
   90.5000    78.7520    24.0860     6.4620     5.7540     6.3640     2.2270   -26.9130 
   90.6250    81.2630    24.0070     5.9600     5.3910     5.9920     2.2400   -27.2690 
   90.7500    87.5400    24.0550     5.4050     5.0550     5.7020     2.2590   -27.5930 
   90.8750    93.9750    24.1750     5.1640     4.8450     5.6120     2.2790   -27.8720 
   91.0000    94.2250    24.2430     5.3110     4.8490     5.8280     2.2930   -28.1210 
   91.1250    86.0200    24.1970     6.0030     5.2230     6.5550     2.3030   -28.3380 
   91.2500    77.5250    24.1620     7.0330     6.0330     7.8690     2.3180   -28.5240 
   91.3750    73.0900    24.2140     8.7860     7.4020     9.8940     2.3480   -28.6910 
   91.5000    72.0120    24.3150    11.8930     9.4550    12.6840     2.3970   -28.8770 
   91.6250    71.1710    24.3680    17.3510    12.3180    16.1320     2.4650   -29.0420 
   91.7500    68.8030    24.3740    24.6250    15.4920    19.4570     2.5340   -29.1920 
   91.8750    67.3100    24.3760    27.1540    18.1010    21.6330     2.5870   -29.4370 
   92.0000    67.6860    24.3930    23.6520    19.0980    21.7380     2.6110   -29.7370 
   92.1250    68.5350    24.3710    21.6810    17.8090    19.4660     2.5980   -30.1200 
   92.2500    68.4580    24.2400    18.0230    15.3700    16.2750     2.5530   -30.5180 
   92.3750    67.8600    23.9380    13.6900    12.7540    13.2420     2.4830   -30.8480 
   92.5000    66.4250    23.4550    10.4130    10.5640    10.9560     2.4010   -31.2140 
   92.6250    64.0480    23.0190     9.1300     9.1040     9.6510     2.3260   -31.7460 
   92.7500    62.8990    22.8850     8.8420     8.2090     9.0030     2.2670   -32.1130 
   92.8750    63.1710    23.0340     8.8320     7.7560     8.7960     2.2250   -32.3570 
   93.0000    63.4080    23.2400     8.8480     7.6090     8.8280     2.1980   -32.7630 
   93.1250    64.1340    23.3080     8.8320     7.6370     8.9180     2.1800   -33.1030 
   93.2500    65.3990    23.3160     8.7830     7.6890     8.9490     2.1650   -33.1960 
   93.3750    65.0860    23.3140     8.8210     7.7070     8.8950     2.1510   -33.2660 
   93.5000    63.3160    23.3080     9.0300     7.6720     8.7710     2.1380   -33.4520 
   93.6250    62.3190    23.2860     9.2080     7.5800     8.6000     2.1280   -33.5100 
   93.7500    62.8080    23.2660     9.0690     7.4570     8.4280     2.1230   -33.4890 
   93.8750    64.0810    23.2660     8.8530     7.3340     8.2930     2.1220   -33.5320 
   94.0000    65.5540    23.2920     8.8080     7.2450     8.2330     2.1250   -33.5320 
   94.1250    66.7160    23.3540     8.9670     7.2230     8.2810     2.1330   -33.4200 
   94.2500    68.3480    23.4400     9.1330     7.2580     8.3970     2.1420   -33.3030 
   94.3750    70.0880    23.5330     9.4270     7.3240     8.5320     2.1520   -33.2310 
   94.5000    69.0100    23.6150     9.7170     7.3800     8.6200     2.1610   -33.1290 
   94.6250    64.8920    23.6770     9.8230     7.3730     8.5940     2.1670   -32.9020 
   94.7500    61.9400    23.7250     9.4880     7.2980     8.4680     2.1700   -32.7540 
   94.8750    62.6870    23.7620     9.1050     7.1710     8.2830     2.1710   -32.6470 
   95.0000    66.1410    23.7920     8.8140     7.0240     8.0900     2.1700   -32.4280 
   95.1250    70.1080    23.7960     8.5780     6.8960     7.9370     2.1670   -32.1330 
   95.2500    74.7360    23.7660     8.4510     6.8040     7.8330     2.1630   -31.9180 
   95.3750    77.5760    23.7270     8.3250     6.7450     7.7650     2.1620   -31.7540 
   95.5000    75.4660    23.7140     8.2200     6.7000     7.7040     2.1650   -31.4880 
   95.6250    70.3230    23.7380     8.0820     6.6370     7.6160     2.1730   -31.2110 
   95.7500    69.4400    23.7440     8.0170     6.5450     7.4960     2.1790   -31.0580 
   95.8750    73.9700    23.7010     7.9640     6.4380     7.3630     2.1830   -30.8690 
   96.0000    78.1030    23.6300     7.7920     6.3390     7.2510     2.1840   -30.6040 
   96.1250    77.3320    23.5790     7.4360     6.2760     7.1940     2.1850   -30.4660 
   96.2500    74.2330    23.5550     7.3290     6.2370     7.1670     2.1880   -30.4570 
   96.3750    71.7830    23.5450     7.6460     6.1860     7.1120     2.1910   -30.3980 
   96.5000    71.3700    23.5450     8.0380     6.0680     6.9660     2.1950   -30.2740 
   96.6250    72.5900    23.5640     7.8860     5.8540     6.7070     2.2030   -30.2620 
   96.7500    74.6580    23.6480     7.2180     5.6110     6.4400     2.2140   -30.2380 
   96.8750    78.0960    23.8380     6.2240     5.4360     6.2900     2.2280   -30.0900 
   97.0000    82.5870    24.0550     5.5110     5.4190     6.3660     2.2400   -30.0180 
   97.1250    82.6280    24.0900     6.2090     5.6580     6.7470     2.2460   -30.0900 
   97.2500    75.3260    23.9080     7.3500     6.1070     7.3170     2.2430   -30.1740 
   97.3750    65.4530    23.6290     8.3200     6.6810     7.9240     2.2360   -30.2480 
   97.5000    59.9690    23.4120     8.7580     7.2400     8.3890     2.2270   -30.3230 
   97.6250    63.1040    23.3730     8.8070     7.5940     8.5330     2.2210   -30.4330 
   97.7500    68.9420    23.4430     8.8290     7.7120     8.4270     2.2160   -30.5910 
   97.8750    71.4760    23.5290     8.7600     7.6640     8.2140     2.2110   -30.8230 
   98.0000    69.7840    23.5640     8.5010     7.5710     8.0510     2.2010   -30.9880 
   98.1250    67.0090    23.5480     8.1860     7.5320     8.0140     2.1900   -31.0540 
   98.2500    66.8110    23.5540     7.9610     7.5040     7.9910     2.1820   -31.1190 
   98.3750    68.2230    23.6360     7.9570     7.3650     7.8180     2.1800   -31.2120 
   98.5000    69.0890    23.7660     8.1270     6.9910     7.3600     2.1840   -31.2870 
   98.6250    69.4880    23.8920     8.1300     6.3130     6.5750     2.1990   -31.3360 
   98.7500    70.8830    24.0870     7.0780     5.5050     5.6870     2.2220   -31.3200 
   98.8750    76.5710    24.4610     5.4060     4.7360     4.8980     2.2520   -31.2230 
   99.0000    85.1340    25.0110     4.2750     4.1230     4.3270     2.2820   -31.2750 
   99.1250    88.7930    25.5980     3.9680     3.7500     4.0510     2.2990   -31.4960 
   99.2500    86.8770    25.9830     4.0970     3.6140     4.0570     2.3020   -31.5950 
   99.3750    83.8100    25.9550     4.5160     3.7660     4.4110     2.2970   -31.6250 
   99.5000    83.2350    25.5400     5.1420     4.2790     5.2040     2.2950   -31.9210 
   99.6250    83.8080    25.1100     5.7540     5.3000     6.5860     2.3090   -32.4090 
   99.7500    82.7930    24.9100    10.1670     6.7620     8.3790     2.3370   -32.7840 
   99.8750    78.0710    24.8200    22.8670     8.4630    10.2110     2.3770   -33.3110 
