~V
VERS. 2.00: Ver 2.00
~W
STRT.M 59.0000:
STOP.M 277.0000:
STEP.M 0.1250:
NULL. -999.2500:
UWI. DF5027:
~C
DEPT.M :
GR.API :
RML.OHMM :
RI. :
RXO.OHMM :
CALI.CM :
DEN.GM/CC :
SP.MV :
~A
# ...
  104.0000    72.2050     7.2350     6.1860     6.2000    24.7700     2.2510   -38.1260 
  104.1250    70.2150     7.3870     6.2940     6.7080    24.6210     2.2480   -38.5170 
  104.2500    69.5480     7.5320     6.4110     7.1270    24.5140     2.2340   -38.9590 
  104.3750    69.3410     7.6700     6.5330     7.5420    24.4390     2.2150   -39.4800 
  104.5000    69.3120     7.8060     6.6590     7.9420    24.3660     2.1990   -39.9510 
  104.6250    69.3050     7.9790     6.8040     8.3360    24.3000     2.1990   -40.5170 
  104.7500    67.8480     8.2240     6.9880     8.5700    24.3110     2.2200   -40.9730 
  104.8750    64.1960     8.5570     7.2200     8.9180    24.4470     2.2570   -41.4300 
  105.0000    61.8180     8.9540     7.4890    10.2360    24.5500     2.2950   -41.9220 
  105.1250    64.0750     9.3590     7.7600    12.4750    24.5730     2.3090   -42.2640 
  105.2500    65.6490     9.6890     7.9870    13.3160    24.5750     2.2930   -42.5450 
  105.3750    62.8100     9.8880     8.1350    11.7320    24.5630     2.2540   -42.7210 
  105.5000    57.4000     9.9610     8.1960    10.6910    24.5240     2.2100   -42.9050 
  105.6250    56.2710     9.9400     8.1810    10.6460    24.4830     2.1790   -42.9370 
  105.7500    60.4310     9.8780     8.1290    10.4640    24.4330     2.1670   -42.9660 
  105.8750    66.1100     9.7910     8.0660    10.2880    24.3680     2.1690   -42.8670 
  106.0000    69.3200     9.6750     8.0030    10.1650    24.2800     2.1800   -42.7280 
  106.1250    68.4700     9.5410     7.9570    10.3500    24.2480     2.1920   -42.5790 
  106.2500    65.9340     9.4930     7.9750    10.6550    24.2410     2.1980   -42.4630 
  106.3750    63.5280     9.6760     8.1430    10.9750    24.2500     2.1930   -42.3600 
  106.5000    62.6240    10.2020     8.5360    11.3410    24.2870     2.1820   -42.2090 
  106.6250    63.1470    11.1460     9.2240    11.5080    24.3920     2.1820   -42.1700 
  106.7500    63.2280    12.3270    10.1020    11.5860    24.5040     2.2110   -42.0320 
  106.8750    63.1020    13.5030    11.0280    12.5300    24.5620     2.2770   -41.9680 
  107.0000    62.8990    14.3610    11.7940    15.5240    24.5760     2.3650   -41.8740 
  107.1250    62.2050    14.4900    12.1030    20.5950    24.5940     2.4290   -41.8140 
  107.2500    62.0860    13.9120    11.9080    26.2240    24.5150     2.4330   -41.7850 
  107.3750    62.2430    12.8190    11.2780    24.7880    24.3820     2.3800   -41.7150 
  107.5000    61.8480    11.5400    10.4010    14.7820    24.2720     2.3000   -41.7030 
  107.6250    61.2400    10.4410     9.5200    11.5490    24.2310     2.2350   -41.6040 
  107.7500    63.4340     9.6520     8.7940    10.7190    24.2170     2.1990   -41.5410 
  107.8750    67.0000     9.1660     8.2680    10.6120    24.2010     2.1890   -41.3960 
  108.0000    67.4330     8.9120     7.9340    10.2620    24.1700     2.1930   -41.2510 
  108.1250    64.8550     8.7940     7.7540     9.9190    24.1270     2.2000   -41.0880 
  108.2500    64.0770     8.7080     7.6430     9.5350    24.0730     2.2020   -40.8700 
  108.3750    66.2340     8.6270     7.5650     9.1060    24.0180     2.2010   -40.7430 
  108.5000    68.6090     8.5710     7.5140     8.6170    23.9890     2.1980   -40.5610 
  108.6250    69.2660     8.5740     7.5030     8.2170    23.8600     2.2000   -40.4620 
  108.7500    68.8540     8.6310     7.5270     8.1190    23.7370     2.2050   -40.3840 
  108.8750    68.1770     8.7150     7.5750     8.3630    23.6910     2.2110   -40.4070 
  109.0000    66.9340     8.7910     7.6230     8.8990    23.7600     2.2130   -40.4150 
  109.1250    64.6010     8.8330     7.6530     9.3550    23.8200     2.2060   -40.4970 
  109.2500    62.8980     8.8450     7.6620     9.4730    23.8710     2.1930   -40.5920 
  109.3750    63.0720     8.8330     7.6520     9.3660    23.8990     2.1780   -40.6770 
  109.5000    65.2760     8.8220     7.6330     9.2230    23.8950     2.1690   -40.8180 
  109.6250    68.3780     8.8440     7.6300     9.1540    23.8520     2.1730   -40.9310 
  109.7500    70.7210     8.9020     7.6490     9.0260    23.8350     2.1870   -41.1410 
  109.8750    71.0080     8.9880     7.6900     9.3150    23.8470     2.2050   -41.2970 
  110.0000    67.4980     9.0840     7.7460     9.7230    23.8880     2.2180   -41.5440 
  110.1250    63.7790     9.1620     7.8010    10.1570    23.9310     2.2170   -41.7260 
  110.2500    63.8880     9.2190     7.8500    10.1280    23.9700     2.2060   -41.8710 
  110.3750    66.2080     9.2770     7.9010     9.9850    24.0060     2.1880   -42.0110 
  110.5000    66.7090     9.3630     7.9640     9.9970    24.0060     2.1700   -42.0690 
  110.6250    64.2170     9.4970     8.0480    10.0680    23.9610     2.1580   -42.1610 
  110.7500    62.9860     9.6590     8.1440    10.2130    23.9370     2.1560   -42.1390 
  110.8750    64.3550     9.8120     8.2370    10.3030    23.9350     2.1630   -42.1270 
  111.0000    66.1880     9.9030     8.2990    10.3870    23.9420     2.1770   -42.0260 
  111.1250    67.4920     9.8810     8.2950    10.4910    23.9450     2.1930   -41.9070 
  111.2500    68.2380     9.7630     8.2300    10.5400    23.9450     2.2030   -41.8250 
  111.3750    67.8690     9.5780     8.1170    10.4600    23.9560     2.2060   -41.7330 
  111.5000    66.9300     9.3730     7.9800    10.2250    23.9870     2.2010   -41.7090 
  111.6250    66.6160     9.2140     7.8620     9.7680    23.9680     2.1880   -41.5940 
  111.7500    66.1850     9.1370     7.7920     9.5300    23.9460     2.1740   -41.5500 
  111.8750    63.5810     9.1440     7.7820     9.7170    23.9350     2.1600   -41.4880 
  112.0000    59.2460     9.2140     7.8280     9.8010    23.9530     2.1520   -41.4830 
  112.1250    57.3130     9.2930     7.9080     9.9030    23.9630     2.1510   -41.4270 
  112.2500    59.7220     9.3290     7.9880     9.8940    23.9650     2.1560   -41.3610 
  112.3750    64.2100     9.3080     8.0470     9.9290    23.9590     2.1660   -41.2080 
  112.5000    66.0580     9.2420     8.0800    10.0760    23.9810     2.1760   -41.0370 
  112.6250    62.7860     9.1710     8.0880    10.1560    24.1500     2.1800   -40.8190 
  112.7500    57.9460     9.1410     8.0910    10.1090    24.4640     2.1800   -40.4640 
  112.8750    56.1280     9.1360     8.0930     9.7750    24.6450     2.1770   -40.0490 
  113.0000    59.6980     9.1330     8.0710     9.3150    24.4430     2.1730   -39.4750 
  113.1250    66.7200     9.0350     7.9680     8.9330    24.1010     2.1660   -38.8830 
  113.2500    70.9820     8.8040     7.7470     8.6560    24.0740     2.1490   -38.0960 
  113.3750    70.7480     8.3730     7.3870     8.3390    24.4310     2.1240   -37.2490 
  113.5000    70.5460     7.8520     6.8980     7.8550    24.8800     2.1020   -36.2890 
  113.6250    74.3920     7.1040     6.3130     7.1890    25.0130     2.1060   -35.2270 
  113.7500    79.2050     6.2520     5.7230     6.2120    24.8870     2.1420   -34.2600 
  113.8750    83.2830     5.4290     5.2010     5.2220    24.8550     2.2040   -33.3200 
  114.0000    88.2340     4.9490     4.8090     4.6780    24.7640     2.2680   -32.4930 
  114.1250    94.4700     4.7870     4.6300     4.6720    24.5980     2.3050   -31.7330 
  114.2500    98.8710     4.9080     4.6520     4.7490    24.5890     2.3150   -31.1710 
  114.3750    99.9520     5.2720     4.8580     4.9090    24.7000     2.3130   -30.7610 
  114.5000    98.1770     5.8020     5.2040     5.2510    24.7080     2.3210   -30.4850 
  114.6250    94.4010     6.3780     5.6180     5.7360    24.6490     2.3530   -30.4710 
  114.7500    90.7250     6.8490     5.9900     6.7900    24.6020     2.3990   -30.4570 
  114.8750    89.9420     7.1190     6.2420     8.3590    24.5860     2.4350   -30.5440 
  115.0000    91.9440     7.1540     6.3340     8.9420    24.5720     2.4410   -30.6370 
  115.1250    92.2970     6.9690     6.2580     7.8230    24.5330     2.4060   -30.8250 
