~V
VERS. 2.00: Ver 2.00
~W
STRT.M 67.0000:
STOP.M 277.0000:
STEP.M 0.1250:
NULL. -999.2500:
UWI. DF5013:
~C
DEPT.M :
SP.MV :
GR.API :
RML.OHMM :
RI. :
RXO.OHMM :
CALI.CM :
DEN.GM/CC :
~A
# ...
  145.7500   -26.3530    66.4620    11.1320    10.3730    10.9550    23.4540     2.2310 
  145.8750   -26.3580    70.9010    11.1020    10.3020    11.5210    23.5320     2.2520 
  146.0000   -26.3440    74.2480    11.1050    10.2480    11.9490    23.6160     2.2670 
  146.1250   -26.3090    73.8010    11.1090    10.2210    12.1810    23.6740     2.2660 
  146.2500   -26.2600    69.7930    11.1000    10.2300    12.3060    23.6500     2.2480 
  146.3750   -26.1810    65.0870    11.0840    10.2770    11.6820    23.4570     2.2190 
  146.5000   -26.0690    60.8000    11.0960    10.3570    11.1070    23.0370     2.1910 
  146.6250   -25.9460    58.2120    11.1550    10.4450    10.5690    22.6630     2.1720 
  146.7500   -25.7990    58.4940    11.2340    10.5060    10.2070    22.5180     2.1640 
  146.8750   -25.6190    60.3010    11.2600    10.4900     9.9770    22.5300     2.1680 
  147.0000   -25.3860    60.7700    11.0910    10.3080     9.8400    22.5980     2.1830 
  147.1250   -25.1010    61.6440    10.6620     9.9300     9.5690    22.7340     2.2060 
  147.2500   -24.7690    66.1420     9.9600     9.3420     9.0440    22.9290     2.2330 
  147.3750   -24.4230    72.9960     9.0620     8.5820     8.2030    23.1610     2.2590 
  147.5000   -24.0640    80.0100     8.1190     7.7480     7.2840    23.3750     2.2770 
  147.6250   -23.7270    88.9140     7.2970     6.9790     6.5090    23.5800     2.2840 
  147.7500   -23.4180    98.0950     6.6840     6.3650     6.0280    23.8420     2.2800 
  147.8750   -23.1720   104.3590     6.3190     5.9550     5.8400    24.0900     2.2720 
  148.0000   -22.9770   104.3240     6.2240     5.7750     5.9080    24.2460     2.2660 
  148.1250   -22.8510   100.7330     6.2850     5.7350     6.0370    24.3130     2.2690 
  148.2500   -22.7580    95.6510     6.3960     5.7600     6.1190    24.3380     2.2790 
  148.3750   -22.7080    92.1220     6.4450     5.7720     6.1510    24.4030     2.2920 
  148.5000   -22.6880    92.5490     6.3320     5.7030     6.1230    24.5160     2.3030 
  148.6250   -22.6930    92.3400     6.1050     5.5650     5.9570    24.5830     2.3090 
  148.7500   -22.6790    89.7560     5.8580     5.3990     5.8210    24.6020     2.3100 
  148.8750   -22.6350    89.1710     5.6930     5.2590     5.7550    24.6040     2.3070 
  149.0000   -22.5890    92.9390     5.6790     5.1970     5.7790    24.5920     2.3000 
  149.1250   -22.5650    97.1840     5.7670     5.2050     5.8850    24.5430     2.2920 
  149.2500   -22.5720    99.1050     5.8930     5.2560     6.0540    24.4670     2.2840 
  149.3750   -22.6100   100.0750     5.9850     5.3150     6.1680    24.4580     2.2780 
  149.5000   -22.6670   102.3100     6.0050     5.3580     6.0850    24.5030     2.2770 
  149.6250   -22.7600   102.5550     6.0080     5.4040     5.9130    24.5310     2.2790 
  149.7500   -22.8940    99.6010     6.0860     5.5050     5.9180    24.5320     2.2800 
  149.8750   -23.0680    95.4770     6.3250     5.7150     6.0540    24.5120     2.2780 
  150.0000   -23.2540    92.0350     6.7740     6.0760     6.2760    24.4250     2.2680 
  150.1250   -23.4070    88.5430     7.2950     6.5020     6.5870    24.2680     2.2530 
  150.2500   -23.4910    84.3660     7.7070     6.8640     6.9400    24.0740     2.2390 
  150.3750   -23.4830    81.2480     7.8220     7.0200     7.2050    23.9320     2.2330 
  150.5000   -23.3630    83.0990     7.4800     6.8200     7.1530    23.9050     2.2420 
  150.6250   -23.1660    89.1040     6.8450     6.3520     6.6630    23.9900     2.2630 
  150.7500   -22.9100    97.5560     6.1220     5.7490     5.8910    24.2000     2.2910 
  150.8750   -22.6170   104.7220     5.5180     5.1690     5.1580    24.4930     2.3180 
  151.0000   -22.3220   108.0500     5.1900     4.7620     4.8420    24.7000     2.3380 
  151.1250   -22.0670   109.2730     5.0990     4.5470     4.7350    24.8250     2.3500 
  151.2500   -21.8860   109.2480     5.1800     4.5050     4.7490    24.8800     2.3580 
  151.3750   -21.7870   108.3160     5.3560     4.5880     4.8660    24.8510     2.3620 
  151.5000   -21.7880   104.7940     5.5660     4.7460     5.1440    24.7360     2.3600 
  151.6250   -21.8420    98.9570     5.8250     4.9270     5.4690    24.6410     2.3520 
  151.7500   -21.8950    94.0470     6.1640     5.1230     5.7370    24.5610     2.3370 
  151.8750   -21.9450    92.4130     6.6140     5.3510     5.9860    24.4780     2.3240 
  152.0000   -21.9360    92.5660     7.1000     5.6630     6.4490    24.3760     2.3240 
  152.1250   -21.9030    90.5060     7.6570     6.1120     7.2850    24.2930     2.3410 
  152.2500   -21.8550    86.1490     8.4090     6.7740     8.4490    24.3000     2.3750 
  152.3750   -21.7990    81.5780     9.4020     7.7120     9.8220    24.3300     2.4210 
  152.5000   -21.7330    79.0280    10.8670     8.9410    11.5110    24.3560     2.4690 
  152.6250   -21.6650    77.0200    12.3210    10.2190    13.3200    24.3930     2.5060 
  152.7500   -21.6100    75.1110    13.3650    11.2220    15.4650    24.4150     2.5210 
  152.8750   -21.5730    75.3250    13.5750    11.6060    17.5300    24.3500     2.5090 
  153.0000   -21.5810    80.6400    12.6550    11.0700    17.2330    24.1490     2.4680 
  153.1250   -21.5950    89.4550    11.1920     9.9750    14.3550    23.9790     2.4110 
  153.2500   -21.5900    95.4160     9.7980     8.7600    10.4210    23.8890     2.3510 
  153.3750   -21.5610    95.1520     8.8850     7.8070     8.0170    23.8460     2.3000 
  153.5000   -21.4980    90.1640     8.6460     7.3860     8.1760    23.8200     2.2730 
  153.6250   -21.4140    84.7970     8.9070     7.4390     9.3550    23.7920     2.2750 
  153.7500   -21.3400    79.7420     9.5910     7.9270    10.8950    23.7770     2.3060 
  153.8750   -21.2440    76.3130    10.6720     8.8220    12.0630    23.8210     2.3610 
  154.0000   -21.1470    76.6910    12.2780    10.2170    13.1010    23.9740     2.4250 
  154.1250   -21.0480    75.2410    14.3950    12.0890    14.1530    24.1500     2.4830 
  154.2500   -20.9670    68.0030    16.9550    14.4080    17.1890    24.2130     2.5260 
  154.3750   -20.8960    58.9640    19.6740    16.9750    20.8040    24.2000     2.5530 
  154.5000   -20.8710    54.6950    21.9240    19.2850    23.1460    24.1640     2.5660 
  154.6250   -20.8530    52.5740    23.1840    20.8180    24.0810    24.1490     2.5700 
  154.7500   -20.8390    50.5030    23.2110    21.2590    24.0810    24.1450     2.5720 
  154.8750   -20.8100    50.2610    22.1880    20.6480    23.2490    24.1450     2.5710 
  155.0000   -20.7490    51.7230    20.6520    19.3470    22.2400    24.1450     2.5670 
  155.1250   -20.6670    53.2470    19.2870    18.0190    20.7600    24.1460     2.5600 
  155.2500   -20.5890    54.4210    18.4320    17.0340    19.2050    24.1480     2.5490 
  155.3750   -20.5240    55.1380    18.2920    16.6230    17.4810    24.1460     2.5400 
  155.5000   -20.4520    53.4150    19.0780    17.0130    17.0110    24.1450     2.5330 
  155.6250   -20.3860    50.9350    20.5590    18.0540    18.7140    24.1450     2.5290 
  155.7500   -20.3390    51.4150    22.4710    19.5740    21.1910    24.1450     2.5270 
  155.8750   -20.3340    53.3300    24.4270    21.2940    22.7370    24.1450     2.5260 
  156.0000   -20.3820    52.6440    25.8930    22.8040    23.7750    24.1450     2.5280 
  156.1250   -20.4230    49.2740    26.6490    23.8300    24.9290    24.1450     2.5300 
  156.2500   -20.4590    46.1080    26.7310    24.3080    25.7240    24.1450     2.5310 
  156.3750   -20.4990    45.5740    26.4280    24.3890    25.7090    24.1450     2.5300 
  156.5000   -20.5510    46.1740    26.1850    24.3850    24.6650    24.1450     2.5280 
  156.6250   -20.5790    47.1710    26.3320    24.6010    24.1440    24.1450     2.5280 
  156.7500   -20.5880    49.2160    26.9670    25.1440    24.2410    24.1450     2.5300 
  156.8750   -20.6090    51.1950    27.9120    25.9160    25.3320    24.1450     2.5330 
