~V
VERS. 2.00: Ver 2.00
~W
STRT.M 61.0000:
STOP.M 267.0000:
STEP.M 0.1250:
NULL. -999.2500:
UWI. DF5036:
~C
DEPT.M :
SP.MV :
GR.API :
RML.OHMM :
RI. :
RXO.OHMM :
CALI.CM :
DEN.GM/CC :
~A
# ...
  229.7500   -17.6010    56.1000   145.0090   130.2660   143.8190    24.2050     2.2730 
  229.8750   -17.5500    49.8090   147.6780   133.2140   148.1930    24.2160     2.2660 
  230.0000   -17.4990    45.9520   149.2540   135.8820   154.0700    24.2170     2.2610 
  230.1250   -17.4670    47.5350   149.9890   137.9200   159.4500    24.2080     2.2590 
  230.2500   -17.4500    50.0330   149.3860   139.0120   158.9140    24.1870     2.2600 
  230.3750   -17.4650    51.8790   146.6500   138.5080   153.1840    24.1640     2.2640 
  230.5000   -17.4800    54.1770   141.1030   135.5620   146.5900    24.1500     2.2700 
  230.6250   -17.4530    56.5590   132.1040   129.1290   140.2020    24.1280     2.2780 
  230.7500   -17.4060    57.2120   121.8510   120.2710   131.6770    24.0810     2.2890 
  230.8750   -17.3950    56.3450   112.0950   110.3880   120.8190    24.0300     2.3030 
  231.0000   -17.3930    56.8630   104.0080   101.0020   104.0250    23.9810     2.3200 
  231.1250   -17.3680    61.0060    98.1190    93.4250    87.0260    23.9020     2.3400 
  231.2500   -17.3100    66.1090    91.5340    87.5780    73.6780    23.8060     2.3600 
  231.3750   -17.2380    69.8440    86.4870    83.1820    62.8360    23.6330     2.3770 
  231.5000   -17.1600    71.2640    82.7150    79.9760    50.4980    23.2950     2.3880 
  231.6250   -17.0690    72.4070    80.4010    78.0710    40.5300    22.7660     2.3870 
  231.7500   -16.9850    75.1100    79.4610    77.3540    37.5600    22.4440     2.3770 
  231.8750   -16.8460    80.1680    79.9820    77.8830    39.5500    22.4080     2.3610 
  232.0000   -16.7010    86.0300    81.9150    79.6160    43.5280    22.4360     2.3440 
  232.1250   -16.6150    86.6000    85.0730    82.4130    48.9340    22.3350     2.3310 
  232.2500   -16.5140    82.9150    88.5640    85.5130    54.1720    22.3300     2.3240 
  232.3750   -16.3580    77.5040    91.5520    88.1670    59.5660    22.5010     2.3200 
  232.5000   -16.2290    72.4230    93.2760    89.6480    65.5800    22.7300     2.3190 
  232.6250   -16.1790    68.8010    93.2740    89.4080    68.0480    22.9030     2.3160 
  232.7500   -16.1160    67.4070    92.6840    88.3940    70.6500    23.0360     2.3090 
  232.8750   -16.0440    67.8210    93.1320    88.0750    71.5910    23.1960     2.2970 
  233.0000   -15.9660    68.0480    96.4230    90.1870    71.4870    23.3280     2.2800 
  233.1250   -15.8740    66.1180   104.7220    96.8730    78.0950    23.4340     2.2590 
  233.2500   -15.8150    62.6230   117.5010   107.8300    97.4920    23.5080     2.2410 
  233.3750   -15.7940    58.4530   133.3880   122.0220   126.7730    23.4670     2.2300 
  233.5000   -15.7260    55.1940   149.5230   137.1600   157.2370    23.3690     2.2280 
  233.6250   -15.5640    54.3460   160.7140   149.0440   171.5630    23.3270     2.2360 
  233.7500   -15.3780    55.1450   163.6420   154.4700   167.0950    23.3760     2.2480 
  233.8750   -15.1910    56.7440   157.0330   151.6930   155.1610    23.4330     2.2580 
  234.0000   -14.9740    58.7670   142.5500   141.2150   140.7730    23.4980     2.2650 
  234.1250   -14.6690    59.3950   124.0200   125.3690   125.5970    23.5760     2.2670 
  234.2500   -14.3020    57.9020   106.2100   108.7360   108.5470    23.5950     2.2680 
  234.3750   -13.9170    55.0990    90.8700    93.5450    91.4610    23.5500     2.2740 
  234.5000   -13.5260    53.3570    78.0370    80.4520    79.7260    23.4800     2.2880 
  234.6250   -13.1420    54.8610    67.1130    69.2340    73.9230    23.3410     2.3100 
  234.7500   -12.7380    58.0670    57.2010    59.0360    68.7230    23.2730     2.3360 
  234.8750   -12.2940    60.6790    48.3090    49.8050    60.4420    23.2540     2.3550 
  235.0000   -11.8890    60.9520    40.7770    41.8630    47.3150    23.2410     2.3600 
  235.1250   -11.5760    61.3040    35.3020    35.9380    36.6200    23.1960     2.3460 
  235.2500   -11.2630    62.5610    31.7350    31.9310    32.6650    23.1830     2.3230 
  235.3750   -10.9360    63.2530    29.9630    29.7430    32.8460    23.3040     2.2980 
  235.5000   -10.6860    63.2110    29.7380    29.1350    33.7940    23.4960     2.2790 
  235.6250   -10.5050    62.3630    30.8330    29.9250    32.6420    23.5510     2.2680 
  235.7500   -10.3280    60.1350    32.5010    31.3940    33.2010    23.5990     2.2610 
  235.8750   -10.1870    56.4160    34.1840    32.9970    35.2360    23.6420     2.2560 
  236.0000   -10.0680    52.9280    35.3910    34.2260    36.4040    23.6440     2.2510 
  236.1250    -9.9730    52.4220    35.7130    34.6240    35.0480    23.5450     2.2500 
  236.2500    -9.9210    53.3860    35.3930    34.3520    33.0610    23.4060     2.2540 
  236.3750    -9.8780    55.2470    34.8610    33.7660    31.2430    23.3280     2.2630 
  236.5000    -9.8100    57.3510    34.6670    33.3710    30.5020    23.3410     2.2810 
  236.6250    -9.7690    57.3850    35.3820    33.7210    31.6030    23.4320     2.3090 
  236.7500    -9.7670    56.4110    36.8430    34.7580    34.1650    23.5100     2.3420 
  236.8750    -9.7790    56.1560    38.5140    36.0630    37.8630    23.5620     2.3680 
  237.0000    -9.7910    57.0840    39.5240    36.8830    42.2970    23.6010     2.3790 
  237.1250    -9.7930    57.1360    38.6630    36.1020    45.2150    23.6480     2.3670 
  237.2500    -9.7810    55.8750    35.8970    33.5830    43.4280    23.6730     2.3420 
  237.3750    -9.7550    56.0080    31.7870    29.7560    36.6390    23.7250     2.3160 
  237.5000    -9.7470    58.5620    27.3660    25.5300    29.8720    23.8200     2.2960 
  237.6250    -9.6990    62.4080    23.8180    22.0060    23.7850    23.8610     2.2890 
  237.7500    -9.5970    65.3580    21.5170    19.5980    20.2900    23.8500     2.2860 
  237.8750    -9.5260    67.6860    20.4420    18.3370    19.2830    23.8150     2.2840 
  238.0000    -9.4650    70.6430    20.3530    18.0470    20.3200    23.7640     2.2760 
  238.1250    -9.3610    70.8430    21.0010    18.5560    23.2560    23.7110     2.2620 
  238.2500    -9.2660    65.9490    21.9740    19.4750    26.8510    23.6760     2.2480 
  238.3750    -9.2300    59.7410    23.1330    20.6380    30.4100    23.7090     2.2430 
  238.5000    -9.2190    56.6630    24.4850    21.9860    32.0580    23.7780     2.2550 
  238.6250    -9.1980    57.4830    26.1220    23.5430    29.3970    23.8060     2.2910 
  238.7500    -9.1910    58.9490    27.8750    25.1320    28.7850    23.8040     2.3400 
  238.8750    -9.1620    59.8100    29.3050    26.3690    30.3350    23.7830     2.3880 
  239.0000    -9.1450    59.8480    29.7660    26.7290    32.2730    23.7650     2.4160 
  239.1250    -9.1730    60.4710    28.5480    25.5840    33.3150    23.7370     2.4090 
  239.2500    -9.2020    63.9620    25.9490    23.2960    31.8350    23.6780     2.3830 
  239.3750    -9.1940    67.9560    22.6990    20.5120    26.7980    23.5860     2.3520 
  239.5000    -9.1740    70.5020    19.6740    17.9690    19.2490    23.4620     2.3290 
  239.6250    -9.2060    72.2840    17.5750    16.2390    15.7780    23.4240     2.3120 
  239.7500    -9.2560    73.3320    16.8210    15.2440    15.8050    23.4310     2.2920 
  239.8750    -9.2970    72.3940    16.6580    14.8770    17.6590    23.4070     2.2690 
  240.0000    -9.3310    70.2360    17.0850    15.1140    20.1810    23.3280     2.2520 
  240.1250    -9.3510    69.7530    18.6280    16.3650    22.6400    23.3120     2.2610 
  240.2500    -9.3310    69.5310    21.7530    19.0330    24.6930    23.3590     2.2970 
  240.3750    -9.2970    68.4850    26.7730    23.5070    29.9490    23.4700     2.3550 
  240.5000    -9.2380    66.3600    33.2500    29.5870    38.5840    23.5840     2.4190 
  240.6250    -9.1070    62.5090    39.3100    35.8130    47.7230    23.6370     2.4710 
  240.7500    -8.9600    58.1480    42.3400    39.6460    52.0670    23.6170     2.5020 
  240.8750    -8.8410    56.4310    40.4610    39.0190    46.3360    23.5240     2.5070 
