~V
VERS. 2.00: Ver 2.00
~W
STRT.M 59.0000:
STOP.M 260.0000:
STEP.M 0.1250:
NULL. -999.2500:
UWI. DF5044:
~C
DEPT.M :
GR.API :
CALI.CM :
RXO.OHMM :
RI. :
RML.OHMM :
DEN.GM/CC :
SP.MV :
~A
# ...
  250.2500    68.7800    23.9940    10.3400    10.4260    11.3570     2.4180   -14.3670 
  250.3750    68.7800    23.9660    10.1630    10.4810    11.3960     2.3910   -14.3040 
  250.5000    68.7800    23.9150    10.2590    10.5400    11.4220     2.3810   -14.2070 
  250.6250    68.7800    23.8720    10.5930    10.5950    11.4490     2.3770   -13.9940 
  250.7500    68.7800    23.9210    11.0270    10.6440    11.4870     2.3790   -13.7750 
  250.8750    68.7800    23.9550    11.5660    10.6890    11.5300     2.4000   -13.5870 
  251.0000    68.7800    23.9610    12.0470    10.7380    11.5720     2.4370   -13.4360 
  251.1250    68.7800    23.9550    11.9990    10.8030    11.6280     2.4660   -13.2080 
  251.2500    68.7800    23.9430    11.3050    10.8890    11.7080     2.4710   -13.0020 
  251.3750    68.7800    23.9370    10.6130    10.9930    11.8130     2.4650   -12.8310 
  251.5000    68.7800    23.9310    10.4050    11.1080    11.9290     2.4640   -12.6480 
  251.6250    68.7800    23.9280    10.4150    11.2210    12.0430     2.4690   -12.4570 
  251.7500    68.7800    23.9060    10.3610    11.3230    12.1590     2.4680   -12.3320 
  251.8750    68.7800    23.8640    10.3210    11.4050    12.2810     2.4570   -12.2560 
  252.0000    68.7800    23.8370    10.4920    11.4590    12.3980     2.4460   -12.1730 
  252.1250    68.7800    23.9060    11.0690    11.4780    12.4860     2.4440   -12.1770 
  252.2500    68.7800    23.9540    12.0020    11.4820    12.5340     2.4480   -12.1590 
  252.3750    68.7800    23.9700    13.0250    11.4810    12.5580     2.4500   -12.1480 
  252.5000    68.7800    23.9780    13.4030    11.4800    12.5780     2.4490   -12.1440 
  252.6250    68.7800    23.9910    13.0690    11.4800    12.5970     2.4480   -12.2210 
  252.7500    68.7800    24.0230    12.6880    11.4800    12.6010     2.4540   -12.2770 
  252.8750    68.7800    24.0230    13.1190    11.4790    12.5850     2.4700   -12.2510 
  253.0000    68.7800    23.9300    14.5520    11.4780    12.5600     2.4920   -12.2600 
  253.1250    68.7800    23.8640    16.1820    11.4770    12.5530     2.5060   -12.1910 
  253.2500    68.7800    23.8320    16.9870    11.4760    12.5610     2.5010   -12.1210 
  253.3750    68.7800    23.8230    17.1740    11.4760    12.5680     2.4760   -12.1210 
  253.5000    68.7800    23.8110    17.3960    11.4760    12.5550     2.4410   -12.1210 
  253.6250    68.7800    23.7900    17.8000    11.4770    12.5230     2.4150  -999.2500 
  253.7500    68.7800    23.7740    18.0650    11.4780    12.4910     2.4130  -999.2500 
  253.8750    68.7800    23.7660    18.3400    11.4790    12.4690     2.4330  -999.2500 
  254.0000    68.7800    23.7610    18.6520    11.4800    12.4530     2.4590  -999.2500 
  254.1250    68.7800    23.7620    18.2860    11.4810    12.4490     2.4650  -999.2500 
  254.2500    68.7800    23.7660    18.0670    11.4810    12.4610     2.4490  -999.2500 
  254.3750    68.7800    23.7680    19.0940    11.4820    12.4890     2.4270  -999.2500 
  254.5000    68.7800    23.7650    21.0920    11.4820    12.5220     2.4190  -999.2500 
  254.6250    68.7800    23.7500    22.0030    11.4820    12.5440     2.4280  -999.2500 
  254.7500    68.7800    23.7240    20.4820    11.4820    12.5530     2.4350  -999.2500 
  254.8750    68.7800    23.6890    17.6360    11.4830    12.5460     2.4350  -999.2500 
  255.0000    68.7800    23.6490    15.1790    11.4830    12.5280     2.4370  -999.2500 
  255.1250    68.7800    23.5540    13.9660    11.4840    12.5070     2.4570  -999.2500 
  255.2500    68.7800    23.4660    13.4150    11.4840    12.4890     2.4800  -999.2500 
  255.3750    68.7800    23.4190    13.3630    11.4840    12.4810     2.4900  -999.2500 
  255.5000    68.7800    23.4350    14.0890    11.4840    12.4790     2.4900  -999.2500 
  255.6250    68.7800    23.4420    15.7380    11.4840    12.4790     2.4930  -999.2500 
  255.7500    68.7800    23.4200    17.6060    11.4840    12.4790     2.5050  -999.2500 
  255.8750    68.7800    23.3750    18.9920    11.4840    12.4790     2.5110  -999.2500 
  256.0000    68.7800    23.3080    19.5220    11.4840    12.4790     2.4950  -999.2500 
  256.1250    68.7800    23.1720    19.4240    11.4840    12.4790     2.4600  -999.2500 
  256.2500    68.7800    22.9540    19.0420    11.4840    12.4790     2.4280  -999.2500 
  256.3750    68.7800    22.5440    17.8140    11.4840    12.4790     2.4060  -999.2500 
  256.5000    68.7800    21.5720    15.0550    11.4840    12.4790     2.3770  -999.2500 
  256.6250    68.7800    19.6290    11.2930    11.4840    12.4790     2.3180  -999.2500 
  256.7500    68.7800    17.2630     8.2470    11.4840    12.4790     2.2470  -999.2500 
  256.8750    68.7800    15.5620     6.5980    11.4840    12.4790     2.1940  -999.2500 
  257.0000    68.7800    14.8240     6.0370    11.4840    12.4790     2.1730  -999.2500 
  257.1250    68.7800    14.6740     5.9770    11.4840    12.4790     2.1760  -999.2500 
  257.2500    68.7800    14.6190     6.0010    11.4840    12.4790     2.1790  -999.2500 
  257.3750    68.7800    14.5870     6.0550    11.4840    12.4790     2.1760  -999.2500 
  257.5000    68.7800    14.5740     6.1210    11.4840    12.4790     2.1730  -999.2500 
  257.6250    68.7800    14.5740     6.1470    11.4840    12.4790     2.1770  -999.2500 
  257.7500    68.7800    14.5740     6.1230    11.4840    12.4790     2.1840  -999.2500 
  257.8750    68.7800    14.5740     6.0580    11.4840    12.4790     2.1890  -999.2500 
  258.0000    68.7800    14.5740     5.9750    11.4840    12.4790     2.1900  -999.2500 
  258.1250  -999.2500  -999.2500  -999.2500  -999.2500  -999.2500     2.1900  -999.2500 
  258.2500  -999.2500  -999.2500  -999.2500  -999.2500  -999.2500     2.1760  -999.2500 
  258.3750  -999.2500  -999.2500  -999.2500  -999.2500  -999.2500     2.1670  -999.2500 
  258.5000  -999.2500  -999.2500  -999.2500  -999.2500  -999.2500     2.3280  -999.2500 
  258.6250  -999.2500  -999.2500  -999.2500  -999.2500  -999.2500     2.3260  -999.2500 
  258.7500  -999.2500  -999.2500  -999.2500  -999.2500  -999.2500     1.8760  -999.2500 
  258.8750  -999.2500  -999.2500  -999.2500  -999.2500  -999.2500     1.4820  -999.2500 
  259.0000  -999.2500  -999.2500  -999.2500  -999.2500  -999.2500     1.8300  -999.2500 
  259.1250  -999.2500  -999.2500  -999.2500  -999.2500  -999.2500     2.9590  -999.2500 
  259.2500  -999.2500  -999.2500  -999.2500  -999.2500  -999.2500     3.8460  -999.2500 
  259.3750  -999.2500  -999.2500  -999.2500  -999.2500  -999.2500     3.7740  -999.2500 
  259.5000  -999.2500  -999.2500  -999.2500  -999.2500  -999.2500     2.8650  -999.2500 
  259.6250  -999.2500  -999.2500  -999.2500  -999.2500  -999.2500     2.0250  -999.2500 
  259.7500  -999.2500  -999.2500  -999.2500  -999.2500  -999.2500     1.8170  -999.2500 
  259.8750  -999.2500  -999.2500  -999.2500  -999.2500  -999.2500     2.1520  -999.2500 
  260.0000  -999.2500  -999.2500  -999.2500  -999.2500  -999.2500     2.1330  -999.2500 
