~V
VERS. 2.00: Ver 2.00
~W
STRT.M 60.0000:
STOP.M 273.0000:
STEP.M 0.1250:
NULL. -999.2500:
UWI. DF5008:
~C
DEPT.M :
GR.API :
CALI.CM :
RXO.OHMM :
RI. :
RML.OHMM :
DEN.GM/CC :
SP.MV :
~A
# ...
  150.0000    53.5040    24.3740    20.5090    17.0620    19.1910     2.5710   -38.9300 
  150.1250    55.0050    24.3500    19.3180    17.1670    19.2400     2.5790   -38.8810 
  150.2500    53.4870    24.2970    18.4770    17.2550    19.3010     2.5860   -38.8780 
  150.3750    50.2970    24.2560    18.9070    17.4150    19.4770     2.5830   -38.8570 
  150.5000    48.9850    24.2260    19.9360    17.6900    19.7980     2.5710   -38.8630 
  150.6250    51.0320    24.1900    20.6270    18.0770    20.2490     2.5540   -38.8370 
  150.7500    52.9170    24.1690    21.1650    18.5050    20.7310     2.5410   -38.8510 
  150.8750    52.7130    24.1870    21.3830    18.9090    21.1490     2.5350   -38.8550 
  151.0000    50.7950    24.2580    21.4440    19.2120    21.4080     2.5290   -38.8200 
  151.1250    48.8650    24.3830    20.9530    19.3380    21.4380     2.5210   -38.8070 
  151.2500    47.6080    24.4850    20.9810    19.3460    21.3730     2.5120   -38.7500 
  151.3750    45.9870    24.4980    20.8820    19.3580    21.4030     2.5070   -38.7120 
  151.5000    45.6780    24.4140    20.2600    19.5240    21.7190     2.5100   -38.6440 
  151.6250    48.6440    24.3040    19.6330    20.0230    22.4820     2.5200   -38.6010 
  151.7500    51.9930    24.2400    20.8210    20.8120    23.5280     2.5300   -38.5120 
  151.8750    52.9410    24.2210    24.2050    21.7360    24.5800     2.5380   -38.4740 
  152.0000    52.5950    24.2150    26.6590    22.5160    25.2810     2.5400   -38.4790 
  152.1250    54.1420    24.1960    27.6250    22.7820    25.2510     2.5380   -38.4760 
  152.2500    55.4960    24.1790    26.6320    22.5230    24.6320     2.5350   -38.4940 
  152.3750    54.2860    24.1790    25.7200    21.9010    23.7090     2.5310   -38.5210 
  152.5000    51.6190    24.2100    24.6140    21.1850    22.8320     2.5250   -38.5700 
  152.6250    51.4450    24.3040    23.4830    20.6600    22.3160     2.5170   -38.6280 
  152.7500    54.9860    24.4290    23.1800    20.4070    22.1570     2.5090   -38.7320 
  152.8750    58.6160    24.5200    23.3480    20.3930    22.2440     2.5030   -38.7990 
  153.0000    58.9970    24.5440    22.9640    20.5110    22.4180     2.5030   -38.8270 
  153.1250    57.9010    24.5260    23.5470    20.6050    22.4930     2.5080   -38.8370 
  153.2500    57.7470    24.4790    24.0950    20.5580    22.3720     2.5130   -38.8420 
  153.3750    58.4370    24.3860    25.3650    20.3320    22.0390     2.5120   -38.8510 
  153.5000    58.5680    24.2810    24.9830    19.9500    21.5420     2.5030   -38.8630 
  153.6250    58.7010    24.2310    23.2180    19.4770    20.9800     2.4900   -38.8690 
  153.7500    59.9540    24.2250    22.1390    19.0060    20.4590     2.4810   -38.8840 
  153.8750    60.7750    24.2270    22.5930    18.5700    20.0090     2.4770   -38.8630 
  154.0000    59.2960    24.2250    21.8320    18.1600    19.6020     2.4760   -38.8690 
  154.1250    57.4160    24.2420    20.7730    17.7550    19.2020     2.4730   -38.8310 
  154.2500    57.9440    24.3000    19.9540    17.3620    18.8160     2.4660   -38.7960 
  154.3750    59.3330    24.3960    20.1650    17.0220    18.5000     2.4550   -38.7330 
  154.5000    59.2850    24.4880    19.4100    16.7940    18.3310     2.4440   -38.6680 
  154.6250    62.4950    24.5400    18.5320    16.7390    18.3680     2.4410   -38.5750 
  154.7500    69.9170    24.5640    18.3410    16.7930    18.4980     2.4430   -38.5180 
  154.8750    73.6260    24.5650    18.5150    16.8500    18.5570     2.4500   -38.4990 
  155.0000    68.8470    24.5460    17.9020    16.7780    18.3730     2.4600   -38.4670 
  155.1250    63.9820    24.4830    16.9400    16.4240    17.7880     2.4700   -38.4850 
  155.2500    65.6010    24.3770    15.8780    15.8260    16.9340     2.4800   -38.4940 
  155.3750    69.3730    24.2600    14.7600    15.1080    16.0130     2.4900   -38.5310 
  155.5000    70.0760    24.1820    13.8440    14.4450    15.2610     2.5030   -38.5580 
  155.6250    68.3360    24.1490    12.8770    14.0420    14.9000     2.5130   -38.6500 
  155.7500    68.7000    24.1490    13.0580    13.9110    14.8670     2.5160   -38.6710 
  155.8750    69.4660    24.2160    14.4760    13.9680    15.0060     2.5130   -38.6880 
  156.0000    68.3800    24.3520    16.5310    14.0540    15.1000     2.5050   -38.7110 
  156.1250    66.0210    24.4630    16.9320    13.9710    14.9380     2.4970   -38.7530 
  156.2500    63.0390    24.5010    16.1370    13.7030    14.5660     2.4910   -38.7720 
  156.3750    60.4120    24.5060    14.1130    13.3480    14.1480     2.4860   -38.7990 
  156.5000    59.1760    24.5080    12.5850    13.0550    13.8730     2.4800   -38.8570 
  156.6250    59.3950    24.4990    12.6960    12.9650    13.8900     2.4740   -38.8600 
  156.7500    58.4370    24.5010    14.0710    13.0460    14.0920     2.4710   -38.9120 
  156.8750    56.3510    24.5320    15.0060    13.2000    14.3210     2.4760   -38.9680 
  157.0000    55.8150    24.5740    15.1560    13.2870    14.4090     2.4860   -39.0030 
  157.1250    54.8230    24.5800    14.3730    13.1680    14.2320     2.5000   -39.0420 
  157.2500    50.7110    24.5540    13.7330    12.8850    13.8970     2.5120   -39.0890 
  157.3750    46.4250    24.5400    13.3670    12.5470    13.5600     2.5190   -39.1220 
  157.5000    45.5790    24.5620    13.4610    12.2930    13.3820     2.5240   -39.1190 
  157.6250    50.4210    24.5680    13.3280    12.2790    13.5110     2.5250   -39.1320 
  157.7500    57.7410    24.5130    13.8780    12.5170    13.8920     2.5190   -39.0890 
  157.8750    63.7180    24.4360    14.6500    12.9630    14.4090     2.5070   -39.0370 
  158.0000    64.9570    24.4130    15.8630    13.4990    14.8920     2.4930   -39.0700 
  158.1250    63.5830    24.4580    17.5290    13.9360    15.1240     2.4850   -39.1090 
  158.2500    65.3420    24.4880    18.1130    14.1770    15.0940     2.4830   -39.1860 
  158.3750    71.0190    24.4450    17.6830    14.2580    14.9250     2.4830   -39.2870 
  158.5000    75.2250    24.2950    15.9900    14.3180    14.8160     2.4800   -39.4670 
  158.6250    73.3290    24.0650    14.8790    14.5230    14.9280     2.4690   -39.6710 
  158.7500    68.9640    23.8600    15.1260    14.8290    15.1230     2.4480   -39.9640 
  158.8750    66.6740    23.7470    16.4790    15.0120    15.1050     2.4210   -40.2980 
  159.0000    68.4770    23.7230    16.2360    14.7420    14.5470     2.3870   -40.5710 
  159.1250    73.5120    23.7370    14.7870    13.7060    13.2080     2.3530   -40.8410 
  159.2500    79.6140    23.7370    12.2410    12.1800    11.4510     2.3190   -41.1200 
  159.3750    85.0290    23.7200     9.4300    10.5280     9.6850     2.2870   -41.4310 
  159.5000    87.4850    23.7010     7.0970     9.0750     8.2450     2.2620   -41.7240 
  159.6250    85.9220    23.6870     6.5310     8.0690     7.3650     2.2520   -42.0950 
  159.7500    83.5290    23.6750     6.5200     7.4810     6.9480     2.2580   -42.5080 
  159.8750    83.2520    23.6970     6.6830     7.2820     6.9280     2.2760   -42.9390 
  160.0000    85.6220    23.7730     6.7140     7.4210     7.2420     2.3000   -43.4140 
  160.1250    87.4510    23.8650     6.9220     7.8790     7.8830     2.3160   -43.9370 
  160.2500    88.9590    23.9920     7.5690     8.5750     8.7930     2.3230   -44.4930 
  160.3750    91.7260    24.2190     8.4290     9.5230    10.0060     2.3250   -45.0590 
  160.5000    94.4170    24.5010     9.0800    10.7670    11.5790     2.3260   -45.6520 
  160.6250    92.2210    24.6520    10.1020    12.4150    13.6260     2.3300   -46.2700 
  160.7500    86.8690    24.6440    12.6890    14.4280    16.0630     2.3350   -46.8420 
  160.8750    83.5230    24.5910    16.7400    16.7590    18.7940     2.3380   -47.4550 
  161.0000    83.8920    24.5820    22.4070    19.2940    21.6620     2.3390   -48.1290 
  161.1250    83.7340    24.6300    27.5770    21.8270    24.4390     2.3380   -48.8440 
