~V
VERS. 2.00: Ver 2.00
~W
STRT.M 55.0000:
STOP.M 271.0000:
STEP.M 0.1250:
NULL. -999.2500:
UWI. DF5032:
~C
DEPT.M :
SP.MV :
GR.API :
CALI.CM :
RXO.OHMM :
RI. :
RML.OHMM :
DEN.GM/CC :
~A
# ...
  178.7500   -37.1600    75.6450    24.6520    58.7180    89.5700    95.8110     2.2660 
  178.8750   -37.1060    70.2290    24.8330    76.3340    97.8910   104.6980     2.2360 
  179.0000   -37.0470    67.3310    24.9480    91.0790   107.4730   114.9310     2.2120 
  179.1250   -36.9840    67.6770    25.0620    95.1250   117.9820   126.1540     2.2080 
  179.2500   -36.9170    68.6070    25.0940    93.1600   128.8030   137.7120     2.2100 
  179.3750   -36.8430    69.3730    24.9870    94.8230   139.5150   149.1520     2.2060 
  179.5000   -36.7620    70.0980    24.7960   105.8400   149.7710   160.1050     2.1970 
  179.6250   -36.6680    69.7970    24.6870   127.9990   159.2720   170.2520     2.1920 
  179.7500   -36.5650    68.1450    24.6690   154.4740   167.7960   179.3560     2.1950 
  179.8750   -36.4580    66.5250    24.6880   177.4890   174.7390   186.7710     2.2040 
  180.0000   -36.3490    66.4950    24.7200   188.8940   179.5540   191.9130     2.2140 
  180.1250   -36.2400    68.0990    24.7700   183.4140   181.9450   194.4670     2.2170 
  180.2500   -36.1310    69.7360    24.8800   169.3320   182.6010   195.1680     2.2160 
  180.3750   -36.0280    70.6610    24.9980   160.7400   181.3200   193.8000     2.2290 
  180.5000   -35.9360    70.2660    25.0490   166.1050   177.4590   189.6760     2.2800 
  180.6250   -35.8590    67.7720    24.8850   180.4750   169.7050   181.3950     2.3800 
  180.7500   -35.7880    64.6860    24.6400   192.7100   158.2730   169.1850     2.4870 
  180.8750   -35.7200    62.9020    24.3080   195.6650   143.6830   153.6040     2.5500 
  181.0000   -35.6540    63.4820    23.9260   190.3070   127.3380   136.1470     2.5330 
  181.1250   -35.5910    65.8370    23.7220   165.3020   111.5670   119.3040     2.4430 
  181.2500   -35.5230    67.5580    23.8290   128.0220    98.3690   105.2080     2.3470 
  181.3750   -35.4460    67.5930    24.1690    92.5890    88.8420    95.0330     2.2850 
  181.5000   -35.3590    67.5970    24.5290    72.7220    83.0330    88.8290     2.2610 
  181.6250   -35.2680    70.8430    24.7920    67.7760    80.1150    85.7130     2.2600 
  181.7500   -35.1770    75.1400    24.9530    68.0300    77.8250    83.2670     2.2610 
  181.8750   -35.0880    76.2670    25.0070    70.9660    74.6410    79.8670     2.2630 
  182.0000   -35.0020    73.8160    24.9950    74.8900    69.6790    74.5670     2.2690 
  182.1250   -34.9250    72.7420    24.9250    75.5700    62.7940    67.2140     2.2770 
  182.2500   -34.8600    75.5570    24.8120    69.1860    55.3440    59.2580     2.2880 
  182.3750   -34.8040    79.7670    24.6520    55.2480    48.6010    52.0560     2.3010 
  182.5000   -34.7540    82.6360    24.5060    38.6390    43.6780    46.7980     2.3220 
  182.6250   -34.7100    83.8000    24.4340    27.3240    41.7640    44.7540     2.3410 
  182.7500   -34.6770    83.8910    24.4060    24.6360    42.6120    45.6590     2.3420 
  182.8750   -34.6550    81.6660    24.4210    30.9930    45.9380    49.2120     2.3160 
  183.0000   -34.6410    77.0390    24.4750    43.2180    51.2100    54.8420     2.2800 
  183.1250   -34.6320    73.8330    24.5790    55.0360    57.8260    61.9080     2.2610 
  183.2500   -34.6270    74.5360    24.6600    62.1800    64.6380    69.1830     2.2610 
  183.3750   -34.6230    77.3090    24.6880    66.3020    70.7690    75.7320     2.2650 
  183.5000   -34.6170    79.2260    24.7020    69.9440    75.5620    80.8500     2.2630 
  183.6250   -34.6090    79.0790    24.7090    74.7310    78.6280    84.1240     2.2590 
  183.7500   -34.6030    77.7690    24.7100    80.2370    80.5960    86.2270     2.2600 
  183.8750   -34.6000    75.6430    24.7050    85.6180    81.9230    87.6430     2.2670 
  184.0000   -34.5950    73.6200    24.6960    90.3730    82.8820    88.6680     2.2710 
  184.1250   -34.5780    73.2570    24.6950    94.0960    83.5630    89.3950     2.2680 
  184.2500   -34.5560    74.5510    24.6920    96.6040    84.1400    90.0120     2.2600 
  184.3750   -34.5390    76.7090    24.6960    97.9930    84.7940    90.7100     2.2560 
  184.5000   -34.5350    78.6500    24.7010    98.4040    85.6900    91.6670     2.2590 
  184.6250   -34.5360    79.1720    24.6980    97.8330    86.9790    93.0430     2.2630 
  184.7500   -34.5210    78.4520    24.7220    96.6220    88.6310    94.8080     2.2600 
  184.8750   -34.4870    77.2950    24.7720    96.5490    90.5860    96.8950     2.2480 
  185.0000   -34.4440    76.7580    24.8370    98.7140    92.7040    99.1580     2.2340 
  185.1250   -34.4130    77.9310    24.9300   102.9220    94.8240   101.4220     2.2270 
  185.2500   -34.3900    80.2630    24.9250   106.9100    96.7980   103.5300     2.2260 
  185.3750   -34.3550    82.6940    24.8450   108.9230    98.5430   105.3930     2.2310 
  185.5000   -34.2940    84.1440    24.7820   108.4810   100.0330   106.9850     2.2390 
  185.6250   -34.2150    83.7450    24.7270   106.6910   101.0900   108.1140     2.2460 
  185.7500   -34.1430    81.9960    24.6840   105.0280   101.2180   108.2510     2.2530 
  185.8750   -34.0900    79.3880    24.6620   104.2990    99.4820   106.3970     2.2620 
  186.0000   -34.0480    76.2950    24.6700   104.3950    95.0080   101.6180     2.2680 
  186.1250   -34.0030    73.2450    24.6810   104.1240    87.1850    93.2630     2.2610 
  186.2500   -33.9560    71.7040    24.6860   101.8060    77.4930    82.9120     2.2470 
  186.3750   -33.9280    72.7260    24.6840    95.7400    67.4500    72.1860     2.2420 
  186.5000   -33.9410    75.3820    24.6690    83.7900    58.6300    62.7670     2.2560 
  186.6250   -34.0030    77.8890    24.6420    65.3600    52.9230    56.6720     2.2820 
  186.7500   -34.0920    80.1950    24.6200    47.5300    50.7510    54.3520     2.3010 
  186.8750   -34.2010    82.6250    24.6330    39.0950    52.1880    55.8870     2.3020 
  187.0000   -34.3370    83.6040    24.6550    45.1820    56.7810    60.7920     2.2870 
  187.1250   -34.5210    80.6130    24.6560    64.1800    63.9160    68.4130     2.2640 
  187.2500   -34.7440    75.5370    24.6610    85.5100    72.0250    77.0730     2.2470 
  187.3750   -34.9860    71.4680    24.6620   101.7020    80.0500    85.4610     2.2430 
  187.5000   -35.2270    69.7370    24.6690   108.9000    87.2830    92.6210     2.2530 
  187.6250   -35.4640    68.9710    24.6680   104.5820    93.7230    98.3280     2.2660 
  187.7500   -35.7140    67.8200    24.6680    97.2260   100.7040   105.1260     2.2730 
  187.8750   -35.9840    66.8040    24.6690   102.0070   109.7810   114.4330     2.2680 
  188.0000   -36.2630    66.5560    24.6600   130.6110   122.0330   127.1500     2.2540 
  188.1250   -36.5250    66.6920    24.6640   170.8060   137.8270   143.5450     2.2350 
  188.2500   -36.7640    66.5780    24.6630   192.2300   155.2340   161.6130     2.2210 
  188.3750   -36.9890    66.2460    24.6570   189.8340   172.2220   179.2470     2.2160 
  188.5000   -37.2090    65.5270    24.6600   180.8870   186.5610   194.1300     2.2180 
  188.6250   -37.4170    64.3360    24.6570   184.9070   195.7270   203.6450     2.2180 
  188.7500   -37.5970    64.0810    24.6660   195.9490   200.4830   208.5810     2.2170 
  188.8750   -37.7380    65.9640    24.6600   199.8230   202.4980   210.6730     2.2210 
  189.0000   -37.8490    69.1040    24.6420   191.0940   204.0460   212.2800     2.2330 
  189.1250   -37.9520    70.7400    24.6210   182.5710   207.1770   215.5300     2.2430 
  189.2500   -38.0550    70.2140    24.6240   184.2380   212.1470   220.6890     2.2370 
  189.3750   -38.1480    68.4690    24.6180   193.9390   218.4340   227.2140     2.2210 
  189.5000   -38.2190    66.1260    24.6240   208.0050   224.9650   233.9940     2.2150 
  189.6250   -38.2660    63.5990    24.6220   224.1440   229.9230   239.1410     2.2260 
  189.7500   -38.3060    62.4320    24.6200   233.9430   231.9940   241.2900     2.2330 
  189.8750   -38.3450    63.9640    24.6210   234.5470   230.7160   239.9640     2.2250 
