~V
VERS. 2.00: Ver 2.00
~W
STRT.M 65.0000:
STOP.M 258.0000:
STEP.M 0.1250:
NULL. -999.2500:
UWI. DF5030:
~C
DEPT.M :
SP.MV :
GR.API :
RML.OHMM :
RI. :
RXO.OHMM :
CALI.CM :
DEN.GM/CC :
~A
# ...
  233.7500   -20.7340    62.4960   103.4890    88.4860   133.7930    24.0330     2.2790 
  233.8750   -21.2860    60.6610   106.5500    92.3090   124.6690    24.0180     2.2800 
  234.0000   -21.7530    59.1280   107.4300    93.6750   117.2910    23.9910     2.2810 
  234.1250   -22.1650    55.9080   108.5360    94.7150   114.5350    23.9790     2.2770 
  234.2500   -22.5160    49.0660   110.3260    96.1350   116.5680    23.9770     2.2690 
  234.3750   -22.7780    43.5090   111.5560    97.2390   120.2800    23.9770     2.2590 
  234.5000   -23.0010    44.1830   110.8670    96.9910   124.0310    23.9770     2.2530 
  234.6250   -23.1870    49.1080   107.6930    94.8490   123.4870    23.9770     2.2540 
  234.7500   -23.3460    53.6950   102.4820    91.0090   116.6480    23.9770     2.2610 
  234.8750   -23.4130    60.6620    96.5720    86.3580   103.9150    23.9770     2.2700 
  235.0000   -23.4830    66.6770    91.5550    82.2180    90.4500    23.9770     2.2770 
  235.1250   -23.5580    67.3790    88.1880    79.3180    82.1620    23.9770     2.2790 
  235.2500   -23.6270    62.1550    86.6390    77.9330    82.1260    23.9770     2.2770 
  235.3750   -23.6940    55.3300    86.9880    78.2420    87.2340    23.9770     2.2740 
  235.5000   -23.6970    53.4210    88.8360    79.9130    88.7000    23.9770     2.2710 
  235.6250   -23.6310    56.0780    92.3260    83.0280    89.8390    23.9770     2.2680 
  235.7500   -23.5470    60.1930    97.7520    87.7720    93.1210    23.9770     2.2630 
  235.8750   -23.5150    61.5070   105.5970    94.4980   102.1380    23.9770     2.2570 
  236.0000   -23.5050    59.3520   114.9610   102.4950   116.6680    23.9770     2.2520 
  236.1250   -23.4620    56.5480   124.5290   110.7630   134.2000    23.9770     2.2500 
  236.2500   -23.4070    53.1530   132.4870   117.8760   150.1630    23.9770     2.2500 
  236.3750   -23.4360    49.5800   136.4750   121.8860   154.8790    23.9870     2.2530 
  236.5000   -23.5050    47.1470   136.4960   122.6140   150.9370    24.0100     2.2560 
  236.6250   -23.6370    48.7940   133.4150   120.5910   143.7930    24.0330     2.2560 
  236.7500   -23.7850    56.0530   128.8530   117.0490   136.4980    24.0410     2.2540 
  236.8750   -23.8940    63.7350   124.4810   113.4690   128.0950    24.0430     2.2500 
  237.0000   -23.9680    65.9210   120.8870   110.6800   119.7640    24.0420     2.2450 
  237.1250   -24.0520    62.8970   117.9220   108.5680   116.1410    24.0400     2.2410 
  237.2500   -24.0970    59.1310   114.7500   106.4340   118.5550    24.0390     2.2380 
  237.3750   -24.0360    59.6290   110.9540   103.1690   122.0230    24.0390     2.2390 
  237.5000   -23.9590    61.6440   106.2240    98.4980   120.7520    24.0390     2.2420 
  237.6250   -23.8230    62.3840   101.4440    92.8330   112.1850    24.0410     2.2460 
  237.7500   -23.6750    62.0440    97.6030    87.2060    98.6630    24.0350     2.2510 
  237.8750   -23.5440    62.0550    93.6640    83.2110    87.8780    24.0150     2.2530 
  238.0000   -23.3670    65.0450    91.7400    81.4150    83.3700    23.9930     2.2530 
  238.1250   -23.1440    70.0650    92.0990    81.6260    85.8870    23.9950     2.2500 
  238.2500   -22.8880    72.8100    93.4800    82.9210    91.9660    24.0220     2.2440 
  238.3750   -22.6650    66.7110    94.0790    83.8060    97.4580    24.0330     2.2380 
  238.5000   -22.4360    59.7120    92.9300    83.2890   100.1790    24.0370     2.2340 
  238.6250   -22.2350    58.5700    90.1730    81.3100    97.3540    24.0360     2.2370 
  238.7500   -22.0700    62.1080    86.8760    78.6410    86.5620    24.0360     2.2480 
  238.8750   -21.9340    65.9180    84.8370    76.7660    76.8580    24.0360     2.2640 
  239.0000   -21.8690    70.3840    84.9870    76.6620    76.8570    24.0360     2.2820 
  239.1250   -21.8350    74.8720    87.4630    78.6180    85.7140    24.0320     2.2940 
  239.2500   -21.8810    76.5450    91.7110    82.2940   100.9690    24.0200     2.2990 
  239.3750   -21.9020    71.9390    96.6010    86.8200   115.1640    23.9790     2.2970 
  239.5000   -21.9600    67.5310   100.5850    90.7620   129.2680    23.9320     2.2930 
  239.6250   -22.0050    69.8700   102.4940    92.9980   143.4730    23.8980     2.2930 
  239.7500   -22.0460    79.7690   101.4920    92.6840   148.1250    23.8540     2.3030 
  239.8750   -22.0290    90.0860    96.7730    88.9890   140.0740    23.8580     2.3230 
  240.0000   -21.9630    95.8730    89.4270    82.8800   121.8100    23.8340     2.3420 
  240.1250   -21.9070    96.9400    80.8390    75.5580   102.0230    23.8020     2.3510 
  240.2500   -21.7830    92.2650    73.0130    68.6850    83.6470    23.7690     2.3430 
  240.3750   -21.6520    83.1610    68.6460    64.6040    66.6030    23.7550     2.3210 
  240.5000   -21.5240    75.4610    69.1070    64.4400    55.3040    23.7830     2.2920 
  240.6250   -21.4320    68.5730    74.7310    68.7540    57.0350    23.8350     2.2660 
  240.7500   -21.3260    61.8370    84.3470    76.9270    74.3580    23.8690     2.2440 
  240.8750   -21.2260    56.5130    94.5940    86.4710    98.0960    23.8540     2.2290 
  241.0000   -21.1460    54.9780    99.3760    92.8470   118.1860    23.8450     2.2180 
  241.1250   -21.0560    53.8020    96.4300    92.2620   125.7140    23.8370     2.2130 
  241.2500   -21.0080    53.0020    84.8560    83.1070   116.8150    23.8220     2.2130 
  241.3750   -20.9590    63.2410    67.4040    67.1730    90.9980    23.7970     2.2260 
  241.5000   -20.9040    82.8890    50.6720    50.9790    59.7830    23.7810     2.2510 
  241.6250   -20.8590   101.6790    38.0690    38.2680    34.8570    23.7760     2.2850 
  241.7500   -20.8070   111.6680    30.5500    30.3010    22.3390    23.7600     2.3180 
  241.8750   -20.7820   109.3750    28.3560    27.3680    20.6980    23.7120     2.3340 
  242.0000   -20.8010   101.7100    29.9850    28.0130    23.1270    23.6770     2.3280 
  242.1250   -20.8650    91.4170    34.8810    31.7870    28.8930    23.7340     2.3020 
  242.2500   -20.9720    83.0000    42.2910    38.1520    38.1540    23.7850     2.2680 
  242.3750   -21.1810    78.7570    50.9360    46.1570    48.8670    23.7860     2.2390 
  242.5000   -21.4390    76.6400    58.7690    53.8200    56.7990    23.7740     2.2190 
  242.6250   -21.7280    72.7030    64.3880    59.6540    57.7250    23.7570     2.2090 
  242.7500   -22.0700    66.2560    67.2250    62.8850    55.9180    23.6910     2.2080 
  242.8750   -22.4350    61.7610    67.5180    63.4780    54.8170    23.5750     2.2160 
  243.0000   -22.7690    61.7710    66.8570    62.8760    53.1720    23.4710     2.2270 
  243.1250   -23.0390    64.6110    66.0910    61.9250    52.2750    23.4180     2.2370 
  243.2500   -23.2910    67.8600    65.5350    61.0250    52.4330    23.4710     2.2430 
  243.3750   -23.5210    72.0500    65.0900    60.1880    53.5970    23.5690     2.2400 
  243.5000   -23.6750    74.0130    64.4830    59.2300    54.5220    23.6330     2.2310 
  243.6250   -23.7790    71.0990    63.5090    57.9840    54.8200    23.6410     2.2200 
  243.7500   -23.8400    66.0570    62.0260    56.3280    54.0440    23.6010     2.2110 
  243.8750   -23.9070    63.9690    59.9510    54.2250    52.3290    23.5110     2.2100 
  244.0000   -24.0050    65.8910    57.6220    51.9850    50.2550    23.4640     2.2150 
  244.1250   -24.0840    68.6420    55.4560    49.9740    47.6830    23.4960     2.2230 
  244.2500   -24.1330    70.1310    53.9100    48.5610    44.5560    23.5260     2.2300 
  244.3750   -24.1160    69.9960    53.4340    48.0920    42.6110    23.4360     2.2350 
  244.5000   -24.0450    68.2180    53.7850    48.3100    43.3330    23.3180     2.2390 
  244.6250   -23.9360    67.8690    54.5590    48.8580    46.6160    23.2260     2.2430 
  244.7500   -23.8160    70.3780    55.2330    49.2930    50.1580    23.2750     2.2480 
  244.8750   -23.5890    71.2360    55.2880    49.1910    51.2260    23.4640     2.2500 
