~V
VERS. 2.00: Ver 2.00
~W
STRT.M 64.0000:
STOP.M 243.0000:
STEP.M 0.1250:
NULL. -999.2500:
UWI. DF5061:
~C
DEPT.M :
GR.API :
RML.OHMM :
RI. :
RXO.OHMM :
CALI.CM :
DEN.GM/CC :
SP.MV :
~A
# ...
  131.5000    78.6030     9.2610     7.3250    10.1300    24.6480     2.4010   -12.9110 
  131.6250    73.4670     9.1820     7.4900    10.8620    24.5450     2.3920   -12.9760 
  131.7500    75.0200     8.6030     7.2570     9.9560    24.4350     2.3720   -13.0980 
  131.8750    83.0510     7.7620     6.6980     7.8220    24.4120     2.3560   -13.2540 
  132.0000    90.6600     7.0650     6.1180     6.6160    24.4860     2.3480   -13.4340 
  132.1250    93.7390     6.7580     5.7250     6.2500    24.5870     2.3420   -13.6390 
  132.2500    94.2300     6.9330     5.6340     6.5090    24.6200     2.3280   -13.8840 
  132.3750    92.9020     7.5720     5.9110     7.1580    24.5420     2.3010   -14.2120 
  132.5000    88.1160     8.3970     6.4230     8.0120    24.3980     2.2650   -14.5900 
  132.6250    81.2640     9.1930     7.0460     8.8830    24.2610     2.2270   -14.9710 
  132.7500    76.2460     9.7830     7.6320     9.3890    24.2220     2.1950   -15.3120 
  132.8750    73.5600    10.0030     7.9880     9.5090    24.3140     2.1790   -15.5550 
  133.0000    72.7010     9.8980     8.0580     9.3330    24.4350     2.1840   -15.6880 
  133.1250    74.9290     9.5440     7.8550     8.8720    24.5130     2.2090   -15.7100 
  133.2500    79.8720     9.0750     7.4710     8.2430    24.5580     2.2490   -15.6160 
  133.3750    85.8320     8.6560     7.0410     7.5400    24.6090     2.2930   -15.4010 
  133.5000    90.0160     8.3780     6.6830     6.8740    24.6650     2.3310   -15.1060 
  133.6250    91.9990     8.2410     6.4420     6.5050    24.6800     2.3550   -14.7860 
  133.7500    91.8520     8.1910     6.3100     6.3510    24.6610     2.3620   -14.4910 
  133.8750    91.1680     8.1440     6.2490     6.3920    24.6270     2.3540   -14.2620 
  134.0000    90.6600     8.0460     6.1910     6.4860    24.5570     2.3410   -14.1250 
  134.1250    89.4690     7.9030     6.1150     6.5640    24.4700     2.3280   -14.0940 
  134.2500    87.3110     7.7660     6.0340     6.6330    24.4130     2.3160   -14.1560 
  134.3750    85.2120     7.7420     6.0160     6.6810    24.3900     2.3020   -14.3280 
  134.5000    83.9250     7.9210     6.1420     6.9510    24.3230     2.2810   -14.5930 
  134.6250    82.2950     8.4050     6.5000     7.5740    24.2620     2.2560   -14.9160 
  134.7500    78.1880     9.2880     7.1780     8.4180    24.3010     2.2400   -15.2540 
  134.8750    72.6050    10.6690     8.2830     9.1950    24.4450     2.2470   -15.5800 
  135.0000    68.6060    12.3230     9.6820    10.2950    24.5880     2.2800   -15.8880 
  135.1250    66.5640    13.9210    11.1600    12.0850    24.6800     2.3300   -16.1740 
  135.2500    65.7840    15.0400    12.3960    14.2170    24.7330     2.3730   -16.4430 
  135.3750    64.5640    15.1940    12.9460    15.8860    24.7370     2.3810   -16.6690 
  135.5000    63.8910    14.5310    12.7860    16.1900    24.6880     2.3500   -16.8350 
  135.6250    66.1480    13.3880    12.0820    14.3640    24.5940     2.2940   -16.9370 
  135.7500    71.1250    12.1970    11.1410    11.3690    24.4750     2.2370   -16.9880 
  135.8750    71.8440    11.2910    10.2580    10.4830    24.3580     2.1980   -16.9640 
  136.0000    66.9910    10.6350     9.5240    10.4240    24.2420     2.1820   -16.8480 
  136.1250    64.0370    10.0990     8.9050    10.1490    24.2030     2.1890   -16.6190 
  136.2500    67.6830     9.5610     8.3360     8.9550    24.2070     2.2140   -16.2530 
  136.3750    74.7580     8.9850     7.7870     7.8920    24.2170     2.2470   -15.7360 
  136.5000    81.3770     8.4560     7.2880     6.9330    24.2300     2.2740   -15.1370 
  136.6250    87.0490     8.0730     6.9020     6.2610    24.2520     2.2870   -14.5070 
  136.7500    91.7150     7.8800     6.6740     6.0580    24.2750     2.2840   -13.8970 
  136.8750    93.6400     7.8860     6.6370     6.2670    24.2840     2.2680   -13.3800 
  137.0000    91.9730     8.0100     6.7250     6.6620    24.2720     2.2520   -12.9540 
  137.1250    89.7500     8.2060     6.8980     7.1320    24.2640     2.2400   -12.6010 
  137.2500    89.0090     8.4750     7.1390     7.6620    24.2640     2.2330   -12.3220 
  137.3750    88.8510     8.7310     7.4910     8.2900    24.3040     2.2310   -12.1190 
  137.5000    86.7910     9.2120     8.0160     9.0890    24.4040     2.2320   -11.9520 
  137.6250    83.5410     9.9590     8.8080    10.2450    24.5470     2.2390   -11.8010 
  137.7500    81.1390    11.0370     9.9380    11.7880    24.6710     2.2570   -11.6340 
  137.8750    77.8440    12.8560    11.4590    14.2740    24.7190     2.2950   -11.4110 
  138.0000    73.0470    14.7730    13.1820    16.8420    24.7250     2.3510   -11.1540 
  138.1250    67.1140    16.4860    14.8700    19.4060    24.6960     2.4170   -10.8860 
  138.2500    61.6780    17.7140    16.2330    21.2930    24.6600     2.4820   -10.6170 
  138.3750    57.3300    18.1740    16.9100    21.5490    24.6460     2.5320   -10.3560 
  138.5000    53.4440    18.0300    16.9490    20.7800    24.6450     2.5610   -10.1100 
  138.6250    51.0480    17.4950    16.5170    19.4830    24.6510     2.5660    -9.8770 
  138.7500    50.5500    16.8540    15.8920    17.8760    24.6590     2.5510    -9.6630 
  138.8750    50.0290    16.4290    15.3870    16.4940    24.6610     2.5230    -9.4870 
  139.0000    47.8920    16.3470    15.1570    15.8030    24.6490     2.4990    -9.3480 
  139.1250    45.3700    16.6080    15.2340    15.8390    24.6350     2.4880    -9.2600 
  139.2500    44.7230    17.1250    15.5760    16.7340    24.5980     2.4930    -9.2410 
  139.3750    44.7040    17.7910    16.1210    17.5970    24.5480     2.5100    -9.2740 
  139.5000    44.3520    18.4630    16.7290    18.0690    24.5070     2.5310    -9.3260 
  139.6250    43.3390    19.0390    17.2870    18.1990    24.4680     2.5510    -9.3920 
  139.7500    42.1690    19.4010    17.6790    18.0050    24.4010     2.5670    -9.4510 
  139.8750    42.7910    19.3690    17.7570    17.7580    24.2530     2.5770    -9.4820 
  140.0000    46.5150    18.9590    17.5250    16.9670    24.0200     2.5790    -9.4850 
  140.1250    51.9550    18.2670    17.0310    15.1030    23.6640     2.5680    -9.4740 
  140.2500    55.0880    17.4980    16.3930    12.2310    23.2670     2.5460    -9.4480 
  140.3750    55.0590    16.9320    15.8020    10.2110    23.0520     2.5160    -9.4380 
  140.5000    55.8220    16.6890    15.4130     9.8960    23.1510     2.4880    -9.4510 
  140.6250    56.9980    16.7610    15.2970    11.0620    23.4430     2.4700    -9.4510 
  140.7500    55.4960    17.0520    15.4510    13.6850    23.8110     2.4660    -9.4310 
  140.8750    52.3310    17.4130    15.8090    15.3030    24.1740     2.4710    -9.3980 
  141.0000    52.2520    17.6950    16.2040    16.1660    24.4470     2.4720    -9.3700 
  141.1250    54.2710    17.8270    16.5110    16.4780    24.5470     2.4620    -9.3390 
  141.2500    54.5040    17.7710    16.6410    16.6240    24.5460     2.4440    -9.3120 
  141.3750    52.0660    17.4770    16.5180    16.2780    24.4920     2.4290    -9.2860 
  141.5000    50.8680    17.0220    16.2160    15.8670    24.3980     2.4290    -9.2540 
  141.6250    53.2990    16.4940    15.8150    15.4440    24.2980     2.4440    -9.2440 
  141.7500    56.8820    15.9920    15.4020    15.0670    24.2410     2.4660    -9.2790 
  141.8750    55.9100    15.6010    15.0480    14.5250    24.2510     2.4800    -9.3680 
  142.0000    52.7140    15.3110    14.7590    14.1810    24.2790     2.4820    -9.4880 
  142.1250    52.4300    15.0930    14.5240    13.9050    24.2550     2.4770    -9.6250 
  142.2500    54.5770    14.9230    14.3310    13.2660    24.1110     2.4720    -9.7620 
  142.3750    56.8290    14.7980    14.1820    12.1040    23.8890     2.4760    -9.8820 
  142.5000    58.8020    14.7110    14.0610    11.1560    23.6680     2.4850    -9.9750 
  142.6250    59.7680    14.6440    13.9570    10.9500    23.4880     2.4950   -10.0490 
