~V
VERS. 2.00: Ver 2.00
~W
STRT.M 64.0000:
STOP.M 243.0000:
STEP.M 0.1250:
NULL. -999.2500:
UWI. DF5061:
~C
DEPT.M :
GR.API :
RML.OHMM :
RI. :
RXO.OHMM :
CALI.CM :
DEN.GM/CC :
SP.MV :
~A
# ...
  142.7500    57.9630    14.5780    13.8630    11.3020    23.2830     2.5030   -10.1120 
  142.8750    53.4780    14.5250    13.7970    11.6980    23.0340     2.5020   -10.1830 
  143.0000    51.3720    14.5410    13.8090    12.0640    22.8410     2.4950   -10.2700 
  143.1250    50.7260    14.7060    13.9630    12.2170    22.8140     2.4840   -10.3670 
  143.2500    48.9490    15.0950    14.3120    12.2590    22.9750     2.4760   -10.4510 
  143.3750    45.9450    15.7630    14.8910    12.6850    23.2090     2.4760   -10.4940 
  143.5000    43.8410    16.5840    15.5860    13.7420    23.3780     2.4840   -10.4980 
  143.6250    43.5540    17.4100    16.2710    14.8910    23.4580     2.4950   -10.4570 
  143.7500    42.3640    18.0740    16.8150    15.7840    23.5370     2.5050   -10.3610 
  143.8750    39.3090    18.3720    17.0760    16.4030    23.7860     2.5070   -10.2160 
  144.0000    38.0540    18.2840    17.0730    16.5490    24.1730     2.5060   -10.0490 
  144.1250    39.5350    17.8330    16.8330    16.3670    24.4280     2.5050    -9.8820 
  144.2500    42.7000    17.1030    16.4010    15.8680    24.4800     2.5080    -9.7410 
  144.3750    44.9640    16.2280    15.8180    14.6920    24.4220     2.5150    -9.6710 
  144.5000    47.2650    15.4300    15.1980    13.6210    24.3400     2.5190    -9.6760 
  144.6250    50.2420    14.8750    14.6440    12.8190    24.2200     2.5200    -9.7440 
  144.7500    53.9950    14.6660    14.2660    12.2480    24.0440     2.5160    -9.8670 
  144.8750    57.1400    14.8630    14.1820    12.2440    23.8000     2.5120   -10.0040 
  145.0000    56.8330    15.2920    14.3330    12.9980    23.6300     2.5130   -10.1040 
  145.1250    52.5760    15.7890    14.6230    13.9430    23.6860     2.5170   -10.1480 
  145.2500    48.0820    16.1850    14.9130    14.6500    23.9510     2.5200   -10.1320 
  145.3750    48.6010    16.3160    15.0320    15.4060    24.2570     2.5110   -10.0700 
  145.5000    52.2480    16.2090    14.9400    15.2350    24.4590     2.4920    -9.9740 
  145.6250    54.9890    15.9390    14.6800    14.5400    24.5290     2.4650    -9.8660 
  145.7500    56.4220    15.6220    14.3610    13.9160    24.5190     2.4400    -9.7700 
  145.8750    57.3380    15.3910    14.1180    13.6860    24.4990     2.4250    -9.7120 
  146.0000    56.7000    15.3000    14.0060    13.5690    24.4770     2.4200    -9.7040 
  146.1250    55.3890    15.3630    14.0190    13.6330    24.4480     2.4220    -9.7560 
  146.2500    56.2740    15.5510    14.1080    13.9130    24.4250     2.4250    -9.8570 
  146.3750    59.5090    15.7950    14.2050    14.0400    24.4350     2.4230    -9.9760 
  146.5000    61.4400    15.9820    14.2500    13.9530    24.4490     2.4170   -10.0880 
  146.6250    60.4210    16.0350    14.2170    13.6070    24.4230     2.4100   -10.1830 
  146.7500    58.0100    15.9280    14.1020    12.8350    24.3270     2.4100   -10.2410 
  146.8750    55.0300    15.6900    13.9210    12.1070    24.1420     2.4220   -10.2670 
  147.0000    52.7840    15.4350    13.7330    11.6200    23.8750     2.4410   -10.2840 
  147.1250    53.5760    15.2540    13.5900    11.3560    23.5100     2.4600   -10.2990 
  147.2500    56.3040    15.2150    13.5310    11.2720    23.0420     2.4760   -10.3230 
  147.3750    57.3180    15.3690    13.5910    11.6830    22.6400     2.4840   -10.3700 
  147.5000    56.0340    15.6420    13.7420    12.4050    22.4160     2.4880   -10.4670 
  147.6250    55.8470    15.9500    13.9530    13.1840    22.5080     2.4920   -10.6080 
  147.7500    57.5110    16.1970    14.1880    13.6230    22.9270     2.4950   -10.7790 
  147.8750    58.1980    16.3050    14.4030    13.8710    23.5150     2.4990   -10.9810 
  148.0000    57.2000    16.3040    14.5710    14.1310    24.0650     2.5020   -11.1840 
  148.1250    56.2480    16.2460    14.6830    14.3470    24.4330     2.5050   -11.3720 
  148.2500    57.5100    16.1820    14.7540    14.4930    24.5580     2.5080   -11.5520 
  148.3750    60.1100    16.1570    14.8110    14.4480    24.5210     2.5130   -11.7260 
  148.5000    60.3290    16.1670    14.8670    14.3330    24.4090     2.5220   -11.8870 
  148.6250    57.7430    16.1760    14.8890    14.1840    24.1830     2.5310   -12.0460 
  148.7500    56.2010    16.1140    14.8020    14.0520    23.7960     2.5340   -12.2410 
  148.8750    58.8600    15.8330    14.4790    13.9470    23.3900     2.5200   -12.4830 
  149.0000    63.7470    15.2820    13.9030    13.5810    23.2670     2.4930   -12.7690 
  149.1250    68.4120    14.4620    13.1140    12.6090    23.4630     2.4570   -13.0990 
  149.2500    72.4700    13.4650    12.2290    11.2930    23.8460     2.4220   -13.4450 
  149.3750    77.5630    12.5090    11.4300    10.3060    24.1930     2.3980   -13.7820 
  149.5000    82.5410    11.8190    10.8460     9.9060    24.4450     2.3870   -14.0930 
  149.6250    85.8780    11.5700    10.5400     9.8340    24.5750     2.3860   -14.3720 
  149.7500    87.3810    11.7390    10.5220    10.0650    24.6120     2.3880   -14.6080 
  149.8750    88.6000    12.2270    10.7870    10.6310    24.6110     2.3910   -14.7770 
  150.0000    89.7900    12.9330    11.2290    11.3690    24.6190     2.3900   -14.8950 
  150.1250    90.1970    13.6110    11.7980    12.2600    24.6330     2.3860   -14.9670 
  150.2500    91.3030    14.2350    12.4580    13.1990    24.6450     2.3800   -15.0190 
  150.3750    91.8180    14.9670    13.1730    14.4310    24.6590     2.3730   -15.0690 
  150.5000    91.4700    15.4920    13.8610    15.3700    24.6740     2.3680   -15.1330 
  150.6250    90.9860    16.0670    14.4190    16.1080    24.6740     2.3660   -15.2040 
  150.7500    90.8100    16.5740    14.7320    16.8500    24.6540     2.3660   -15.2610 
  150.8750    90.9030    16.7680    14.6680    16.4520    24.6110     2.3720   -15.3000 
  151.0000    89.6510    16.5760    14.3070    15.5370    24.5700     2.3820   -15.3050 
  151.1250    86.3850    16.0750    13.7750    14.8030    24.5310     2.3930   -15.2830 
  151.2500    83.8260    15.4980    13.2530    14.1660    24.4880     2.4040   -15.2470 
  151.3750    85.3370    15.1890    12.9740    14.5110    24.4570     2.4100   -15.1980 
  151.5000    88.4270    15.3260    13.0480    15.4700    24.4780     2.4110   -15.1510 
  151.6250    88.8940    16.0100    13.5710    16.5850    24.5150     2.4060   -15.1060 
  151.7500    87.7000    17.2830    14.6130    18.4480    24.5360     2.3950   -15.0800 
  151.8750    89.1540    19.1580    16.2520    20.7470    24.5580     2.3780   -15.0740 
  152.0000    89.7840    21.2900    18.2450    23.0800    24.5910     2.3600   -15.0990 
  152.1250    86.8680    23.2820    20.2900    25.6940    24.6160     2.3470   -15.1410 
  152.2500    82.9390    24.6740    21.9960    29.1540    24.6260     2.3440   -15.1760 
  152.3750    81.2520    24.9490    22.8480    29.9330    24.6200     2.3510   -15.2040 
  152.5000    81.4860    24.2940    22.8490    27.2780    24.6020     2.3610   -15.1940 
  152.6250    83.2440    23.0620    22.1910    22.0240    24.5700     2.3670   -15.1390 
  152.7500    86.5250    21.6910    21.2070    18.3560    24.5350     2.3670   -15.0520 
  152.8750    88.7700    20.5330    20.1890    17.4080    24.5150     2.3630   -14.9380 
  153.0000    88.2570    19.5890    19.2360    16.6250    24.5080     2.3640   -14.8220 
  153.1250    87.7510    18.7110    18.2770    15.1190    24.5000     2.3700   -14.7160 
  153.2500    88.4150    17.7270    17.2170    13.7390    24.4820     2.3820   -14.6330 
  153.3750    88.8530    16.5150    16.0070    12.4480    24.4410     2.3950   -14.5710 
  153.5000    89.2180    15.1900    14.7600    11.8780    24.3750     2.4050   -14.5360 
  153.6250    90.1190    13.9790    13.6260    11.6700    24.3160     2.4120   -14.5260 
  153.7500    93.0360    13.2200    12.7790    11.8060    24.3420     2.4140   -14.5140 
  153.8750    95.2760    13.6340    12.6460    12.8320    24.4680     2.4070   -14.4930 
