~V
VERS. 2.00: Ver 2.00
~W
STRT.M 55.0000:
STOP.M 261.0000:
STEP.M 0.1250:
NULL. -999.2500:
UWI. DF5033:
~C
DEPT.M :
SP.MV :
GR.API :
CALI.CM :
RXO.OHMM :
RI. :
RML.OHMM :
DEN.GM/CC :
~A
# ...
  212.5000   -21.5380    72.9310    25.7700    75.9410    55.4250    54.6790     2.4040 
  212.6250   -20.8730    69.7770    25.7850    67.9770    36.4900    34.1380     2.4940 
  212.7500   -20.2630    67.2540    25.7920    42.2830    22.2050    20.2060     2.5430 
  212.8750   -19.7530    67.0970    25.7810    17.8730    13.5320    12.0500     2.5330 
  213.0000   -19.3820    67.6890    25.7620     7.2030     8.8660     7.6150     2.4800 
  213.1250   -19.1940    68.6540    25.7750     4.9150     6.6620     5.5240     2.4270 
  213.2500   -19.1940    72.8980    25.8770     4.5730     5.4920     4.4950     2.4010 
  213.3750   -19.3890    80.1770    26.1190     4.5420     4.9430     4.1020     2.4000 
  213.5000   -19.7620    86.6480    26.5030     4.4210     4.7950     4.0970     2.4120 
  213.6250   -20.2840    89.9550    26.9240     4.4520     4.9410     4.3760     2.4250 
  213.7500   -20.9100    90.2790    27.2100     5.0540     5.2680     4.8520     2.4360 
  213.8750   -21.5720    88.0660    27.2690     6.3510     5.7460     5.4970     2.4420 
  214.0000   -22.2080    85.9660    27.1260     7.7790     6.3280     6.2370     2.4440 
  214.1250   -22.7570    87.9970    26.9250     8.3720     6.9120     6.9140     2.4430 
  214.2500   -23.1560    93.0590    26.8220     8.2690     7.3750     7.3880     2.4390 
  214.3750   -23.3600    99.1250    26.8450     8.0530     7.6420     7.5970     2.4380 
  214.5000   -23.3480   105.9930    26.9280     8.0140     7.7060     7.5850     2.4390 
  214.6250   -23.0980   112.1210    26.9610     8.0600     7.6120     7.4650     2.4260 
  214.7500   -22.6290   115.6760    26.9040     8.0410     7.4560     7.3580     2.3950 
  214.8750   -21.9780   117.2860    26.7780     7.9340     7.2780     7.2900     2.3640 
  215.0000   -21.1920   117.1550    26.6340     7.7920     7.0890     7.2370     2.3530 
  215.1250   -20.3380   114.3630    26.5330     7.6820     6.8930     7.1540     2.3640 
  215.2500   -19.4990   110.9030    26.4930     7.5710     6.6990     7.0340     2.3710 
  215.3750   -18.7210   110.8380    26.5020     7.4040     6.5240     6.9120     2.3700 
  215.5000   -18.0360   115.3440    26.5310     7.1900     6.3930     6.8350     2.3710 
  215.6250   -17.4930   119.1660    26.5500     7.0490     6.3360     6.8470     2.3840 
  215.7500   -17.0840   119.7110    26.5470     7.0670     6.3520     6.9340     2.4030 
  215.8750   -16.7940   117.6980    26.5230     7.2410     6.4350     7.0720     2.4190 
  216.0000   -16.5720   114.3330    26.4790     7.4880     6.5670     7.2320     2.4280 
  216.1250   -16.3710   110.5790    26.4220     7.6480     6.7290     7.3860     2.4230 
  216.2500   -16.1770   109.7850    26.3590     7.6830     6.8930     7.5160     2.4090 
  216.3750   -15.9730   112.1980    26.3010     7.7170     7.0340     7.6050     2.3930 
  216.5000   -15.7650   113.7840    26.2540     7.9020     7.1310     7.6430     2.3820 
  216.6250   -15.5410   112.3340    26.2180     8.1130     7.1710     7.6490     2.3850 
  216.7500   -15.3230   111.2990    26.1860     8.0160     7.1930     7.6840     2.3990 
  216.8750   -15.1310   112.2770    26.1590     7.6350     7.2460     7.8200     2.4130 
  217.0000   -14.9830   113.9820    26.1390     7.3950     7.3810     8.1100     2.4160 
  217.1250   -14.8810   115.8310    26.1330     7.7620     7.6270     8.5690     2.4020 
  217.2500   -14.8020   117.4200    26.1380     8.5060     7.9020     9.0400     2.3880 
  217.3750   -14.7390   116.5910    26.1480     9.2360     8.0800     9.3150     2.3800 
  217.5000   -14.6890   112.5280    26.1590     9.6290     8.0480     9.2290     2.3800 
  217.6250   -14.6490   110.3960    26.1730     9.4800     7.8180     8.8450     2.3820 
  217.7500   -14.6330   112.3570    26.1910     8.8940     7.6510     8.6150     2.3820 
  217.8750   -14.6620   112.3370    26.1990     8.1580     7.8000     8.9520     2.3810 
  218.0000   -14.7660   105.4090    26.1550     8.3280     8.5060    10.2080     2.3840 
  218.1250   -14.9650    94.0660    26.0020    12.5960    10.2460    12.9810     2.3940 
  218.2500   -15.2400    85.3870    25.7630    22.0870    13.2740    17.4180     2.4020 
  218.3750   -15.5810    81.2240    25.5110    31.8540    17.9240    23.7290     2.3970 
  218.5000   -15.9700    77.7070    25.3530    36.1280    24.3840    31.9300     2.3790 
  218.6250   -16.3850    72.0090    25.4010    40.8370    32.9770    42.1410     2.3540 
  218.7500   -16.7810    67.4450    25.6140    60.7130    43.2250    53.8820     2.3280 
  218.8750   -17.1230    67.2400    25.9100    92.6240    54.6990    66.9680     2.3020 
  219.0000   -17.3870    69.4280    26.1980   115.8740    66.2400    80.4010     2.2820 
  219.1250   -17.5690    69.2020    26.4100   115.4970    74.0290    89.0280     2.2780 
  219.2500   -17.6930    67.7160    26.5550   107.4260    74.3820    87.2450     2.2840 
  219.3750   -17.7850    69.0550    26.6550    99.8730    66.6930    75.2630     2.2930 
  219.5000   -17.8660    74.8650    26.7250    87.2110    54.7580    59.7180     2.2980 
  219.6250   -17.9670    82.4130    26.7690    64.0090    44.0190    47.5610     2.3030 
  219.7500   -18.1130    86.9570    26.7930    40.9480    36.9100    40.3650     2.3090 
  219.8750   -18.3360    86.0530    26.8000    28.2480    33.8570    38.0690     2.3120 
  220.0000   -18.6430    79.8200    26.7920    28.8460    34.9200    40.4330     2.3070 
  220.1250   -19.0360    73.0010    26.7720    47.6780    41.2610    48.4800     2.2970 
  220.2500   -19.4750    70.1630    26.7540    82.0840    52.6070    62.0040     2.2850 
  220.3750   -19.9470    69.2170    26.7500   114.6040    68.3180    80.6870     2.2710 
  220.5000   -20.4280    65.7370    26.7510   125.8020    85.6120   101.4700     2.2560 
  220.6250   -20.8800    62.4060    26.7200   117.9530    98.9020   116.7220     2.2510 
  220.7500   -21.2860    63.9290    26.6370   113.7300   105.9280   123.4330     2.2540 
  220.8750   -21.6210    67.7620    26.5240   116.4190   107.9100   124.0750     2.2650 
  221.0000   -21.8670    68.4010    26.4340   121.9750   107.2340   122.2000     2.2790 
  221.1250   -22.0140    64.1120    26.4240   125.4930   105.0630   119.1320     2.2770 
  221.2500   -22.1210    60.6350    26.4750   125.0110   101.6540   114.7900     2.2650 
  221.3750   -22.1950    60.1350    26.5410   119.1280    97.0370   109.1180     2.2550 
  221.5000   -22.2470    60.2830    26.5790   107.6890    91.7340   102.7260     2.2520 
  221.6250   -22.3020    61.0290    26.5720    95.1900    86.5020    96.3900     2.2540 
  221.7500   -22.4090    64.4600    26.5440    87.0590    81.5550    90.2770     2.2630 
  221.8750   -22.5830    68.8590    26.5040    84.7210    76.7120    84.2440     2.2780 
  222.0000   -22.8440    70.2700    26.4520    85.7550    71.9140    78.3790     2.2920 
  222.1250   -23.2260    68.8620    26.3870    81.5480    67.5740    73.2840     2.2950 
  222.2500   -23.7130    69.7040    26.3210    70.7950    64.3510    69.6440     2.2870 
  222.3750   -24.2940    71.4670    26.2700    61.9680    63.0520    68.2980     2.2770 
  222.5000   -24.9540    71.4930    26.2440    63.3430    64.3440    69.8660     2.2730 
  222.6250   -25.6610    69.6340    26.2620    75.3250    68.8700    75.0260     2.2850 
  222.7500   -26.3370    66.9630    26.3220    90.8760    75.5900    82.6790     2.3050 
  222.8750   -26.9500    65.0030    26.4190   109.1380    83.3180    91.3890     2.3210 
  223.0000   -27.4650    63.4890    26.5410   125.4360    90.4540    99.1130     2.3240 
  223.1250   -27.8470    63.5650    26.6640   126.4600    95.2600   103.8100     2.3160 
  223.2500   -28.0820    64.7740    26.7660   116.5140    98.0150   106.2980     2.3010 
  223.3750   -28.1660    65.6450    26.8370   110.3550    99.6670   107.9500     2.2830 
  223.5000   -28.1140    65.1010    26.8770   115.0700   101.1500   109.6340     2.2690 
  223.6250   -27.9420    65.3370    26.8890   124.8800   102.7020   111.2160     2.2700 
