~V
VERS. 2.00: Ver 2.00
~W
STRT.M 65.0000:
STOP.M 272.0000:
STEP.M 0.1250:
NULL. -999.2500:
UWI. DF5002:
~C
DEPT.M :
DEN.GM/CC :
GR.API :
CALI.CM :
RXO.OHMM :
RI. :
RML.OHMM :
SP.MV :
~A
# ...
  121.2500     2.2490    91.7510    24.6000     6.4840     5.3120     7.4550   -12.8130 
  121.3750     2.2370    92.9450    24.4840     7.0040     5.5310     7.7630   -12.7920 
  121.5000     2.2270    94.8220    24.3310     7.2420     5.6220     7.7970   -12.7670 
  121.6250     2.2220    92.0390    24.4460     6.8420     5.5070     7.4860   -12.6540 
  121.7500     2.2280    89.1090    24.6980     6.2360     5.2560     7.0230   -12.4380 
  121.8750     2.2450    92.6150    24.8220     5.7630     4.9490     6.5610   -12.2080 
  122.0000     2.2710   101.1120    24.6100     5.5010     4.6590     6.1910   -12.0170 
  122.1250     2.2990   106.3200    24.5230     5.5340     4.4360     5.9310   -11.9270 
  122.2500     2.3190   106.4300    24.5480     5.6640     4.2610     5.6960   -11.8490 
  122.3750     2.3250   104.5340    24.5070     5.6620     4.1340     5.4690   -11.8040 
  122.5000     2.3190   103.1860    24.4470     5.4840     4.0900     5.3370   -11.8040 
  122.6250     2.3180   102.4680    24.4410     5.4260     4.2300     5.4910   -11.9210 
  122.7500     2.3380    98.5730    24.5090     5.8570     4.5700     5.9840   -12.1970 
  122.8750     2.3810    91.7400    24.5360     7.5370     5.0960     6.8090   -12.6290 
  123.0000     2.4310    83.8560    24.5160    10.5850     5.7150     7.8090   -13.1390 
  123.1250     2.4530    78.9670    24.4670    11.6760     6.1980     8.5530   -13.6260 
  123.2500     2.4330    77.4810    24.4310    10.0340     6.3610     8.7020   -14.0640 
  123.3750     2.3840    77.8270    24.4190     7.8240     6.1850     8.2650   -14.5060 
  123.5000     2.3340    79.8190    24.4190     7.1120     5.8160     7.5510   -15.0060 
  123.6250     2.3120    82.4340    24.3740     7.4290     5.5070     6.9920   -15.5810 
  123.7500     2.3180    83.5310    24.3620     7.7290     5.4690     6.8650   -16.1160 
  123.8750     2.3410    82.9030    24.4420     7.8120     5.8450     7.3150   -16.5870 
  124.0000     2.3750    79.9750    24.6310     7.9670     6.7270     8.4260   -17.0310 
  124.1250     2.4250    75.0240    24.5170     9.2950     8.2160    10.3370   -17.5910 
  124.2500     2.4840    72.7420    24.4780    13.7770    10.0360    12.7130   -18.3000 
  124.3750     2.5220    72.1370    24.5430    22.4810    11.6980    14.8940   -19.0870 
  124.5000     2.5010    69.5570    24.6960    30.7270    12.5570    15.9200   -19.9230 
  124.6250     2.4110    65.7010    24.5050    30.3250    12.1550    15.1410   -20.8480 
  124.7500     2.3050    66.1000    24.1730    22.7970    11.1070    13.5700   -21.7830 
  124.8750     2.2220    68.9990    24.0360    15.6400     9.9690    12.0510   -22.7180 
  125.0000     2.1700    67.9620    24.0470    12.2480     9.0880    11.0110   -23.6500 
  125.1250     2.1470    65.4320    24.0590    11.3720     8.6320    10.5860   -24.4240 
  125.2500     2.1410    66.1610    24.0470    11.0950     8.4800    10.5380   -25.0190 
  125.3750     2.1480    69.2070    24.0200    11.0710     8.5200    10.6940   -25.5000 
  125.5000     2.1610    72.5850    23.9890    11.2150     8.6430    10.9110   -25.8520 
  125.6250     2.1680    73.4280    23.9650    11.3000     8.7680    11.1040   -26.1100 
  125.7500     2.1690    71.4460    23.9550    11.2650     8.8650    11.2510   -26.3890 
  125.8750     2.1760    67.3470    23.9670    11.2380     8.9390    11.3500   -26.5990 
  126.0000     2.1930    64.8980    24.0130    11.2950     8.9970    11.4040   -26.7120 
  126.1250     2.2060    66.0650    24.0700    11.4700     9.0280    11.4130   -26.7590 
  126.2500     2.1980    67.3930    24.0090    11.5720     9.0220    11.3950   -26.8310 
  126.3750     2.1770    67.3170    23.8720    11.5470     8.9740    11.3640   -26.9250 
  126.5000     2.1610    66.5730    23.7860    11.4050     8.9000    11.3430   -27.0410 
  126.6250     2.1600    65.7830    23.7520    11.2640     8.8360    11.3550   -27.0490 
  126.7500     2.1640    64.8510    23.7040    11.2390     8.8150    11.4090   -26.9130 
  126.8750     2.1630    65.0760    23.6330    11.3180     8.8450    11.4990   -26.7550 
  127.0000     2.1590    67.3660    23.5900    11.4450     8.8980    11.6020   -26.6020 
  127.1250     2.1600    68.6100    23.5830    11.5820     8.9210    11.6630   -26.3930 
  127.2500     2.1680    68.6890    23.5650    11.7000     8.8850    11.6550   -26.0650 
  127.3750     2.1800    69.2850    23.5610    11.7010     8.7910    11.5680   -25.6280 
  127.5000     2.1900    69.9140    23.5800    11.4540     8.6590    11.4060   -25.1320 
  127.6250     2.1950    69.5880    23.6700    10.9570     8.5280    11.1790   -24.6300 
  127.7500     2.2020    71.2360    23.7690    10.6180     8.4310    10.9320   -24.1740 
  127.8750     2.2110    76.3490    23.7490    10.6590     8.3730    10.7040   -23.7090 
  128.0000     2.2190    80.1090    23.7260    10.9590     8.3460    10.5370   -23.2170 
  128.1250     2.2170    78.6090    23.7990    11.0840     8.3450    10.4760   -22.7380 
  128.2500     2.2060    75.5410    23.9340    10.9770     8.3720    10.5160   -22.3200 
  128.3750     2.1950    74.5070    24.0190    10.8290     8.4370    10.6370   -21.9520 
  128.5000     2.1870    74.9940    24.0750    10.7730     8.5240    10.7660   -21.6060 
  128.6250     2.1810    73.3420    24.0530    10.7200     8.5230    10.7060   -21.2450 
  128.7500     2.1740    71.7490    23.9570    10.4980     8.2970    10.2980   -20.7920 
  128.8750     2.1660    72.8720    23.8860    10.0330     7.7800     9.5010   -20.2110 
  129.0000     2.1670    77.2150    23.7960     9.2570     7.0350     8.4610   -19.5380 
  129.1250     2.1970    83.8660    23.5860     8.0880     6.2600     7.4850   -18.8580 
  129.2500     2.2520    89.7890    23.6180     6.9880     5.6570     6.8120   -18.1900 
  129.3750     2.3060    92.6430    23.8170     6.4100     5.3130     6.5200   -17.5130 
  129.5000     2.3250    90.9840    23.9140     6.4520     5.2300     6.5680   -16.8540 
  129.6250     2.3000    87.8940    23.9030     6.9220     5.3560     6.8360   -16.2600 
  129.7500     2.2690    89.0890    23.9020     7.3830     5.5320     7.0870   -15.8020 
  129.8750     2.2610    93.5150    23.9550     7.4980     5.6530     7.1840   -15.4910 
  130.0000     2.2770    96.9990    24.0370     7.0770     5.6680     7.0980   -15.2680 
  130.1250     2.2990    96.3570    24.1750     6.5050     5.5940     6.9170   -15.0460 
  130.2500     2.3080    93.2220    24.2660     6.2730     5.4970     6.7650   -14.8500 
  130.3750     2.3000    88.7910    24.3730     6.4720     5.3960     6.6580   -14.6870 
  130.5000     2.2860    84.9260    24.4830     6.7220     5.2790     6.5430   -14.5670 
  130.6250     2.2820    85.7370    24.3840     6.5190     5.1180     6.3520   -14.4190 
  130.7500     2.2870    90.9720    24.3720     6.1550     4.9310     6.1030   -14.2160 
  130.8750     2.2960    94.6250    24.4250     5.9090     4.7630     5.8620   -14.0180 
  131.0000     2.3050    93.2030    24.4060     5.8880     4.6680     5.7090   -13.9080 
  131.1250     2.3120    90.3890    24.4240     5.9380     4.7070     5.7260   -13.8670 
  131.2500     2.3140    89.4760    24.4580     6.2290     4.8520     5.8770   -13.9110 
  131.3750     2.3120    88.1550    24.4880     6.7550     5.0420     6.0860   -13.9960 
  131.5000     2.3090    86.0020    24.5960     7.4410     5.1930     6.2510   -14.0240 
  131.6250     2.3070    89.7180    24.5990     7.6980     5.2260     6.2760   -14.0280 
  131.7500     2.3030    97.7680    24.5580     7.3370     5.1670     6.1870   -14.0850 
  131.8750     2.2980   102.7590    24.4720     6.6470     5.0690     6.0580   -14.2010 
  132.0000     2.2940   101.1680    24.4220     6.1130     4.9910     5.9750   -14.2920 
  132.1250     2.2940    96.0190    24.4700     6.2240     4.9700     5.9950   -14.3650 
  132.2500     2.2990    91.6870    24.5080     6.6470     4.9710     6.0500   -14.3410 
  132.3750     2.3060    90.3720    24.4950     6.8170     4.9290     6.0420   -14.2850 
