~V
VERS. 2.00: Ver 2.00
~W
STRT.M 55.0000:
STOP.M 273.0000:
STEP.M 0.1250:
NULL. -999.2500:
UWI. DF5004:
~C
DEPT.M :
GR.API :
CALI.CM :
RXO.OHMM :
RI. :
RML.OHMM :
DEN.GM/CC :
SP.MV :
~A
# ...
   77.5000    71.9140    23.4900    10.4100     7.7140    10.9400     2.1520   -34.6540 
   77.6250    72.1560    23.2730    10.2630     7.6570    10.8390     2.1420   -34.6660 
   77.7500    70.5710    23.1770    10.3320     7.6040    10.7320     2.1270   -34.6570 
   77.8750    69.0720    23.1630    10.5180     7.5570    10.6560     2.1190   -34.5340 
   78.0000    67.9920    23.1680    10.6620     7.5310    10.6460     2.1160   -34.4160 
   78.1250    67.1350    23.1670    10.6250     7.5540    10.7450     2.1030   -34.3720 
   78.2500    67.1960    23.1660    10.5590     7.6250    10.9220     2.0840   -34.2150 
   78.3750    67.8250    23.1760    10.5650     7.7190    11.1230     2.0770   -34.0530 
   78.5000    68.8860    23.1940    10.6140     7.7830    11.2650     2.0910   -33.9890 
   78.6250    70.2170    23.2690    10.5960     7.7420    11.2240     2.1200   -33.9470 
   78.7500    71.7300    23.3670    10.4630     7.5910    10.9800     2.1440   -33.9070 
   78.8750    73.7190    23.3820    10.1330     7.3670    10.5840     2.1500   -33.9360 
   79.0000    76.5460    23.3590     9.7960     7.1370    10.1580     2.1390   -33.9950 
   79.1250    79.5660    23.3310     9.7010     6.9880     9.8830     2.1220   -34.0470 
   79.2500    80.4010    23.3200     9.8380     6.9660     9.8450     2.1100   -34.0750 
   79.3750    77.2900    23.2700    10.0410     7.0930    10.0640     2.1050   -34.0610 
   79.5000    71.3500    23.2170    10.2790     7.3450    10.4870     2.1090   -34.0320 
   79.6250    66.7640    23.2340    10.5880     7.6610    10.9940     2.1150   -33.9710 
   79.7500    64.9600    23.2490    10.7860     7.9550    11.4260     2.1200   -33.8790 
   79.8750    64.5770    23.1210    11.0250     8.1770    11.6870     2.1270   -33.7560 
   80.0000    65.2490    23.1750    11.2100     8.2800    11.7190     2.1430   -33.5070 
   80.1250    66.2280    23.5600    11.1730     8.2030    11.4700     2.1610   -33.2100 
   80.2500    65.6550    23.6440    10.8270     7.9810    11.0370     2.1660   -32.9710 
   80.3750    65.4420    23.6420    10.1190     7.6620    10.5160     2.1570   -32.8040 
   80.5000    68.3700    23.7170     9.0110     7.3140    10.0100     2.1500   -32.5860 
   80.6250    72.7640    23.8440     8.0520     7.0270     9.6470     2.1570   -32.2510 
   80.7500    74.0830    23.6580     7.8260     6.8500     9.4760     2.1690   -31.9520 
   80.8750    72.8610    23.5770     8.2530     6.7930     9.4890     2.1760   -31.7080 
   81.0000    71.3650    23.7590     8.9220     6.8270     9.5980     2.1760   -31.5670 
   81.1250    68.5360    23.8650     9.3150     6.9060     9.6550     2.1630   -31.3950 
   81.2500    65.8050    23.9180     9.4760     6.9910     9.6190     2.1260   -31.1860 
   81.3750    65.5110    23.9280     9.3310     7.1200     9.6360     2.0710   -30.8950 
   81.5000    67.3150    23.8780     9.0580     7.3970     9.9690     2.0290   -30.5550 
   81.6250    67.4550    23.7220     9.1750     7.9870    10.9590     2.0560   -30.1490 
   81.7500    65.4700    23.5400     9.7970     8.8310    12.4820     2.1550   -29.6160 
   81.8750    63.5350    23.5510    10.7690     9.6770    14.0500     2.2970   -28.9310 
   82.0000    64.1220    23.6890    11.5360    10.0440    14.7220     2.4220   -28.0300 
   82.1250    69.5670    23.8060    11.1530     9.3750    13.4310     2.4640   -27.0980 
   82.2500    79.0570    23.8790     9.5280     8.0520    11.0160     2.4400   -26.2060 
   82.3750    89.4200    23.9350     7.5210     6.6550     8.6330     2.3940   -25.4100 
   82.5000    98.0200    23.6960     6.1390     5.6290     7.0380     2.3580   -24.7840 
   82.6250   101.8110    23.4870     5.7730     5.2520     6.5850     2.3280   -24.2980 
   82.7500   100.7010    23.3500     6.0850     5.4230     6.9920     2.2890   -23.9670 
   82.8750    95.8260    23.3030     7.2110     6.0540     8.0550     2.2470   -23.8240 
   83.0000    90.7930    23.3030     9.3810     6.9860     9.4690     2.2230   -23.8690 
   83.1250    88.4840    23.3250    11.1150     7.9060    10.6810     2.2340   -23.8820 
   83.2500    88.4610    23.5850    10.8920     8.4640    11.2290     2.2690   -23.8300 
   83.3750    88.4390    23.6660     9.7980     8.5070    11.0040     2.3100   -23.6360 
   83.5000    86.8720    23.6100     9.8530     8.0870    10.2000     2.3440   -23.3080 
   83.6250    85.7040    23.5370    10.7530     7.3550     9.0950     2.3670   -22.9620 
   83.7500    88.4120    23.6380    10.0480     6.5590     7.9940     2.3770   -22.4600 
   83.8750    95.9660    23.5160     7.9350     5.8320     7.0590     2.3750   -21.9080 
   84.0000   105.6790    23.3090     6.1000     5.2500     6.3820     2.3660   -21.4350 
   84.1250   111.7290    23.2550     5.4470     4.8730     6.0610     2.3620   -21.0860 
   84.2500   113.7400    23.3320     5.2980     4.6610     6.0290     2.3680   -20.8130 
   84.3750   113.3350    23.4040     5.3010     4.5760     6.1970     2.3780   -20.6820 
   84.5000   112.5670    23.4270     5.3030     4.5680     6.4210     2.3840   -20.6240 
   84.6250   111.1530    23.3740     5.2900     4.5810     6.5340     2.3840   -20.6450 
   84.7500   109.0860    23.3900     5.2970     4.5680     6.4840     2.3830   -20.8860 
   84.8750   108.1870    23.2890     5.3010     4.5280     6.3180     2.3790   -21.2190 
   85.0000   108.2730    23.0790     5.3050     4.5060     6.1670     2.3670   -21.5150 
   85.1250   108.6810    23.0740     5.3610     4.6320     6.2840     2.3490   -21.9260 
   85.2500   107.8340    22.9340     5.5550     5.0020     6.8280     2.3380   -22.4630 
   85.3750   104.2610    22.6910     6.1450     5.6750     7.9010     2.3450   -23.1140 
   85.5000    98.4170    22.5150     7.6880     6.6240     9.4690     2.3780   -23.9000 
   85.6250    91.5140    22.4750    10.8740     7.6620    11.2070     2.4200   -24.7450 
   85.7500    86.4200    22.5220    14.1120     8.4420    12.4380     2.4310   -25.5590 
   85.8750    83.1380    22.7200    15.3270     8.7310    12.7130     2.3930   -26.4280 
   86.0000    80.7840    23.1050    13.6600     8.5410    12.1160     2.3190   -27.3220 
   86.1250    79.1090    23.1690    11.2510     8.0960    11.2030     2.2460   -28.1440 
   86.2500    77.1700    23.1110     9.6410     7.6940    10.5460     2.1950   -28.8960 
   86.3750    75.8080    23.1010     9.2840     7.4460    10.2980     2.1650   -29.5700 
   86.5000    76.1720    23.1000     9.4420     7.3610    10.3900     2.1530   -30.1890 
   86.6250    78.6140    23.0850     9.5230     7.3790    10.6220     2.1510   -30.6540 
   86.7500    79.9410    23.0820     9.4470     7.3840    10.7610     2.1530   -31.0550 
   86.8750    77.6500    23.0860     9.2520     7.3180    10.7270     2.1580   -31.3370 
   87.0000    74.2340    23.0880     9.0430     7.1800    10.5450     2.1680   -31.5740 
   87.1250    73.5860    23.0960     8.8810     7.0070    10.2890     2.1810   -31.7310 
   87.2500    75.2610    23.1180     8.7150     6.8430    10.0440     2.1920   -31.8050 
   87.3750    77.8220    23.1390     8.5120     6.7080     9.8530     2.1960   -31.8530 
   87.5000    80.7030    23.1040     8.3200     6.6070     9.7450     2.1920   -31.8790 
   87.6250    81.9560    22.9860     8.2180     6.5600     9.7610     2.1860   -31.9240 
   87.7500    81.3710    22.8700     8.2860     6.5860     9.8960     2.1810   -31.9400 
   87.8750    80.8320    22.9040     8.5990     6.7010    10.1440     2.1770   -32.0140 
   88.0000    82.5840    23.0220     9.0450     6.8930    10.4760     2.1720   -32.1710 
   88.1250    84.3960    23.0560     9.4690     7.1140    10.8460     2.1740   -32.3970 
   88.2500    83.4670    22.9680     9.8300     7.3150    11.1940     2.1820   -32.5950 
   88.3750    79.2230    22.7580    10.2030     7.4830    11.4800     2.1930   -32.7940 
   88.5000    74.4950    22.6200    10.5520     7.6160    11.6780     2.2020   -33.0010 
   88.6250    71.1450    22.5750    10.7870     7.7100    11.7670     2.2020   -33.1670 
