~V
VERS. 2.00: Ver 2.00
~W
STRT.M 50.0000:
STOP.M 260.0000:
STEP.M 0.1250:
NULL. -999.2500:
UWI. DF5023:
~C
DEPT.M :
GR.API :
RML.OHMM :
RI. :
RXO.OHMM :
CALI.CM :
DEN.GM/CC :
SP.MV :
~A
# ...
  128.7500    96.9560     5.4490     5.2000     5.9650    24.2000     2.3210   -17.3440 
  128.8750    94.9260     5.4810     5.2110     6.0990    24.1830     2.3010   -17.6520 
  129.0000    90.6050     5.5860     5.2940     6.0190    24.1580     2.2690   -18.0760 
  129.1250    86.6060     5.8030     5.4690     6.0050    24.0560     2.2290   -18.5110 
  129.2500    83.1310     6.1230     5.7320     5.9780    23.8170     2.1930   -19.0470 
  129.3750    78.8250     6.5180     6.0690     6.4950    23.5480     2.1680   -19.5640 
  129.5000    73.8450     6.9360     6.4470     7.4790    23.4060     2.1580   -20.0410 
  129.6250    71.3830     7.2960     6.8130     7.9110    23.3830     2.1640   -20.3880 
  129.7500    71.9110     7.5440     7.1120     8.1140    23.3800     2.1800   -20.5630 
  129.8750    73.1130     7.6550     7.3100     8.1850    23.3790     2.2000   -20.5740 
  130.0000    74.1120     7.6360     7.3920     8.1230    23.3780     2.2220   -20.4750 
  130.1250    74.5450     7.5070     7.3450     7.9170    23.3750     2.2410   -20.2400 
  130.2500    73.7400     7.3370     7.2160     7.7810    23.3940     2.2540   -19.8800 
  130.3750    72.6750     7.1710     7.0350     7.6840    23.5030     2.2620   -19.4100 
  130.5000    71.5670     7.0230     6.8260     7.5050    23.7730     2.2640   -18.9120 
  130.6250    72.0320     6.8560     6.5860     7.1610    24.0110     2.2620   -18.4100 
  130.7500    76.1730     6.6200     6.3130     6.8580    24.1190     2.2580   -18.0790 
  130.8750    82.9370     6.2900     6.0080     6.5630    24.1000     2.2530   -17.8300 
  131.0000    86.1430     5.8860     5.6880     6.3330    23.9750     2.2510   -17.6310 
  131.1250    80.5950     5.5150     5.4140     6.5810    23.8930     2.2540   -17.5470 
  131.2500    74.8090     5.2600     5.2780     7.0780    23.9730     2.2620   -17.4440 
  131.3750    73.7890     5.3460     5.4120     7.3720    24.1190     2.2740   -17.4470 
  131.5000    75.0530     5.8290     6.0080     7.6210    24.2050     2.2920   -17.4780 
  131.6250    74.3690     7.5010     7.5230     9.8330    24.2130     2.3230   -17.6890 
  131.7500    71.7220    10.2610    10.1780    14.9290    24.1880     2.3720   -17.8870 
  131.8750    68.3140    14.3540    14.0750    23.9550    24.1230     2.4400   -18.1770 
  132.0000    65.4460    19.7500    18.9060    38.7470    24.0680     2.5230   -18.4970 
  132.1250    65.0610    24.0030    23.6630    50.5800    24.0360     2.6020   -18.8760 
  132.2500    63.6010    26.5860    26.9430    52.0410    24.0170     2.6520   -19.3820 
  132.3750    59.0130    26.5600    27.7290    50.7340    23.9660     2.6560   -19.9900 
  132.5000    54.1100    24.0280    25.8650    51.8220    23.8030     2.6070   -20.6640 
  132.6250    55.6260    20.2020    22.1500    46.1970    23.4340     2.5090   -21.2580 
  132.7500    60.5680    16.7310    18.2780    30.3750    23.1830     2.3980   -21.7660 
  132.8750    62.5530    14.1650    15.0410    17.6980    23.1210     2.2990   -22.1870 
  133.0000    61.1110    12.5260    12.6960    13.4240    23.0000     2.2260   -22.5930 
  133.1250    62.3110    11.7430    11.3160    12.6790    22.9360     2.1870   -22.8990 
  133.2500    64.9350    11.4800    10.5810    12.5850    22.9150     2.1720   -23.1600 
  133.3750    65.8580    11.5610    10.3240    12.4460    22.9070     2.1690   -23.2660 
  133.5000    65.7940    11.8210    10.3820    12.2430    22.8980     2.1720   -23.3370 
  133.6250    68.1770    12.1020    10.6060    12.0590    22.9010     2.1770   -23.3500 
  133.7500    71.0200    12.2970    10.8310    12.0180    22.9170     2.1840   -23.4260 
  133.8750    71.0970    12.3920    10.9960    12.0970    22.9450     2.1920   -23.4470 
  134.0000    67.5900    12.4160    11.0850    12.2860    22.9850     2.1990   -23.4780 
  134.1250    63.1270    12.3800    11.0870    12.3920    23.0380     2.2020   -23.4810 
  134.2500    61.6060    12.2930    11.0160    12.3260    23.0960     2.2010   -23.4620 
  134.3750    63.6860    12.1610    10.8840    12.1250    23.1570     2.1970   -23.4900 
  134.5000    66.8030    12.0000    10.7100    11.8500    23.2160     2.1910   -23.4350 
  134.6250    69.3300    11.8420    10.5260    11.4440    23.2620     2.1840   -23.4230 
  134.7500    69.8370    11.7220    10.3730    10.9970    23.2950     2.1770   -23.3040 
  134.8750    67.9550    11.6650    10.2790    10.6190    23.3090     2.1700   -23.2490 
  135.0000    65.7310    11.6820    10.2590    10.5090    23.2980     2.1650   -23.1240 
  135.1250    64.8600    11.7750    10.3240    10.7070    23.2520     2.1650   -23.0150 
  135.2500    65.7890    11.9090    10.4360    11.0300    23.1810     2.1720   -22.9040 
  135.3750    67.1630    12.0500    10.5630    11.2190    23.0930     2.1850   -22.8110 
  135.5000    67.9450    12.1590    10.6670    11.2830    22.9980     2.1980   -22.7450 
  135.6250    66.3990    12.1840    10.6920    11.4170    22.9100     2.2030   -22.6430 
  135.7500    63.0650    12.1030    10.6160    11.5760    22.8340     2.1980   -22.5440 
  135.8750    60.1100    11.9000    10.4260    11.6060    22.7750     2.1840   -22.4130 
  136.0000    58.7040    11.5720    10.1240    11.4370    22.7350     2.1670   -22.2880 
  136.1250    60.9550    11.1200     9.7180    11.0180    22.7370     2.1540   -22.1460 
  136.2500    65.2130    10.6180     9.2720    10.4380    22.7850     2.1470   -21.9610 
  136.3750    68.3260    10.1560     8.8570     9.7930    22.8930     2.1460   -21.7400 
  136.5000    68.4080     9.8500     8.5650     9.3810    23.1690     2.1470   -21.5180 
  136.6250    66.0700     9.8550     8.5340     9.3630    23.4180     2.1490   -21.2290 
  136.7500    64.1210    10.1660     8.7810     9.7430    23.5940     2.1520   -20.9940 
  136.8750    63.5630    10.7100     9.2670    10.7140    23.7730     2.1570   -20.6850 
  137.0000    63.3780    11.3150     9.8630    12.8020    24.0120     2.1660   -20.3890 
  137.1250    60.3950    11.6760    10.3200    16.9440    24.2030     2.1760   -20.0030 
  137.2500    57.3570    11.5910    10.4310    22.7410    24.2740     2.1850   -19.5900 
  137.3750    60.1590    10.9860    10.0870    27.6030    24.2870     2.1920   -19.1080 
  137.5000    68.1260     9.9490     9.3060    26.8650    24.2930     2.1980   -18.5340 
  137.6250    75.1960     8.7400     8.2420    18.0540    24.3110     2.2050   -18.0410 
  137.7500    79.9540     7.6900     7.1960    10.3140    24.3260     2.2100   -17.4900 
  137.8750    83.2490     6.9460     6.3440     6.5720    24.3050     2.2140   -17.0400 
  138.0000    84.0750     6.5420     5.7690     5.8570    24.2360     2.2170   -16.5690 
  138.1250    81.9890     6.4830     5.5210     6.3200    24.2010     2.2220   -16.2210 
  138.2500    79.6170     6.6180     5.4900     6.4740    24.1890     2.2320   -15.9580 
  138.3750    77.0160     6.8440     5.5900     6.4190    24.2000     2.2450   -15.7460 
  138.5000    75.1910     7.0600     5.7280     6.3010    24.2430     2.2590   -15.6290 
  138.6250    75.4020     7.1570     5.8060     6.2030    24.2700     2.2700   -15.5190 
  138.7500    75.9110     7.1050     5.7740     6.0170    24.2780     2.2760   -15.5100 
  138.8750    76.4590     6.9150     5.6240     5.9670    24.2780     2.2800   -15.4730 
  139.0000    79.2920     6.6250     5.3810     6.0580    24.2800     2.2870   -15.5310 
  139.1250    83.8460     6.2790     5.0840     5.8900    24.2850     2.2970   -15.5660 
  139.2500    87.1330     5.9590     4.8000     5.5320    24.2870     2.3060   -15.6590 
  139.3750    88.0490     5.7580     4.6030     5.2270    24.2880     2.3050   -15.8440 
  139.5000    87.8180     5.7750     4.5770     5.1100    24.2660     2.2940   -16.1900 
  139.6250    86.7980     6.1360     4.8370     5.2890    24.1700     2.2790   -16.5810 
  139.7500    85.5950     6.8110     5.3760     5.7390    23.9900     2.2740   -17.0510 
  139.8750    84.2640     7.7460     6.1690     6.3340    23.8110     2.2870   -17.6490 
