~V
VERS. 2.00: Ver 2.00
~W
STRT.M 61.0000:
STOP.M 247.0000:
STEP.M 0.1250:
NULL. -999.2500:
UWI. DF5042:
~C
DEPT.M :
SP.MV :
GR.API :
CALI.CM :
RXO.OHMM :
RI. :
RML.OHMM :
DEN.GM/CC :
~A
# ...
  106.0000   -22.2060    92.0630    25.3980     4.8410     4.8490     5.4430     2.2440 
  106.1250   -22.2560    90.6640    25.3880     4.9050     4.8510     5.4650     2.2390 
  106.2500   -22.4020    93.3700    25.3840     4.8740     4.8490     5.4960     2.2380 
  106.3750   -22.5820    96.2500    25.3970     4.8340     4.8580     5.5540     2.2410 
  106.5000   -22.7770    96.4560    25.4140     4.8250     4.8870     5.6460     2.2450 
  106.6250   -23.0060    96.4810    25.4120     5.1930     4.9380     5.7660     2.2470 
  106.7500   -23.2390    98.5900    25.4010     5.2760     4.9960     5.8960     2.2440 
  106.8750   -23.4610   100.2770    25.4010     5.1120     5.0630     6.0400     2.2340 
  107.0000   -23.6250    97.1120    25.3940     5.0340     5.1560     6.2180     2.2180 
  107.1250   -23.7560    91.1040    25.3140     5.1210     5.3040     6.4530     2.1990 
  107.2500   -23.7690    87.6820    25.1800     5.4910     5.4980     6.7260     2.1800 
  107.3750   -23.7110    86.4640    25.0530     6.1860     5.7160     7.0100     2.1630 
  107.5000   -23.6480    86.0740    24.9860     7.7330     5.9380     7.3010     2.1490 
  107.6250   -23.5890    85.8490    24.9740     8.1450     6.1980     7.6750     2.1430 
  107.7500   -23.5520    85.3030    24.9720     7.8460     6.5810     8.2640     2.1500 
  107.8750   -23.5220    82.6950    24.9940     7.6600     7.2000     9.2080     2.1800 
  108.0000   -23.4800    77.5350    25.0590     8.9880     8.1550    10.5900     2.2340 
  108.1250   -23.4640    74.6120    25.1600    11.8710     9.5310    12.3820     2.3050 
  108.2500   -23.4970    74.0780    25.2540    14.6860    11.1010    14.1680     2.3760 
  108.3750   -23.5770    73.5160    25.3270    16.2900    12.4720    15.4260     2.4170 
  108.5000   -23.6330    72.3180    25.3750    16.3030    13.1350    15.6610     2.4160 
  108.6250   -23.6590    71.8980    25.3960    15.8020    12.6230    14.5780     2.3790 
  108.7500   -23.6440    72.7560    25.4010    14.8120    11.3640    12.8280     2.3240 
  108.8750   -23.5580    73.9740    25.3840    13.0690     9.8440    10.9920     2.2700 
  109.0000   -23.4320    75.6950    25.3160    10.1200     8.4440     9.4570     2.2230 
  109.1250   -23.2720    77.3420    25.1920     7.6540     7.3890     8.4140     2.1860 
  109.2500   -23.1390    78.0950    25.0830     6.5520     6.6330     7.7150     2.1610 
  109.3750   -23.0640    77.9530    25.0320     6.2670     6.1120     7.2380     2.1520 
  109.5000   -23.0610    77.0080    25.0250     6.2800     5.7570     6.8910     2.1560 
  109.6250   -23.1160    79.6830    25.0320     5.9780     5.5480     6.6570     2.1660 
  109.7500   -23.2440    86.8650    25.0510     5.3430     5.4590     6.5460     2.1770 
  109.8750   -23.4480    93.2130    25.0900     4.9820     5.4920     6.5790     2.1860 
  110.0000   -23.6760    95.1720    25.1360     5.3470     5.6360     6.7360     2.1940 
  110.1250   -23.8970    94.1270    25.1550     6.8490     5.8400     6.9280     2.1990 
  110.2500   -24.0580    94.1250    25.1190     7.8900     5.9860     7.0060     2.2010 
  110.3750   -24.1130    94.4400    25.0470     7.2240     5.9780     6.8810     2.2040 
  110.5000   -24.0630    93.8720    24.9860     5.6390     5.7840     6.5630     2.2090 
  110.6250   -23.9460    94.7420    24.9690     5.3560     5.4620     6.1670     2.2180 
  110.7500   -23.7370    98.5120    24.9720     5.1170     5.1480     5.8410     2.2330 
  110.8750   -23.4790   103.3820    24.9730     4.6790     4.9140     5.6400     2.2510 
  111.0000   -23.2350   104.3060    24.9810     4.5060     4.7840     5.5490     2.2650 
  111.1250   -22.9970    98.4910    24.9970     4.8880     4.7360     5.5150     2.2720 
  111.2500   -22.7500    95.1960    24.9690     4.9180     4.7090     5.4730     2.2720 
  111.3750   -22.5270    98.4580    24.8600     4.6060     4.6760     5.4150     2.2660 
  111.5000   -22.2910   102.7600    24.7150     4.3490     4.6370     5.3590     2.2590 
  111.6250   -22.0700   101.3340    24.6300     4.2940     4.6180     5.3570     2.2520 
  111.7500   -21.8900    96.8380    24.6080     4.3580     4.6590     5.4440     2.2450 
  111.8750   -21.7100    94.1580    24.5930     4.4270     4.7840     5.6290     2.2380 
  112.0000   -21.5060    93.2730    24.5560     4.4720     4.9850     5.8750     2.2300 
  112.1250   -21.2830    92.3300    24.5110     4.6850     5.1980     6.0820     2.2230 
  112.2500   -21.0830    90.3720    24.4840     5.2480     5.3240     6.1400     2.2190 
  112.3750   -20.9290    89.0370    24.5380     5.6910     5.2840     5.9840     2.2210 
  112.5000   -20.8510    91.6450    24.7660     5.5050     5.0610     5.6360     2.2290 
  112.6250   -20.8100    97.2870    25.1590     4.8470     4.7160     5.2100     2.2430 
  112.7500   -20.8060   102.3890    25.5440     4.4050     4.3920     4.8690     2.2610 
  112.8750   -20.8010   106.3360    25.7960     4.2060     4.1820     4.6990     2.2760 
  113.0000   -20.8650   108.3270    25.8640     4.1990     4.1360     4.7220     2.2850 
  113.1250   -20.9780   105.9920    25.7680     4.3650     4.2640     4.9090     2.2840 
  113.2500   -21.1640   101.5680    25.6440     4.5880     4.4690     5.1360     2.2770 
  113.3750   -21.3680    96.7270    25.5840     4.8420     4.6660     5.3080     2.2660 
  113.5000   -21.5910    92.1780    25.5900     5.0020     4.7830     5.3610     2.2590 
  113.6250   -21.8080    90.1240    25.6340     4.7950     4.7630     5.2640     2.2590 
  113.7500   -22.0330    92.3640    25.6980     4.5140     4.6510     5.0900     2.2630 
  113.8750   -22.2950    98.5240    25.7500     4.3660     4.4960     4.9030     2.2700 
  114.0000   -22.5140   104.8710    25.7700     4.3510     4.3420     4.7450     2.2780 
  114.1250   -22.6920   107.2860    25.7690     4.2640     4.2170     4.6390     2.2840 
  114.2500   -22.7840   105.2440    25.7650     4.1770     4.1260     4.5780     2.2870 
  114.3750   -22.8570   101.5600    25.7530     4.2700     4.0680     4.5580     2.2900 
  114.5000   -22.9800    99.0960    25.7480     4.3700     4.0450     4.5800     2.2890 
  114.6250   -23.1430    96.5670    25.7180     4.3120     4.0740     4.6710     2.2850 
  114.7500   -23.3570    94.7670    25.5890     4.3440     4.1720     4.8540     2.2780 
  114.8750   -23.6130    92.7270    25.3720     4.7570     4.3630     5.1570     2.2690 
  115.0000   -23.8600    88.8930    25.1720     5.0290     4.6690     5.5980     2.2570 
  115.1250   -24.1440    82.4000    25.0960     5.1260     5.1140     6.1830     2.2430 
  115.2500   -24.4230    77.9120    25.0880     5.5470     5.6380     6.8150     2.2280 
  115.3750   -24.6870    77.9900    25.0890     6.1930     6.1710     7.4140     2.2150 
  115.5000   -24.8910    80.3810    25.0900     6.6890     6.6710     7.9690     2.2080 
  115.6250   -25.0680    80.7410    25.0890     7.0570     7.2080     8.6630     2.2130 
  115.7500   -25.1810    78.8810    25.0860     7.4210     7.9570     9.7780     2.2340 
  115.8750   -25.2850    78.6830    25.1040     8.0330     9.1450    11.5830     2.2790 
  116.0000   -25.4720    81.7650    25.1880    10.5120    10.9810    14.1800     2.3460 
  116.1250   -25.7660    81.9540    25.3490    15.9930    13.5180    17.2590     2.4290 
  116.2500   -26.1570    78.2310    25.4990    21.8320    15.9930    19.7170     2.5050 
  116.3750   -26.5960    75.5750    25.5780    25.5080    17.3200    20.4170     2.5290 
  116.5000   -27.0280    76.9680    25.5690    25.0200    16.7510    18.9110     2.4960 
  116.6250   -27.4100    79.4790    25.4470    19.6230    14.5770    15.9530     2.4300 
  116.7500   -27.7290    82.1860    25.2550    13.5170    12.2380    13.1830     2.3870 
  116.8750   -28.0360    85.0920    25.0800     9.5890    10.4010    11.2500     2.3460 
  117.0000   -28.2740    84.5060    24.9880     8.0260     9.2330    10.2040     2.2850 
  117.1250   -28.4020    76.7630    24.9720     7.8390     8.7190     9.8920     2.2350 
