~V
VERS. 2.00: Ver 2.00
~W
STRT.M 58.0000:
STOP.M 261.0000:
STEP.M 0.1250:
NULL. -999.2500:
UWI. DF5035:
~C
DEPT.M :
DEN.GM/CC :
GR.API :
CALI.CM :
RXO.OHMM :
RI. :
RML.OHMM :
SP.MV :
~A
# ...
  159.2500     2.2370    75.2230    24.7890    51.4510    68.6410    77.0820   -50.8310 
  159.3750     2.2350    75.4370    24.8910    68.0320    72.5530    81.5890   -50.9760 
  159.5000     2.2380    73.0660    24.9940    75.9370    75.0620    83.9410   -50.9960 
  159.6250     2.2450    71.0670    25.0230    72.0090    74.7140    82.9530   -51.0420 
  159.7500     2.2510    69.9550    24.9940    69.0330    72.6270    80.4570   -51.2060 
  159.8750     2.2500    68.1300    24.9830    64.8290    70.6110    78.6580   -51.2710 
  160.0000     2.2410    66.3300    25.0410    61.2100    70.4090    79.2680   -51.3800 
  160.1250     2.2290    67.0330    25.1230    62.9520    73.1350    83.0320   -51.4280 
  160.2500     2.2210    68.8280    25.1780    71.2570    77.4960    88.1530   -51.5050 
  160.3750     2.2180    70.3680    25.2280    89.3550    81.7400    92.5650   -51.5880 
  160.5000     2.2200    70.9910    25.2660   105.3950    84.0200    94.3660   -51.5570 
  160.6250     2.2220    69.2590    25.2540    89.6150    83.1700    92.8280   -51.7250 
  160.7500     2.2230    67.9230    25.2140    63.5120    81.1320    90.6800   -51.8040 
  160.8750     2.2220    68.0320    25.1710    46.0400    80.3860    90.7580   -51.8840 
  161.0000     2.2210    67.6900    25.1140    41.5410    82.9800    94.8940   -52.0330 
  161.1250     2.2180    64.9820    25.0180    61.3220    89.7370   103.2540   -52.0390 
  161.2500     2.2150    63.5510    24.9360    90.7750    97.6860   112.1470   -52.1120 
  161.3750     2.2110    65.4050    24.9110   118.1450   103.3790   117.7040   -52.1900 
  161.5000     2.2080    68.1390    24.9280   124.0740   104.3160   117.5800   -52.2830 
  161.6250     2.2020    68.4350    24.9480    96.6460   100.6120   112.9470   -52.3350 
  161.7500     2.1950    66.3890    24.9200    64.4970    96.5980   109.0850   -52.3750 
  161.8750     2.1840    64.7970    24.8290    55.8100    95.4910   109.2290   -52.3870 
  162.0000     2.1730    65.9260    24.7190    70.7910    98.8410   114.4520   -52.4170 
  162.1250     2.1640    66.9890    24.6900    82.7110   106.8650   124.3790   -52.4460 
  162.2500     2.1610    64.9190    24.7410    86.2340   116.8970   135.8540   -52.4420 
  162.3750     2.1620    62.1650    24.8040    84.8340   126.4780   146.1900   -52.4190 
  162.5000     2.1660    63.6970    24.8360    86.5390   133.5460   153.3830   -52.3990 
  162.6250     2.1690    71.1320    24.8420    93.2530   137.0080   156.5900   -52.4200 
  162.7500     2.1720    76.4950    24.8410    95.4450   137.9290   157.0900   -52.3990 
  162.8750     2.1760    75.0180    24.8730    96.4400   136.4120   154.9430   -52.3590 
  163.0000     2.1820    68.5520    24.9820    97.0510   132.3700   150.1150   -52.3260 
  163.1250     2.1880    64.2480    25.1470    99.8330   126.4550   143.5930   -52.3290 
  163.2500     2.1930    62.6840    25.2780    93.9880   120.6380   137.6380   -52.2770 
  163.3750     2.1970    61.6260    25.3450    83.4700   116.3470   133.7800   -52.2710 
  163.5000     2.1990    63.0980    25.3700    82.9320   114.6250   132.9950   -52.2400 
  163.6250     2.1980    66.7630    25.3750    95.9350   116.5430   136.1580   -52.1110 
  163.7500     2.1940    68.3800    25.3740   101.2900   121.3960   142.1770   -52.0120 
  163.8750     2.1870    66.4120    25.3750    98.9500   128.3820   149.8650   -51.9080 
  164.0000     2.1800    65.2030    25.3750    98.5980   136.0830   157.3380   -51.7950 
  164.1250     2.1790    67.0780    25.3710   103.2560   141.7520   161.2240   -51.6080 
  164.2500     2.1820    67.7180    25.3410    92.7780   143.2430   159.7270   -51.4380 
  164.3750     2.1880    66.0690    25.2450    73.8510   139.8690   152.9300   -51.2320 
  164.5000     2.1920    64.9060    25.0550    62.1120   132.7540   142.9070   -50.9660 
  164.6250     2.1900    67.5830    24.7800    63.6410   124.0320   132.5280   -50.7110 
  164.7500     2.1860    71.7200    24.5110    57.8670   115.9790   123.7150   -50.5050 
  164.8750     2.1820    73.5070    24.3290    47.9270   109.4070   116.6860   -50.2170 
  165.0000     2.1810    71.7600    24.2650    45.5450   103.8740   110.4280   -49.8800 
  165.1250     2.1830    67.5560    24.3180    39.8600    97.9620   103.3090   -49.7000 
  165.2500     2.1860    65.9730    24.4530    41.9710    91.1860    95.3030   -49.4470 
  165.3750     2.1890    68.3200    24.6560    54.0630    84.4730    87.8050   -49.2300 
  165.5000     2.1910    71.0500    24.8900    61.8990    79.2970    82.5860   -49.0870 
  165.6250     2.1890    69.0560    25.0820    53.8170    77.6450    81.7130   -48.9080 
  165.7500     2.1850    63.5100    25.1910    42.9880    79.8590    84.9680   -48.7300 
  165.8750     2.1810    58.8290    25.2170    50.1560    85.4840    91.3710   -48.6380 
  166.0000     2.1820    58.7040    25.1750    62.9280    92.6070    98.6430   -48.5740 
  166.1250     2.1910    62.1880    25.0570    67.0200    97.6530   103.0460   -48.3930 
  166.2500     2.2020    65.2590    24.8790    65.0420    98.5040   102.9700   -48.3060 
  166.3750     2.2120    65.8500    24.7070    64.8950    95.3720    99.2640   -48.1050 
  166.5000     2.2150    66.1630    24.6160    63.4770    90.5260    94.7160   -47.9460 
  166.6250     2.2110    68.4580    24.6160    59.1960    87.5440    93.0320   -47.8960 
  166.7500     2.2040    70.0810    24.6500    56.9230    88.1820    95.4130   -47.7140 
  166.8750     2.1960    70.0180    24.7110    62.4270    92.7020   101.7930   -47.6330 
  167.0000     2.1910    69.4570    24.8240    76.0180   100.6320   111.4900   -47.4580 
  167.1250     2.1870    68.3620    24.9990    97.9280   111.4720   123.8070   -47.2980 
  167.2500     2.1830    66.9170    25.1850   108.4520   123.8070   137.2680   -47.1960 
  167.3750     2.1790    65.7880    25.3280   105.2810   136.9930   150.9790   -46.9970 
  167.5000     2.1740    65.8850    25.3910   104.7420   150.1920   163.4540   -46.9150 
  167.6250     2.1690    64.8170    25.3860   110.1100   159.4300   169.2810   -46.8010 
  167.7500     2.1660    62.0550    25.3570   118.1300   159.0790   162.9670   -46.6440 
  167.8750     2.1660    59.3910    25.2800   107.1140   145.9330   143.1880   -46.5280 
  168.0000     2.1720    58.7100    25.1180    81.7040   123.1740   116.0240   -46.4390 
  168.1250     2.1860    60.3260    24.9070    59.5230    99.0020    91.1940   -46.3220 
  168.2500     2.2030    62.7290    24.7540    47.1870    79.6190    72.8570   -46.2320 
  168.3750     2.2210    65.0430    24.7210    38.1030    66.0380    60.5790   -46.1970 
  168.5000     2.2350    66.5970    24.8340    37.7150    56.9650    52.4180   -46.0850 
  168.6250     2.2440    66.5900    25.0780    39.1790    50.5980    46.5340   -45.9500 
  168.7500     2.2530    66.3600    25.3210    37.6570    44.9700    41.2430   -45.8570 
  168.8750     2.2640    68.8410    25.4560    31.4070    39.6220    36.2290   -45.7730 
  169.0000     2.2750    72.4050    25.4550    23.9790    34.8540    31.8640   -45.6950 
  169.1250     2.2790    72.7620    25.3480    23.5900    31.6280    29.2080   -45.6490 
  169.2500     2.2740    72.7760    25.2080    23.1060    30.3280    28.6940   -45.5850 
  169.3750     2.2590    75.7860    25.0260    18.2130    31.2790    30.6100   -45.5030 
  169.5000     2.2420    79.3040    24.7730    20.1750    34.6480    34.9270   -45.4940 
  169.6250     2.2290    78.1600    24.4990    33.4410    40.5430    41.3420   -45.5520 
  169.7500     2.2240    74.3570    24.3040    39.4830    47.5050    48.2570   -45.5640 
  169.8750     2.2250    70.0770    24.1950    35.4830    53.8470    54.1340   -45.5170 
  170.0000     2.2270    67.1340    24.0990    32.0810    58.0130    57.8320   -45.5240 
  170.1250     2.2270    68.2640    24.0020    37.2210    59.3450    59.1970   -45.5780 
  170.2500     2.2250    70.3890    23.9470    43.5120    59.5560    59.9540   -45.6370 
  170.3750     2.2230    71.8720    23.9270    43.2180    60.0100    61.3050   -45.7060 
