~V
VERS. 2.00: Ver 2.00
~W
STRT.M 58.0000:
STOP.M 256.0000:
STEP.M 0.1250:
NULL. -999.2500:
UWI. DF5024:
~C
DEPT.M :
SP.MV :
GR.API :
CALI.CM :
RXO.OHMM :
RI. :
RML.OHMM :
DEN.GM/CC :
~A
# ...
   91.7500   -28.4970    75.4200    22.1270    14.5190     7.7470     8.8370     2.1230 
   91.8750   -28.3190    72.4830    22.1050    14.4170     7.8160     8.9470     2.1290 
   92.0000   -28.1540    70.7890    22.1170    14.3570     7.9430     9.1340     2.1290 
   92.1250   -28.0090    71.5980    22.1460    14.3000     8.1360     9.4030     2.1260 
   92.2500   -27.8810    74.0870    22.1400    14.1910     8.3540     9.6940     2.1280 
   92.3750   -27.7650    77.0780    22.1370    14.0400     8.5470     9.9390     2.1380 
   92.5000   -27.6540    79.2440    22.1780    13.8980     8.6530    10.0560     2.1490 
   92.6250   -27.5440    79.7200    22.2410    13.8460     8.5960     9.9520     2.1520 
   92.7500   -27.4340    79.1550    22.3150    13.8340     8.3930     9.6670     2.1450 
   92.8750   -27.3220    78.0400    22.3900    13.7260     8.0850     9.2640     2.1320 
   93.0000   -27.2030    76.8190    22.4510    13.3600     7.7440     8.8370     2.1220 
   93.1250   -27.0660    76.8670    22.4540    12.6600     7.4590     8.5020     2.1280 
   93.2500   -26.9040    78.7950    22.4280    11.9290     7.2870     8.3280     2.1480 
   93.3750   -26.7060    81.5730    22.4350    11.6500     7.2530     8.3440     2.1670 
   93.5000   -26.4680    83.4030    22.4750    12.2130     7.3540     8.5270     2.1680 
   93.6250   -26.1770    82.5960    22.4750    13.3000     7.5480     8.8030     2.1470 
   93.7500   -25.8420    80.0930    22.4690    14.2120     7.7300     9.0290     2.1250 
   93.8750   -25.4620    77.6880    22.5250    14.5730     7.8180     9.1030     2.1150 
   94.0000   -25.0390    77.0900    22.6120    14.4780     7.7480     8.9610     2.1140 
   94.1250   -24.5790    79.9790    22.6760    14.1280     7.4820     8.5800     2.1150 
   94.2500   -24.1050    85.3440    22.7240    13.4220     7.1100     8.0940     2.1200 
   94.3750   -23.6350    91.2770    22.7790    12.2820     6.7260     7.6320     2.1390 
   94.5000   -23.1780    95.8280    22.8280    10.9530     6.4190     7.3040     2.1790 
   94.6250   -22.7340    98.0830    22.8790    10.0030     6.2680     7.1990     2.2260 
   94.7500   -22.2930    98.2360    22.9900     9.8130     6.2430     7.2540     2.2560 
   94.8750   -21.8480    95.0870    23.1060    10.6460     6.2900     7.3790     2.2590 
   95.0000   -21.3900    88.8410    23.1330    13.0190     6.3330     7.4630     2.2390 
   95.1250   -20.9160    84.3600    23.0190    15.3930     6.2710     7.3670     2.2080 
   95.2500   -20.4370    86.5210    23.0090    15.1750     6.0670     7.0710     2.1840 
   95.3750   -19.9710    94.9700    23.2420    12.4080     5.7440     6.6310     2.1810 
   95.5000   -19.5380   105.1280    23.6700     9.2260     5.3830     6.1680     2.2050 
   95.6250   -19.1650   111.1060    24.1030     7.1470     5.1040     5.8430     2.2470 
   95.7500   -18.8580   112.0380    24.3640     6.2500     4.9650     5.7220     2.2780 
   95.8750   -18.6280   109.0280    24.4750     6.2480     4.9850     5.8090     2.2850 
   96.0000   -18.4800   103.7010    24.4920     6.8970     5.1450     6.0510     2.2840 
   96.1250   -18.4200    97.6970    24.4480     8.2250     5.3940     6.3580     2.3000 
   96.2500   -18.4140    92.7360    24.3660     9.6840     5.6380     6.6110     2.3270 
   96.3750   -18.4410    89.9170    24.2190    10.1240     5.8080     6.7420     2.3410 
   96.5000   -18.4810    89.3410    24.0330     9.1970     5.8660     6.7320     2.3360 
   96.6250   -18.5210    90.3220    23.9090     7.8730     5.8140     6.6050     2.3230 
   96.7500   -18.5510    91.5350    23.8030     7.1080     5.7090     6.4370     2.3030 
   96.8750   -18.5680    92.7490    23.6480     6.9330     5.5850     6.2690     2.2650 
   97.0000   -18.5730    94.1750    23.5260     7.1530     5.4610     6.1230     2.2220 
   97.1250   -18.5690    95.1610    23.6510     7.4480     5.3490     6.0210     2.2060 
   97.2500   -18.5560    94.3160    23.9200     8.1160     5.2760     5.9820     2.2190 
   97.3750   -18.5310    91.7100    24.1130     9.2300     5.2780     6.0430     2.2380 
   97.5000   -18.4980    89.1600    24.1900     9.6600     5.3880     6.2320     2.2460 
   97.6250   -18.4670    88.5860    24.2180     8.8390     5.6350     6.5700     2.2430 
   97.7500   -18.4490    88.2720    24.2380     7.8120     5.9870     6.9980     2.2450 
   97.8750   -18.4490    86.4560    24.2890     8.0270     6.3950     7.4370     2.2730 
   98.0000   -18.4670    83.4580    24.3950    10.2340     6.7620     7.7620     2.3350 
   98.1250   -18.5060    81.3370    24.4730    13.9970     6.9420     7.8260     2.4120 
   98.2500   -18.5640    81.2200    24.5120    15.7980     6.9010     7.6470     2.4510 
   98.3750   -18.6410    83.0990    24.5150    13.7220     6.6590     7.2810     2.4310 
   98.5000   -18.7300    86.2820    24.4840     9.7110     6.2900     6.8270     2.3690 
   98.6250   -18.8320    88.8480    24.4300     7.5410     5.9010     6.4020     2.3070 
   98.7500   -18.9430    89.1010    24.3930     6.8700     5.5650     6.0640     2.2710 
   98.8750   -19.0650    87.8500    24.4390     6.7480     5.3040     5.8250     2.2590 
   99.0000   -19.1990    87.3700    24.5430     6.6180     5.1120     5.6620     2.2600 
   99.1250   -19.3510    89.6040    24.6460     6.3650     4.9670     5.5190     2.2590 
   99.2500   -19.5310    93.2500    24.7470     5.9820     4.8230     5.3510     2.2540 
   99.3750   -19.7480    96.8800    24.7960     5.5830     4.6740     5.1660     2.2540 
   99.5000   -20.0090    99.4450    24.7980     5.3240     4.5440     5.0100     2.2690 
   99.6250   -20.3290   100.7900    24.7920     5.1140     4.4850     4.9540     2.2990 
   99.7500   -20.7010   101.6860    24.7950     4.8990     4.5170     5.0170     2.3250 
   99.8750   -21.1260   101.5360    24.7910     4.8370     4.6480     5.1940     2.3320 
  100.0000   -21.5990    99.4220    24.6560     5.1400     4.8700     5.4670     2.3140 
  100.1250   -22.1190    95.8730    24.5010     5.8020     5.1570     5.8010     2.2780 
  100.2500   -22.6670    92.8490    24.3280     6.5440     5.4520     6.1310     2.2460 
  100.3750   -23.2390    90.1300    24.1200     7.2440     5.7150     6.4130     2.2230 
  100.5000   -23.8240    86.9360    23.8480     7.7990     5.9170     6.6180     2.2060 
  100.6250   -24.3980    84.8430    23.5610     8.0600     6.0300     6.7260     2.1950 
  100.7500   -24.9400    85.1820    23.3070     8.1980     6.0830     6.7790     2.1960 
  100.8750   -25.4340    86.6150    23.0400     8.4480     6.1140     6.8310     2.2070 
  101.0000   -25.8730    86.2400    22.7960     8.8790     6.1710     6.9390     2.2180 
  101.1250   -26.2470    82.5750    22.6820     9.3220     6.3130     7.1670     2.2180 
  101.2500   -26.5580    78.4500    22.6580     9.6480     6.5710     7.5400     2.2120 
  101.3750   -26.8070    76.4690    22.6910    10.0900     6.9680     8.0740     2.2100 
  101.5000   -26.9990    77.5960    22.7470    11.0590     7.4980     8.7500     2.2210 
  101.6250   -27.1400    81.7340    22.7460    12.4190     8.1270     9.5150     2.2470 
  101.7500   -27.2510    85.7960    22.7210    13.4550     8.7590    10.2500     2.2760 
  101.8750   -27.3410    86.2730    22.7250    13.7070     9.2960    10.8320     2.2900 
  102.0000   -27.4180    81.7830    22.7330    13.4570     9.6390    11.1520     2.2780 
  102.1250   -27.4890    76.0500    22.7020    13.2900     9.6840    11.1070     2.2430 
  102.2500   -27.5580    74.1760    22.7050    13.2500     9.4840    10.7850     2.2060 
  102.3750   -27.6230    75.9730    22.7340    13.1430     9.1240    10.3100     2.1800 
  102.5000   -27.6840    78.3860    22.7290    12.9110     8.7430     9.8610     2.1730 
  102.6250   -27.7450    79.5080    22.6880    12.7350     8.5200     9.6670     2.1850 
  102.7500   -27.8130    81.0600    22.7020    12.7550     8.5240     9.7850     2.1970 
  102.8750   -27.8860    83.1930    22.7180    13.1400     8.7750    10.2020     2.2060 
