~V
VERS. 2.00: Ver 2.00
~W
STRT.M 58.0000:
STOP.M 276.0000:
STEP.M 0.1250:
NULL. -999.2500:
UWI. DF5012:
~C
DEPT.M :
SP.MV :
GR.API :
CALI.CM :
RXO.OHMM :
RI. :
RML.OHMM :
DEN.GM/CC :
~A
# ...
  103.0000   -44.3470    96.9380    25.4650     6.2230     5.7040     7.1550     2.2510 
  103.1250   -44.5320    94.3940    25.2620     6.6940     5.7970     7.3040     2.2600 
  103.2500   -44.8110    90.5560    25.0590     6.9490     5.9280     7.4730     2.2640 
  103.3750   -45.1670    88.6640    24.9100     7.0270     6.1010     7.6940     2.2660 
  103.5000   -45.5910    89.6440    24.7670     7.0720     6.3490     8.0380     2.2670 
  103.6250   -46.0460    88.1680    24.5890     7.4060     6.7220     8.5710     2.2650 
  103.7500   -46.4670    83.7630    24.4410     8.8260     7.1800     9.1870     2.2580 
  103.8750   -46.8970    79.3770    24.3710    10.5970     7.6210     9.7000     2.2440 
  104.0000   -47.2870    75.5760    24.3580    11.3470     7.8870     9.9000     2.2260 
  104.1250   -47.6640    72.3530    24.3990    10.9780     7.8100     9.6160     2.2120 
  104.2500   -47.9890    71.9560    24.5140     9.5790     7.4780     9.0450     2.2080 
  104.3750   -48.2910    77.2380    24.6710     8.2890     7.0420     8.4240     2.2140 
  104.5000   -48.5500    84.0200    24.7830     7.7320     6.6580     7.9590     2.2230 
  104.6250   -48.7660    85.2710    24.8060     7.9200     6.4440     7.7850     2.2230 
  104.7500   -48.9680    81.9260    24.8010     8.2870     6.3810     7.8210     2.2120 
  104.8750   -49.1190    76.8070    24.8000     8.4390     6.4270     7.9740     2.1950 
  105.0000   -49.2700    71.8250    24.8000     8.3480     6.5260     8.1500     2.1790 
  105.1250   -49.3860    69.0240    24.8000     8.4090     6.6290     8.2660     2.1700 
  105.2500   -49.4920    68.7450    24.8000     8.6300     6.7070     8.3180     2.1670 
  105.3750   -49.5580    69.1680    24.8000     8.9440     6.7690     8.3410     2.1680 
  105.5000   -49.5750    69.8930    24.8000     9.1460     6.8350     8.3880     2.1730 
  105.6250   -49.5370    70.5800    24.8000     9.1660     6.9430     8.5220     2.1780 
  105.7500   -49.4740    70.6490    24.8000     9.1570     7.1030     8.7400     2.1820 
  105.8750   -49.3890    70.4200    24.8000     9.3960     7.3130     9.0140     2.1830 
  106.0000   -49.2580    70.4220    24.8000     9.9440     7.5450     9.2870     2.1830 
  106.1250   -49.1130    69.2550    24.8000    10.3230     7.7360     9.4610     2.1790 
  106.2500   -48.9220    66.6530    24.8000    10.4020     7.8220     9.4670     2.1760 
  106.3750   -48.6950    65.2710    24.8000    10.2650     7.7490     9.2530     2.1710 
  106.5000   -48.4650    67.6550    24.8000     9.8360     7.4880     8.8100     2.1660 
  106.6250   -48.2300    71.4940    24.8000     8.8230     7.0460     8.1840     2.1600 
  106.7500   -48.0130    74.1150    24.8010     7.7180     6.5460     7.5430     2.1580 
  106.8750   -47.8470    75.5110    24.8050     6.9150     6.0880     7.0190     2.1640 
  107.0000   -47.8060    77.3160    24.7860     6.3390     5.7550     6.7090     2.1800 
  107.1250   -47.8530    80.8610    24.7100     6.1890     5.6280     6.7020     2.2020 
  107.2500   -48.0070    83.7090    24.6170     6.5790     5.6840     6.9310     2.2210 
  107.3750   -48.2530    83.2120    24.5600     7.1750     5.9010     7.3340     2.2310 
  107.5000   -48.5260    79.8520    24.5490     7.5040     6.2330     7.8260     2.2300 
  107.6250   -48.8490    77.0890    24.5530     7.4940     6.6200     8.3120     2.2220 
  107.7500   -49.1750    75.3050    24.5530     7.6370     6.9920     8.7390     2.2160 
  107.8750   -49.4970    75.1250    24.5530     8.1280     7.3230     9.1120     2.2110 
  108.0000   -49.7390    77.8930    24.5530     8.5140     7.6180     9.4590     2.2050 
  108.1250   -49.9530    80.5500    24.5530     8.4460     7.8900     9.7970     2.1960 
  108.2500   -50.1540    77.6600    24.5530     8.3670     8.1420    10.1180     2.1880 
  108.3750   -50.3420    72.5740    24.5530     8.5090     8.3650    10.4080     2.1860 
  108.5000   -50.5510    71.5070    24.5530     8.6840     8.5650    10.6890     2.1910 
  108.6250   -50.7840    73.3810    24.5530     8.7860     8.7870    11.0390     2.2000 
  108.7500   -51.0450    74.7610    24.5530     9.0150     9.0780    11.5010     2.2070 
  108.8750   -51.3280    77.2900    24.5530     9.4520     9.4440    12.0450     2.2120 
  109.0000   -51.6180    80.9050    24.5530    10.6400     9.8380    12.5560     2.2190 
  109.1250   -51.8880    83.4930    24.5530    13.8280    10.1230    12.8000     2.2320 
  109.2500   -52.1310    83.4540    24.5550    15.0760    10.1800    12.6580     2.2450 
  109.3750   -52.3140    80.1580    24.5590    13.4050     9.9640    12.1420     2.2490 
  109.5000   -52.5270    74.6430    24.5650    11.3370     9.5430    11.4140     2.2410 
  109.6250   -52.6960    69.6940    24.5720    10.6960     9.0580    10.7290     2.2210 
  109.7500   -52.8560    67.3690    24.5760    10.2110     8.6490    10.2430     2.2010 
  109.8750   -52.9750    67.2930    24.5770     9.7810     8.3680     9.9810     2.1830 
  110.0000   -53.0880    67.7580    24.5730     9.6110     8.2090     9.8800     2.1700 
  110.1250   -53.1860    66.4350    24.5770     9.8030     8.1380     9.8430     2.1560 
  110.2500   -53.2740    65.3050    24.6240    10.2260     8.0930     9.7940     2.1440 
  110.3750   -53.3860    66.9330    24.7220    10.4440     8.0530     9.7280     2.1360 
  110.5000   -53.4360    70.9160    24.8270    10.5620     8.0110     9.6550     2.1340 
  110.6250   -53.4650    73.8220    24.8780    10.6470     7.9650     9.5810     2.1370 
  110.7500   -53.4660    73.3800    24.8870    10.7700     7.9100     9.5050     2.1420 
  110.8750   -53.4450    70.9260    24.8850    10.6360     7.8470     9.4260     2.1470 
  111.0000   -53.3930    67.8690    24.8850    10.3960     7.7780     9.3480     2.1510 
  111.1250   -53.3480    66.2380    24.8850    10.3470     7.7110     9.2870     2.1540 
  111.2500   -53.2740    65.5430    24.8850    10.6700     7.6540     9.2480     2.1530 
  111.3750   -53.2010    63.6040    24.8850    10.9720     7.6080     9.2250     2.1470 
  111.5000   -53.0940    61.7230    24.8850    10.9170     7.5660     9.2020     2.1390 
  111.6250   -53.0170    61.7710    24.8850    10.6310     7.5170     9.1580     2.1330 
  111.7500   -52.9180    63.9890    24.8850    10.2420     7.4580     9.0970     2.1320 
  111.8750   -52.8180    67.1860    24.8850     9.9840     7.4010     9.0360     2.1380 
  112.0000   -52.7350    69.3080    24.8850     9.9590     7.3630     9.0040     2.1480 
  112.1250   -52.6170    70.4080    24.8850    10.0810     7.3640     9.0210     2.1560 
  112.2500   -52.5030    71.3000    24.8850     9.9410     7.3890     9.0650     2.1590 
  112.3750   -52.4020    72.5620    24.8850     9.9230     7.4210     9.1080     2.1570 
  112.5000   -52.3070    74.9440    24.8850    10.2090     7.4420     9.1300     2.1540 
  112.6250   -52.1780    75.9880    24.8850    10.5030     7.4450     9.1220     2.1540 
  112.7500   -52.0330    74.9100    24.8830    10.3930     7.4420     9.0980     2.1550 
  112.8750   -51.8840    72.6570    24.8830    10.1470     7.4420     9.0760     2.1540 
  113.0000   -51.6910    70.6000    24.9110    10.1790     7.4460     9.0710     2.1460 
  113.1250   -51.4540    70.0210    25.0010    10.5300     7.4500     9.0850     2.1360 
  113.2500   -51.1760    71.3090    25.0560    10.8770     7.4470     9.1060     2.1260 
  113.3750   -50.8440    72.6860    24.9700    10.8840     7.4290     9.1070     2.1190 
  113.5000   -50.4900    71.8760    24.7750    10.6730     7.3830     9.0540     2.1160 
  113.6250   -50.1250    69.0080    24.6360    10.4770     7.2860     8.9060     2.1190 
  113.7500   -49.7670    67.6300    24.6010    10.3020     7.1500     8.6980     2.1260 
  113.8750   -49.3990    68.6120    24.6070    10.1040     6.9990     8.4760     2.1370 
  114.0000   -49.0440    70.7860    24.6060     9.2040     6.8650     8.2980     2.1490 
  114.1250   -48.6920    71.6630    24.6060     8.1750     6.7890     8.2230     2.1590 
