~V
VERS. 2.00: Ver 2.00
~W
STRT.M 60.0000:
STOP.M 256.0000:
STEP.M 0.1250:
NULL. -999.2500:
UWI. DF5048:
~C
DEPT.M :
GR.API :
CALI.CM :
RXO.OHMM :
RI. :
RML.OHMM :
DEN.GM/CC :
SP.MV :
~A
# ...
  240.0000    60.7970    24.8930    28.8390    26.6180    24.4560     2.3040   -14.5790 
  240.1250    64.4100    24.8880    21.6530    21.8300    19.9630     2.2790   -14.5550 
  240.2500    70.1290    24.8890    17.3080    18.7610    17.2800     2.2590   -14.3960 
  240.3750    73.3010    24.8900    16.3290    17.1610    16.0980     2.2450   -14.0680 
  240.5000    73.7260    24.8890    17.7860    16.6420    15.9290     2.2370   -13.7310 
  240.6250    73.9950    24.8890    19.9520    16.8300    16.2720     2.2340   -13.6200 
  240.7500    73.2980    24.8890    20.8680    17.1750    16.5920     2.2330   -13.6270 
  240.8750    71.2690    24.8890    20.1950    17.3690    16.6500     2.2310   -13.4840 
  241.0000    70.1600    24.8890    18.5970    17.2660    16.4040     2.2290   -13.1640 
  241.1250    72.8890    24.8900    17.6020    16.9350    16.0320     2.2290   -12.9270 
  241.2500    76.9870    24.8860    17.2130    16.6900    15.8610     2.2370   -12.8680 
  241.3750    78.9220    24.8700    17.0770    16.7730    16.1010     2.2580   -12.9270 
  241.5000    78.3350    24.8480    16.7960    17.3010    16.8110     2.2960   -12.9870 
  241.6250    77.7170    24.8320    18.0530    18.2490    17.8580     2.3500   -12.8570 
  241.7500    78.8550    24.7980    21.0130    19.1990    18.7740     2.4030   -12.6540 
  241.8750    78.9080    24.7270    22.4710    19.6560    19.1010     2.4360   -12.5340 
  242.0000    75.2320    24.6450    20.6670    19.2400    18.5620     2.4320   -12.4990 
  242.1250    71.9680    24.6310    17.0980    17.9050    17.1970     2.3960   -12.4230 
  242.2500    72.5780    24.6910    15.3220    16.2910    15.6340     2.3570   -12.2850 
  242.3750    75.4020    24.7800    13.4280    14.8370    14.3000     2.3300   -12.2170 
  242.5000    76.6780    24.8510    12.9480    13.7830    13.4190     2.3170   -12.2430 
  242.6250    75.4620    24.8820    13.8210    13.2510    13.0810     2.3190   -12.2590 
  242.7500    74.6080    24.8870    14.5010    13.1090    13.1160     2.3310   -12.2520 
  242.8750    74.6230    24.8910    14.1300    13.2820    13.4280     2.3530   -12.2900 
  243.0000    73.6910    24.9310    13.1790    13.6840    13.9160     2.3820   -12.4200 
  243.1250    71.0040    25.0200    12.5500    14.1940    14.4380     2.4110   -12.5390 
  243.2500    69.0290    25.0630    12.2580    14.6340    14.8290     2.4250   -12.5570 
  243.3750    69.5930    24.9920    12.4620    14.8650    14.9620     2.4150   -12.4650 
  243.5000    71.5030    24.8640    13.0950    14.7880    14.7740     2.3850   -12.3160 
  243.6250    71.0800    24.8180    13.4790    14.3560    14.2720     2.3480   -12.3690 
  243.7500    68.5310    24.8490    13.6230    13.7540    13.6720     2.3140   -12.5050 
  243.8750    66.3020    24.8840    13.8820    13.1620    13.1610     2.2900   -12.5360 
  244.0000    66.9030    24.8910    14.2760    12.7450    12.8910     2.2760   -12.3650 
  244.1250    69.4840    24.8900    13.5000    12.6580    12.9850     2.2710   -12.2150 
  244.2500    69.9770    24.8890    13.0020    12.8690    13.3690     2.2690   -12.2580 
  244.3750    70.0180    24.8890    13.8040    13.3240    13.9540     2.2670   -12.2690 
  244.5000    71.0680    24.8890    15.4550    13.9150    14.6140     2.2650   -12.2120 
  244.6250    75.1340    24.8890    16.9120    14.4750    15.1680     2.2630   -12.1310 
  244.7500    79.6460    24.8890    17.1360    14.8660    15.5090     2.2620   -11.9960 
  244.8750    79.3420    24.8890    16.8760    15.0430    15.6250     2.2600   -11.9830 
  245.0000    74.0550    24.8890    15.6830    15.0330    15.5700     2.2580   -12.0410 
  245.1250    69.1990    24.8890    14.7840    14.8990    15.4380     2.2580   -12.1370 
  245.2500    68.9030    24.8890    15.5160    14.7430    15.3200     2.2630   -12.1420 
  245.3750    70.0340    24.8890    17.6050    14.6030    15.2400     2.2700   -12.1920 
  245.5000    71.6780    24.8890    18.0620    14.4810    15.1870     2.2750   -12.2910 
  245.6250    75.1500    24.8890    16.7480    14.3780    15.1690     2.2750   -12.2960 
  245.7500    75.6420    24.8890    16.3440    14.3240    15.2240     2.2710   -12.3370 
  245.8750    71.8950    24.8890    17.3200    14.3740    15.4070     2.2650   -12.3560 
  246.0000    68.7590    24.8900    17.2910    14.5800    15.7570     2.2610   -12.4990 
  246.1250    68.9910    24.8890    16.8250    14.9950    16.3030     2.2610   -12.4760 
  246.2500    68.9910    24.8830    17.9750    15.5650    16.9640     2.2650   -12.3980 
  246.3750    68.9910    24.8750    19.9820    16.2280    17.6630     2.2740   -12.3750 
  246.5000    68.9910    24.8720    21.2730    16.8970    18.3120     2.2910   -12.3340 
  246.6250    68.9910    24.8830    19.9570    17.4940    18.9030     2.3200   -12.2870 
  246.7500    68.9910    24.9200    19.0660    18.1150    19.6120     2.3630   -12.2120 
  246.8750    68.9910    24.9590    19.9860    18.9390    20.6060     2.4180   -12.1790 
  247.0000    68.9910    24.9560    21.4190    20.0400    21.8290     2.4750   -12.0170 
  247.1250    68.9910    24.9070    23.3520    21.0500    22.6780     2.5130   -11.9380 
  247.2500    68.9910    24.8860    39.2130    21.1820    22.3730     2.5190   -11.9010 
  247.3750    68.9910    24.8990    55.6860    19.8170    20.4660     2.4910   -11.8140 
  247.5000    68.9910    24.8890    53.0610    17.0590    17.2430     2.4430   -11.8220 
  247.6250    68.9910    24.8160    23.1620    13.8190    13.7120     2.3950   -11.8200 
  247.7500    68.9910    24.7520    11.0100    11.0640    10.8360     2.3590   -11.7580 
  247.8750    68.9910    24.7560     7.3270     9.0830     8.8980     2.3370   -11.6220 
  248.0000    68.9910    24.8150     6.9720     7.8740     7.8510     2.3280   -11.5840 
  248.1250    68.9910    24.8660     7.0960     7.4260     7.6070     2.3290   -11.6660 
  248.2500    68.9910    24.8690     7.4420     7.4610     7.7910     2.3360   -11.7520 
  248.3750    68.9910    24.8470     7.8780     7.7920     8.1710     2.3450   -11.8050 
  248.5000    68.9910    24.8250     8.1920     8.2240     8.5580     2.3550   -11.7180 
  248.6250    68.9910    24.8190     8.1900     8.5880     8.8230     2.3600   -11.7760 
  248.7500    68.9910    24.8200     8.1960     8.8350     8.9750     2.3600   -11.9500 
  248.8750    68.9910    24.8200     8.4810     8.9730     9.0460     2.3570   -12.1010 
  249.0000    68.9910    24.8200     8.8260     9.0340     9.0690     2.3510   -12.1510 
  249.1250    68.9910    24.8200     8.9200     9.0470     9.0690     2.3480   -12.0840 
  249.2500    68.9910    24.8200     8.7150     9.0430     9.0610     2.3470   -12.0870 
  249.3750    68.9910    24.8200     8.4580     9.0280     9.0500     2.3490   -12.0720 
  249.5000    68.9910    24.8200     8.3210     8.9990     9.0410     2.3510   -12.0900 
  249.6250    68.9910    24.8200     8.2950     8.9450     9.0230     2.3510   -12.1040 
  249.7500    68.9910    24.8200     8.5790     8.8670     8.9870     2.3500   -12.0320 
  249.8750    68.9910    24.8200     9.1690     8.7770     8.9340     2.3490   -11.9560 
  250.0000    68.9910    24.8200     9.7590     8.6970     8.8810     2.3510   -11.9680 
  250.1250    68.9910    24.8190    10.6030     8.6470     8.8540     2.3550   -12.0640 
  250.2500    68.9910    24.8220    11.3690     8.6240     8.8560     2.3630   -12.1240 
  250.3750    68.9910    24.8330    10.9270     8.6140     8.8660     2.3710   -12.1880 
  250.5000    68.9910    24.8490     9.5310     8.6060     8.8560     2.3760   -12.1390 
  250.6250    68.9910    24.8520     9.0850     8.5950     8.8180     2.3730   -11.9610 
  250.7500    68.9910    24.8410     9.2030     8.5870     8.7750     2.3660   -11.8710 
  250.8750    68.9910    24.8480     9.2620     8.5860     8.7420     2.3590   -11.8770 
  251.0000    68.9910    24.8940     9.2120     8.5930     8.7240     2.3600   -11.8460 
  251.1250    68.9910    24.9540     9.4040     8.6020     8.7170     2.3700   -11.7070 
