~V
VERS. 2.00: Ver 2.00
~W
STRT.M 58.0000:
STOP.M 240.0000:
STEP.M 0.1250:
NULL. -999.2500:
UWI. DF5049:
~C
DEPT.M :
GR.API :
RML.OHMM :
RI. :
RXO.OHMM :
CALI.CM :
DEN.GM/CC :
SP.MV :
~A
# ...
  103.0000    73.7140    10.8470     9.0620    10.1080    23.5480     2.1410   -23.9220 
  103.1250    71.9720    10.9350     9.1730    10.3970    23.6210     2.1310   -24.4170 
  103.2500    74.6440    10.9550     9.2630    10.4780    23.7300     2.1310   -24.7880 
  103.3750    77.8200    10.8720     9.2780    10.4250    23.8130     2.1420   -25.0810 
  103.5000    78.0780    10.6670     9.1710    10.2350    23.8440     2.1590   -25.2040 
  103.6250    75.8710    10.3250     8.9020     9.7680    23.7990     2.1780   -25.0210 
  103.7500    74.3440     9.9010     8.5320     9.1590    23.7330     2.1920   -24.6560 
  103.8750    76.4040     9.4770     8.1370     8.6550    23.6800     2.1980   -24.2140 
  104.0000    82.7200     9.1620     7.8030     8.2160    23.6210     2.1950   -23.6600 
  104.1250    87.1980     9.1070     7.6290     7.9890    23.5770     2.1850   -23.0440 
  104.2500    86.4210     9.3130     7.6240     8.0820    23.5940     2.1730   -22.5250 
  104.3750    83.9580     9.7040     7.7630     8.6080    23.6140     2.1640   -22.0830 
  104.5000    81.3240    10.0970     7.9740     9.2970    23.6110     2.1610   -21.8140 
  104.6250    75.8440    10.1870     8.1200     9.8640    23.6340     2.1610   -21.8680 
  104.7500    70.6180     9.9050     8.1100    10.0950    23.6810     2.1550   -22.0960 
  104.8750    68.8040     9.4420     7.9840     9.9910    23.7040     2.1410   -22.3760 
  105.0000    69.2580     9.2330     7.9380     9.8010    23.7070     2.1300   -22.7180 
  105.1250    69.2460     9.9900     8.3710     9.8630    23.7120     2.1560   -22.9420 
  105.2500    70.6290    11.9320     9.5230    10.4130    23.7770     2.2360   -22.8780 
  105.3750    72.7200    14.9170    11.4960    12.7300    23.9860     2.3600   -22.5300 
  105.5000    72.5420    18.1080    13.9560    19.6350    24.3530     2.4880   -21.8590 
  105.6250    73.6550    19.3660    15.3920    34.9480    24.6330     2.5600   -20.7610 
  105.7500    80.7890    17.6360    14.5580    41.5190    24.7120     2.5610   -19.4270 
  105.8750    91.6550    13.8110    11.9480    25.8130    24.6610     2.5070   -17.9910 
  106.0000    99.3030     9.8660     9.0800    10.0810    24.6320     2.4310   -16.5520 
  106.1250   100.2050     7.3580     7.0710     6.2490    24.6840     2.3680   -15.3160 
  106.2500    99.3750     6.2110     5.9180     5.1780    24.6700     2.3250   -14.3540 
  106.3750    99.1010     6.0840     5.4620     5.3870    24.5910     2.2940   -13.7010 
  106.5000    98.8130     6.5570     5.5130     6.0260    24.5700     2.2690   -13.3420 
  106.6250    96.8890     7.1620     5.8460     6.3120    24.7350     2.2480   -13.1410 
  106.7500    94.1450     7.4630     6.1260     5.9350    24.9740     2.2370   -12.9990 
  106.8750    94.3650     7.3070     6.1750     5.5140    25.1200     2.2420   -12.8900 
  107.0000    98.7530     6.7960     5.9770     5.2870    25.1600     2.2640   -12.6940 
  107.1250   104.1600     6.1890     5.6440     5.0610    25.1780     2.2940   -12.4280 
  107.2500   106.3760     5.7450     5.3610     4.7290    25.1990     2.3160   -12.1460 
  107.3750   105.3810     5.5610     5.2250     4.5400    25.1760     2.3210   -11.8500 
  107.5000   104.0460     5.6240     5.2720     4.6330    25.0970     2.3090   -11.6430 
  107.6250   100.9000     5.8730     5.4980     5.4090    24.9500     2.2940   -11.7060 
  107.7500    96.0230     6.1610     5.7950     6.2970    24.7770     2.2860   -11.8900 
  107.8750    93.2140     6.4010     6.0560     6.6570    24.7180     2.2910   -12.0550 
  108.0000    95.1410     6.5180     6.1790     6.1340    24.8440     2.3030   -12.2140 
  108.1250    99.7330     6.4340     6.0660     5.6010    24.9870     2.3150   -12.2810 
  108.2500   101.4570     6.1970     5.7760     5.4120    25.0520     2.3210   -12.2460 
  108.3750   101.3090     5.8770     5.3980     5.2000    25.0910     2.3230   -12.1380 
  108.5000   104.4770     5.5650     5.0380     4.8370    25.1820     2.3240   -11.8870 
  108.6250   110.8950     5.3690     4.8070     4.4350    25.3210     2.3260   -11.4780 
  108.7500   113.7490     5.3570     4.7360     4.4980    25.4280     2.3230   -11.1430 
  108.8750   108.3290     5.5830     4.8380     5.3040    25.3970     2.3130   -11.0730 
  109.0000    97.6310     6.0490     5.1020     6.9120    25.1950     2.2950   -11.2650 
  109.1250    89.7590     6.6890     5.4900     6.4160    24.8890     2.2810   -11.7310 
  109.2500    86.9740     7.2950     5.8930     6.6550    24.5770     2.2780   -12.4120 
  109.3750    86.2360     7.6900     6.2180     6.9510    24.3620     2.2860   -13.1800 
  109.5000    84.4150     7.7630     6.3870     7.1240    24.2620     2.2970   -13.9500 
  109.6250    84.4840     7.4980     6.3420     6.7570    24.3500     2.2970   -14.7740 
  109.7500    86.3710     7.0800     6.1550     6.4680    24.5570     2.2780   -15.6490 
  109.8750    85.1340     6.6730     5.9100     6.5000    24.7210     2.2410   -16.4660 
  110.0000    80.1980     6.4850     5.7430     6.7480    24.7670     2.2020   -17.1870 
  110.1250    76.0500     6.8580     5.8980     7.0690    24.7360     2.2010   -17.7810 
  110.2500    75.9500     7.9190     6.5030     7.4810    24.7190     2.2550   -18.1870 
  110.3750    79.2040     9.7170     7.6550     8.8140    24.7010     2.3500   -18.4530 
  110.5000    84.5750    12.0730     9.3450    12.8500    24.6780     2.4460   -18.7380 
  110.6250    86.6270    14.3200    11.2850    22.1630    24.6310     2.4840   -19.0710 
  110.7500    81.6770    15.5360    12.7240    27.1580    24.4740     2.4570   -19.4010 
  110.8750    73.8600    15.2730    13.1100    20.8950    24.2080     2.3890   -19.7790 
  111.0000    69.7100    13.8830    12.4970    13.0340    23.9470     2.3180   -20.1920 
  111.1250    71.2520    12.2830    11.4440    10.4390    23.7730     2.2740   -20.6350 
  111.2500    73.2950    11.2390    10.5740     9.5680    23.6630     2.2490   -21.1700 
  111.3750    72.2140    10.9280    10.0860     9.5440    23.5830     2.2330   -21.7390 
  111.5000    67.9640    11.1470     9.9310     9.9370    23.5190     2.2220   -22.2500 
  111.6250    65.0980    11.3710     9.8210    10.5830    23.5150     2.2190   -22.5930 
  111.7500    67.3850    11.0820     9.4050    10.8200    23.5080     2.2220   -22.7460 
  111.8750    73.9490    10.1220     8.5660    10.5010    23.4840     2.2260   -22.6070 
  112.0000    80.4620     8.6980     7.4510     9.6210    23.5400     2.2250   -22.1790 
  112.1250    84.9360     7.3250     6.3960     7.5610    23.9150     2.2180   -21.5450 
  112.2500    88.3390     6.4430     5.6600     5.7460    24.5390     2.2100   -20.9260 
  112.3750    90.0200     6.2430     5.3590     5.0450    25.0980     2.2060   -20.5100 
  112.5000    88.2090     6.7610     5.5380     5.5420    25.2310     2.2060   -20.3270 
  112.6250    85.4150     7.9850     6.2760     6.6870    24.8330     2.2060   -20.4780 
  112.7500    83.8100     9.5250     7.3950     8.5610    24.4050     2.2040   -20.8620 
  112.8750    81.1820    10.9750     8.6460    10.5370    24.1400     2.2000   -21.3810 
  113.0000    78.0160    11.9150     9.6640    11.2880    23.9900     2.1980   -22.0890 
  113.1250    76.8760    12.0430    10.0790    10.2250    23.8990     2.2000   -22.9240 
  113.2500    76.9270    11.6860    10.0250     9.4660    23.8610     2.2040   -23.6500 
  113.3750    77.2620    11.1780     9.7260     9.1570    23.8470     2.2070   -24.2120 
  113.5000    77.3270    10.7710     9.3940     9.1070    23.8450     2.2040   -24.5820 
  113.6250    74.2750    10.5940     9.1720     9.2100    23.8480     2.1920   -24.7170 
  113.7500    69.0140    10.5790     9.0560     9.3120    23.8490     2.1750   -24.7490 
  113.8750    66.9930    10.6420     9.0050     9.3510    23.8470     2.1590   -24.7910 
  114.0000    69.4540    10.7070     8.9710     9.2150    23.8490     2.1460   -24.7750 
  114.1250    69.9260    10.7390     8.9270     8.8960    23.8500     2.1390   -24.7040 
