~V
VERS. 2.00: Ver 2.00
~W
STRT.M 59.0000:
STOP.M 264.0000:
STEP.M 0.1250:
NULL. -999.2500:
UWI. DF5022:
~C
DEPT.M :
GR.API :
CALI.CM :
RXO.OHMM :
RI. :
RML.OHMM :
SP.MV :
DEN.GM/CC :
~A
# ...
   92.7500    53.3190    24.7290    14.7630     7.7280     8.7770   -36.3960     2.2080 
   92.8750    57.8820    24.8110    22.5570     7.6700     8.6530   -35.9380     2.2760 
   93.0000    63.6150    24.8330    23.9190     7.2720     8.0870   -35.5020     2.3400 
   93.1250    70.4310    24.8410    14.0210     6.5980     7.1970   -35.0830     2.3740 
   93.2500    76.4300    24.8810     6.9450     5.9120     6.3510   -34.5780     2.3760 
   93.3750    80.4470    24.9420     5.4490     5.3720     5.7530   -34.1190     2.3540 
   93.5000    82.2570    24.9810     5.2440     5.0490     5.4650   -33.7570     2.3210 
   93.6250    82.0620    24.9820     5.0450     4.9670     5.4580   -33.5300     2.2910 
   93.7500    81.7230    24.9790     5.0010     5.0160     5.5540   -33.3120     2.2690 
   93.8750    81.9830    24.9790     5.0110     5.1050     5.6330   -33.1810     2.2560 
   94.0000    82.0190    24.9790     5.3200     5.1640     5.6300   -33.0860     2.2540 
   94.1250    81.4600    24.9800     4.9990     5.1580     5.5360   -33.1670     2.2650 
   94.2500    80.4930    24.9770     4.5650     5.1050     5.4070   -33.2420     2.2810 
   94.3750    81.3970    24.9560     4.3060     5.0220     5.2780   -33.3850     2.2940 
   94.5000    83.3580    24.9120     4.3560     4.9310     5.1810   -33.4340     2.3050 
   94.6250    85.0430    24.8550     4.3530     4.8480     5.1300   -33.4910     2.3210 
   94.7500    84.7020    24.8080     4.2320     4.7680     5.0920   -33.5620     2.3380 
   94.8750    82.2480    24.7760     4.0360     4.6680     5.0300   -33.6430     2.3490 
   95.0000    79.5870    24.7470     4.0180     4.5290     4.9120   -33.6540     2.3500 
   95.1250    81.6130    24.7130     4.1920     4.3360     4.7200   -33.6800     2.3480 
   95.2500    87.6190    24.6810     4.1010     4.1240     4.5020   -33.8280     2.3540 
   95.3750    91.8920    24.6610     3.8990     3.9500     4.3370   -33.9850     2.3660 
   95.5000    89.6460    24.6510     3.8160     3.8900     4.3280   -34.1840     2.3720 
   95.6250    83.8870    24.6380     3.9630     4.0540     4.6140   -34.3870     2.3570 
   95.7500    81.9300    24.6230     4.6130     4.4550     5.1920   -34.6630     2.3300 
   95.8750    81.0660    24.6140     6.5120     5.0810     6.0140   -34.9800     2.3050 
   96.0000    76.2480    24.6130    12.0680     5.8520     6.9320   -35.3430     2.2860 
   96.1250    67.2430    24.6140    13.3440     6.5760     7.6790   -35.6290     2.2600 
   96.2500    60.7870    24.6160    11.3640     7.1070     8.1430   -35.7610     2.2240 
   96.3750    59.2360    24.6150     9.1520     7.4480     8.4020   -35.7930     2.1860 
   96.5000    59.5630    24.6120     8.9740     7.6790     8.5930   -35.7150     2.1600 
   96.6250    59.0960    24.6110    10.9180     7.8200     8.7260   -35.5330     2.1640 
   96.7500    57.4300    24.6120    18.5340     7.7970     8.6620   -35.2000     2.1990 
   96.8750    57.2400    24.6120    28.3460     7.4970     8.2560   -34.7400     2.2640 
   97.0000    62.2120    24.6100    28.4610     6.9030     7.5100   -34.1300     2.3390 
   97.1250    72.1590    24.6150    15.3970     6.1640     6.6520   -33.4630     2.3900 
   97.2500    79.9360    24.6290     6.6060     5.5270     5.9820   -32.8490     2.4020 
   97.3750    81.5050    24.6360     4.9920     5.1000     5.6090   -32.3250     2.3800 
   97.5000    79.6110    24.6160     5.3500     4.8900     5.4990   -31.9150     2.3420 
   97.6250    79.3860    24.5930     5.4500     4.8530     5.5440   -31.5780     2.3090 
   97.7500    79.8270    24.6170     4.9380     4.8690     5.5820   -31.2840     2.3000 
   97.8750    79.7260    24.6890     4.6830     4.8780     5.5530   -31.0440     2.3160 
   98.0000    78.6070    24.7600     4.6480     4.8790     5.4870   -30.9510     2.3440 
   98.1250    78.1180    24.7800     4.7920     4.9240     5.4840   -30.9500     2.3580 
   98.2500    77.2660    24.7560     5.0730     5.0380     5.5860   -30.9820     2.3520 
   98.3750    74.3010    24.6960     5.5830     5.2030     5.7650   -30.9770     2.3280 
   98.5000    70.7640    24.6140     6.2840     5.3630     5.9430   -30.9090     2.2960 
   98.6250    69.6080    24.5630     6.1180     5.4370     6.0100   -30.8610     2.2690 
   98.7500    71.4020    24.5930     5.6710     5.4090     5.9410   -30.8140     2.2650 
   98.8750    74.6420    24.7000     4.9860     5.2990     5.7760   -30.7900     2.2870 
   99.0000    77.2770    24.8050     4.6840     5.1550     5.5880   -30.7070     2.3170 
   99.1250    76.9710    24.7770     4.7060     5.0360     5.4660   -30.6110     2.3230 
   99.2500    73.8580    24.6380     4.9270     4.9700     5.4420   -30.5400     2.3090 
   99.3750    71.4310    24.5000     5.0130     4.9660     5.5120   -30.5640     2.2930 
   99.5000    72.4470    24.4440     4.9190     5.0200     5.6560   -30.6770     2.2880 
   99.6250    74.7420    24.4560     4.6440     5.1370     5.8540   -30.7990     2.2860 
   99.7500    74.5410    24.4660     4.9050     5.3060     6.0740   -30.9610     2.2810 
   99.8750    71.9990    24.4650     5.4650     5.5030     6.2820   -31.1400     2.2870 
  100.0000    68.6550    24.4740     5.8750     5.6850     6.4370   -31.3660     2.3190 
  100.1250    67.0880    24.5190     6.8250     5.7990     6.5000   -31.6190     2.3700 
  100.2500    67.3400    24.5740     7.0060     5.8490     6.5020   -31.7750     2.4080 
  100.3750    69.1340    24.5490     6.2320     5.8610     6.4850   -31.8480     2.4160 
  100.5000    71.8060    24.3970     5.6870     5.8600     6.4780   -31.8540     2.4040 
  100.6250    75.2530    24.2100     5.9720     5.8450     6.4610   -31.8800     2.4020 
  100.7500    78.0210    24.1090     7.1720     5.7920     6.3780   -31.9090     2.4140 
  100.8750    78.1650    24.0930     7.5380     5.6810     6.2050   -31.9430     2.4200 
  101.0000    75.9500    24.1010     6.2440     5.5310     5.9850   -32.0010     2.4020 
  101.1250    73.9580    24.0990     4.9690     5.4040     5.8390   -32.0630     2.3590 
  101.2500    72.6400    24.0990     4.8580     5.3540     5.8320   -32.2870     2.3170 
  101.3750    71.7370    24.0990     5.0030     5.4030     5.9570   -32.4520     2.2910 
  101.5000    71.6550    24.0990     5.2720     5.5240     6.1400   -32.7020     2.2840 
  101.6250    71.8690    24.0990     5.3320     5.6280     6.2400   -32.9280     2.2880 
  101.7500    72.2160    24.0990     5.4080     5.6340     6.1890   -33.1900     2.2940 
  101.8750    72.2310    24.0990     5.3200     5.5300     6.0130   -33.3610     2.3020 
  102.0000    71.8420    24.0990     4.8760     5.3580     5.7920   -33.5010     2.3120 
  102.1250    71.9870    24.1000     4.4690     5.1690     5.5800   -33.5420     2.3220 
  102.2500    73.4260    24.0960     4.6760     4.9900     5.3820   -33.6110     2.3260 
  102.3750    74.4000    24.1000     5.2030     4.8410     5.2170   -33.7570     2.3220 
  102.5000    73.1120    24.1720     5.3600     4.7690     5.1520   -33.9530     2.3220 
  102.6250    71.9530    24.3730     4.9600     4.8740     5.3210   -34.1370     2.3410 
  102.7500    73.0180    24.6010     4.9340     5.1880     5.7590   -34.3700     2.3760 
  102.8750    74.1260    24.7450     7.2310     5.7160     6.4510   -34.7180     2.4100 
  103.0000    73.5970    24.7820    11.4120     6.3960     7.2870   -35.1910     2.4220 
  103.1250    71.4520    24.7750    12.3190     7.0470     8.0100   -35.7320     2.3920 
  103.2500    67.8910    24.7720    10.1220     7.4650     8.3960   -36.2030     2.3330 
  103.3750    63.8070    24.7790     8.4280     7.5740     8.4020   -36.5740     2.2650 
  103.5000    60.9430    24.8190     8.0020     7.4430     8.1650   -36.8930     2.2130 
  103.6250    60.5450    24.8500     7.7510     7.2300     7.9130   -37.1860     2.1930 
  103.7500    61.2920    24.7460     7.5570     7.0780     7.7810   -37.4050     2.1940 
  103.8750    62.6100    24.4690     7.2860     7.0180     7.7600   -37.5470     2.2030 
