~V
VERS. 2.00: Ver 2.00
~W
STRT.M 60.0000:
STOP.M 271.0000:
STEP.M 0.1250:
NULL. -999.2500:
UWI. DF5026:
~C
DEPT.M :
SP.MV :
GR.API :
CALI.CM :
RXO.OHMM :
RI. :
RML.OHMM :
DEN.GM/CC :
~A
# ...
  150.0000   -36.6550    82.2750    24.1230     5.4280     7.5100     7.9000     2.4070 
  150.1250   -36.6950    81.0940    24.1230     7.2760     8.1970     9.3770     2.4310 
  150.2500   -36.7560    73.8310    24.1230    14.0860    10.0340    12.0570     2.4680 
  150.3750   -36.8940    64.8050    24.1230    23.2650    12.6630    15.2470     2.4990 
  150.5000   -37.0940    58.5500    24.1230    28.4570    14.9190    17.3140     2.5040 
  150.6250   -37.3090    57.0380    24.1240    24.2390    14.9350    16.2080     2.4690 
  150.7500   -37.4910    57.6760    24.1240    17.6890    13.2300    13.4010     2.4160 
  150.8750   -37.6720    59.5700    24.1180    11.9540    11.1160    10.7370     2.3690 
  151.0000   -37.8570    65.0310    24.1050     8.2280     9.4760     9.0620     2.3430 
  151.1250   -38.0170    71.8550    24.1010     8.8920     8.7080     8.5940     2.3470 
  151.2500   -38.1190    72.8650    24.1290    13.3980     8.6580     8.9930     2.3770 
  151.3750   -38.1300    69.3320    24.1790    17.1120     9.2750    10.1370     2.4230 
  151.5000   -38.0580    67.5170    24.2490    15.0650    10.5120    11.9270     2.4720 
  151.6250   -37.9250    68.4370    24.3500    15.4720    12.3340    14.2660     2.5090 
  151.7500   -37.8200    66.7480    24.4540    21.6980    14.4200    16.7620     2.5330 
  151.8750   -37.7100    61.7260    24.5170    27.7510    16.4690    19.0340     2.5450 
  152.0000   -37.5880    56.7000    24.5280    27.6070    18.2060    20.7660     2.5470 
  152.1250   -37.4690    55.0860    24.5240    25.0260    19.4330    21.8160     2.5420 
  152.2500   -37.3260    56.0360    24.5240    22.4390    20.3200    22.5510     2.5390 
  152.3750   -37.1510    57.5120    24.5240    23.0680    21.0700    23.2930     2.5420 
  152.5000   -36.9230    57.3830    24.5240    26.4930    21.8600    24.2280     2.5510 
  152.6250   -36.6950    56.6520    24.5240    28.5830    22.6530    25.2050     2.5600 
  152.7500   -36.4630    56.1750    24.5240    28.5840    23.1250    25.7170     2.5640 
  152.8750   -36.2260    55.9890    24.5240    26.6540    22.9640    25.3740     2.5590 
  153.0000   -35.9960    56.8700    24.5240    24.8580    22.1230    24.1980     2.5470 
  153.1250   -35.8440    59.9340    24.5240    22.2880    20.8790    22.6530     2.5350 
  153.2500   -35.7920    63.6290    24.5240    18.9970    19.7340    21.3720     2.5270 
  153.3750   -35.8770    65.6090    24.5240    17.0740    18.9500    20.6380     2.5240 
  153.5000   -36.0630    64.7590    24.5240    17.1500    18.6270    20.5100     2.5220 
  153.6250   -36.2550    62.4720    24.5240    18.6680    18.7720    20.9100     2.5200 
  153.7500   -36.4110    60.5300    24.5240    19.7260    19.1130    21.4480     2.5180 
  153.8750   -36.5480    60.8300    24.5240    20.0000    19.3870    21.7820     2.5160 
  154.0000   -36.6790    63.7440    24.5240    19.2680    19.3630    21.6510     2.5120 
  154.1250   -36.6820    65.7710    24.5240    18.4300    18.8980    20.9460     2.5090 
  154.2500   -36.5700    64.4090    24.5240    18.1370    18.1950    19.9850     2.5080 
  154.3750   -36.3930    61.1880    24.5240    17.6050    17.4730    19.0740     2.5080 
  154.5000   -36.2460    59.2880    24.5240    16.3970    16.9390    18.4750     2.5090 
  154.6250   -36.1620    61.3500    24.5240    16.1620    16.8160    18.4610     2.5060 
  154.7500   -36.1240    63.2130    24.5240    15.9480    17.1280    19.0250     2.5020 
  154.8750   -36.1270    62.4400    24.5240    15.9290    17.8840    20.1400     2.5000 
  155.0000   -36.1300    60.4030    24.5210    17.3550    19.0300    21.6850     2.5030 
  155.1250   -36.1940    59.5820    24.5180    19.3420    20.3870    23.3440     2.5130 
  155.2500   -36.3250    60.2420    24.5170    21.3720    21.5190    24.5440     2.5270 
  155.3750   -36.4890    61.1820    24.5210    22.2200    21.9690    24.7530     2.5380 
  155.5000   -36.6240    62.9740    24.5110    22.0880    21.4440    23.7270     2.5430 
  155.6250   -36.7460    65.0760    24.4270    20.8500    19.9600    21.6680     2.5400 
  155.7500   -36.8650    64.7930    24.2880    18.8320    18.1750    19.4530     2.5330 
  155.8750   -36.9570    63.6060    24.1580    16.0900    16.5670    17.6530     2.5240 
  156.0000   -37.0820    62.5220    24.0850    13.8370    15.4470    16.5830     2.5140 
  156.1250   -37.2500    60.2630    24.0640    13.5940    15.0340    16.4190     2.5090 
  156.2500   -37.4020    57.4960    24.0530    14.2240    15.1710    16.8620     2.5120 
  156.3750   -37.4680    56.7400    24.0530    15.8850    15.7050    17.6470     2.5230 
  156.5000   -37.4480    57.8630    24.0650    19.0830    16.3960    18.4390     2.5380 
  156.6250   -37.3610    58.6050    24.0810    21.4580    16.9130    18.8690     2.5510 
  156.7500   -37.2590    58.5250    24.0910    22.2350    17.1390    18.9370     2.5550 
  156.8750   -37.1520    57.5050    24.0940    20.5500    17.1850    18.8560     2.5510 
  157.0000   -37.0270    54.4690    24.0940    18.6180    17.2500    18.8860     2.5450 
  157.1250   -36.8700    51.2640    24.0950    17.9620    17.5190    19.2200     2.5410 
  157.2500   -36.7710    51.5750    24.0950    19.7930    17.9750    19.7520     2.5410 
  157.3750   -36.7170    53.5240    24.0900    22.8660    18.4770    20.2220     2.5420 
  157.5000   -36.7340    54.3000    24.0700    23.0780    18.7500    20.2660     2.5450 
  157.6250   -36.8410    56.0470    24.0370    20.7520    18.4170    19.4930     2.5460 
  157.7500   -36.9960    58.6680    24.0140    17.9750    17.5190    18.1010     2.5440 
  157.8750   -37.1930    58.8550    24.0090    16.4540    16.2630    16.4320     2.5410 
  158.0000   -37.3870    57.6490    24.0100    14.6920    14.9470    14.8610     2.5340 
  158.1250   -37.6140    60.1230    23.9970    11.7500    13.8840    13.7320     2.5210 
  158.2500   -37.8540    65.8260    23.9800    10.2540    13.1690    13.0550     2.5050 
  158.3750   -38.1980    71.0020    23.9700    10.7350    12.7910    12.7560     2.4880 
  158.5000   -38.6010    72.6000    23.9680    12.3050    12.6800    12.7140     2.4700 
  158.6250   -39.0020    71.0750    23.9650    12.4920    12.7410    12.8000     2.4530 
  158.7500   -39.3880    69.5140    24.0000    12.0690    12.8390    12.8950     2.4380 
  158.8750   -39.8060    69.9910    24.1080    11.8860    12.9130    12.9620     2.4250 
  159.0000   -40.2660    71.9600    24.2500    12.4400    12.9280    12.9840     2.4120 
  159.1250   -40.7480    73.1540    24.3330    12.8610    12.8520    12.9340     2.4030 
  159.2500   -41.2120    76.3440    24.3480    13.5140    12.7130    12.8390     2.3990 
  159.3750   -41.5610    82.1080    24.3320    13.5140    12.5810    12.7960     2.3990 
  159.5000   -41.8090    87.9510    24.3340    12.4300    12.5950    13.0020     2.4000 
  159.6250   -42.0410    87.7850    24.4260    11.2130    13.0380    13.8320     2.3950 
  159.7500   -42.2730    83.4090    24.5850    12.8340    14.0980    15.4820     2.3830 
  159.8750   -42.4450    80.4130    24.7210    16.9070    16.0020    18.1510     2.3650 
  160.0000   -42.5720    78.7100    24.7710    22.3720    18.9520    21.9680     2.3440 
  160.1250   -42.6630    76.0910    24.7650    27.8070    23.2590    27.1060     2.3250 
  160.2500   -42.7910    73.1890    24.7620    34.4470    28.5630    33.0940     2.3110 
  160.3750   -43.0520    73.2170    24.7630    43.1790    34.3960    39.4050     2.2990 
  160.5000   -43.4200    75.3080    24.7630    53.2240    40.1260    45.3800     2.2910 
  160.6250   -43.7570    75.2030    24.7640    61.3240    44.9800    50.1860     2.2870 
  160.7500   -44.0540    74.7390    24.7650    68.1760    48.5780    53.5130     2.2860 
  160.8750   -44.3150    76.3480    24.7650    68.8170    50.6260    55.1270     2.2860 
  161.0000   -44.5730    79.6060    24.7640    66.4440    51.1180    55.1400     2.2880 
  161.1250   -44.7800    81.0790    24.7630    64.6920    50.4340    54.1750     2.2870 
