~V
VERS. 2.00: Ver 2.00
~W
STRT.M 60.0000:
STOP.M 273.0000:
STEP.M 0.1250:
NULL. -999.2500:
UWI. DF5008:
~C
DEPT.M :
GR.API :
CALI.CM :
RXO.OHMM :
RI. :
RML.OHMM :
DEN.GM/CC :
SP.MV :
~A
# ...
  105.0000    62.3180    23.9570     9.0860     6.9610     8.4640     2.0990   -49.7640 
  105.1250    63.5490    23.8790     8.9180     6.8950     8.3400     2.1140   -49.5410 
  105.2500    63.8260    23.7020     8.5060     6.8350     8.2520     2.1280   -49.2940 
  105.3750    66.2040    23.4780     8.1760     6.8310     8.2660     2.1420   -49.0880 
  105.5000    70.5150    23.2980     8.2570     6.9190     8.4220     2.1570   -48.8850 
  105.6250    74.0870    23.2170     8.8100     7.1230     8.7240     2.1710   -48.8530 
  105.7500    74.6410    23.1730     9.4260     7.3860     9.0740     2.1810   -48.9040 
  105.8750    72.0570    23.1350     9.6240     7.6490     9.3760     2.1840   -49.0090 
  106.0000    69.9790    23.1400     9.4990     7.8490     9.5500     2.1770   -49.1540 
  106.1250    70.2030    23.2660     9.3650     7.9230     9.5490     2.1670   -49.3800 
  106.2500    69.2880    23.4740     9.3180     7.8960     9.4410     2.1560   -49.7000 
  106.3750    66.2460    23.6960     9.3620     7.8070     9.2960     2.1460   -50.0660 
  106.5000    64.2460    23.8780     9.4300     7.7020     9.1620     2.1390   -50.4960 
  106.6250    66.3420    23.9750     9.3710     7.6100     9.0560     2.1350   -50.7500 
  106.7500    69.0940    23.9890     9.1830     7.5240     8.9460     2.1380   -50.8470 
  106.8750    70.1260    23.9500     9.1170     7.4190     8.8000     2.1480   -50.9290 
  107.0000    70.8340    23.9210     9.3270     7.2790     8.6050     2.1620   -50.9780 
  107.1250    72.3660    23.8820     9.4350     7.1130     8.3880     2.1750   -50.9590 
  107.2500    72.5300    23.7700     9.0100     6.9600     8.2120     2.1810   -50.8190 
  107.3750    69.3490    23.6320     8.1210     6.8610     8.1280     2.1800   -50.6880 
  107.5000    64.1480    23.5620     7.8070     6.8360     8.1610     2.1770   -50.4960 
  107.6250    62.4420    23.5770     8.3600     6.8920     8.2980     2.1740   -50.2050 
  107.7500    65.7020    23.5950     9.0700     6.9810     8.4490     2.1720   -49.9650 
  107.8750    69.4990    23.6310     9.4060     7.0630     8.5480     2.1700   -49.7300 
  108.0000    70.7570    23.7380     9.5510     7.1030     8.5610     2.1690   -49.5140 
  108.1250    70.2960    23.9160     9.7630     7.1080     8.5410     2.1710   -49.3060 
  108.2500    71.1260    24.0850     9.7310     7.1650     8.6590     2.1810   -49.1600 
  108.3750    70.5010    24.1850     9.6490     7.3900     9.0920     2.1930   -48.9220 
  108.5000    66.3510    24.2170     9.9660     7.8910     9.9510     2.2000   -48.7020 
  108.6250    61.6270    24.2760    12.7100     8.7500    11.2140     2.1910   -48.5800 
  108.7500    59.9720    24.4030    28.3960     9.7700    12.4850     2.1730   -48.4740 
  108.8750    60.7520    24.5120    53.3530    10.6320    13.3050     2.1520   -48.3580 
  109.0000    61.8500    24.4510    64.3650    10.9680    13.2930     2.1380   -48.1960 
  109.1250    64.7300    24.1300    42.3340    10.5240    12.3360     2.1340   -48.0470 
  109.2500    67.9020    23.7010    21.9580     9.6860    11.0550     2.1340   -47.8910 
  109.3750    69.3140    23.3230    11.1480     8.8210     9.9440     2.1350   -47.8320 
  109.5000    68.6000    23.1200     9.0930     8.1720     9.2660     2.1380   -47.7940 
  109.6250    66.5350    23.1500     9.3960     7.8460     9.0560     2.1450   -47.6580 
  109.7500    65.4810    23.2730     9.7200     7.7030     9.0070     2.1600   -47.5250 
  109.8750    66.7280    23.3220     9.8180     7.5930     8.8830     2.1780   -47.3920 
  110.0000    69.8190    23.2270     9.6230     7.3940     8.5550     2.1890   -47.2930 
  110.1250    70.7310    23.1280     8.6640     7.0680     8.0690     2.1840   -47.2770 
  110.2500    70.5990    23.2510     7.6600     6.7360     7.6450     2.1710   -47.2900 
  110.3750    72.1520    23.6360     7.3300     6.5010     7.4290     2.1610   -47.2350 
  110.5000    75.2840    24.1170     7.7910     6.4330     7.4720     2.1580   -47.2570 
  110.6250    77.5310    24.4350     8.5700     6.5700     7.7580     2.1600   -47.4630 
  110.7500    75.6350    24.5260     9.1730     6.8320     8.1340     2.1630   -47.6750 
  110.8750    69.0620    24.4390     9.3890     7.1370     8.4830     2.1630   -47.8360 
  111.0000    62.8920    24.2620     9.2980     7.3970     8.7220     2.1620   -47.9400 
  111.1250    63.4390    24.1100     9.0940     7.5460     8.8200     2.1610   -47.9690 
  111.2500    66.9690    24.0280     9.1720     7.6050     8.8490     2.1590   -48.0950 
  111.3750    68.6870    23.9800     9.3760     7.6120     8.8620     2.1550   -48.1900 
  111.5000    69.7190    23.9150     9.4680     7.5990     8.8850     2.1520   -48.1230 
  111.6250    71.5800    23.8410     9.3030     7.5790     8.9170     2.1520   -47.9720 
  111.7500    71.8100    23.8000     9.0810     7.5520     8.9370     2.1530   -47.8510 
  111.8750    70.5650    23.8160     9.0210     7.5130     8.9370     2.1510   -47.7860 
  112.0000    69.9040    23.8760     9.0950     7.4640     8.9230     2.1450   -47.7940 
  112.1250    68.4190    23.9370     9.3600     7.4170     8.9170     2.1360   -47.7930 
  112.2500    65.7440    23.9960     9.6190     7.3900     8.9330     2.1320   -47.6720 
  112.3750    64.6270    24.0750     9.8400     7.3920     8.9800     2.1330   -47.5680 
  112.5000    66.5520    24.1640     9.9390     7.4250     9.0560     2.1370   -47.4700 
  112.6250    67.4840    24.2020     9.7670     7.4790     9.1400     2.1420   -47.3680 
  112.7500    66.1170    24.1780     9.5940     7.5310     9.1990     2.1460   -47.2540 
  112.8750    64.5540    24.0960     9.4990     7.5580     9.2090     2.1510   -47.0840 
  113.0000    62.4840    23.9620     9.4390     7.5490     9.1610     2.1570   -46.8480 
  113.1250    61.6020    23.8230     9.4430     7.5090     9.0710     2.1610   -46.5630 
  113.2500    64.7330    23.7420     9.4410     7.4640     8.9780     2.1640   -46.2840 
  113.3750    68.7790    23.7240     9.3620     7.4330     8.9050     2.1660   -46.0920 
  113.5000    68.2210    23.7580     9.1740     7.4230     8.8580     2.1690   -45.9150 
  113.6250    65.0160    23.8370     9.3130     7.4240     8.8270     2.1720   -45.7070 
  113.7500    65.3050    23.9170     9.3750     7.4170     8.7880     2.1730   -45.5090 
  113.8750    66.3950    23.9770     9.1700     7.3910     8.7330     2.1710   -45.3250 
  114.0000    64.9780    24.0460     8.9910     7.3490     8.6740     2.1650   -45.1220 
  114.1250    64.1740    24.1500     9.1180     7.3170     8.6490     2.1560   -44.8490 
  114.2500    66.6660    24.2370     9.2010     7.3140     8.6650     2.1500   -44.5390 
  114.3750    70.8900    24.2680     9.1020     7.3280     8.6780     2.1520   -44.0470 
  114.5000    75.1250    24.2520     8.8880     7.3070     8.5970     2.1630   -43.5480 
  114.6250    77.2240    24.2230     8.5300     7.1450     8.2860     2.1830   -42.9140 
  114.7500    74.9760    24.2120     8.1030     6.8260     7.7730     2.2090   -42.0960 
  114.8750    72.1860    24.2510     7.4860     6.4050     7.1780     2.2420   -41.2010 
  115.0000    75.7200    24.3470     6.5970     5.9900     6.6620     2.2820   -40.2780 
  115.1250    85.2490    24.4510     5.8900     5.7000     6.3680     2.3250   -39.4210 
  115.2500    91.6550    24.4870     5.7350     5.5510     6.2630     2.3560   -38.6710 
  115.3750    93.2780    24.3880     5.9120     5.5110     6.2650     2.3620   -38.0080 
  115.5000    93.0030    24.1140     6.1150     5.5080     6.2580     2.3420   -37.3690 
  115.6250    92.8850    23.7370     5.7920     5.4490     6.1270     2.3110   -37.0040 
  115.7500    96.2070    23.4310     5.4280     5.3160     5.8920     2.2820   -36.7830 
  115.8750   103.1470    23.2550     5.3630     5.1460     5.6330     2.2590   -36.6490 
  116.0000   106.1060    23.1790     5.3650     4.9990     5.4500     2.2400   -36.5940 
  116.1250    99.6750    23.1550     5.3150     4.9550     5.4590     2.2310   -36.5770 
