~V
VERS. 2.00: Ver 2.00
~W
STRT.M 55.0000:
STOP.M 263.0000:
STEP.M 0.1250:
NULL. -999.2500:
UWI. DF5056:
~C
DEPT.M :
GR.API :
CALI.CM :
RXO.OHMM :
RI. :
RML.OHMM :
DEN.GM/CC :
SP.MV :
~A
   55.0000    38.6830    25.6370     3.5380     0.1760     0.8460     2.0510    81.1790 
   55.1250    39.3490    25.6370     3.6080     0.1800     0.7970     2.0650    80.8220 
   55.2500    41.0410    25.6340     3.7630     0.1860     0.7520     2.0740    80.4440 
   55.3750    42.0410    25.6330     4.0860     0.1950     0.7110     2.0760    80.0880 
   55.5000    40.8460    25.6320     6.1530     0.2040     0.6770     2.0710    79.7030 
   55.6250    39.8950    25.6330     6.4870     0.2130     0.6490     2.0610    79.3790 
   55.7500    40.5070    25.6340     5.8360     0.2190     0.6220     2.0500    79.0800 
   55.8750    40.4040    25.6370     8.2470     0.2240     0.5880     2.0360    78.7540 
   56.0000    39.7530    25.6370     9.3250     0.2270     0.5470     2.0230    78.4150 
   56.1250    41.1930    25.6340    13.2700     0.2300     0.5040     2.0150    77.9760 
   56.2500    43.2640    25.6320     8.6500     0.2320     0.4680     2.0170    77.5740 
   56.3750    43.1400    25.6320     3.1910     0.2340     0.4430     2.0280    77.1070 
   56.5000    41.1020    25.6320     0.4760     0.2370     0.4280     2.0460    76.6530 
   56.6250    39.3170    25.6320     1.3850     0.2420     0.4200     2.0650    76.1330 
   56.7500    38.7020    25.6300     2.9450     0.2470     0.4160     2.0750    75.5450 
   56.8750    39.6230    25.6300     3.7410     0.2530     0.4140     2.0740    74.8850 
   57.0000    41.5860    25.6300     3.8750     0.2580     0.4130     2.0620    74.1700 
   57.1250    43.2310    25.6300     3.7990     0.2630     0.4100     2.0490    73.3370 
   57.2500    43.1880    25.6300     3.8290     0.2700     0.4030     2.0450    72.3190 
   57.3750    41.7030    25.6300     3.8710     0.2800     0.3880     2.0520    71.1530 
   57.5000    39.6360    25.6300     3.8690     0.2910     0.3630     2.0630    69.7660 
   57.6250    38.3830    25.6300     3.7650     0.2980     0.3280     2.0680    68.1980 
   57.7500    38.1400    25.6300     3.6200     0.3000     0.2960     2.0650    66.3990 
   57.8750    38.9790    25.6300     3.5740     0.2980     0.2750     2.0570    64.4620 
   58.0000    40.2620    25.6300     3.6070     0.2950     0.2700     2.0500    62.1830 
   58.1250    40.5680    25.6300     3.5420     0.2950     0.2860     2.0450    59.6150 
   58.2500    39.7350    25.6300     3.4880     0.2950     0.3190     2.0380    56.7760 
   58.3750    39.6320    25.6300     3.6690     0.2900     0.3640     2.0290    53.6620 
   58.5000    40.5260    25.6300     6.9500     0.2710     0.4070     2.0200    50.1970 
   58.6250    40.6050    25.6300     7.0190     0.2290     0.3800     2.0170    46.3170 
   58.7500    40.5700    25.6300     5.1970     0.1700     0.2160     2.0220    41.9220 
   58.8750    41.9280    25.6300     3.3550     0.1070    -0.0250     2.0330    37.0010 
   59.0000    44.0310    25.6300     3.1540     0.0560    -0.2050     2.0350    31.6040 
   59.1250    44.2700    25.6300     3.0200     0.0240    -0.2800     2.0340    25.5560 
   59.2500    43.1000    25.6300     2.7040     0.0070    -0.3030     2.0740    18.8920 
   59.3750    42.9820    25.6170     2.1830     0.0070    -0.2880     2.1710    11.5920 
   59.5000    45.7140    25.6350     1.8690     0.0450    -0.2190     2.2900     3.9040 
   59.6250    50.4080    25.8660     4.0120     0.2150     0.0020     2.3740    -3.8600 
   59.7500    54.3010    26.2330     6.3800     0.6300     0.5340     2.4030   -11.2300 
   59.8750    56.9440    26.4560     7.5370     1.4270     1.5910     2.3750   -18.0650 
   60.0000    59.1180    26.3600     7.6940     2.6040     3.1170     2.3090   -24.1680 
   60.1250    61.2820    26.0780     7.7030     3.8350     4.3170     2.2440   -29.2390 
   60.2500    63.1990    25.8520     8.0540     4.7810     4.8590     2.2020   -33.2570 
   60.3750    63.8310    25.6820     8.8450     5.4500     5.1060     2.1790   -36.0540 
   60.5000    61.8430    25.5380     9.4810     5.9790     5.3670     2.1680   -37.8260 
   60.6250    59.8010    25.4340     9.7380     6.4390     5.6950     2.1660   -38.6080 
   60.7500    59.5120    25.3420     9.8060     6.7970     5.9360     2.1670   -38.8660 
   60.8750    59.7750    25.2210     9.9170     6.9460     5.9330     2.1720   -38.6890 
   61.0000    59.6930    25.0630    10.2710     6.7800     5.6150     2.1860   -38.2530 
   61.1250    63.2190    25.0360    10.3120     6.2390     5.0180     2.2090   -37.5060 
   61.2500    73.2500    25.3650     8.3130     5.4970     4.3430     2.2350   -36.7070 
   61.3750    86.1700    26.0430     5.8220     4.7310     3.7470     2.2570   -36.0040 
   61.5000    94.8220    26.7660     4.8280     4.1150     3.3570     2.2710   -35.4170 
   61.6250    96.6120    27.1800     4.5620     3.8520     3.3300     2.2790   -35.1440 
   61.7500    95.6940    27.2860     4.6790     3.9920     3.7070     2.2850   -35.0600 
   61.8750    93.3690    27.1170     5.3740     4.5930     4.5740     2.2930   -35.2730 
   62.0000    87.2880    26.7400     9.6690     5.6660     5.9720     2.2980   -35.7220 
   62.1250    78.1290    26.4070    23.7050     7.0980     7.7360     2.2860   -36.4320 
   62.2500    70.8670    26.3250    33.5700     8.3880     9.1710     2.2600   -37.3170 
   62.3750    66.8190    26.4270    31.1270     9.0530     9.6060     2.2320   -38.2380 
   62.5000    65.9890    26.5520    21.0350     8.9060     8.9250     2.2130   -39.1560 
   62.6250    66.5810    26.6300    12.8270     8.1440     7.6690     2.2070   -39.9990 
   62.7500    68.5510    26.6640     9.0170     7.2770     6.5000     2.2090   -40.7880 
   62.8750    74.1350    26.6440     8.2550     6.5440     5.6350     2.2150   -41.4210 
   63.0000    81.9690    26.6040     8.1230     6.0820     5.1440     2.2260   -41.9190 
   63.1250    86.7790    26.6070     7.5090     6.0750     5.1400     2.2470   -42.3920 
   63.2500    88.1060    26.6400     7.2370     6.5950     5.6240     2.2800   -42.8010 
   63.3750    87.4310    26.6410     8.1330     7.7420     6.6980     2.3270   -43.2230 
   63.5000    84.0400    26.5480    13.1160     9.4900     8.4400     2.3830   -43.7130 
   63.6250    77.0740    26.3420    26.0920    11.3910    10.5210     2.4330   -44.2690 
   63.7500    70.6910    26.0910    30.9110    12.4470    11.6780     2.4470   -44.8620 
   63.8750    66.8280    25.8570    22.9800    12.0500    11.1390     2.4080   -45.5970 
   64.0000    65.6790    25.6910    13.2490    10.5500     9.4960     2.3360   -46.3660 
   64.1250    68.6230    25.6230     9.0600     8.9030     7.9360     2.2650   -47.1900 
   64.2500    72.7400    25.6180     8.1570     7.7320     6.9710     2.2110   -47.9730 
   64.3750    73.3320    25.6100     8.1130     7.1490     6.6330     2.1770   -48.7850 
   64.5000    70.4010    25.5270     8.6910     7.0860     6.8680     2.1590   -49.4890 
   64.6250    68.5190    25.3710     9.9660     7.4100     7.7390     2.1520   -50.1050 
   64.7500    68.1580    25.2410    10.8520     7.8250     9.1290     2.1480   -50.6120 
   64.8750    67.5500    25.1910    11.0850     8.1400    10.7280     2.1440   -50.9620 
   65.0000    66.1450    25.2080    11.2380     8.2630    11.7190     2.1370   -51.3190 
   65.1250    63.1560    25.2380    11.1820     8.1950    11.6140     2.1290   -51.4700 
   65.2500    58.5900    25.2580    11.0720     8.0550    11.3150     2.1210   -51.5450 
   65.3750    54.9610    25.2670    10.9900     7.9120    11.2200     2.1150   -51.4550 
   65.5000    54.2990    25.2670    10.9490     7.7980    11.3090     2.1140   -51.2520 
   65.6250    54.9210    25.2730    10.8470     7.7190    11.4430     2.1190   -50.9980 
   65.7500    55.4390    25.2920    11.0160     7.6670    11.5360     2.1260   -50.6820 
   65.8750    56.9710    25.3140    10.9430     7.6500    11.6040     2.1340   -50.3430 
   66.0000    60.3210    25.3300    10.5380     7.6850    11.7780     2.1410   -49.9100 
   66.1250    62.8830    25.3310    10.8990     7.7930    12.3590     2.1460   -49.5350 
