~V
VERS. 2.00: Ver 2.00
~W
STRT.M 60.0000:
STOP.M 257.0000:
STEP.M 0.1250:
NULL. -999.2500:
UWI. DF5064:
~C
DEPT.M :
SP.MV :
GR.API :
RML.OHMM :
RI. :
RXO.OHMM :
CALI.CM :
DEN.GM/CC :
~A
# ...
  150.0000    -8.6660    49.0180    15.1920    14.5890    15.3300    27.4830     2.4900 
  150.1250    -8.6810    48.4850    15.4250    14.7380    15.8770    27.4450     2.5110 
  150.2500    -8.7030    48.9980    15.8660    15.0620    15.4700    27.4300     2.5190 
  150.3750    -8.7240    48.6450    16.4750    15.5250    15.9830    27.4110     2.5180 
  150.5000    -8.7620    50.1780    17.1600    16.0550    16.5890    27.3700     2.5130 
  150.6250    -8.8030    55.4700    17.7460    16.5180    17.3220    27.3440     2.5090 
  150.7500    -8.7930    58.9170    18.0830    16.7950    18.1640    27.3230     2.5060 
  150.8750    -8.7540    58.6560    18.0960    16.8170    18.7810    27.2940     2.5020 
  151.0000    -8.7220    57.4080    17.8150    16.5900    18.5910    27.2640     2.4970 
  151.1250    -8.7000    56.0230    17.3590    16.1880    17.0080    27.2370     2.4920 
  151.2500    -8.6830    54.9860    16.9370    15.7780    16.1070    27.2130     2.4920 
  151.3750    -8.6910    56.2700    16.6780    15.4690    15.8050    27.2040     2.4980 
  151.5000    -8.6770    58.8300    16.6550    15.3360    15.6640    27.2050     2.5070 
  151.6250    -8.6390    58.0090    16.9310    15.4420    15.2910    27.2110     2.5170 
  151.7500    -8.6290    54.7210    17.4340    15.7390    15.6730    27.2320     2.5220 
  151.8750    -8.6440    53.6490    18.0950    16.1750    17.9690    27.2870     2.5230 
  152.0000    -8.6770    55.9620    18.8060    16.6720    21.4800    27.3640     2.5200 
  152.1250    -8.7150    58.4520    19.3960    17.1010    20.6290    27.4010     2.5160 
  152.2500    -8.7220    60.1520    19.7390    17.3560    19.0930    27.4110     2.5140 
  152.3750    -8.7080    61.3570    19.7650    17.3710    18.9080    27.4130     2.5100 
  152.5000    -8.7110    61.6120    19.4850    17.1410    19.4020    27.4140     2.5040 
  152.6250    -8.7170    59.8460    18.9740    16.7100    18.8220    27.4130     2.4950 
  152.7500    -8.7140    57.2350    18.4100    16.2150    18.0720    27.4090     2.4830 
  152.8750    -8.6940    55.4800    17.9050    15.7460    16.5030    27.4060     2.4710 
  153.0000    -8.6430    54.9740    17.5410    15.3710    15.2290    27.4040     2.4610 
  153.1250    -8.5650    54.2470    17.3860    15.1520    15.3460    27.4040     2.4540 
  153.2500    -8.4870    53.6880    17.3940    15.0670    15.7970    27.4040     2.4520 
  153.3750    -8.4050    53.7690    17.5210    15.0940    15.6350    27.4040     2.4590 
  153.5000    -8.3190    54.0100    17.7040    15.1920    15.3040    27.4040     2.4740 
  153.6250    -8.2330    53.6220    17.8520    15.3020    15.5890    27.4040     2.4950 
  153.7500    -8.1410    53.9770    17.8960    15.3640    15.6360    27.4040     2.5150 
  153.8750    -8.0570    56.1050    17.8040    15.3410    15.4870    27.4050     2.5280 
  154.0000    -7.9850    57.1190    17.5820    15.2240    15.6550    27.4070     2.5310 
  154.1250    -7.9280    53.9130    17.2640    15.0220    15.5960    27.4120     2.5250 
  154.2500    -7.9140    51.1860    16.9350    14.7890    15.2130    27.4140     2.5180 
  154.3750    -7.9210    51.6670    16.6540    14.5680    14.9680    27.4140     2.5120 
  154.5000    -7.9160    53.9470    16.4610    14.3940    15.2630    27.4140     2.5100 
  154.6250    -7.8880    54.8320    16.3940    14.3060    15.5540    27.4160     2.5070 
  154.7500    -7.8650    54.9400    16.4260    14.3010    15.9340    27.4280     2.5040 
  154.8750    -7.8510    53.7570    16.5280    14.3660    15.7820    27.4550     2.5030 
  155.0000    -7.8540    50.8640    16.6580    14.4760    14.9090    27.4750     2.5060 
  155.1250    -7.8780    49.0580    16.7790    14.6060    14.7910    27.4830     2.5140 
  155.2500    -7.8800    49.3270    16.8790    14.7360    15.6600    27.4930     2.5240 
  155.3750    -7.8810    50.4780    16.9570    14.8580    16.7850    27.5150     2.5330 
  155.5000    -7.9110    52.6530    17.0140    14.9620    16.6730    27.5300     2.5400 
  155.6250    -7.9990    54.8270    17.0110    15.0170    15.8560    27.5380     2.5460 
  155.7500    -8.0900    55.1110    16.9040    14.9960    15.7300    27.5450     2.5500 
  155.8750    -8.1630    53.4020    16.6450    14.8690    16.3560    27.5430     2.5540 
  156.0000    -8.2170    52.0410    16.2080    14.6170    16.9140    27.5280     2.5600 
  156.1250    -8.2610    52.1890    15.5860    14.2290    15.6200    27.5520     2.5670 
  156.2500    -8.3080    53.1730    14.8740    13.7640    14.6830    27.7100     2.5740 
  156.3750    -8.3510    54.3670    14.1450    13.2760    14.0270    27.8770     2.5760 
  156.5000    -8.3930    54.9450    13.4700    12.8190    13.3800    27.9830     2.5730 
  156.6250    -8.4260    53.8630    12.9340    12.4620    12.3090    28.0730     2.5640 
  156.7500    -8.4470    51.5640    12.5580    12.2300    11.4520    28.1520     2.5550 
  156.8750    -8.4770    50.8070    12.3580    12.1370    11.0110    28.2370     2.5490 
  157.0000    -8.5350    53.3760    12.3170    12.1740    10.7220    28.3500     2.5430 
  157.1250    -8.6080    57.1290    12.3920    12.3100    10.8010    28.4730     2.5360 
  157.2500    -8.6910    58.6730    12.4830    12.4620    11.2030    28.6050     2.5250 
  157.3750    -8.7830    57.4890    12.5220    12.5700    11.4980    28.7080     2.5120 
  157.5000    -8.8810    55.8280    12.4710    12.5900    10.9930    28.7780     2.4990 
  157.6250    -9.0120    56.6060    12.3160    12.4920    10.4160    28.8710     2.4870 
  157.7500    -9.1940    57.6940    12.1050    12.3140    10.2580    29.0000     2.4750 
  157.8750    -9.4010    56.9130    11.8790    12.0910    10.4290    29.1250     2.4630 
  158.0000    -9.6250    56.0070    11.6760    11.8650    10.5260    29.2140     2.4500 
  158.1250    -9.8870    58.0140    11.5520    11.6910    10.4080    29.3060     2.4430 
  158.2500   -10.1950    59.6060    11.5720    11.6290    10.2090    29.4360     2.4440 
  158.3750   -10.5760    59.3080    11.8410    11.7610    10.4890    29.6010     2.4500 
  158.5000   -11.0380    61.0210    12.4880    12.1860    11.7710    29.7600     2.4510 
  158.6250   -11.5510    64.1830    13.7260    13.0970    15.2620    29.9890     2.4320 
  158.7500   -12.1280    64.1190    15.7730    14.5750    22.7050    30.2810     2.3940 
  158.8750   -12.7910    62.5140    18.8850    16.7920    33.3320    30.6500     2.3470 
  159.0000   -13.5190    63.6560    23.0890    19.9920    44.6520    31.0430     2.3050 
  159.1250   -14.2980    68.9530    28.8130    24.8010    45.1010    31.4070     2.2820 
  159.2500   -15.1030    74.6720    35.4760    31.4460    40.3960    31.7690     2.2720 
  159.3750   -15.8860    76.7990    43.2870    40.1960    46.1240    32.1830     2.2650 
  159.5000   -16.6180    74.3340    52.4760    50.9120    60.6160    32.5710     2.2560 
  159.6250   -17.2990    70.6060    63.0090    62.7920    71.8230    32.8960     2.2430 
  159.7500   -17.8900    69.2740    76.2010    73.9480    75.5850    33.1390     2.2310 
  159.8750   -18.3990    68.3920    87.4250    82.6990    88.4080    33.3430     2.2240 
  160.0000   -18.8600    65.4250    94.8420    87.9580    97.4490    33.4830     2.2220 
  160.1250   -19.2700    63.0290    97.2930    89.3630    97.1610    33.5670     2.2250 
  160.2500   -19.6270    63.9010    96.9570    88.7850    90.4900    33.6810     2.2310 
  160.3750   -19.9190    67.5120    95.6530    87.4610    85.1330    33.8240     2.2340 
  160.5000   -20.1490    70.8240    94.4920    86.0750    78.7690    33.9510     2.2330 
  160.6250   -20.3290    70.1910    93.6380    84.7170    75.6680    34.0190     2.2270 
  160.7500   -20.4750    67.3940    92.5930    83.2620    74.3240    34.0790     2.2240 
  160.8750   -20.5570    63.8820    91.1090    81.8770    73.7450    34.1540     2.2260 
  161.0000   -20.5690    62.6760    89.4660    81.1540    67.8980    34.2780     2.2320 
  161.1250   -20.5380    65.6110    88.8450    82.4720    62.2050    34.4250     2.2350 
