~V
VERS. 2.00: Ver 2.00
~W
STRT.M 61.0000:
STOP.M 247.0000:
STEP.M 0.1250:
NULL. -999.2500:
UWI. DF5042:
~C
DEPT.M :
SP.MV :
GR.API :
CALI.CM :
RXO.OHMM :
RI. :
RML.OHMM :
DEN.GM/CC :
~A
# ...
   83.5000   -26.0390    77.9540    25.2080     7.0590     6.0310     7.6020     2.1680 
   83.6250   -26.1810    76.7020    25.1220     7.2050     6.3470     8.0090     2.1500 
   83.7500   -26.3000    74.6720    25.1030     7.1510     6.6620     8.3610     2.1390 
   83.8750   -26.4250    71.2070    25.1110     7.1380     6.9280     8.6270     2.1350 
   84.0000   -26.5670    68.1200    25.1310     7.0980     7.1320     8.8090     2.1330 
   84.1250   -26.7210    68.0260    25.1550     7.1170     7.2510     8.8700     2.1300 
   84.2500   -26.8110    68.3470    25.1820     7.1860     7.2500     8.7620     2.1270 
   84.3750   -26.8890    69.8840    25.2200     7.2390     7.0760     8.4350     2.1300 
   84.5000   -26.8110    74.2990    25.2610     7.1190     6.7200     7.9100     2.1420 
   84.6250   -26.7210    80.8470    25.3020     6.5540     6.2480     7.3090     2.1620 
   84.7500   -26.5940    85.0750    25.3330     5.6110     5.8030     6.8060     2.1900 
   84.8750   -26.4190    85.1430    25.3180     4.9750     5.4800     6.4970     2.2180 
   85.0000   -26.0880    82.9760    25.2380     5.1090     5.3170     6.4000     2.2400 
   85.1250   -25.6930    82.7370    25.1460     5.5420     5.3210     6.4710     2.2510 
   85.2500   -25.2390    85.6220    25.0970     5.9630     5.4140     6.5920     2.2470 
   85.3750   -24.6810    87.0230    25.0760     6.0570     5.5400     6.6900     2.2320 
   85.5000   -24.2200    83.6630    25.0510     5.8140     5.6570     6.7400     2.2130 
   85.6250   -23.7690    82.2640    25.0380     5.7950     5.7520     6.7610     2.1970 
   85.7500   -23.3900    84.2800    25.0510     6.0840     5.8410     6.7920     2.1910 
   85.8750   -23.0820    85.2710    25.0800     6.1620     5.9250     6.8340     2.1950 
   86.0000   -22.8640    83.1480    25.1030     6.0050     5.9820     6.8490     2.2040 
   86.1250   -22.6710    82.4940    25.1070     5.9980     5.9560     6.7660     2.2120 
   86.2500   -22.5000    84.1310    25.1030     5.8850     5.8310     6.5710     2.2170 
   86.3750   -22.4360    84.8060    25.1000     5.5470     5.6140     6.2840     2.2210 
   86.5000   -22.3500    84.2690    25.1440     5.1870     5.3430     5.9610     2.2280 
   86.6250   -22.3050    87.1590    25.2960     4.9790     5.0840     5.6950     2.2410 
   86.7500   -22.2180    93.7890    25.4840     4.7800     4.8950     5.5430     2.2560 
   86.8750   -22.1310   100.8310    25.6140     4.7330     4.8040     5.5260     2.2630 
   87.0000   -22.0670   103.6860    25.6510     4.7040     4.8080     5.6200     2.2580 
   87.1250   -22.0610   100.5560    25.6370     4.7080     4.8680     5.7570     2.2430 
   87.2500   -22.0410    95.7520    25.6190     4.8620     4.9110     5.8420     2.2280 
   87.3750   -22.0330    91.8430    25.6010     5.0430     4.8930     5.8240     2.2210 
   87.5000   -22.0520    88.9620    25.5570     5.0780     4.7980     5.7030     2.2250 
   87.6250   -22.0520    87.4000    25.4330     4.7420     4.6610     5.5600     2.2350 
   87.7500   -22.0740    89.8320    25.2610     4.5900     4.5820     5.5380     2.2470 
   87.8750   -22.1060    95.0370    25.1020     4.8130     4.6570     5.7520     2.2630 
   88.0000   -22.1890    96.7690    25.0010     5.2680     4.9490     6.2610     2.2870 
   88.1250   -22.2440    92.6220    24.9860     5.8110     5.5250     7.1120     2.3200 
   88.2500   -22.3630    88.4610    25.0230     7.6580     6.3330     8.2180     2.3580 
   88.3750   -22.5150    84.8700    25.0730    10.3820     7.3540     9.5290     2.3880 
   88.5000   -22.7500    79.7840    25.0930    11.7690     8.5630    10.9950     2.3980 
   88.6250   -23.0120    75.1580    25.1110    10.8540     9.9490    12.5790     2.3900 
   88.7500   -23.2610    71.8810    25.2080    13.3420    11.4120    14.1600     2.3810 
   88.8750   -23.5340    69.3340    25.4100    20.0900    12.7810    15.5230     2.3910 
   89.0000   -23.7660    68.2350    25.6480    25.5530    13.7620    16.3340     2.4170 
   89.1250   -24.0000    68.4260    25.7910    22.6080    13.8860    16.1160     2.4470 
   89.2500   -24.2170    67.8770    25.8070    16.6900    13.1750    15.0020     2.4650 
   89.3750   -24.3940    66.8750    25.7190    12.0950    11.8700    13.3340     2.4500 
   89.5000   -24.5460    68.4870    25.5530     9.6120    10.3780    11.6090     2.4010 
   89.6250   -24.7690    71.3990    25.3910     8.4690     9.1410    10.3440     2.3330 
   89.7500   -25.0330    71.5720    25.3140     7.8710     8.3380     9.6680     2.2710 
   89.8750   -25.3270    70.4230    25.3450     7.6730     8.0100     9.5750     2.2430 
   90.0000   -25.6050    70.4730    25.4550     7.6790     8.1300     9.9680     2.2480 
   90.1250   -25.9070    71.2800    25.5960     7.7270     8.6370    10.6770     2.2850 
   90.2500   -26.1860    71.6590    25.6620     7.7940     9.2520    11.3330     2.3400 
   90.3750   -26.4560    70.9150    25.5710     7.8510     9.6940    11.6320     2.3760 
   90.5000   -26.6660    68.8470    25.3670     7.8610     9.7390    11.4080     2.3610 
   90.6250   -26.8090    66.7620    25.2110     7.8550     9.3140    10.7100     2.3010 
   90.7500   -26.9440    66.6110    25.1680     7.7870     8.6980     9.9140     2.2280 
   90.8750   -27.0470    67.5690    25.1810     7.7100     8.1100     9.2590     2.1720 
   91.0000   -27.2120    66.7150    25.1890     7.7260     7.6860     8.8630     2.1380 
   91.1250   -27.2790    64.8230    25.1800     7.8440     7.4950     8.7420     2.1230 
   91.2500   -27.3600    63.8460    25.1610     7.8370     7.4530     8.7570     2.1210 
   91.3750   -27.3710    62.6880    25.1330     7.7230     7.4910     8.8250     2.1240 
   91.5000   -27.3840    61.6990    25.0960     7.6220     7.5580     8.9010     2.1280 
   91.6250   -27.3740    63.6620    25.0610     7.6890     7.6240     8.9680     2.1310 
   91.7500   -27.3540    66.9220    25.0320     7.7280     7.6820     9.0250     2.1330 
   91.8750   -27.2970    67.7050    24.9900     7.7250     7.7290     9.0710     2.1330 
   92.0000   -27.2010    65.7110    24.9350     7.7860     7.7620     9.0950     2.1330 
   92.1250   -27.1760    64.7560    24.8810     7.8060     7.7520     9.0610     2.1310 
   92.2500   -27.0630    65.8160    24.8290     7.6710     7.6690     8.9360     2.1280 
   92.3750   -26.9620    67.1350    24.7770     7.4380     7.4760     8.6830     2.1260 
   92.5000   -26.8280    67.5120    24.7380     7.1360     7.1610     8.3050     2.1310 
   92.6250   -26.6840    68.5350    24.7420     6.5840     6.7640     7.8720     2.1480 
   92.7500   -26.5500    71.9640    24.8300     6.1390     6.4000     7.5330     2.1740 
   92.8750   -26.3890    76.9900    25.0220     5.7850     6.1710     7.4080     2.1980 
   93.0000   -26.2610    82.2860    25.2170     5.7290     6.1520     7.5660     2.2090 
   93.1250   -26.1020    84.5040    25.2200     6.0640     6.4080     8.0350     2.2060 
   93.2500   -26.0620    82.7510    25.0810     6.7040     6.8500     8.6510     2.1920 
   93.3750   -26.0960    78.4920    24.9510     7.4740     7.3660     9.2490     2.1770 
   93.5000   -26.1990    74.3230    24.9120     7.8680     7.8150     9.6630     2.1670 
   93.6250   -26.3060    71.6330    24.9180     7.8950     8.0390     9.7570     2.1590 
   93.7500   -26.3900    70.2680    24.9220     7.8720     8.0560     9.6330     2.1530 
   93.8750   -26.4860    69.3640    24.9230     7.8710     7.9410     9.4180     2.1480 
   94.0000   -26.5580    68.9480    24.9120     7.8330     7.7910     9.2320     2.1460 
   94.1250   -26.6300    68.4220    24.8840     7.8020     7.6850     9.1410     2.1460 
   94.2500   -26.6370    68.1190    24.8590     7.8060     7.6310     9.1080     2.1490 
   94.3750   -26.6200    69.0460    24.8500     7.8150     7.6040     9.0840     2.1510 
   94.5000   -26.6720    70.4940    24.8480     7.8200     7.5760     9.0310     2.1500 
   94.6250   -26.7000    71.0190    24.8380     7.8520     7.5270     8.9340     2.1470 
