~V
VERS. 2.00: Ver 2.00
~W
STRT.M 60.0000:
STOP.M 273.0000:
STEP.M 0.1250:
NULL. -999.2500:
UWI. DF5003:
~C
DEPT.M :
GR.API :
CALI.CM :
RXO.OHMM :
RI. :
RML.OHMM :
DEN.GM/CC :
SP.MV :
~A
# ...
  183.7500    66.3660    24.4670    61.6880    58.4840    61.8940     2.2760   -30.4540 
  183.8750    65.5230    24.4670    61.5100    61.8030    65.0610     2.2780   -30.5310 
  184.0000    65.1530    24.4670    60.0160    65.0770    68.0100     2.2790   -30.5670 
  184.1250    65.6800    24.4670    64.8720    67.7760    70.4180     2.2790   -30.4860 
  184.2500    67.6810    24.4670    72.1990    69.9340    72.4070     2.2750   -30.5760 
  184.3750    70.2530    24.4670    75.6190    71.3590    73.7450     2.2690   -30.6250 
  184.5000    71.4050    24.4670    73.9220    71.5820    73.9060     2.2610   -30.6530 
  184.6250    70.6860    24.4670    76.2750    69.9570    72.2520     2.2570   -30.7910 
  184.7500    69.5600    24.4670    72.9110    67.0090    69.3930     2.2580   -30.8720 
  184.8750    69.3810    24.4670    63.8590    63.6610    66.3620     2.2610   -31.0030 
  185.0000    69.4690    24.4670    59.9210    61.1640    64.5010     2.2600   -31.1100 
  185.1250    68.8590    24.4670    54.8470    61.1450    65.5730     2.2530   -31.2880 
  185.2500    68.9760    24.4670    55.1380    64.0860    69.9940     2.2420   -31.3170 
  185.3750    69.2310    24.4690    72.2100    70.1880    77.8600     2.2300   -31.4290 
  185.5000    68.1670    24.4770   106.0550    78.9390    88.4420     2.2230   -31.4880 
  185.6250    67.5250    24.4860   129.0840    88.7260    99.7570     2.2240   -31.4610 
  185.7500    68.6290    24.4920   129.2960    96.9250   108.9260     2.2310   -31.3880 
  185.8750    70.3580    24.4950   116.4120   101.8920   114.2620     2.2410   -31.3600 
  186.0000    70.3020    24.4960   106.5260   103.4800   115.8780     2.2500   -31.3720 
  186.1250    68.5680    24.4920   108.7120   102.9740   115.5280     2.2560   -31.4330 
  186.2500    67.3530    24.4770   110.4190   102.6260   115.6820     2.2610   -31.4730 
  186.3750    66.9380    24.4580   109.5290   103.4800   117.3160     2.2640   -31.4850 
  186.5000    66.6380    24.4520   110.7340   105.8880   120.5840     2.2660   -31.5130 
  186.6250    65.5780    24.4380   121.9810   109.9010   125.2530     2.2640   -31.6240 
  186.7500    64.8980    24.3670   132.9250   114.6860   130.3340     2.2580   -31.7200 
  186.8750    65.0870    24.2500   137.2220   119.3960   134.9020     2.2480   -31.7520 
  187.0000    64.7870    24.1580   141.0160   123.1430   138.1060     2.2390   -31.7380 
  187.1250    63.8070    24.1370   154.1030   125.4180   139.6910     2.2320   -31.7440 
  187.2500    63.8900    24.1420   156.8910   127.5410   141.5020     2.2290   -31.7080 
  187.3750    64.5650    24.1410   144.7980   131.3900   145.7210     2.2260   -31.6940 
  187.5000    65.7220    24.1420   131.8390   137.9550   153.1530     2.2220   -31.6650 
  187.6250    67.6950    24.1630   138.8220   144.0830   159.3430     2.2160   -31.5580 
  187.7500    69.3170    24.2030   193.8550   142.1630   155.0110     2.2150   -31.5220 
  187.8750    68.3180    24.2450   253.1370   127.2290   135.1550     2.2230   -31.5130 
  188.0000    63.9160    24.2660   226.6930   102.6880   105.6850     2.2420   -31.4940 
  188.1250    60.8150    24.2270   128.3570    79.0310    79.7550     2.2680   -31.4060 
  188.2500    62.2420    24.1240    51.1560    63.0850    63.5880     2.2880   -31.4390 
  188.3750    68.2880    23.9930    31.4720    56.1990    57.6880     2.2950   -31.3220 
  188.5000    74.9410    23.8970    60.9000    58.0240    61.0470     2.2860   -31.2990 
  188.6250    78.1840    23.9010   107.0680    69.1160    73.5930     2.2690   -31.1980 
  188.7500    77.3900    24.0000   131.3570    86.4670    91.7700     2.2530   -31.1440 
  188.8750    72.4580    24.1430   135.5770   105.9650   111.2210     2.2420   -31.0980 
  189.0000    66.6220    24.2540   148.6060   120.6830   125.1430     2.2370   -31.0800 
  189.1250    65.3070    24.2450   153.0190   122.6550   125.9810     2.2390   -30.9830 
  189.2500    67.6930    24.1590   131.8490   115.0470   117.5560     2.2430   -30.9150 
  189.3750    69.8840    24.0700   103.1790   103.4070   105.7000     2.2460   -30.9060 
  189.5000    70.0820    24.0150    94.2870    92.2560    94.8530     2.2470   -30.8360 
  189.6250    72.4230    23.9890    83.2220    84.4560    87.8450     2.2430   -30.8140 
  189.7500    77.7030    23.9620    73.6970    80.6390    85.2100     2.2390   -30.7140 
  189.8750    80.8750    23.9460    75.3390    81.4020    87.5210     2.2370   -30.6130 
  190.0000    78.8590    23.9450    89.0450    87.0570    95.0860     2.2350   -30.5430 
  190.1250    72.9700    23.9470    98.3120    98.5020   108.8490     2.2270   -30.6070 
  190.2500    68.2800    23.9480   100.3320   114.4610   127.4240     2.2160   -30.5150 
  190.3750    66.1940    23.9510   111.3690   133.5010   149.2200     2.2060   -30.5660 
  190.5000    65.2540    23.9910   148.8470   152.6950   170.8940     2.2050   -30.6040 
  190.6250    64.1590    24.1210   183.8670   166.2830   185.3780     2.2120   -30.5670 
  190.7500    62.8280    24.2880   194.0650   170.4040   187.9650     2.2190   -30.5760 
  190.8750    61.6570    24.4150   189.6950   163.7220   177.5590     2.2210   -30.6080 
  191.0000    62.7910    24.4640   179.3710   148.5490   157.9800     2.2180   -30.6830 
  191.1250    66.0720    24.4510   145.3250   129.8050   135.9040     2.2160   -30.7000 
  191.2500    66.7740    24.4100   101.9360   112.6340   116.6350     2.2220   -30.8570 
  191.3750    64.3850    24.3390    77.2840    98.7580   101.4590     2.2350   -30.8540 
  191.5000    63.6080    24.2370    80.0300    88.1240    89.8720     2.2520   -30.9570 
  191.6250    67.0670    24.1120    85.9420    80.0820    80.9810     2.2670   -31.0830 
  191.7500    68.8500    23.9640    87.0350    73.2620    73.3470     2.2780   -31.2140 
  191.8750    67.4210    23.7780    74.3030    67.1890    66.5160     2.2840   -31.2950 
  192.0000    68.1480    23.5850    56.6370    61.8120    60.5100     2.2870   -31.3660 
  192.1250    71.7020    23.5080    50.1800    57.7160    56.0500     2.2880   -31.4240 
  192.2500    73.5880    23.6470    49.9530    55.3340    53.5760     2.2860   -31.5340 
  192.3750    72.8600    23.9780    51.9020    55.1240    53.5300     2.2770   -31.6670 
  192.5000    71.6360    24.3330    53.7160    57.3760    56.1510     2.2640   -31.7440 
  192.6250    71.0430    24.5170    59.5720    62.5960    61.8740     2.2510   -31.9980 
  192.7500    70.3890    24.5530    73.1500    70.0160    69.8010     2.2410   -32.2510 
  192.8750    69.7100    24.5470    94.2310    78.7250    78.9540     2.2370   -32.5360 
  193.0000    69.5170    24.5500   111.2400    87.2450    87.8420     2.2360   -32.7510 
  193.1250    70.4670    24.5520   115.8880    93.4600    94.4010     2.2340   -32.9320 
  193.2500    71.2420    24.5510   115.7100    96.9210    98.3350     2.2260   -33.0650 
  193.3750    70.3520    24.5470   112.6340    98.5570   100.7700     2.2140   -33.2390 
  193.5000    67.6170    24.5460   106.7420   100.5130   103.9520     2.2020   -33.3610 
  193.6250    65.4650    24.5460   103.6490   106.1310   111.2510     2.1920   -33.3810 
  193.7500    64.4590    24.5460   105.6420   117.1250   124.2830     2.1880   -33.3460 
  193.8750    63.1270    24.5450   138.5310   134.3470   143.9440     2.1880   -33.3700 
  194.0000    60.6630    24.5440   215.5950   156.6340   169.2560     2.1900   -33.4400 
  194.1250    58.6670    24.5450   290.9630   179.1100   195.4640     2.1910   -33.6490 
  194.2500    58.8240    24.5480   300.2820   195.1590   214.9990     2.1920   -33.7210 
  194.3750    60.1320    24.5510   266.3360   202.0510   224.0170     2.1920   -33.8980 
  194.5000    60.4150    24.5480   238.8070   202.5210   225.1690     2.1930   -34.0500 
  194.6250    59.0860    24.5320   211.0710   204.0310   227.1420     2.1940   -34.1430 
  194.7500    57.9270    24.5060   221.5390   212.9510   237.4090     2.1950   -34.2550 
  194.8750    57.9720    24.4830   315.0640   231.7210   258.7890     2.1940   -34.3200 
