~V
VERS. 2.00: Ver 2.00
~W
STRT.M 61.0000:
STOP.M 253.0000:
STEP.M 0.1250:
NULL. -999.2500:
UWI. DF5045:
~C
DEPT.M :
GR.API :
CALI.CM :
RXO.OHMM :
RI. :
RML.OHMM :
DEN.GM/CC :
SP.MV :
~A
# ...
  241.0000    84.8210    24.2090    51.2940    13.1640    13.4920     2.6000   -10.8290 
  241.1250    84.8210    24.2170    54.4990    12.2290    12.6100     2.6110   -10.9150 
  241.2500    84.8210    24.1710    40.1820    11.5600    12.1080     2.5610   -11.0560 
  241.3750    84.8210    24.1580    21.7360    11.2420    12.0170     2.4870   -11.1790 
  241.5000    84.8210    24.2110    13.6810    11.3880    12.4340     2.4450   -11.3010 
  241.6250    84.8210    24.2090    12.9120    11.9180    13.2240     2.4480   -11.5340 
  241.7500    84.8210    24.1380    15.4680    12.7790    14.2900     2.4740   -11.8490 
  241.8750    84.8210    24.0940    19.6300    13.8990    15.5250     2.4810   -12.1300 
  242.0000    84.8210    24.1260    24.0020    15.2110    16.8450     2.4360   -12.4890 
  242.1250    84.8210    24.1670    25.5490    16.5940    18.1960     2.3660   -12.8080 
  242.2500    84.8210    24.1310    24.3790    18.0230    19.6200     2.3100   -13.1260 
  242.3750    84.8210    24.0960    23.3530    19.5760    21.2190     2.3010   -13.4410 
  242.5000    84.8210    24.1190    26.3540    21.4130    23.1180     2.3500   -13.7280 
  242.6250    84.8210    24.1670    36.2770    23.5000    25.2090     2.4210   -13.9640 
  242.7500    84.8210    24.1950    51.8950    25.6690    27.2480     2.4910   -14.1340 
  242.8750    84.8210    24.2760    60.4710    27.5630    28.8220     2.5450   -14.3410 
  243.0000    84.8210    24.3460    54.9100    28.4400    29.1860     2.5700   -14.5410 
  243.1250    84.8210    24.3820    44.7730    27.9420    28.1290     2.5520   -14.8240 
  243.2500    84.8210    24.3810    40.4750    25.9650    25.6820     2.4970   -15.1460 
  243.3750    84.8210    24.3340    38.8160    22.8170    22.2360     2.4440   -15.4460 
  243.5000    84.8210    24.2800    33.9930    19.1120    18.4220     2.4290   -15.6700 
  243.6250    84.8210    24.2640    28.7660    15.6080    14.9060     2.4290   -15.7940 
  243.7500    84.8210    24.3280    25.6800    12.6450    11.9960     2.4110   -15.8800 
  243.8750    84.8210    24.3840    22.6850    10.3540     9.8190     2.3790   -15.9000 
  244.0000    84.8210    24.4080    16.6150     8.8270     8.4610     2.3550   -15.8620 
  244.1250    84.8210    24.4380    10.9440     7.8570     7.6700     2.3340   -15.7140 
  244.2500    84.8210    24.4340     7.9280     7.3220     7.2910     2.2990   -15.4780 
  244.3750    84.8210    24.3450     6.8780     7.0970     7.1790     2.2600   -15.1460 
  244.5000    84.8210    24.2200     6.5590     7.0800     7.2210     2.2560   -14.8040 
  244.6250    84.8210    24.1100     6.5040     7.1320     7.3010     2.2880   -14.4620 
  244.7500    84.8210    24.0560     6.6790     7.1960     7.3760     2.3350   -14.0810 
  244.8750    84.8210    24.0280     6.9810     7.2360     7.4270     2.3760   -13.6970 
  245.0000    84.8210    24.0040     7.2870     7.2370     7.4460     2.3940   -13.3310 
  245.1250    84.8210    23.9700     7.5850     7.2150     7.4440     2.3890   -13.0270 
  245.2500    84.8210    23.9130     7.8950     7.1890     7.4330     2.3740   -12.7510 
  245.3750    84.8210    23.8400     8.2530     7.1720     7.4220     2.3650   -12.5550 
  245.5000    84.8210    23.8460     8.8150     7.1660     7.4150     2.3650   -12.3560 
  245.6250    84.8210    23.8920     9.5690     7.1650     7.4100     2.3630   -12.1890 
  245.7500    84.8210    23.9120    10.3110     7.1630     7.4080     2.3600   -12.1490 
  245.8750    84.8210    23.9120    10.7520     7.1620     7.4020     2.3670   -12.1450 
  246.0000    84.8210    23.9120    10.9050     7.1620     7.3990     2.3890   -12.1050 
  246.1250    84.8210    23.9120    10.9030     7.1610     7.3980     2.4040   -12.0980 
  246.2500    84.8210    23.9110    10.7930     7.1610     7.3980     2.3990   -12.1340 
  246.3750    84.8210    23.8850    10.6720     7.1610     7.3980     2.3760   -12.1600 
  246.5000    84.8210    23.8900    10.5930     7.1610     7.3980     2.3560   -12.2880 
  246.6250    84.8210    23.9120    10.6500     7.1610     7.3980     2.3480   -12.4380 
  246.7500    84.8210    23.9030    10.8730     7.1610     7.3980     2.3480   -12.4950 
  246.8750    84.8210    23.8950    11.1710     7.1610     7.3980     2.3490   -12.5620 
  247.0000    84.8210    23.8670    11.3410     7.1610     7.3980     2.3510   -12.7010 
  247.1250    84.8210    23.8370    11.3140     7.1610     7.3980     2.3590   -12.7820 
  247.2500    84.8210    23.8270    11.2380     7.1610     7.3980     2.3790   -12.8680 
  247.3750    84.8210    23.8240    11.3040     7.1610     7.3980     2.3990   -12.8770 
  247.5000    84.8210    23.7590    11.5480     7.1610     7.3980     2.4100   -12.8880 
  247.6250    84.8210    23.6610    11.7630     7.1610     7.3980     2.4060   -12.9100 
  247.7500    84.8210    23.5690    11.7020     7.1610     7.3980     2.3910   -12.9320 
  247.8750    84.8210    23.5240    11.7090     7.1610     7.3980     2.3800   -12.9430 
  248.0000    84.8210    23.4980    12.2650     7.1610     7.3980     2.3810   -12.9430 
  248.1250    84.8210    23.4850    14.6820     7.1610     7.3980     2.3900  -999.2500 
  248.2500    84.8210    23.4630    19.0740     7.1610     7.3980     2.3970  -999.2500 
  248.3750    84.8210    23.4090    22.7990     7.1610     7.3980     2.3950  -999.2500 
  248.5000    84.8210    23.3300    22.5390     7.1610     7.3980     2.3840  -999.2500 
  248.6250    84.8210    23.2110    17.8070     7.1610     7.3980     2.3700  -999.2500 
  248.7500    84.8210    23.0900    14.5460     7.1610     7.3980     2.3630  -999.2500 
  248.8750    84.8210    22.9440    13.0740     7.1610     7.3980     2.3680  -999.2500 
  249.0000    84.8210    22.7680    12.5110     7.1610     7.3980     2.3790  -999.2500 
  249.1250    84.8210    22.4850    12.2990     7.1610     7.3980     2.3670  -999.2500 
  249.2500    84.8210    22.0810    12.0880     7.1610     7.3980     2.2650  -999.2500 
  249.3750    84.8210    21.4660    11.7280     7.1610     7.3980     2.0870  -999.2500 
  249.5000    84.8210    20.4950    11.0990     7.1610     7.3980     1.9160  -999.2500 
  249.6250    84.8210    19.2090    10.3990     7.1610     7.3980     1.8310  -999.2500 
  249.7500    84.8210    18.4780     9.9760     7.1610     7.3980     1.8390  -999.2500 
  249.8750    84.8210    18.2260     9.8340     7.1610     7.3980     1.8590  -999.2500 
  250.0000    84.8210    18.1980     9.8110     7.1610     7.3980     1.8670  -999.2500 
  250.1250    84.8210    18.1800     9.7990     7.1610     7.3980     1.8690  -999.2500 
  250.2500    84.8210    18.1750     9.7890     7.1610     7.3980     1.8740  -999.2500 
  250.3750    84.8210    18.1870     9.8020     7.1610     7.3980     1.8780  -999.2500 
  250.5000    84.8210    18.2170     9.8220     7.1610     7.3980     1.8790  -999.2500 
  250.6250    84.8210    18.2280     9.8300     7.1610     7.3980     1.8810  -999.2500 
  250.7500    84.8210    18.2350     9.8320     7.1610     7.3980     1.8810  -999.2500 
  250.8750    84.8210    18.2330     9.8330     7.1610     7.3980     1.8760  -999.2500 
  251.0000    84.8210    18.2290     9.8330     7.1610     7.3980     1.8700  -999.2500 
  251.1250  -999.2500  -999.2500  -999.2500  -999.2500  -999.2500     1.8670  -999.2500 
  251.2500  -999.2500  -999.2500  -999.2500  -999.2500  -999.2500     1.8630  -999.2500 
  251.3750  -999.2500  -999.2500  -999.2500  -999.2500  -999.2500     1.8590  -999.2500 
  251.5000  -999.2500  -999.2500  -999.2500  -999.2500  -999.2500     1.8600  -999.2500 
  251.6250  -999.2500  -999.2500  -999.2500  -999.2500  -999.2500     1.8680  -999.2500 
  251.7500  -999.2500  -999.2500  -999.2500  -999.2500  -999.2500     1.8750  -999.2500 
  251.8750  -999.2500  -999.2500  -999.2500  -999.2500  -999.2500     1.8800  -999.2500 
  252.0000  -999.2500  -999.2500  -999.2500  -999.2500  -999.2500     1.8830  -999.2500 
  252.1250  -999.2500  -999.2500  -999.2500  -999.2500  -999.2500     1.8830  -999.2500 
