~V
VERS. 2.00: Ver 2.00
~W
STRT.M 60.0000:
STOP.M 249.0000:
STEP.M 0.1250:
NULL. -999.2500:
UWI. DF5060:
~C
DEPT.M :
GR.API :
CALI.CM :
RXO.OHMM :
RI. :
RML.OHMM :
DEN.GM/CC :
SP.MV :
~A
# ...
  195.0000    83.8000    24.6790     4.9060     6.1920     6.8990     2.4100   -15.0240 
  195.1250    86.4750    24.8870     4.8760     6.1440     6.8120     2.4070   -15.2730 
  195.2500    86.0060    25.0160     4.6710     6.0740     6.7000     2.4010   -15.5310 
  195.3750    82.6350    25.0440     4.4860     6.0010     6.5960     2.3950   -15.8390 
  195.5000    81.1300    25.0230     4.4630     5.9550     6.5390     2.3900   -16.1710 
  195.6250    83.6050    25.0310     4.6140     5.9880     6.5850     2.3890   -16.4530 
  195.7500    88.8060    25.0720     4.7510     6.1150     6.7340     2.3890   -16.7600 
  195.8750    94.5320    25.1090     4.8680     6.3210     6.9620     2.3900   -17.0430 
  196.0000    95.5530    25.1140     5.1080     6.5610     7.2150     2.3850   -17.3730 
  196.1250    89.0900    25.0890     5.5310     6.7700     7.4210     2.3730   -17.6660 
  196.2500    82.2670    25.0770     6.0110     6.9210     7.5630     2.3600   -17.9400 
  196.3750    79.4380    25.0910     6.0210     7.0260     7.6680     2.3520   -18.1960 
  196.5000    79.5380    25.1150     5.6440     7.1210     7.7820     2.3530   -18.4460 
  196.6250    80.1000    25.0990     5.5980     7.2520     7.9720     2.3640   -18.7470 
  196.7500    83.1110    25.0310     6.2480     7.4410     8.2510     2.3770   -18.9920 
  196.8750    86.5640    24.9600     7.1410     7.6770     8.5860     2.3840   -19.2380 
  197.0000    86.0900    24.9440     7.3320     7.9260     8.9220     2.3830   -19.4350 
  197.1250    83.0130    24.9830     7.0250     8.1750     9.2580     2.3760   -19.5830 
  197.2500    81.6360    25.0110     7.6820     8.4790     9.6990     2.3680   -19.7150 
  197.3750    83.0060    25.0170     8.6090     8.9240    10.3770     2.3620   -19.8710 
  197.5000    84.0920    25.0500     8.4750     9.5940    11.4100     2.3580   -20.0990 
  197.6250    82.2080    25.1430     8.6760    10.6330    12.9660     2.3510   -20.3420 
  197.7500    79.2770    25.2410    12.0320    12.0530    14.9750     2.3420   -20.6420 
  197.8750    76.0130    25.2960    16.3100    13.8650    17.3770     2.3300   -20.9250 
  198.0000    75.1550    25.3060    16.4050    16.0650    20.1520     2.3160   -21.1360 
  198.1250    78.2810    25.3030    15.8630    18.7700    23.5130     2.3020   -21.4060 
  198.2500    81.3400    25.3030    18.0370    22.0270    27.6150     2.2850   -21.7070 
  198.3750    80.9770    25.3030    21.9430    25.9950    32.6640     2.2660   -22.0210 
  198.5000    76.5320    25.3030    24.4690    30.8420    38.7470     2.2460   -22.3200 
  198.6250    72.2930    25.3030    25.9700    36.6650    45.7580     2.2290   -22.6420 
  198.7500    72.2350    25.3030    30.2340    42.8340    52.9520     2.2170   -22.9880 
  198.8750    74.4220    25.3030    34.6090    48.7930    59.8340     2.2070   -23.3840 
  199.0000    74.8970    25.3030    36.3390    54.3420    66.3520     2.1980   -23.8450 
  199.1250    71.5580    25.3030    36.9910    59.7370    72.8870     2.1890   -24.2320 
  199.2500    68.9230    25.3030    39.1200    65.2910    79.6720     2.1800   -24.5770 
  199.3750    70.4050    25.3030    42.2540    70.9780    86.5220     2.1730   -24.8760 
  199.5000    74.2050    25.3030    44.7160    76.4890    92.9600     2.1690   -25.1320 
  199.6250    73.6400    25.3030    46.8510    81.2210    98.2130     2.1690   -25.3990 
  199.7500    67.4990    25.3030    47.7200    85.0540   102.2620     2.1720   -25.6290 
  199.8750    62.4480    25.3030    46.9160    88.2160   105.4630     2.1770   -25.8640 
  200.0000    64.5350    25.3030    45.3040    91.1110   108.3060     2.1830   -26.1080 
  200.1250    68.7310    25.3030    45.9140    93.8710   110.8620     2.1880   -26.3170 
  200.2500    67.6410    25.3030    47.6790    96.1590   112.6860     2.1910   -26.4680 
  200.3750    63.6400    25.3040    48.8010    97.5450   113.2820     2.1900   -26.6140 
  200.5000    61.3810    25.2980    48.2980    97.9650   112.6910     2.1830   -26.7360 
  200.6250    60.7680    25.2770    47.4220    98.0150   111.8760     2.1710   -26.7900 
  200.7500    58.9740    25.2540    45.5410    98.9900   112.4560     2.1600   -26.9010 
  200.8750    58.5160    25.2420    45.0400   102.1290   115.7440     2.1540   -26.9890 
  201.0000    60.7470    25.2410    47.5000   108.2450   122.4130     2.1540   -27.0110 
  201.1250    63.0310    25.2340    50.3500   117.4610   132.3590     2.1560   -27.0060 
  201.2500    63.6930    25.2180    52.2110   127.5260   143.0060     2.1540   -27.0410 
  201.3750    62.9120    25.2040    54.1630   135.9780   151.5500     2.1490   -27.0580 
  201.5000    62.3530    25.1960    56.7270   140.5670   155.4700     2.1460   -27.0780 
  201.6250    63.3470    25.1910    56.9960   139.8610   153.4960     2.1500   -27.1420 
  201.7500    62.2310    25.1840    54.9450   136.3810   148.9860     2.1590   -27.1180 
  201.8750    57.7020    25.1800    52.4460   132.7950   145.1480     2.1690   -27.0750 
  202.0000    53.4290    25.1790    51.3700   131.6110   144.6220     2.1750   -27.0660 
  202.1250    54.4650    25.1780    49.3180   135.5570   150.0520     2.1750   -27.0780 
  202.2500    57.1780    25.1960    48.2330   144.6960   161.0940     2.1730   -27.0440 
  202.3750    57.3520    25.2500    49.9720   158.4020   176.8760     2.1710   -26.9970 
  202.5000    56.2200    25.3040    55.8740   174.8940   195.3110     2.1680   -26.9250 
  202.6250    57.4870    25.2920    62.3140   191.1230   212.7130     2.1630   -26.7940 
  202.7500    60.7140    25.2350    65.1610   204.0230   225.6490     2.1550   -26.6810 
  202.8750    63.0030    25.1880    64.8120   211.8700   232.4330     2.1470   -26.5730 
  203.0000    62.5010    25.1770    64.0470   214.5700   233.4540     2.1410   -26.4070 
  203.1250    60.9610    25.1800    64.8360   212.8570   229.9180     2.1370   -26.3340 
  203.2500    60.4390    25.1740    66.4270   208.7340   223.9150     2.1360   -26.2570 
  203.3750    59.1650    25.1540    66.9940   202.7620   215.8930     2.1360   -26.2090 
  203.5000    56.6690    25.1200    66.1440   195.1090   205.9760     2.1350   -26.1140 
  203.6250    55.6520    25.0860    64.9240   185.5320   193.9380     2.1360   -25.9690 
  203.7500    56.0870    25.0660    63.5220   174.4070   180.2710     2.1400   -25.8000 
  203.8750    58.1070    25.0550    58.9010   162.0860   165.4940     2.1460   -25.6260 
  204.0000    60.8090    25.0650    50.2610   149.2580   150.5770     2.1520   -25.5100 
  204.1250    62.9930    25.1140    45.2810   137.1740   137.1980     2.1530   -25.3100 
  204.2500    64.8010    25.1550    46.9570   126.9480   126.4000     2.1490   -25.2110 
  204.3750    67.4520    25.1450    49.4610   119.3880   118.7540     2.1420   -25.0570 
  204.5000    69.6630    25.0930    47.8210   114.8040   114.2280     2.1370   -24.9430 
  204.6250    67.0650    25.0590    48.1900   113.0510   112.2850     2.1390   -24.8510 
  204.7500    61.1590    25.0550    49.4200   112.1790   110.7950     2.1440   -24.7050 
  204.8750    57.2160    25.0540    50.4970   110.3890   107.9970     2.1490   -24.5130 
  205.0000    57.8070    25.0420    50.6790   106.3150   102.7880     2.1530   -24.2960 
  205.1250    60.4680    25.0220    47.8510    99.6250    95.3160     2.1580   -24.0360 
  205.2500    61.3740    25.0000    41.9990    92.2980    87.7630     2.1610   -23.7660 
  205.3750    62.3710    24.9750    34.9420    86.1600    81.8980     2.1610   -23.5920 
  205.5000    65.1120    24.9170    30.5190    82.5830    78.8470     2.1580   -23.4670 
  205.6250    66.6060    24.7970    31.4350    82.6400    79.2810     2.1510   -23.3610 
  205.7500    64.0050    24.6660    32.9990    85.2000    81.7330     2.1460   -23.3020 
  205.8750    59.7470    24.6050    34.1890    88.6750    84.4470     2.1450   -23.2290 
  206.0000    57.0530    24.6520    35.5750    90.7830    85.2600     2.1480   -23.0890 
  206.1250    58.2800    24.7480    38.6760    88.7590    81.9740     2.1520   -23.0350 
