~V
VERS. 2.00: Ver 2.00
~W
STRT.M 55.0000:
STOP.M 278.0000:
STEP.M 0.1250:
NULL. -999.2500:
UWI. DF5019:
~C
DEPT.M :
DEN.GM/CC :
GR.API :
CALI.CM :
RXO.OHMM :
RI. :
RML.OHMM :
SP.MV :
~A
# ...
   88.7500     2.0960    64.4030    24.6650     9.8670     7.1460    11.1570   -25.5990 
   88.8750     2.1060    65.4010    24.9810     9.9300     7.0920    11.0590   -25.7650 
   89.0000     2.1110    66.4620    25.1600     9.8940     7.0520    10.9640   -25.7300 
   89.1250     2.1120    68.4180    25.2070     9.9010     7.0410    10.8830   -25.6670 
   89.2500     2.1170    71.9700    25.2060    10.0200     7.0790    10.8620   -25.4920 
   89.3750     2.1280    74.3750    25.2050    10.2110     7.1930    10.9720   -25.1470 
   89.5000     2.1400    74.1170    25.1930    10.3510     7.4020    11.2700   -24.7900 
   89.6250     2.1500    75.2110    25.1790    10.3830     7.6860    11.7390   -24.3470 
   89.7500     2.1570    79.3010    25.1640    10.3890     7.9240    12.1570   -23.6680 
   89.8750     2.1630    83.5040    25.0860    10.3870     7.9660    12.2420   -22.8660 
   90.0000     2.1740    85.2760    24.8970    10.3180     7.6930    11.7780   -22.0940 
   90.1250     2.2030    86.3930    24.8210     9.6970     7.0770    10.7480   -21.1980 
   90.2500     2.2440    89.2430    24.9610     8.3570     6.3380     9.5740   -20.1540 
   90.3750     2.2820    93.1790    25.1720     6.7790     5.6510     8.5690   -19.1660 
   90.5000     2.2980    95.7450    25.3690     5.7380     5.1250     7.8890   -18.2270 
   90.6250     2.2910    94.3590    25.3390     5.6260     4.8100     7.5520   -17.3090 
   90.7500     2.2780    92.0660    25.2810     5.7850     4.6390     7.3830   -16.6190 
   90.8750     2.2730    92.2960    25.2550     5.8550     4.5830     7.3030   -16.0720 
   91.0000     2.2820    94.8560    25.3300     5.6580     4.6250     7.3110   -15.5250 
   91.1250     2.3050    96.3970    25.4170     5.5150     4.7790     7.4840   -15.1650 
   91.2500     2.3310    95.3840    25.5130     5.8380     5.0150     7.8330   -15.0030 
   91.3750     2.3470    93.9780    25.5480     6.9060     5.2860     8.2940   -14.9650 
   91.5000     2.3430    93.3620    25.5590     7.8130     5.5020     8.6970   -14.9820 
   91.6250     2.3130    93.5880    25.5880     7.6710     5.5390     8.7880   -15.0150 
   91.7500     2.2740    95.3900    25.6030     6.8030     5.3970     8.5600   -15.0790 
   91.8750     2.2430    97.8340    25.4640     6.1270     5.1290     8.1280   -15.2160 
   92.0000     2.2310    98.2000    25.3850     5.7780     4.8190     7.6490   -15.4760 
   92.1250     2.2360    97.0370    25.4450     5.7000     4.5540     7.2740   -15.8160 
   92.2500     2.2460    98.4450    25.5490     5.6120     4.3650     7.0370   -16.1500 
   92.3750     2.2580   101.6920    25.5930     5.4010     4.2550     6.9210   -16.4880 
   92.5000     2.2720   103.3690    25.5750     5.1720     4.2220     6.9110   -16.8120 
   92.6250     2.2790   101.6310    25.4700     5.1560     4.2850     7.0370   -17.2890 
   92.7500     2.2690    98.3430    25.2600     5.4300     4.4300     7.2880   -17.8210 
   92.8750     2.2440    95.7270    25.0270     5.8870     4.6500     7.6540   -18.3720 
   93.0000     2.2100    94.1760    24.7720     6.4360     4.9350     8.1070   -18.9950 
   93.1250     2.1740    90.7820    24.6100     7.1660     5.2750     8.6020   -19.5290 
   93.2500     2.1410    84.4580    24.4150     7.8930     5.6280     9.0740   -20.1210 
   93.3750     2.1130    79.0990    24.1990     8.4110     5.9590     9.4870   -20.6300 
   93.5000     2.0960    77.7570    24.1110     8.6670     6.2290     9.8250   -21.1120 
   93.6250     2.0930    77.4550    24.0760     8.6810     6.3970    10.0690   -21.4550 
   93.7500     2.0960    76.9440    23.9280     8.6550     6.4680    10.2230   -21.6460 
   93.8750     2.0960    78.4920    23.6000     8.6130     6.4380    10.2650   -21.7500 
   94.0000     2.0940    82.2050    23.3960     8.6740     6.2980    10.1440   -21.6860 
   94.1250     2.0970    84.2220    23.3490     8.5250     6.0110     9.7460   -21.5710 
   94.2500     2.1110    84.5420    23.5880     7.9500     5.6160     9.1210   -21.3650 
   94.3750     2.1350    87.0310    24.0250     7.0820     5.1900     8.4140   -21.1590 
   94.5000     2.1650    93.9110    24.4580     6.4320     4.8450     7.8390   -20.8990 
   94.6250     2.1910   100.7390    24.5770     6.1120     4.7200     7.6620   -20.6930 
   94.7500     2.2000    99.6610    24.4810     6.1160     4.8420     7.9330   -20.5200 
   94.8750     2.1850    90.7490    24.3190     6.8290     5.2070     8.6280   -20.3940 
   95.0000     2.1560    81.6960    24.1210     8.0970     5.7340     9.5700   -20.2830 
   95.1250     2.1460    79.9430    24.1930     9.1110     6.2030    10.2990   -20.1320 
   95.2500     2.1770    84.2800    24.3180     9.3040     6.3780    10.4070   -19.8830 
   95.3750     2.2420    92.1120    24.4460     8.8180     6.1840     9.8540   -19.5840 
   95.5000     2.3030    99.0070    24.4790     7.7380     5.7360     8.9540   -19.2210 
   95.6250     2.3180   101.1270    24.5740     6.6320     5.2530     8.1500   -18.7650 
   95.7500     2.2910   100.6370    24.6480     6.1140     4.8920     7.6420   -18.3090 
   95.8750     2.2580   102.1120    24.6850     6.4410     4.6760     7.4180   -17.7890 
   96.0000     2.2520   105.3510    24.7570     6.8530     4.5650     7.3660   -17.2810 
   96.1250     2.2780   108.3910    24.7620     6.4510     4.5110     7.3540   -16.7280 
   96.2500     2.2980   111.3420    24.8770     5.5940     4.4750     7.3120   -16.3140 
   96.3750     2.2920   111.3540    24.8900     5.1070     4.4500     7.2500   -15.9560 
   96.5000     2.2680   107.5920    24.8940     5.1500     4.4230     7.1840   -15.7200 
   96.6250     2.2520   103.9270    24.8990     5.4340     4.3810     7.1050   -15.4970 
   96.7500     2.2540   101.6720    24.8870     5.5620     4.3160     6.9880   -15.2470 
   96.8750     2.2710    99.2130    24.7990     5.3760     4.2360     6.8340   -15.0520 
   97.0000     2.3020    96.9080    24.8140     4.9560     4.1660     6.6990   -14.8720 
   97.1250     2.3330    97.1870    24.9730     4.6760     4.1460     6.6810   -14.8570 
   97.2500     2.3420    95.7760    25.1710     4.8300     4.1780     6.7770   -14.8690 
   97.3750     2.3190    91.5840    25.1910     5.3110     4.2420     6.9310   -14.9500 
   97.5000     2.2830    90.6340    25.0630     5.7620     4.3080     7.0760   -15.0120 
   97.6250     2.2630    95.0950    24.9950     5.7040     4.3680     7.2000   -15.1620 
   97.7500     2.2590    95.0460    24.9720     5.4410     4.4490     7.3580   -15.3750 
   97.8750     2.2540    89.1830    25.0270     5.4580     4.5790     7.5890   -15.6570 
   98.0000     2.2420    84.5330    24.9850     6.1710     4.7570     7.8650   -15.9580 
   98.1250     2.2350    86.3100    24.6900     7.4920     4.9480     8.0960   -16.2230 
   98.2500     2.2400    88.4990    24.3090     8.2510     5.1290     8.2550   -16.4030 
   98.3750     2.2520    86.8430    24.0240     7.8450     5.3400     8.4420   -16.5100 
   98.5000     2.2620    82.3050    23.8730     6.8290     5.6530     8.8230   -16.5680 
   98.6250     2.2660    78.5870    23.7720     6.6790     6.1410     9.5710   -16.5360 
   98.7500     2.2690    75.2720    23.7880     7.7820     6.7070    10.5360   -16.4790 
   98.8750     2.2780    73.2220    23.8830     9.9730     7.1600    11.3520   -16.2990 
   99.0000     2.2920    74.4180    24.0870    11.7510     7.2630    11.5070   -16.1220 
   99.1250     2.2930    78.6090    24.5150    10.5280     6.8400    10.6370   -15.8940 
   99.2500     2.2760    81.9780    24.7310     8.0420     6.1410     9.3230   -15.7620 
   99.3750     2.2530    84.0450    24.8130     6.3020     5.4200     8.0990   -15.6540 
   99.5000     2.2410    88.8650    24.6470     5.6230     4.8560     7.2530   -15.6100 
   99.6250     2.2500    93.7650    24.5520     5.4620     4.5540     6.8850   -15.5840 
   99.7500     2.2730    93.8460    24.5450     5.3960     4.4580     6.8240   -15.5280 
   99.8750     2.2970    91.1140    24.5950     5.4630     4.5290     6.9700   -15.5670 
