~V
VERS. 2.00: Ver 2.00
~W
STRT.M 55.0000:
STOP.M 263.0000:
STEP.M 0.1250:
NULL. -999.2500:
UWI. DF5056:
~C
DEPT.M :
GR.API :
CALI.CM :
RXO.OHMM :
RI. :
RML.OHMM :
DEN.GM/CC :
SP.MV :
~A
# ...
  133.7500    65.3860    28.0870     8.5430     6.6920     7.8270     2.3100   -25.7050 
  133.8750    64.4040    28.0890     6.8450     6.6290     7.7510     2.2810   -25.5610 
  134.0000    66.4220    28.0900     6.3370     6.4320     7.5340     2.2540   -25.5160 
  134.1250    72.2920    28.0780     6.4620     6.1560     7.2620     2.2400   -25.4720 
  134.2500    77.7990    28.0330     6.4780     5.8790     6.9900     2.2370   -25.3670 
  134.3750    80.1880    27.9570     6.5530     5.6250     6.7220     2.2450   -25.3260 
  134.5000    79.8040    27.8820     6.4130     5.4150     6.4930     2.2590   -25.1810 
  134.6250    78.2620    27.8540     6.5760     5.3480     6.4910     2.2700   -25.1120 
  134.7500    77.0560    27.8750     6.8300     5.5410     6.9400     2.2740   -25.0310 
  134.8750    76.3250    27.9380     7.9110     6.1640     8.1290     2.2730   -24.9920 
  135.0000    74.8660    28.0170    10.8050     7.4430    10.3510     2.2720   -24.9730 
  135.1250    73.5420    28.0110    15.8250     9.8440    13.9910     2.2850   -24.9570 
  135.2500    71.5730    27.8600    23.4250    13.3350    18.5190     2.3190   -24.9430 
  135.3750    67.1220    27.6290    33.7950    17.3560    22.7650     2.3750   -24.9060 
  135.5000    61.6610    27.4460    43.7800    20.2410    24.7660     2.4440   -24.9310 
  135.6250    59.5230    27.3800    44.1150    19.4900    22.4590     2.4880   -24.8960 
  135.7500    61.6710    27.3690    35.8140    16.1320    17.6790     2.4850   -24.8880 
  135.8750    65.8050    27.3990    22.4640    12.1650    12.7170     2.4450   -24.8480 
  136.0000    72.3740    27.4800    11.4780     8.9210     8.9880     2.3950   -24.7720 
  136.1250    80.7100    27.5680     6.4280     6.8990     6.9530     2.3550   -24.7130 
  136.2500    86.2820    27.5970     5.6070     5.7330     5.9830     2.3260   -24.6590 
  136.3750    87.4400    27.5780     5.5480     5.1960     5.6950     2.3070   -24.6100 
  136.5000    86.4800    27.5720     5.5500     5.0870     5.7850     2.2950   -24.5280 
  136.6250    85.9690    27.6090     5.5340     5.2450     6.0150     2.2900   -24.4460 
  136.7500    86.2510    27.6450     5.5320     5.4650     6.1990     2.2890   -24.3600 
  136.8750    87.0090    27.6580     5.6080     5.6530     6.2790     2.2910   -24.2890 
  137.0000    86.4420    27.6570     5.7140     5.7660     6.2610     2.2950   -24.2410 
  137.1250    82.9160    27.6570     5.6900     5.7870     6.1750     2.2980   -24.1700 
  137.2500    81.8420    27.6550     5.5280     5.7450     6.0700     2.3010   -24.0740 
  137.3750    84.3450    27.6460     5.3640     5.6680     5.9880     2.3020   -23.9550 
  137.5000    87.7370    27.6310     5.3380     5.5950     5.9690     2.3040   -23.7960 
  137.6250    89.4720    27.6060     5.3780     5.5720     6.0530     2.3090   -23.7180 
  137.7500    90.8040    27.5770     5.5000     5.5940     6.1970     2.3160   -23.6070 
  137.8750    91.3560    27.5470     5.7360     5.6170     6.3260     2.3250   -23.5320 
  138.0000    88.4840    27.5190     6.2370     5.5870     6.3730     2.3340   -23.4850 
  138.1250    83.0620    27.4960     7.0670     5.5020     6.3620     2.3430   -23.4220 
  138.2500    79.6730    27.4830     7.0070     5.4790     6.4830     2.3520   -23.3750 
  138.3750    80.8050    27.4760     6.2230     5.6720     6.9920     2.3660   -23.3280 
  138.5000    84.1870    27.4610     6.2580     6.2530     8.1620     2.3900   -23.3570 
  138.6250    82.2830    27.4370     8.9860     7.5230    10.3630     2.4300   -23.3570 
  138.7500    73.6620    27.4210    14.6480     9.5250    13.4220     2.4790   -23.4030 
  138.8750    63.7060    27.4170    19.6690    12.1940    16.9560     2.5250   -23.4260 
  139.0000    57.3060    27.4180    22.0350    15.1290    20.2450     2.5550   -23.4360 
  139.1250    54.2670    27.4190    24.3580    17.4340    22.2520     2.5620   -23.4650 
  139.2500    51.2970    27.4150    25.8390    18.6600    22.9190     2.5570   -23.4910 
  139.3750    47.7540    27.3990    24.0050    18.9790    22.7370     2.5510   -23.5260 
  139.5000    45.4100    27.3740    21.0930    18.9010    22.4000     2.5500   -23.5280 
  139.6250    45.6890    27.3480    21.1090    18.8960    22.4380     2.5510   -23.5460 
  139.7500    46.4950    27.3350    22.5010    19.1170    22.8650     2.5520   -23.5400 
  139.8750    45.4190    27.3570    23.5680    19.5410    23.5500     2.5540   -23.5660 
  140.0000    42.4140    27.4260    24.5570    20.0780    24.3110     2.5560   -23.6010 
  140.1250    40.9080    27.5150    25.1670    20.5820    24.9170     2.5620   -23.6280 
  140.2500    41.0970    27.5780    25.0070    20.9150    25.2140     2.5690   -23.6340 
  140.3750    41.3500    27.6260    23.7960    20.9680    25.0860     2.5760   -23.6500 
  140.5000    41.2500    27.6840    22.7360    20.6540    24.4570     2.5810   -23.6860 
  140.6250    43.3100    27.7480    24.8530    19.8770    23.2680     2.5810   -23.6770 
  140.7500    47.3320    27.7930    24.0270    18.8070    21.7880     2.5780   -23.6920 
  140.8750    52.4320    27.8200    20.1630    17.6500    20.2930     2.5710   -23.6760 
  141.0000    57.7860    27.8370    16.7960    16.6340    19.0590     2.5600   -23.6440 
  141.1250    60.5660    27.8430    16.3410    16.0110    18.3850     2.5480   -23.5890 
  141.2500    59.7420    27.8400    17.1660    15.8240    18.2710     2.5400   -23.5700 
  141.3750    58.0100    27.8450    18.1120    16.0780    18.6640     2.5360   -23.5250 
  141.5000    58.5890    27.8800    19.3740    16.6960    19.4050     2.5340   -23.4480 
  141.6250    58.4180    27.9440    21.3440    17.4990    20.2000     2.5330   -23.4120 
  141.7500    54.1250    28.0020    21.8660    18.1440    20.6780     2.5310   -23.3540 
  141.8750    49.4050    28.0390    20.6160    18.3530    20.5870     2.5290   -23.3280 
  142.0000    48.6670    28.0630    20.2700    17.9740    19.8540     2.5260   -23.3330 
  142.1250    52.0530    28.0770    19.5600    17.0070    18.5830     2.5190   -23.3740 
  142.2500    55.2730    28.0840    17.5250    15.8200    17.2100     2.5090   -23.4120 
  142.3750    56.3290    28.0970    14.5710    14.7030    16.0470     2.4960   -23.4730 
  142.5000    54.9850    28.1190    12.9950    13.8570    15.2740     2.4820   -23.5700 
  142.6250    52.2350    28.1330    13.1660    13.3990    14.9560     2.4730   -23.6090 
  142.7500    49.9760    28.1420    13.3740    13.2140    14.9050     2.4700   -23.7110 
  142.8750    48.6010    28.1580    13.4680    13.2150    15.0120     2.4730   -23.7810 
  143.0000    47.9600    28.1830    14.0090    13.3470    15.2410     2.4810   -23.8390 
  143.1250    49.1210    28.2010    14.7780    13.6490    15.6860     2.4920   -23.8770 
  143.2500    50.6200    28.2140    14.3420    14.1640    16.4120     2.5010   -23.9150 
  143.3750    51.5480    28.2350    14.5310    14.9320    17.4350     2.5090   -23.9490 
  143.5000    51.3650    28.2690    17.0280    15.9160    18.6570     2.5140   -23.9850 
  143.6250    52.5720    28.3090    21.1310    16.9780    19.8510     2.5170   -24.0950 
  143.7500    55.8640    28.3410    22.3060    17.9010    20.7870     2.5170   -24.1740 
  143.8750    58.4550    28.3620    20.8570    18.5350    21.3450     2.5140   -24.2350 
  144.0000    58.7040    28.3820    19.7940    18.8270    21.5380     2.5070   -24.2660 
  144.1250    57.6800    28.4260    21.1570    18.8160    21.4670     2.5010   -24.3190 
  144.2500    57.6900    28.4890    23.4360    18.6840    21.3230     2.4970   -24.3510 
  144.3750    57.6690    28.5560    23.3320    18.5270    21.1900     2.4960   -24.4380 
  144.5000    56.9090    28.6190    21.5380    18.3970    21.1010     2.4980   -24.4850 
  144.6250    56.5760    28.6740    19.7160    18.2960    21.0310     2.5050   -24.5710 
  144.7500    54.5590    28.7120    19.2890    18.1830    20.9100     2.5140   -24.5920 
  144.8750    50.6890    28.7350    19.2300    17.9970    20.6470     2.5220   -24.6500 
