~V
VERS. 2.00: Ver 2.00
~W
STRT.M 55.0000:
STOP.M 253.0000:
STEP.M 0.1250:
NULL. -999.2500:
UWI. DF5051:
~C
DEPT.M :
SP.MV :
GR.API :
RML.OHMM :
RI. :
RXO.OHMM :
CALI.CM :
DEN.GM/CC :
~A
# ...
  111.2500   -17.4860    69.9740    10.1150     8.8900     9.6340    23.6680     2.1690 
  111.3750   -17.5730    69.2820    10.0670     8.8360     9.6660    23.7440     2.1690 
  111.5000   -17.5870    67.9920    10.0350     8.7840     9.7280    23.8050     2.1720 
  111.6250   -17.5490    68.2790    10.0440     8.7560     9.7970    23.8980     2.1780 
  111.7500   -17.4680    70.2050    10.0820     8.7470     9.8690    23.9880     2.1870 
  111.8750   -17.3550    70.8060    10.1250     8.7430     9.9330    23.9940     2.1950 
  112.0000   -17.2270    69.6690    10.1410     8.7270     9.9830    23.8820     2.1980 
  112.1250   -17.0880    69.6210    10.1070     8.6780    10.0040    23.7000     2.1960 
  112.2500   -16.9220    69.2370    10.0320     8.5980     9.8390    23.6220     2.1890 
  112.3750   -16.7230    68.2580     9.9330     8.5040     9.6120    23.5950     2.1800 
  112.5000   -16.5250    68.1150     9.8300     8.4160     9.2890    23.5350     2.1730 
  112.6250   -16.3430    69.2390     9.7400     8.3740     8.9260    23.3530     2.1730 
  112.7500   -16.2010    69.0370     9.6780     8.3810     8.7370    23.1380     2.1800 
  112.8750   -16.0820    67.0180     9.6520     8.4130     8.8640    23.0340     2.1950 
  113.0000   -15.9820    67.0240     9.6630     8.4410     9.2270    23.0620     2.2140 
  113.1250   -15.8640    70.9980     9.6870     8.3990     9.5320    23.0720     2.2300 
  113.2500   -15.7380    74.1810     9.6730     8.3240     9.6630    23.0300     2.2350 
  113.3750   -15.5930    74.5330     9.5700     8.2170     9.6180    23.0510     2.2260 
  113.5000   -15.4020    73.5480     9.3550     8.0760     9.5050    23.2340     2.2080 
  113.6250   -15.1560    72.8160     9.0510     7.8980     9.5160    23.5380     2.1890 
  113.7500   -14.7790    71.7440     8.7760     7.7220     9.5440    23.7450     2.1800 
  113.8750   -14.2830    71.6830     8.6420     7.6280     9.5400    23.8820     2.1880 
  114.0000   -13.6500    74.9310     8.7200     7.6990     9.6720    23.9600     2.2180 
  114.1250   -12.9060    78.1040     8.9900     7.9250    10.3520    23.9550     2.2690 
  114.2500   -12.0910    78.2260     9.2550     8.1620    11.3100    23.9200     2.3270 
  114.3750   -11.2350    78.0350     9.3160     8.2530    12.1130    23.9580     2.3730 
  114.5000   -10.3910    81.5720     9.0240     8.0680    12.3010    24.1250     2.3900 
  114.6250    -9.5650    86.5710     8.3260     7.5310    10.7610    24.3490     2.3710 
  114.7500    -8.8130    88.8610     7.4690     6.8170     8.3170    24.4420     2.3380 
  114.8750    -8.1340    91.8110     6.6690     6.0920     6.7700    24.4670     2.3120 
  115.0000    -7.5590    99.3580     6.0750     5.4930     6.0530    24.4890     2.3070 
  115.1250    -7.1180   109.9300     5.7730     5.1220     5.7370    24.5370     2.3210 
  115.2500    -6.7960   114.8490     5.6880     4.9520     5.4500    24.5740     2.3380 
  115.3750    -6.6020   113.0910     5.7700     4.9560     5.3490    24.5840     2.3480 
  115.5000    -6.4720   108.3510     5.9750     5.0970     5.4240    24.5510     2.3450 
  115.6250    -6.4160   103.0350     6.2520     5.3340     5.6140    24.4740     2.3310 
  115.7500    -6.4020    99.3900     6.5070     5.5810     5.8530    24.4180     2.3150 
  115.8750    -6.4300    98.0210     6.6620     5.7660     5.9990    24.4310     2.3030 
  116.0000    -6.4720    98.1690     6.6640     5.8330     5.9430    24.4560     2.2990 
  116.1250    -6.5030   100.0020     6.4950     5.7410     5.8190    24.4530     2.3060 
  116.2500    -6.5240   105.3290     6.2310     5.5440     5.6990    24.4280     2.3230 
  116.3750    -6.5320   111.6470     5.9280     5.2880     5.5670    24.3930     2.3450 
  116.5000    -6.5580   112.7660     5.6380     5.0250     5.4520    24.3550     2.3680 
  116.6250    -6.5900   107.1680     5.4270     4.8130     5.4050    24.3170     2.3840 
  116.7500    -6.6620   103.2710     5.3540     4.7060     5.3970    24.2740     2.3910 
  116.8750    -6.7790   102.4400     5.4910     4.7620     5.4420    24.2440     2.3970 
  117.0000    -6.9850   100.4540     5.8890     5.0230     5.7660    24.2110     2.4080 
  117.1250    -7.3060    95.0080     6.5590     5.5090     6.7990    24.1940     2.4330 
  117.2500    -7.7180    89.9740     7.3250     6.0950     8.3320    24.1720     2.4590 
  117.3750    -8.2120    85.0850     7.9850     6.6390     9.9870    24.1090     2.4660 
  117.5000    -8.7670    78.7870     8.3400     6.9880    11.0210    23.9980     2.4420 
  117.6250    -9.3650    75.7380     8.2270     6.9930     9.9110    23.8980     2.3850 
  117.7500    -9.9790    76.5100     7.8290     6.7510     8.3420    23.8550     2.3240 
  117.8750   -10.5650    76.8440     7.3770     6.4170     7.5350    23.8650     2.2780 
  118.0000   -11.1230    76.5590     7.0950     6.1630     7.1220    23.9450     2.2570 
  118.1250   -11.6880    77.8240     7.1730     6.1590     6.9140    24.0690     2.2550 
  118.2500   -12.2830    78.8910     7.5560     6.4090     7.1350    24.0800     2.2550 
  118.3750   -12.8550    77.6620     8.1490     6.8710     7.8950    23.9560     2.2510 
  118.5000   -13.3820    75.0660     8.8120     7.4540     8.9420    23.8350     2.2410 
  118.6250   -13.8450    71.3400     9.3530     8.0240     9.7730    23.8000     2.2330 
  118.7500   -14.2480    68.2800     9.6650     8.4600    10.1130    23.8090     2.2310 
  118.8750   -14.5960    69.3570     9.7430     8.7170    10.0810    23.8430     2.2320 
  119.0000   -14.8530    71.5100     9.6840     8.8240     9.8840    23.8810     2.2350 
  119.1250   -14.9520    69.2820     9.6450     8.8610     9.6970    23.9140     2.2310 
  119.2500   -14.8620    65.5350     9.7010     8.8990     9.5630    23.9250     2.2210 
  119.3750   -14.6070    63.7450     9.7850     8.9130     9.4890    23.9290     2.2070 
  119.5000   -14.2240    63.4650     9.7370     8.8060     9.4160    23.9390     2.1960 
  119.6250   -13.7330    64.3680     9.3190     8.4130     9.1740    23.9650     2.2030 
  119.7500   -13.1500    67.6240     8.5320     7.7350     8.6780    24.0040     2.2310 
  119.8750   -12.5260    74.1180     7.5070     6.8640     7.9120    24.0710     2.2770 
  120.0000   -11.9290    80.5730     6.5000     5.9860     6.9090    24.1750     2.3220 
  120.1250   -11.4440    82.3630     5.8950     5.3770     6.0010    24.2510     2.3460 
  120.2500   -11.1290    80.2240     5.8670     5.1800     5.9270    24.2250     2.3470 
  120.3750   -10.9890    77.8130     6.4730     5.4700     6.9840    24.1290     2.3420 
  120.5000   -11.0010    75.7650     7.6120     6.2260     9.1490    24.0170     2.3490 
  120.6250   -11.1770    72.7720     9.0120     7.3290    11.8920    24.0280     2.3800 
  120.7500   -11.5200    71.0240    10.2080     8.4290    14.3890    24.0990     2.4120 
  120.8750   -12.0010    70.4890    10.8740     9.2350    15.5690    24.1120     2.4240 
  121.0000   -12.5700    68.1340    10.8840     9.5590    14.0480    23.9920     2.4030 
  121.1250   -13.1250    63.6990    10.3540     9.3710    11.0040    23.8080     2.3550 
  121.2500   -13.6100    61.5610     9.7250     8.9790     9.2320    23.6970     2.3050 
  121.3750   -14.0180    62.3830     9.2500     8.5950     8.7250    23.6620     2.2660 
  121.5000   -14.3890    63.6530     9.0350     8.3460     8.7810    23.6600     2.2400 
  121.6250   -14.7000    64.0500     9.0860     8.2830     8.9710    23.6610     2.2230 
  121.7500   -14.9620    63.3690     9.2660     8.3480     9.2070    23.6630     2.2100 
  121.8750   -15.1740    62.1460     9.4810     8.4850     9.3660    23.6640     2.2010 
  122.0000   -15.3230    61.4640     9.6630     8.6600     9.3770    23.6640     2.1970 
  122.1250   -15.4250    64.0340     9.7680     8.8240     9.2900    23.6630     2.2010 
  122.2500   -15.5030    67.5050     9.8080     8.9170     9.2520    23.6620     2.2140 
  122.3750   -15.5670    67.1960     9.8010     8.9400     9.4580    23.6640     2.2330 
