~V
VERS. 2.00: Ver 2.00
~W
STRT.M 50.0000:
STOP.M 245.0000:
STEP.M 0.1250:
NULL. -999.2500:
UWI. DF5062:
~C
DEPT.M :
DEN.GM/CC :
GR.API :
RML.OHMM :
RI. :
RXO.OHMM :
CALI.CM :
SP.MV :
~A
# ...
  230.0000     2.3260    61.6840    17.4240    15.7430    16.0830    25.0960   -14.8220 
  230.1250     2.3370    64.5800    17.6900    15.7140    15.7520    25.1650   -14.7170 
  230.2500     2.3410    66.0430    18.4520    16.1720    15.6500    25.1780   -14.6360 
  230.3750     2.3330    67.3140    19.5710    17.0190    16.5320    25.1200   -14.5290 
  230.5000     2.3120    68.5090    20.8420    18.0870    19.0840    25.0770   -14.5110 
  230.6250     2.2910    70.9430    22.0710    19.1920    22.8710    25.0860   -14.4240 
  230.7500     2.2870    73.9770    23.2270    20.2430    25.5570    25.1040   -14.4410 
  230.8750     2.3130    76.3350    24.4200    21.2800    25.6090    25.0850   -14.3980 
  231.0000     2.3660    76.6390    25.8010    22.4030    24.4700    25.0120   -14.3650 
  231.1250     2.4250    75.6400    27.4640    23.6990    25.9240    24.9210   -14.4000 
  231.2500     2.4570    73.6680    29.2200    25.0690    29.5080    24.8820   -14.3620 
  231.3750     2.4440    70.0090    30.8800    26.3890    33.3740    24.8870   -14.3430 
  231.5000     2.3970    65.1860    32.4070    27.6200    33.1350    24.9600   -14.3520 
  231.6250     2.3450    63.5120    34.1220    28.9800    32.1190    25.0150   -14.3750 
  231.7500     2.3210    66.0620    36.4690    30.7970    33.0740    25.0160   -14.3920 
  231.8750     2.3360    68.2950    39.6480    33.2570    36.5050    24.9840   -14.4010 
  232.0000     2.3870    66.1760    43.3680    36.2030    44.8360    24.9370   -14.3650 
  232.1250     2.4490    62.4020    46.5400    38.8980    62.3180    24.8610   -14.3100 
  232.2500     2.4850    59.1860    47.9630    40.3930    77.9320    24.7990   -14.2760 
  232.3750     2.4760    55.1910    46.9230    40.0280    65.2580    24.7900   -14.2100 
  232.5000     2.4270    51.5000    43.5330    37.6710    46.1930    24.8440   -14.0260 
  232.6250     2.3640    53.2010    38.3960    33.6060    39.8450    24.8800   -13.8730 
  232.7500     2.3180    57.9770    32.8030    28.8970    34.7410    24.8910   -13.6110 
  232.8750     2.2990    59.3480    27.2690    24.1930    29.7780    24.8770   -13.3070 
  233.0000     2.3080    55.6980    22.2660    19.9420    24.9270    24.8460   -13.0550 
  233.1250     2.3390    52.0590    17.9020    16.5330    19.1210    24.7910   -12.6980 
  233.2500     2.3760    52.0410    14.4830    13.9330    14.2650    24.7540   -12.3900 
  233.3750     2.4110    54.3990    12.4350    12.0940    11.3780    24.7360   -12.0220 
  233.5000     2.4350    55.7290    11.4400    10.8730    11.5990    24.7410   -11.7430 
  233.6250     2.4420    56.3170    10.9050    10.1220    14.1020    24.7470   -11.5010 
  233.7500     2.4340    58.3310    10.5220     9.5760    14.1640    24.7510   -11.3160 
  233.8750     2.4180    58.8910    10.1490     9.1130    11.3940    24.7520   -11.1770 
  234.0000     2.4000    54.7930     9.7350     8.6790     8.7830    24.7410   -11.1360 
  234.1250     2.3830    54.7930     9.3220     8.2840     7.3520    24.6900   -11.1310 
  234.2500     2.3690    54.7930     8.9930     7.9700     6.2230    24.6400   -11.0960 
  234.3750     2.3590    54.7930     8.8010     7.7720     5.7230    24.6830   -11.2260 
  234.5000     2.3580    54.7930     8.7620     7.7050     5.6220    24.8010   -11.3860 
  234.6250     2.3700    54.7930     8.8810     7.7750     5.7000    24.8730   -11.5510 
  234.7500     2.3930    54.7930     9.1020     7.9320     5.9390    24.7970   -11.7190 
  234.8750     2.4170    54.7930     9.3830     8.1340     6.3760    24.7650   -11.8070 
  235.0000     2.4350    54.7930     9.6710     8.3390     7.0340    24.8180   -11.7950 
  235.1250     2.4410    54.7930     9.8890     8.4910     8.1380    24.8800   -11.8380 
  235.2500     2.4390    54.7930     9.9920     8.5610     9.8730    24.7990   -11.9630 
  235.3750     2.4320    54.7930     9.9700     8.5410    11.9200    24.6920   -12.0220 
  235.5000     2.4240    54.7930     9.8570     8.4460    12.3270    24.6770   -11.9630 
  235.6250     2.4190    54.7930     9.7210     8.3130    13.7140    24.7150   -11.8850 
  235.7500     2.4160    54.7930     9.6250     8.1880    16.1030    24.7500   -11.8590 
  235.8750     2.4150    54.7930     9.5810     8.0830    17.5630    24.7530   -11.8390 
  236.0000     2.4130    54.7930     9.5610     7.9900    19.3780    24.7540   -11.8560 
  236.1250     2.4040    54.7930     9.5080     7.8860    20.1180    24.7800   -11.8550 
  236.2500     2.3920    54.7930     9.4040     7.7610    15.6680    24.8150   -11.7370 
  236.3750     2.3810    54.7930     9.2700     7.6230    12.2010    24.8160   -11.5690 
  236.5000     2.3770    54.7930     9.1490     7.4940     8.7090    24.7940   -11.4620 
  236.6250     2.3810    54.7930     9.0830     7.3980     7.6490    24.8010   -11.3460 
  236.7500     2.3870    54.7930     9.0500     7.3340     7.6280    24.8320   -11.1270 
  236.8750     2.3920    54.7930     9.0070     7.2890     8.3170    24.8480   -11.0380 
  237.0000     2.3930    54.7930     8.9190     7.2430     8.9640    24.8250   -10.9710 
  237.1250     2.3920    54.7930     8.7770     7.1800     9.4030    24.8360   -10.8950 
  237.2500     2.3940    54.7930     8.6270     7.1050     9.2370    24.8500   -10.8280 
  237.3750     2.4020    54.7930     8.5080     7.0310     8.7570    24.8300   -10.8150 
  237.5000     2.4140    54.7930     8.4350     6.9720     8.2070    24.8060   -10.7940 
  237.6250     2.4270    54.7930     8.4030     6.9380     7.5930    24.7860   -10.7360 
  237.7500     2.4340    54.7930     8.3860     6.9200     7.0940    24.7690   -10.6930 
  237.8750     2.4370    54.7930     8.3700     6.9100     6.8330    24.7570   -10.6580 
  238.0000     2.4400    54.7930     8.3490     6.9030     6.6720    24.7760   -10.5620 
  238.1250     2.4510    54.7930     8.3220     6.8950     6.4990    24.8150   -10.3840 
  238.2500     2.4670    54.7930     8.2990     6.8880     6.3950    24.8610   -10.2540 
  238.3750     2.4820    54.7930     8.2910     6.8830     6.2790    24.8960   -10.1440 
  238.5000     2.4850    54.7930     8.3080     6.8770     6.1360    24.9280   -10.1130 
  238.6250     2.4650    54.7930     8.3520     6.8670     6.0770    24.8930   -10.1420 
  238.7500     2.4350    54.7930     8.4100     6.8570     6.2290    24.7890   -10.1990 
  238.8750     2.4070    54.7930     8.4750     6.8500     6.6830    24.6510   -10.2780 
  239.0000     2.3940    54.7930     8.5430     6.8490     7.1620    24.4680   -10.3450 
  239.1250     2.4020    54.7930     8.6030     6.8580     7.2630    24.3910   -10.4310 
  239.2500     2.4220    54.7930     8.6370     6.8700     6.9470    24.4530   -10.5350 
  239.3750     2.4440    54.7930     8.6310     6.8810     6.2420    24.5750   -10.6450 
  239.5000     2.4610    54.7930     8.5880     6.8870     5.7490    24.7010   -10.7090 
  239.6250     2.4710    54.7930     8.5250     6.8880     5.5840    24.7740   -10.7180 
  239.7500     2.4790    54.7930     8.4710     6.8860     5.4590    24.7830   -10.7600 
  239.8750     2.4880    54.7930     8.4410     6.8840     5.3780    24.7430   -10.7860 
  240.0000     2.4960    54.7930     8.4300     6.8830     5.4310    24.7140   -10.8030 
  240.1250     2.4960    54.7930     8.4300     6.8830     5.5410    24.7090   -10.8660 
  240.2500     2.4900    54.7930     8.4300     6.8830     5.8610    24.7080   -10.9370 
  240.3750     2.4800    54.7930     8.4300     6.8830     6.6880    24.7290   -10.9970 
  240.5000     2.4700    54.7930     8.4300     6.8830     8.1710    24.8080   -11.0530 
  240.6250     2.4630    54.7930     8.4300     6.8830    10.0440    24.8910   -11.1420 
  240.7500     2.4570    54.7930     8.4300     6.8830    11.1280    24.8940   -11.1690 
  240.8750     2.4510    54.7930     8.4300     6.8830    10.9090    24.8600   -11.0640 
  241.0000     2.4490    54.7930     8.4300     6.8830    10.1790    24.8610   -11.0440 
  241.1250     2.4500    54.7930     8.4300     6.8830     9.7060    24.8750   -10.9920 
