~V
VERS. 2.00: Ver 2.00
~W
STRT.M 50.0000:
STOP.M 277.0000:
STEP.M 0.1250:
NULL. -999.2500:
UWI. DF5031:
~C
DEPT.M :
DEN.GM/CC :
GR.API :
CALI.CM :
RXO.OHMM :
RI. :
RML.OHMM :
SP.MV :
~A
# ...
  252.5000     2.4020    67.5540    24.1480    11.3110     9.5970    10.0240   -10.4980 
  252.6250     2.4050    70.5360    24.1340    11.2900     9.4640     9.9980   -10.3560 
  252.7500     2.4090    73.4290    24.1180    11.0560     9.3890    10.0370   -10.1110 
  252.8750     2.4140    74.2180    24.0820    10.8850     9.3880    10.1520    -9.8060 
  253.0000     2.4170    73.0160    24.0170    10.8920     9.4680    10.3510    -9.4920 
  253.1250     2.4210    71.9590    23.9140    10.7590     9.6140    10.6190    -9.1770 
  253.2500     2.4200    72.8900    23.8020    10.5810     9.7500    10.8650    -8.9150 
  253.3750     2.4120    74.8780    23.7640    10.4680     9.7910    10.9830    -8.7260 
  253.5000     2.3980    76.8050    23.7890    10.3250     9.6630    10.8880    -8.6010 
  253.6250     2.3810    77.1870    23.8680    10.2390     9.3270    10.5470    -8.5990 
  253.7500     2.3570    74.1020    23.9790    10.5180     8.8910    10.1080    -8.6470 
  253.8750     2.3310    70.1650    24.0980    10.9900     8.4800     9.7110    -8.6850 
  254.0000     2.3240    69.6010    24.1280    11.1050     8.2040     9.4760    -8.6800 
  254.1250     2.3570    73.0530    24.1460    10.9310     8.1630     9.5010    -8.6640 
  254.2500     2.4050    74.9300    24.1500    10.9600     8.3120     9.7300    -8.6800 
  254.3750     2.4370    73.0650    24.1560    11.0990     8.5840    10.0900    -8.7790 
  254.5000     2.4410    70.3720    24.1600    11.0240     8.8950    10.4930    -8.9730 
  254.6250     2.4340    70.4990    24.1570    10.6010     9.1550    10.8380    -9.1290 
  254.7500     2.4370    72.2700    24.1500    10.2640     9.3240    11.0830    -9.2600 
  254.8750     2.4380    74.5360    24.1170    10.2170     9.4010    11.2260    -9.3410 
  255.0000     2.4240    76.8970    24.0940    10.4450     9.4090    11.2900    -9.3700 
  255.1250     2.3970    77.5500    24.1180    10.5170     9.3720    11.2950    -9.3420 
  255.2500     2.3800    75.1410    24.1750    10.2560     9.3270    11.2860    -9.2420 
  255.3750     2.3790    71.0600    24.2140     9.8830     9.3050    11.3040    -9.0450 
  255.5000     2.3850    69.2160    24.2240     9.6550     9.3430    11.3940    -8.7780 
  255.6250     2.3980    70.6910    24.2200     9.8210     9.5020    11.6250    -8.5310 
  255.7500     2.4220    72.3930    24.2390    10.2630     9.8060    12.0100    -8.2840 
  255.8750     2.4550    74.5150    24.2440    10.8910    10.2620    12.5620    -8.1010 
  256.0000     2.4870    76.2480    24.2330    11.5870    10.8340    13.2520    -7.9970 
  256.1250     2.5140    75.8260    24.1950    12.5040    11.4340    13.9860    -7.9480 
  256.2500     2.5340    74.3220    24.1350    13.6140    11.9250    14.6020    -7.9360 
  256.3750     2.5400    73.8190    24.0950    14.3810    12.1930    14.9410    -7.9510 
  256.5000     2.5230    73.2050    24.0820    14.1860    12.1660    14.9030    -7.9670 
  256.6250     2.4930    72.6700    24.0820    13.0550    11.8170    14.4680    -8.0280 
  256.7500     2.4720    75.0710    24.0820    11.4830    11.3040    13.8690    -8.1160 
  256.8750     2.4610    79.3580    24.0770    10.3860    10.7600    13.2910    -8.2090 
  257.0000     2.4470    80.2030    24.0500    10.7790    10.2970    12.8590    -8.3020 
  257.1250     2.4260    76.0120    23.9870    13.6520    10.0040    12.6440    -8.4030 
  257.2500     2.4120    73.9490    23.9310    20.1220     9.8610    12.5820    -8.4730 
  257.3750     2.4130    74.8540    23.9250    28.7030     9.8430    12.6210    -8.4650 
  257.5000     2.4280    75.2750    23.9760    30.7100     9.9190    12.7220    -8.4360 
  257.6250     2.4510    74.4480    24.0950    24.1310    10.0810    12.8810    -8.3970 
  257.7500     2.4750    75.3340    24.1890    17.6210    10.3150    13.1010    -8.4090 
  257.8750     2.4860    77.6650    24.2290    15.6790    10.6170    13.4000    -8.4670 
  258.0000     2.4770    78.6560    24.2360    14.9150    10.9680    13.7720    -8.5400 
  258.1250     2.4610    77.7430    24.2360    14.9430    11.3280    14.1750    -8.6040 
  258.2500     2.4550    76.9120    24.2360    16.1070    11.6430    14.5270    -8.6710 
  258.3750     2.4590    76.5990    24.2360    18.0010    11.8720    14.7660    -8.7980 
  258.5000     2.4620    77.3600    24.2360    18.9220    11.9880    14.8510    -8.9730 
  258.6250     2.4570    79.1520    24.2360    18.3360    11.9440    14.7380    -9.1500 
  258.7500     2.4560    80.5420    24.2360    17.7360    11.7500    14.4470    -9.2900 
  258.8750     2.4660    82.0930    24.2360    18.5570    11.4070    13.9820    -9.4310 
  259.0000     2.4780    83.1650    24.2360    20.9690    10.9520    13.3790    -9.6070 
  259.1250     2.4770    82.0160    24.2170    22.4980    10.4610    12.7350    -9.8410 
  259.2500     2.4640    79.1530    24.1780    23.5920    10.0200    12.1780   -10.1320 
  259.3750     2.4490    75.8650    24.1550    28.7170     9.6820    11.7830   -10.4550 
  259.5000     2.4400    73.5050    24.1770    34.6990     9.4690    11.5730   -10.8030 
  259.6250     2.4400    71.0120    24.2400    31.6910     9.3770    11.5360   -11.1450 
  259.7500     2.4520    69.0260    24.2840    20.7280     9.3370    11.5630   -11.4740 
  259.8750     2.4760    68.7590    24.2990    12.4160     9.3060    11.5660   -11.7940 
  260.0000     2.5010    70.3540    24.3010     9.0270     9.2500    11.4860   -12.1270 
  260.1250     2.5110    71.2200    24.3040     8.3280     9.1380    11.2980   -12.4840 
  260.2500     2.5020    69.2820    24.3050     8.2860     8.9880    11.0610   -12.8830 
  260.3750     2.4860    67.8720    24.2870     8.4310     8.8350    10.8380   -13.3280 
  260.5000     2.4690    69.6980    24.2350     8.6510     8.7240    10.6960   -13.7740 
  260.6250     2.4570    72.4790    24.1340     9.0280     8.7290    10.7230   -14.1980 
  260.7500     2.4580    73.7480    24.0960     9.7410     8.8750    10.9230   -14.5970 
  260.8750     2.4700    73.0460    24.1070    10.9240     9.1610    11.2770   -14.9240 
  261.0000     2.4810    70.9610    24.1250    13.3630     9.5410    11.7290   -15.1280 
  261.1250     2.4770    69.7710    24.1140    16.0970     9.9490    12.1850   -15.2380 
  261.2500     2.4660    70.7060    24.0730    16.7160    10.3160    12.5710   -15.2740 
  261.3750     2.4620    72.4670    24.0640    14.3980    10.6010    12.8710   -15.2330 
  261.5000     2.4670    73.2670    24.1220    11.4710    10.7900    13.0920   -15.1280 
  261.6250     2.4840    73.3200    24.0630    10.4130    10.8930    13.2360   -15.0090 
  261.7500     2.5070    72.7350    23.9480    10.3130    10.9500    13.3210   -14.8570 
  261.8750     2.5310    70.9610    23.9840    10.4360    10.9810    13.3600   -14.6860 
  262.0000     2.5440    69.6810    24.1550    10.4840    11.0170    13.3860   -14.5550 
  262.1250     2.5440    68.5090    24.3440    10.5200    11.1200    13.4740   -14.4110 
  262.2500     2.5440    68.1700    24.2860    10.6390    11.3150    13.6860   -14.2470 
  262.3750     2.5440    70.2380    24.2410    10.9230    11.6060    14.0460   -14.0730 
  262.5000     2.5450    73.9640    24.2360    11.5780    11.9760    14.5180   -13.8530 
  262.6250     2.5430    76.1440    24.2370    12.7440    12.3660    15.0000   -13.5530 
  262.7500     2.5370    77.3560    24.2490    13.5840    12.6930    15.3710   -13.2580 
  262.8750     2.5200    79.7870    24.2650    13.5890    12.9160    15.5610   -13.0240 
  263.0000     2.4970    81.3380    24.2460    13.4120    13.0280    15.5710   -12.8410 
  263.1250     2.4790    80.0170    24.2440    14.3040    13.0310    15.4430   -12.7250 
  263.2500     2.4740    78.0640    24.3240    15.8120    12.9830    15.2840   -12.6360 
  263.3750     2.4770    76.5330    24.3570    17.4030    12.9410    15.1660   -12.5840 
  263.5000     2.4800    76.0600    24.2510    18.6440    12.9500    15.1450   -12.6090 
  263.6250     2.4760    76.2080    24.1590    19.2800    13.0340    15.2440   -12.7350 
