~V
VERS. 2.00: Ver 2.00
~W
STRT.M 59.0000:
STOP.M 243.0000:
STEP.M 0.1250:
NULL. -999.2500:
UWI. DF5058:
~C
DEPT.M :
GR.API :
CALI.CM :
RXO.OHMM :
RI. :
RML.OHMM :
DEN.GM/CC :
SP.MV :
~A
# ...
   92.7500    89.2050    25.2560     3.4240     4.0410     4.2660     2.3410   -32.0080 
   92.8750    90.0420    25.2780     3.4310     4.2730     4.7300     2.3430   -32.5310 
   93.0000    87.6180    25.2970     4.2390     4.8150     5.6110     2.3440   -33.1200 
   93.1250    82.8790    25.2010     5.7890     5.7610     6.9430     2.3400   -33.8760 
   93.2500    79.3090    24.9750     8.2790     6.9610     8.4200     2.3220   -34.7150 
   93.3750    77.2240    24.7180    10.4920     8.1550     9.6490     2.2900   -35.5450 
   93.5000    75.7280    24.5250    11.3310     8.9880    10.2600     2.2490   -36.3970 
   93.6250    73.1070    24.4130    11.0400     9.1610    10.0760     2.2130   -37.2130 
   93.7500    70.4840    24.3590    10.7820     8.9190     9.5160     2.1890   -37.8460 
   93.8750    68.8490    24.3670    10.6590     8.5200     8.9170     2.1790   -38.3930 
   94.0000    68.6270    24.4450    10.2490     8.1490     8.4730     2.1770   -38.8300 
   94.1250    69.9230    24.5650     9.8590     7.8970     8.2430     2.1800   -39.0890 
   94.2500    70.9480    24.6500     9.7150     7.7330     8.1340     2.1820   -39.1740 
   94.3750    69.0560    24.6590     9.5160     7.6300     8.0900     2.1810   -39.1800 
   94.5000    65.3170    24.6240     9.3940     7.5670     8.0830     2.1770   -39.0030 
   94.6250    63.4970    24.6280     9.4450     7.5390     8.1060     2.1720   -38.7900 
   94.7500    63.2350    24.6680     9.4540     7.5290     8.1470     2.1670   -38.6540 
   94.8750    64.9070    24.7090     9.3620     7.5320     8.1950     2.1650   -38.3570 
   95.0000    68.7690    24.7370     9.1470     7.5390     8.2350     2.1680   -38.1570 
   95.1250    72.7050    24.7580     9.0330     7.5290     8.2390     2.1730   -37.9850 
   95.2500    72.1130    24.7610     9.0040     7.4830     8.1850     2.1780   -37.7990 
   95.3750    68.9760    24.7210     8.8620     7.3880     8.0690     2.1820   -37.6670 
   95.5000    68.3880    24.6180     8.4940     7.2460     7.9030     2.1820   -37.4710 
   95.6250    71.2330    24.4590     8.1210     7.0740     7.7240     2.1800   -37.4170 
   95.7500    72.8700    24.3180     7.9330     6.9100     7.5780     2.1770   -37.2360 
   95.8750    72.2940    24.2420     7.8080     6.7930     7.5110     2.1760   -37.1000 
   96.0000    71.7240    24.2250     7.7770     6.7630     7.5710     2.1770   -37.1020 
   96.1250    73.7940    24.2250     7.9380     6.8680     7.8010     2.1830   -37.0730 
   96.2500    76.8720    24.2020     8.2400     7.0790     8.1450     2.2000   -37.1400 
   96.3750    77.9920    24.1790     8.9200     7.3480     8.5220     2.2280   -37.1610 
   96.5000    76.5430    24.2120    10.9370     7.5960     8.8170     2.2640   -37.3590 
   96.6250    74.5310    24.2840    12.4410     7.7020     8.8820     2.2930   -37.4720 
   96.7500    72.4020    24.2800    11.9670     7.6420     8.7350     2.2980   -37.5710 
   96.8750    69.8750    24.1700    10.6950     7.4610     8.4690     2.2730   -37.7960 
   97.0000    68.6650    24.0240    10.0780     7.2460     8.2130     2.2330   -37.8760 
   97.1250    70.1620    23.9220     9.6770     7.0980     8.0900     2.2000   -37.9850 
   97.2500    70.7830    23.8800     9.5540     7.0420     8.0980     2.1790   -38.0290 
   97.3750    68.7960    23.8990    10.1500     7.0670     8.1920     2.1670   -38.0760 
   97.5000    67.0840    23.9670    10.8090     7.1390     8.3240     2.1590   -38.1020 
   97.6250    68.0670    24.0590    10.6310     7.2360     8.4770     2.1540   -38.0430 
   97.7500    68.7960    24.1310    10.2660     7.3480     8.6470     2.1520   -37.9790 
   97.8750    68.4870    24.1480    10.1240     7.4610     8.8150     2.1540   -37.8500 
   98.0000    68.1410    24.1130    10.8640     7.5500     8.9350     2.1590   -37.6460 
   98.1250    68.1220    24.1060    11.4820     7.5590     8.9180     2.1640   -37.3900 
   98.2500    69.1700    24.1740    11.1930     7.4610     8.7520     2.1670   -37.0470 
   98.3750    71.3430    24.2940     9.5030     7.2600     8.4650     2.1660   -36.7160 
   98.5000    72.2590    24.4050     7.9540     6.9960     8.1290     2.1650   -36.1470 
   98.6250    69.7960    24.4200     8.0940     6.7510     7.8460     2.1660   -35.6420 
   98.7500    67.8240    24.3490     8.7020     6.5910     7.6790     2.1680   -35.2290 
   98.8750    68.0390    24.2650     8.6700     6.5500     7.6570     2.1700   -34.6540 
   99.0000    68.0890    24.2340     8.7440     6.6420     7.7890     2.1680   -34.1980 
   99.1250    67.7580    24.2580     9.1380     6.8740     8.0770     2.1610   -33.7240 
   99.2500    68.2300    24.2650     9.3240     7.1950     8.4480     2.1570   -33.2770 
   99.3750    68.3300    24.2120     9.2660     7.5600     8.8200     2.1590   -32.8610 
   99.5000    66.9810    24.1010     9.3650     7.8870     9.0710     2.1690   -32.3910 
   99.6250    67.1920    24.0100    10.3880     8.0000     8.9840     2.1820   -31.8570 
   99.7500    70.9950    24.0180    10.1050     7.7920     8.5040     2.1920   -31.3140 
   99.8750    76.9090    24.1050     8.7540     7.2420     7.6660     2.1960   -30.7500 
  100.0000    84.3170    24.1950     7.5110     6.4490     6.6220     2.1980   -30.0870 
  100.1250    90.8390    24.2630     6.1100     5.5890     5.6010     2.2100   -29.5510 
  100.2500    94.4230    24.3630     4.5700     4.8370     4.7850     2.2330   -29.2080 
  100.3750    97.1400    24.4820     3.6710     4.2750     4.2400     2.2640   -28.5420 
  100.5000   101.8430    24.5490     3.3830     3.9330     3.9700     2.2950   -27.7980 
  100.6250   105.2000    24.5540     3.2560     3.8460     3.9710     2.3170   -27.1630 
  100.7500   104.2000    24.5810     3.2410     3.9420     4.1340     2.3270   -26.6710 
  100.8750   101.7840    24.6450     3.5790     4.1570     4.3730     2.3290   -26.1750 
  101.0000   101.6040    24.6810     4.6800     4.4030     4.5880     2.3240   -25.8270 
  101.1250    99.8710    24.6500     5.0340     4.5600     4.6660     2.3120   -25.6200 
  101.2500    96.0940    24.6240     4.5090     4.5800     4.5960     2.2980   -25.5180 
  101.3750    94.4900    24.6480     3.7130     4.4840     4.4300     2.2900   -25.5960 
  101.5000    98.5990    24.7170     3.3530     4.3430     4.2640     2.2890   -25.6900 
  101.6250   104.1280    24.7990     3.1070     4.2660     4.2270     2.2900   -25.9620 
  101.7500   103.1750    24.8360     3.1250     4.3180     4.3580     2.2880   -26.1920 
  101.8750    97.8540    24.7900     3.4000     4.5140     4.6410     2.2790   -26.3700 
  102.0000    93.6160    24.6550     3.9620     4.8110     5.0000     2.2610   -26.7290 
  102.1250    90.3650    24.4710     4.5030     5.1050     5.2950     2.2420   -27.0110 
  102.2500    86.4660    24.3220     5.1300     5.2750     5.4240     2.2280   -27.3620 
  102.3750    84.6770    24.2940     5.0360     5.2590     5.3520     2.2260   -27.6090 
  102.5000    88.5090    24.4230     4.2850     5.0760     5.1220     2.2330   -27.9670 
  102.6250    96.2900    24.6280     3.7510     4.8050     4.8330     2.2450   -28.2310 
  102.7500   103.7410    24.7790     3.5920     4.5550     4.5980     2.2540   -28.4440 
  102.8750   109.6530    24.8340     3.6130     4.3860     4.4820     2.2580   -28.8590 
  103.0000   112.4120    24.8240     3.7640     4.3330     4.5160     2.2570   -29.1430 
  103.1250   108.9100    24.7960     3.9630     4.4240     4.7190     2.2530   -29.5330 
  103.2500   101.6830    24.7690     4.2550     4.6250     5.0290     2.2490   -29.9780 
  103.3750    96.6480    24.7240     4.9320     4.9010     5.3840     2.2430   -30.4330 
  103.5000    95.1970    24.6590     5.9920     5.1870     5.7000     2.2330   -30.9820 
  103.6250    92.5940    24.6210     6.4830     5.3860     5.8840     2.2200   -31.5370 
  103.7500    87.1340    24.6060     6.5840     5.4730     5.9560     2.2070   -32.1930 
  103.8750    83.3680    24.6010     6.2960     5.4930     6.0080     2.2010   -32.7940 
