~V
VERS. 2.00: Ver 2.00
~W
STRT.M 60.0000:
STOP.M 273.0000:
STEP.M 0.1250:
NULL. -999.2500:
UWI. DF5008:
~C
DEPT.M :
GR.API :
CALI.CM :
RXO.OHMM :
RI. :
RML.OHMM :
DEN.GM/CC :
SP.MV :
~A
# ...
   82.5000    78.4760    24.2700    17.5420     9.6060    12.9920     2.1690   -37.1790 
   82.6250    79.1530    24.0270    11.7000     9.1160    11.8410     2.1510   -37.7820 
   82.7500    78.1130    23.8720     9.1820     8.3450    10.5410     2.1620   -38.3540 
   82.8750    75.0330    23.8740     8.8240     7.7380     9.8110     2.2030   -38.8710 
   83.0000    74.5710    23.9560     8.9910     7.5780    10.0450     2.2680   -39.3390 
   83.1250    79.2710    24.0430    10.0690     8.1180    11.5010     2.3470   -39.7140 
   83.2500    82.7940    24.1380    15.4670     9.2810    13.7800     2.4040   -39.9790 
   83.3750    82.4810    24.2260    26.1640    10.9090    16.3570     2.4040   -40.2130 
   83.5000    80.5060    24.2750    34.4450    12.5610    18.3910     2.3430   -40.3760 
   83.6250    79.6930    24.2630    34.6920    13.3350    18.6750     2.2650   -40.4770 
   83.7500    78.3350    24.1130    28.9930    12.9170    17.2630     2.2060   -40.5990 
   83.8750    74.0620    23.7970    19.2780    11.6270    14.8840     2.1700   -40.7530 
   84.0000    70.4250    23.4440    10.5930    10.1000    12.5200     2.1500   -40.9250 
   84.1250    71.7540    23.2290     8.9870     8.8820    10.9310     2.1420   -41.2130 
   84.2500    75.2540    23.1000     8.9870     8.0840    10.0890     2.1390   -41.5350 
   84.3750    76.3750    22.9820     9.7330     7.6770     9.8230     2.1390   -41.7830 
   84.5000    73.4860    22.9380    10.0720     7.5740     9.9150     2.1360   -42.0050 
   84.6250    68.7760    23.0650     9.6800     7.6740    10.1570     2.1270   -42.2230 
   84.7500    65.9540    23.2560     9.3200     7.8220    10.3620     2.1110   -42.4650 
   84.8750    66.5410    23.4130     9.1660     7.9440    10.4610     2.0950   -42.7210 
   85.0000    69.4150    23.4890     9.1210     8.0040    10.4390     2.0850   -42.8530 
   85.1250    72.0470    23.5000     9.1910     7.9810    10.3070     2.0850   -42.7880 
   85.2500    73.5650    23.5290     9.1550     7.8950    10.1290     2.0920   -42.8310 
   85.3750    73.3220    23.5940     9.2220     7.7700     9.9480     2.1030   -42.9100 
   85.5000    71.1130    23.6310     9.2910     7.6300     9.7990     2.1130   -42.9620 
   85.6250    66.8910    23.6010     9.0480     7.5080     9.7110     2.1200   -42.9750 
   85.7500    63.7930    23.6010     8.8170     7.4210     9.6770     2.1200   -42.8710 
   85.8750    63.7960    23.6730     8.6810     7.3710     9.6860     2.1160   -42.7120 
   86.0000    65.9570    23.7430     9.1430     7.3520     9.7220     2.1090   -42.6210 
   86.1250    66.9050    23.7520    10.0740     7.3520     9.7570     2.1020   -42.7110 
   86.2500    66.2090    23.7470    10.0470     7.3510     9.7670     2.0970   -42.7240 
   86.3750    65.2370    23.7530     9.0850     7.3410     9.7390     2.0940   -42.6470 
   86.5000    63.8190    23.7540     8.6000     7.3160     9.6750     2.0940   -42.5410 
   86.6250    61.9560    23.7290     8.4400     7.2720     9.5930     2.0960   -42.3840 
   86.7500    59.9460    23.6940     8.3900     7.2210     9.5230     2.1030   -42.3340 
   86.8750    58.5760    23.6410     8.3400     7.1730     9.4820     2.1140   -42.3750 
   87.0000    58.9120    23.5570     8.4570     7.1370     9.4710     2.1290   -42.3710 
   87.1250    62.2410    23.4600     8.5180     7.1160     9.4720     2.1430   -42.1540 
   87.2500    63.5250    23.4370     8.5190     7.1100     9.4720     2.1530   -41.9590 
   87.3750    60.8970    23.5370     8.4490     7.1220     9.4880     2.1680   -41.8090 
   87.5000    58.3030    23.7030     8.4540     7.1700     9.5540     2.1940   -41.6750 
   87.6250    59.1430    23.7960     8.3480     7.2830     9.7240     2.2360   -41.4600 
   87.7500    60.1140    23.7880     8.2030     7.4550     9.9730     2.2740   -41.0530 
   87.8750    59.8070    23.7200     8.0550     7.6570    10.2370     2.2860   -40.5500 
   88.0000    59.0380    23.6100     7.9970     7.8360    10.4250     2.2630   -40.1260 
   88.1250    60.0720    23.4610     8.0150     7.9070    10.4040     2.2200   -39.7030 
   88.2500    63.1560    23.3310     7.9600     7.8470    10.1760     2.1830   -39.2750 
   88.3750    66.8480    23.2480     7.8260     7.6760     9.8020     2.1610   -38.8140 
   88.5000    68.0880    23.1890     7.7260     7.4560     9.4000     2.1510   -38.2590 
   88.6250    67.7600    23.1130     7.8750     7.2840     9.1300     2.1460   -37.8920 
   88.7500    68.2870    23.0340     8.2620     7.2220     9.0580     2.1420   -37.6280 
   88.8750    67.6960    22.9730     8.7230     7.2920     9.1840     2.1410   -37.3500 
   89.0000    65.3180    22.9390     9.1560     7.4660     9.4210     2.1500   -37.0030 
   89.1250    63.3270    22.9550     9.4130     7.6340     9.5700     2.1730   -36.8170 
   89.2500    63.1420    23.0040     9.4570     7.6440     9.4370     2.2040   -36.4720 
   89.3750    64.8930    23.0750     9.1630     7.3860     8.9150     2.2410   -36.0820 
   89.5000    69.4290    23.2150     8.4300     6.8410     8.0300     2.2760   -35.8130 
   89.6250    77.8980    23.5500     7.0460     6.0920     6.9550     2.2990   -35.4750 
   89.7500    86.8500    24.0060     5.9540     5.3410     5.9730     2.3070   -35.1480 
   89.8750    93.3420    24.3910     5.3570     4.7250     5.2670     2.3010   -34.8580 
   90.0000    96.9060    24.5640     5.1010     4.3350     4.9360     2.2840   -34.7150 
   90.1250   100.0970    24.5550     4.9170     4.2580     5.0540     2.2620   -34.5750 
   90.2500   100.6150    24.4820     5.1430     4.4330     5.4750     2.2410   -34.5350 
   90.3750    95.6120    24.3170     6.2260     4.7900     6.0570     2.2260   -34.7330 
   90.5000    88.0900    24.0480    12.0180     5.2150     6.6160     2.2170   -35.0080 
   90.6250    84.1300    23.7950    13.9920     5.5650     6.9650     2.2140   -35.3750 
   90.7500    83.3920    23.6600    11.1170     5.8050     7.1560     2.2110   -35.8680 
   90.8750    83.3780    23.5810     7.1400     5.9880     7.3410     2.2000   -36.4150 
   91.0000    82.6250    23.4610     6.5870     6.2010     7.6680     2.1780   -37.0270 
   91.1250    79.5080    23.2920     8.7380     6.5180     8.2170     2.1480   -37.6670 
   91.2500    73.2300    23.1510    13.3170     6.8960     8.8430     2.1190   -38.3020 
   91.3750    66.7760    23.1580    14.8350     7.2320     9.3420     2.0920   -38.9360 
   91.5000    63.9700    23.3990    11.2300     7.3980     9.5260     2.0680   -39.4970 
   91.6250    65.7640    23.7560     8.9060     7.2930     9.3020     2.0520   -39.9980 
   91.7500    68.6140    23.9400     8.4510     7.0360     8.9180     2.0590   -40.3940 
   91.8750    70.7120    23.9230     8.5860     6.7910     8.6720     2.0940   -40.7040 
   92.0000    72.1480    23.9080     9.1410     6.7510     8.8780     2.1600   -40.9610 
   92.1250    72.0440    24.0310     9.7040     7.1740     9.9090     2.2600   -41.2330 
   92.2500    70.0250    24.1800    10.2380     8.0980    11.6730     2.3700   -41.5140 
   92.3750    66.8320    24.2740    11.4250     9.4820    13.8930     2.4420   -41.7710 
   92.5000    63.0270    24.3080    18.2220    11.0590    15.9570     2.4310   -42.0410 
   92.6250    59.7890    24.3240    22.7060    12.0910    16.7600     2.3560   -42.3390 
   92.7500    59.3340    24.3120    20.0290    12.0670    16.0010     2.2790   -42.6450 
   92.8750    61.6930    24.2300    12.8800    11.0890    14.1260     2.2180   -43.0750 
   93.0000    64.7610    24.0930     9.0000     9.7210    12.0300     2.1780   -43.5480 
   93.1250    67.2110    23.9940     8.7000     8.5530    10.5390     2.1550   -43.8450 
   93.2500    68.4630    23.9410     9.0550     7.7810     9.7490     2.1420   -44.1880 
   93.3750    68.8000    23.8620    10.1090     7.3980     9.5070     2.1360   -44.4450 
   93.5000    68.6290    23.7360    10.5470     7.3070     9.5690     2.1320   -44.6460 
   93.6250    68.9690    23.6090     9.9380     7.3860     9.7110     2.1310   -44.8810 
