~V
VERS. 2.00: Ver 2.00
~W
STRT.M 55.0000:
STOP.M 263.0000:
STEP.M 0.1250:
NULL. -999.2500:
UWI. DF5056:
~C
DEPT.M :
GR.API :
CALI.CM :
RXO.OHMM :
RI. :
RML.OHMM :
DEN.GM/CC :
SP.MV :
~A
# ...
  100.0000    62.6460    26.4920    11.0210    10.2270    11.5510     2.2460   -34.6480 
  100.1250    61.6640    26.4460     9.7580     9.4530    10.4460     2.2030   -35.0440 
  100.2500    63.9200    26.4570     9.5510     8.7740     9.6500     2.1720   -35.2980 
  100.3750    67.1020    26.4810     9.6620     8.3930     9.3370     2.1560   -35.5280 
  100.5000    68.1650    26.4980     9.8470     8.3310     9.4340     2.1550   -35.6300 
  100.6250    67.0340    26.5020    10.0340     8.4910     9.7290     2.1650   -35.7520 
  100.7500    64.8460    26.5010    10.0470     8.6640     9.9600     2.1780   -35.7700 
  100.8750    62.2320    26.5000    10.2060     8.7390    10.0250     2.1860   -35.8250 
  101.0000    60.2710    26.5000    10.6290     8.6800     9.9130     2.1860   -35.8130 
  101.1250    58.7490    26.5100    10.8060     8.5060     9.6810     2.1790   -35.7570 
  101.2500    57.5470    26.5330    10.4870     8.3060     9.4450     2.1720   -35.7830 
  101.3750    58.3230    26.5540    10.0920     8.1390     9.2690     2.1690   -35.7350 
  101.5000    61.2620    26.5220    10.1280     8.0380     9.1870     2.1700   -35.7460 
  101.6250    63.2800    26.3880    10.8770     8.0230     9.2090     2.1730   -35.6970 
  101.7500    63.3160    26.2140    11.8230     8.0630     9.2910     2.1730   -35.7090 
  101.8750    63.4050    26.0840    12.2840     8.1300     9.3900     2.1690   -35.6480 
  102.0000    64.1060    26.0450    12.1590     8.1860     9.4600     2.1650   -35.5940 
  102.1250    64.1910    26.0640    12.0410     8.1780     9.4420     2.1660   -35.4780 
  102.2500    63.5200    26.0910    11.5830     8.0820     9.3160     2.1690   -35.3590 
  102.3750    62.8150    26.1570    10.9040     7.8870     9.0840     2.1730   -35.1620 
  102.5000    62.6010    26.2980     9.7030     7.6130     8.7750     2.1730   -34.9840 
  102.6250    64.7890    26.4850     8.5910     7.3080     8.4480     2.1690   -34.7850 
  102.7500    67.7860    26.6220     8.3390     7.0350     8.1730     2.1620   -34.5870 
  102.8750    68.6880    26.6790     8.3520     6.8370     7.9980     2.1560   -34.4160 
  103.0000    67.6720    26.6840     8.0230     6.7410     7.9540     2.1520   -34.2700 
  103.1250    67.1610    26.6710     7.4370     6.7720     8.0590     2.1500   -34.2330 
  103.2500    66.6490    26.6440     7.6840     6.8970     8.2580     2.1510   -34.1420 
  103.3750    64.7270    26.5970     7.9890     7.0900     8.5070     2.1550   -34.1780 
  103.5000    62.6250    26.5360     8.4640     7.3100     8.7600     2.1620   -34.1300 
  103.6250    63.4980    26.4810     8.9230     7.5000     8.9700     2.1710   -34.1720 
  103.7500    66.3690    26.4500     9.0560     7.6210     9.1140     2.1760   -34.1360 
  103.8750    69.7790    26.4370     9.0510     7.6590     9.1760     2.1750   -34.1360 
  104.0000    71.2990    26.4170     9.1500     7.6140     9.1400     2.1680   -34.0810 
  104.1250    68.7620    26.3650     9.2640     7.4810     8.9870     2.1590   -33.9890 
  104.2500    65.8230    26.3080     9.6420     7.2940     8.7650     2.1560   -33.9400 
  104.3750    65.2140    26.2870     9.7670     7.0820     8.5240     2.1590   -33.7770 
  104.5000    68.4200    26.3220     9.2420     6.8790     8.3170     2.1660   -33.6900 
  104.6250    71.2900    26.3880     8.5070     6.7390     8.2120     2.1710   -33.4690 
  104.7500    70.5940    26.4150     8.3440     6.6890     8.2310     2.1710   -33.3490 
  104.8750    67.3670    26.3790     8.7950     6.7460     8.3840     2.1660   -33.1640 
  105.0000    64.2890    26.3070     9.4020     6.9090     8.6610     2.1600   -33.0440 
  105.1250    64.2420    26.2140     9.8510     7.1660     9.0300     2.1540   -32.8900 
  105.2500    66.2200    26.1060    10.5490     7.4510     9.4010     2.1510   -32.7390 
  105.3750    69.5640    26.0270    11.6680     7.7040     9.6930     2.1510   -32.6430 
  105.5000    72.4690    26.0310    13.5060     7.8660     9.8320     2.1530   -32.5430 
  105.6250    71.6500    26.0790    13.2360     7.8770     9.7490     2.1560   -32.4370 
  105.7500    68.3730    26.0700    11.8740     7.7610     9.5000     2.1580   -32.3270 
  105.8750    66.1940    26.0380    11.0200     7.6240     9.2650     2.1590   -32.1760 
  106.0000    64.9180    26.0150    10.9310     7.5110     9.0830     2.1570   -31.9820 
  106.1250    62.1170    26.0350    10.8760     7.2850     8.7560     2.1530   -31.7170 
  106.2500    60.6320    26.0950    10.8020     7.1220     8.5470     2.1500   -31.3690 
  106.3750    63.5370    26.1360    10.6580     7.0730     8.5130     2.1520   -30.9620 
  106.5000    69.0380    26.1330    10.4330     7.1640     8.6830     2.1650   -30.4880 
  106.6250    69.5970    26.1780    10.1920     7.4210     9.0740     2.1960   -30.0150 
  106.7500    65.1430    26.3450     9.5090     7.7870     9.5640     2.2400   -29.4080 
  106.8750    63.2240    26.5790     8.7310     8.1660     9.9800     2.2900   -28.8740 
  107.0000    67.3290    26.7460     8.3980     8.3900    10.0890     2.3240   -28.2610 
  107.1250    72.1130    26.7060     8.6270     8.2050     9.6140     2.3230   -27.7200 
  107.2500    74.1220    26.5340     9.4480     7.6120     8.6710     2.2970   -27.1420 
  107.3750    75.5330    26.4910     9.3080     6.7470     7.5000     2.2620   -26.6420 
  107.5000    79.4170    26.8840     7.6520     5.8370     6.4010     2.2330   -26.1200 
  107.6250    87.3020    27.6780     5.3340     5.1130     5.6510     2.2130   -25.7280 
  107.7500    94.3890    28.2770     4.5720     4.6360     5.2500     2.2020   -25.4030 
  107.8750    96.7550    28.3980     4.5560     4.3970     5.1350     2.1980   -25.0970 
  108.0000    95.2380    28.2050     5.0700     4.3470     5.2050     2.2010   -24.9120 
  108.1250    93.3230    28.0080     5.4360     4.4220     5.3510     2.2140   -24.7810 
  108.2500    91.9420    27.9100     5.3950     4.5260     5.4740     2.2320   -24.7840 
  108.3750    89.0190    27.8790     5.1070     4.6180     5.5470     2.2490   -24.8190 
  108.5000    86.6790    27.8660     4.9600     4.6890     5.5850     2.2580   -24.9610 
  108.6250    87.9260    27.7960     5.1710     4.7490     5.6190     2.2570   -25.0650 
  108.7500    91.0230    27.6800     5.5700     4.8120     5.6690     2.2500   -25.2840 
  108.8750    95.2300    27.5750     5.7500     4.8830     5.7350     2.2440   -25.4630 
  109.0000    97.7040    27.5210     5.5960     4.9610     5.8220     2.2430   -25.6810 
  109.1250    96.6420    27.5030     5.5810     5.0560     5.9490     2.2480   -25.8590 
  109.2500    94.1870    27.4820     6.0850     5.1720     6.1170     2.2550   -26.0710 
  109.3750    91.4850    27.4590     6.6520     5.3020     6.3060     2.2590   -26.2190 
  109.5000    90.3510    27.4400     6.9000     5.4240     6.4750     2.2560   -26.3890 
  109.6250    89.5340    27.4300     6.9980     5.4930     6.5670     2.2490   -26.5500 
  109.7500    88.9300    27.4330     7.0930     5.4990     6.5800     2.2410   -26.6260 
  109.8750    88.6190    27.4630     7.0280     5.4600     6.5490     2.2370   -26.7710 
  110.0000    88.6530    27.5140     6.4960     5.4110     6.5160     2.2390   -26.8220 
  110.1250    88.1100    27.5560     6.3600     5.3800     6.5090     2.2480   -26.9740 
  110.2500    86.0880    27.5700     6.2080     5.3640     6.5100     2.2560   -27.0140 
  110.3750    84.6950    27.5490     6.3420     5.3470     6.4980     2.2610   -27.1720 
  110.5000    85.1200    27.4980     6.5960     5.3110     6.4460     2.2620   -27.2550 
  110.6250    85.8850    27.4300     6.2860     5.2400     6.3430     2.2580   -27.3740 
  110.7500    85.1900    27.3460     5.7460     5.1640     6.2480     2.2530   -27.5720 
  110.8750    83.9820    27.2140     5.8420     5.1320     6.2260     2.2460   -27.7150 
  111.0000    84.2890    27.0360     6.4720     5.1720     6.3080     2.2370   -27.9500 
  111.1250    86.9130    26.8830     6.5380     5.2860     6.4770     2.2230   -28.0770 
