~V
VERS. 2.00: Ver 2.00
~W
STRT.M 65.0000:
STOP.M 272.0000:
STEP.M 0.1250:
NULL. -999.2500:
UWI. DF5002:
~C
DEPT.M :
DEN.GM/CC :
GR.API :
CALI.CM :
RXO.OHMM :
RI. :
RML.OHMM :
SP.MV :
~A
# ...
   98.7500     2.1590    71.9550    23.6350    11.1300     7.8160    10.3770   -29.6460 
   98.8750     2.1550    75.2790    23.5870    11.1860     7.9000    10.3400   -29.8410 
   99.0000     2.1600    77.4130    23.5740    11.0230     7.8370    10.1620   -30.0670 
   99.1250     2.1680    77.1550    23.5790    10.7820     7.6630     9.9160   -30.3350 
   99.2500     2.1720    77.9630    23.5750    10.4840     7.4660     9.7060   -30.5730 
   99.3750     2.1720    80.3700    23.5830    10.2040     7.3000     9.5870   -30.8290 
   99.5000     2.1670    80.4090    23.6300    10.0160     7.1940     9.5710   -31.0670 
   99.6250     2.1530    74.4440    23.7130    10.1540     7.1610     9.6400   -31.4000 
   99.7500     2.1330    68.4850    23.7170    10.4710     7.1780     9.7360   -31.8050 
   99.8750     2.1210    66.6050    23.7030    10.8040     7.2230     9.8230   -32.1970 
  100.0000     2.1240    65.7040    23.7940    10.9970     7.2720     9.8800   -32.5800 
  100.1250     2.1370    64.5210    23.8940    11.0210     7.3080     9.9210   -33.0180 
  100.2500     2.1400    66.8580    23.9470    11.0130     7.3390     9.9860   -33.4710 
  100.3750     2.1270    72.7830    23.9380    10.9890     7.3850    10.1030   -33.8370 
  100.5000     2.1140    77.9380    23.8340    11.0350     7.4610    10.2740   -34.1540 
  100.6250     2.1250    77.6270    23.7850    11.3040     7.5620    10.4560   -34.3670 
  100.7500     2.1520    75.2310    23.7770    11.6610     7.6520    10.5670   -34.5720 
  100.8750     2.1720    73.0730    23.8020    11.8840     7.6950    10.5530   -34.7120 
  101.0000     2.1700    71.3990    23.8230    11.8990     7.6760    10.4130   -34.7460 
  101.1250     2.1560    69.7680    23.8400    11.8020     7.6020    10.2000   -34.6540 
  101.2500     2.1490    69.2280    23.8460    11.6810     7.5160    10.0120   -34.5810 
  101.3750     2.1530    70.5610    23.8210    11.5730     7.4440     9.9070   -34.5080 
  101.5000     2.1560    71.4960    23.7860    11.5210     7.4000     9.9060   -34.3860 
  101.6250     2.1500    70.2900    23.7680    11.5420     7.3880     9.9940   -34.1860 
  101.7500     2.1390    69.4360    23.7670    11.5820     7.3950    10.1050   -33.9430 
  101.8750     2.1320    69.3400    23.7700    11.6660     7.4100    10.1940   -33.7920 
  102.0000     2.1300    69.3160    23.7770    11.7830     7.4200    10.2240   -33.7090 
  102.1250     2.1220    67.6010    23.7830    11.8830     7.4060    10.1630   -33.5990 
  102.2500     2.1060    64.5710    23.7980    11.9160     7.3590    10.0290   -33.3730 
  102.3750     2.0930    64.4130    23.8210    11.8200     7.2810     9.8400   -33.0510 
  102.5000     2.0930    70.2180    23.8420    11.5730     7.1820     9.6250   -32.7330 
  102.6250     2.1080    77.6640    23.8480    11.2550     7.0840     9.4290   -32.4630 
  102.7500     2.1250    77.9910    23.8400    11.1110     7.0040     9.2900   -32.1410 
  102.8750     2.1380    73.4040    23.8180    11.1940     6.9440     9.2220   -31.7090 
  103.0000     2.1430    71.7510    23.7920    11.3970     6.8940     9.2110   -31.2930 
  103.1250     2.1390    75.4940    23.7920    11.5350     6.8500     9.2330   -30.9390 
  103.2500     2.1310    78.2290    23.7950    11.4410     6.8240     9.2610   -30.6340 
  103.3750     2.1280    77.1410    23.7890    11.1300     6.8340     9.2930   -30.3980 
  103.5000     2.1330    74.8300    23.7650    10.7370     6.8890     9.3380   -30.2070 
  103.6250     2.1420    76.1610    23.7650    10.5260     6.9790     9.4040   -30.0930 
  103.7500     2.1490    78.7230    23.8090    10.5630     7.0700     9.4720   -30.0820 
  103.8750     2.1500    78.3010    23.8610    10.6620     7.1370     9.5230   -30.1490 
  104.0000     2.1500    75.7850    23.8570    10.6720     7.1720     9.5460   -30.1710 
  104.1250     2.1560    75.2380    23.8340    10.8010     7.1760     9.5450   -30.1890 
  104.2500     2.1660    76.6150    23.8000    10.9410     7.1670     9.5340   -30.2320 
  104.3750     2.1750    77.8010    23.7580    10.9830     7.1500     9.5160   -30.3340 
  104.5000     2.1790    77.9740    23.7310    10.8930     7.1260     9.4790   -30.3720 
  104.6250     2.1770    77.9190    23.7260    10.7530     7.0910     9.3980   -30.2360 
  104.7500     2.1730    79.7710    23.7260    10.6170     7.0410     9.2790   -30.0240 
  104.8750     2.1710    83.8350    23.7260    10.4740     6.9740     9.1350   -29.7760 
  105.0000     2.1700    85.3830    23.7260    10.3940     6.8960     8.9930   -29.5240 
  105.1250     2.1700    80.1830    23.7260    10.4060     6.8130     8.8740   -29.2210 
  105.2500     2.1700    73.8160    23.7260    10.3360     6.7260     8.7660   -28.8410 
  105.3750     2.1720    72.5200    23.7260     9.9920     6.6140     8.6300   -28.4340 
  105.5000     2.1780    75.8540    23.7330     9.4810     6.4570     8.4300   -28.1150 
  105.6250     2.1830    78.9170    23.7500     9.1170     6.2600     8.1890   -27.8680 
  105.7500     2.1850    78.1920    23.7750     8.7760     6.0880     7.9960   -27.6090 
  105.8750     2.1910    76.1810    23.7970     8.3060     6.0060     7.9400   -27.3450 
  106.0000     2.2060    76.2630    23.7990     7.8740     6.0640     8.0870   -27.1150 
  106.1250     2.2200    77.4370    23.7850     8.3030     6.3020     8.4850   -27.0410 
  106.2500     2.2190    77.2790    23.7720     9.1010     6.6510     9.0270   -27.0990 
  106.3750     2.2020    77.1640    23.7710     9.5630     7.0270     9.5840   -27.1660 
  106.5000     2.1800    78.5210    23.7150     9.4600     7.3280    10.0020   -27.1390 
  106.6250     2.1630    78.6130    23.6860     9.2150     7.4180    10.0890   -27.1310 
  106.7500     2.1540    76.3190    23.6880     9.1170     7.2780     9.8240   -27.2120 
  106.8750     2.1550    73.1480    23.7220     9.0960     6.9400     9.2540   -27.3570 
  107.0000     2.1560    71.9280    23.7600     9.3020     6.5180     8.5400   -27.4320 
  107.1250     2.1490    72.8630    23.8330     9.7730     6.2250     7.9980   -27.3250 
  107.2500     2.1490    72.7370    23.8660    10.0360     6.2690     7.9420   -27.1390 
  107.3750     2.1810    70.8400    23.9190    10.0520     6.8650     8.6700   -26.9030 
  107.5000     2.2610    69.5560    24.0380    11.0350     8.2510    10.4690   -26.5960 
  107.6250     2.3830    69.8620    24.2410    15.8770    10.8180    13.8220   -26.2530 
  107.7500     2.5110    68.8010    24.3990    26.1220    14.2350    18.2340   -25.9190 
  107.8750     2.6160    66.8050    24.5630    39.1000    17.3970    22.0820   -25.6760 
  108.0000     2.6750    66.3750    24.6020    46.2260    18.4620    22.7320   -25.6140 
  108.1250     2.6530    68.2240    24.5480    38.9550    16.4330    19.2910   -25.8320 
  108.2500     2.5610    70.5190    24.3390    26.0590    13.3980    15.1250   -26.2270 
  108.3750     2.4290    71.8960    24.0690    16.5330    10.6890    11.9200   -26.7410 
  108.5000     2.2980    72.0690    23.8340    12.5990     8.7570     9.9840   -27.4130 
  108.6250     2.2060    70.9410    23.7710    11.7510     7.6800     9.2190   -28.0770 
  108.7500     2.1530    70.1260    23.6440    11.5170     7.1590     9.1180   -28.6820 
  108.8750     2.1300    69.4050    23.5920    11.4170     7.0230     9.3910   -29.1500 
  109.0000     2.1210    68.2830    23.5670    11.3460     7.1060     9.7610   -29.5060 
  109.1250     2.1220    68.8390    23.7300    11.2450     7.2740     9.9950   -29.6460 
  109.2500     2.1310    70.7920    23.7620    11.1610     7.4410    10.0680   -29.5610 
  109.3750     2.1450    72.2310    23.7240    11.0760     7.6070    10.0650   -29.3790 
  109.5000     2.1560    72.6310    23.7540    10.9940     7.7870    10.0850   -29.2130 
  109.6250     2.1530    72.6900    23.8590    11.2140     7.9780    10.1870   -29.0880 
  109.7500     2.1460    72.9370    23.9320    12.2610     8.1470    10.3370   -28.9410 
  109.8750     2.1420    72.4270    23.9010    14.6180     8.2520    10.4730   -28.7810 
