~V
VERS. 2.00: Ver 2.00
~W
STRT.M 55.0000:
STOP.M 268.0000:
STEP.M 0.1250:
NULL. -999.2500:
UWI. DF5025:
~C
DEPT.M :
SP.MV :
GR.API :
CALI.CM :
RXO.OHMM :
RI. :
RML.OHMM :
DEN.GM/CC :
~A
# ...
  133.7500   -19.1170    68.7870    25.2070    11.4140     9.5490    11.2520     2.2170 
  133.8750   -18.7260    68.1110    25.5630    11.3620     9.4760    11.1580     2.2040 
  134.0000   -18.1760    63.9160    25.7030    11.1340     9.1590    10.7500     2.1890 
  134.1250   -17.4670    62.2870    25.3320    10.5800     8.4640     9.8560     2.1880 
  134.2500   -16.7350    67.1420    24.6640     9.5480     7.5340     8.6610     2.2080 
  134.3750   -16.0730    76.3440    24.1410     8.0380     6.5700     7.4210     2.2420 
  134.5000   -15.5540    86.5200    23.9870     6.4300     5.7770     6.4020     2.2770 
  134.6250   -15.3030    93.1690    23.9160     5.5210     5.3550     5.8590     2.2960 
  134.7500   -15.3020    92.6050    23.7740     5.6330     5.2950     5.7830     2.2950 
  134.8750   -15.5090    84.5190    23.6800     6.6260     5.5800     6.1480     2.2770 
  135.0000   -15.8870    74.6370    23.6750     7.9850     6.1500     6.8820     2.2520 
  135.1250   -16.4290    72.4850    23.6560     8.9960     6.8980     7.8440     2.2370 
  135.2500   -17.0310    75.0750    23.6190     9.4070     7.6090     8.7580     2.2360 
  135.3750   -17.6240    74.8470    23.6580     9.4110     8.1280     9.4240     2.2380 
  135.5000   -18.1420    70.6010    23.7870     9.3620     8.3760     9.7440     2.2350 
  135.6250   -18.5180    67.1580    23.8930     9.4360     8.3640     9.7280     2.2230 
  135.7500   -18.7950    66.0820    23.9700     9.4650     8.2500     9.5820     2.2100 
  135.8750   -19.0110    65.6040    24.0750     9.3210     8.1320     9.4300     2.1990 
  136.0000   -19.1920    66.5890    24.1590     9.0970     8.0550     9.3310     2.1890 
  136.1250   -19.3300    69.7260    24.1160     9.0790     8.0220     9.2890     2.1800 
  136.2500   -19.4200    72.2720    24.0190     9.3140     8.0120     9.2750     2.1730 
  136.3750   -19.4340    71.6870    23.9720     9.6040     8.0250     9.2930     2.1670 
  136.5000   -19.3670    68.4850    23.9780     9.7230     8.0740     9.3550     2.1630 
  136.6250   -19.1650    65.1740    23.9720     9.6350     8.1470     9.4490     2.1660 
  136.7500   -18.8120    63.9020    23.9540     9.5450     8.1750     9.4850     2.1770 
  136.8750   -18.3150    63.7440    23.9300     9.4880     8.0800     9.3630     2.1950 
  137.0000   -17.6850    63.2350    24.0130     9.2720     7.8170     9.0240     2.2120 
  137.1250   -16.9440    67.2310    24.4430     8.5630     7.3930     8.4790     2.2290 
  137.2500   -16.1670    76.2490    24.9520     7.4600     6.9200     7.8710     2.2520 
  137.3750   -15.4250    84.1790    25.1170     6.3030     6.4770     7.3020     2.2840 
  137.5000   -14.7640    86.9080    24.8640     5.4840     6.1130     6.8340     2.3190 
  137.6250   -14.2530    86.2380    24.4740     5.2440     5.8590     6.5070     2.3410 
  137.7500   -13.9080    85.8610    24.1580     5.3120     5.6920     6.2920     2.3490 
  137.8750   -13.7140    86.1080    23.9010     5.4320     5.6000     6.1740     2.3520 
  138.0000   -13.6540    88.4860    23.7220     5.4800     5.5660     6.1300     2.3540 
  138.1250   -13.7100    92.2460    23.6590     5.5110     5.5650     6.1290     2.3530 
  138.2500   -13.7950    93.1560    23.6150     5.5910     5.5670     6.1310     2.3470 
  138.3750   -13.8440    91.2390    23.6110     5.6420     5.5560     6.1170     2.3360 
  138.5000   -13.8420    89.8630    23.7060     5.5380     5.5230     6.0750     2.3220 
  138.6250   -13.7810    91.5540    23.9270     5.2620     5.4480     5.9780     2.3140 
  138.7500   -13.6750    92.5260    24.1690     5.0040     5.3150     5.8080     2.3180 
  138.8750   -13.5310    91.6190    24.3300     4.8570     5.1170     5.5540     2.3280 
  139.0000   -13.3510    89.9040    24.3930     4.7730     4.8730     5.2390     2.3340 
  139.1250   -13.1410    89.3450    24.4590     4.6250     4.6340     4.9330     2.3310 
  139.2500   -12.9360    88.9360    24.5680     4.4130     4.4520     4.6980     2.3300 
  139.3750   -12.7600    90.4720    24.6710     4.2200     4.3360     4.5490     2.3410 
  139.5000   -12.6080    97.8890    24.7220     4.1150     4.2610     4.4530     2.3620 
  139.6250   -12.4660   106.6890    24.7180     4.1060     4.1990     4.3740     2.3770 
  139.7500   -12.3390   106.7830    24.6980     4.1170     4.1530     4.3140     2.3730 
  139.8750   -12.2310    99.8850    24.6590     4.1090     4.1600     4.3230     2.3550 
  140.0000   -12.1470    94.0380    24.6050     4.1500     4.2580     4.4490     2.3450 
  140.1250   -12.0870    93.2140    24.5760     4.5360     4.4840     4.7400     2.3670 
  140.2500   -12.0500    92.1950    24.5960     5.4220     4.8020     5.1480     2.3940 
  140.3750   -12.0330    91.0090    24.6480     6.6120     5.1670     5.6170     2.3980 
  140.5000   -12.0310    89.5200    24.7000     7.5510     5.5130     6.0620     2.3820 
  140.6250   -12.0450    87.8070    24.6940     7.5620     5.7170     6.3240     2.3730 
  140.7500   -12.0740    86.3550    24.6400     6.8380     5.7110     6.3180     2.3680 
  140.8750   -12.1340    85.8220    24.5750     5.8620     5.4890     6.0320     2.3500 
  141.0000   -12.2060    86.3820    24.5160     5.0800     5.1250     5.5630     2.3210 
  141.1250   -12.2880    89.3500    24.4730     4.6910     4.7650     5.1000     2.3090 
  141.2500   -12.3860    92.7480    24.4620     4.5390     4.5310     4.8000     2.3140 
  141.3750   -12.4960    92.7760    24.5020     4.5350     4.4590     4.7070     2.3160 
  141.5000   -12.6080    90.1550    24.5720     4.6460     4.5160     4.7800     2.3030 
  141.6250   -12.7230    89.9030    24.5930     4.8090     4.6250     4.9210     2.2870 
  141.7500   -12.8230    90.9940    24.5390     4.9050     4.7080     5.0270     2.2730 
  141.8750   -12.9200    91.6280    24.4740     4.9020     4.7400     5.0680     2.2550 
  142.0000   -13.0470    91.7610    24.4290     4.8720     4.7540     5.0860     2.2340 
  142.1250   -13.2360    90.7190    24.4760     4.8090     4.7930     5.1370     2.2320 
  142.2500   -13.4960    89.8080    24.6660     4.9980     4.9010     5.2760     2.2600 
  142.3750   -13.8100    89.1130    24.8070     5.7630     5.1220     5.5590     2.3140 
  142.5000   -14.1620    87.4590    24.8560     7.1800     5.4620     5.9970     2.3770 
  142.6250   -14.5230    85.1820    25.1820     8.6160     5.8770     6.5300     2.4130 
  142.7500   -14.8600    84.3200    25.5360     9.1540     6.2410     6.9990     2.4030 
  142.8750   -15.1370    85.7060    25.4160     8.6230     6.4420     7.2570     2.3520 
  143.0000   -15.3230    88.6420    24.7800     7.5970     6.4120     7.2190     2.2910 
  143.1250   -15.4020    93.3470    24.1510     6.8150     6.1510     6.8830     2.2590 
  143.2500   -15.3870    96.6450    23.7740     6.3300     5.8100     6.4440     2.2630 
  143.3750   -15.3210    95.4540    23.5880     5.9190     5.5110     6.0600     2.2860 
  143.5000   -15.2510    91.8450    23.7160     5.5550     5.3500     5.8520     2.3140 
  143.6250   -15.2090    90.1650    24.0900     5.6420     5.4040     5.9220     2.3360 
  143.7500   -15.2380    87.9890    24.3280     6.4190     5.6280     6.2110     2.3470 
  143.8750   -15.3210    83.1980    24.3900     7.6250     5.9570     6.6330     2.3380 
  144.0000   -15.4300    79.6730    24.5780     8.5040     6.2880     7.0580     2.3070 
  144.1250   -15.5220    82.6120    24.8220     8.2450     6.4830     7.3100     2.2730 
  144.2500   -15.5840    86.6080    24.8910     7.2580     6.4960     7.3270     2.2620 
  144.3750   -15.5980    88.6720    24.8260     6.2370     6.3420     7.1280     2.2730 
  144.5000   -15.5580    89.2000    24.7250     5.6410     6.0860     6.7990     2.2910 
  144.6250   -15.4540    90.5700    24.5770     5.5110     5.8210     6.4590     2.3050 
  144.7500   -15.2790    92.2800    24.3740     5.5360     5.6200     6.1990     2.3130 
  144.8750   -15.0810    92.0160    24.2890     5.5550     5.4990     6.0440     2.3180 
