~V
VERS. 2.00: Ver 2.00
~W
STRT.M 50.0000:
STOP.M 260.0000:
STEP.M 0.1250:
NULL. -999.2500:
UWI. DF5023:
~C
DEPT.M :
GR.API :
RML.OHMM :
RI. :
RXO.OHMM :
CALI.CM :
DEN.GM/CC :
SP.MV :
~A
# ...
  151.2500    86.9480     9.8940     8.9170    10.4670    23.3930     2.2200   -18.1460 
  151.3750    85.8740    10.0370     9.2120    10.6370    23.5110     2.2210   -17.9300 
  151.5000    85.1500    10.3810     9.6120    10.5490    23.7680     2.2360   -17.6610 
  151.6250    83.3680    11.0820    10.2720    10.3630    24.0450     2.2810   -17.2230 
  151.7500    76.7870    12.0200    11.1370    11.1490    24.1570     2.3500   -16.7970 
  151.8750    67.4770    12.9890    12.0560    14.1780    24.1800     2.4290   -16.3400 
  152.0000    62.3370    13.7180    12.8060    18.5310    24.1800     2.4980   -15.9760 
  152.1250    64.9800    13.8610    13.0720    21.7930    24.1800     2.5250   -15.7320 
  152.2500    69.5200    13.4670    12.8490    21.7250    24.1780     2.5110   -15.5860 
  152.3750    73.0630    12.7800    12.3000    19.2230    24.1760     2.4700   -15.4900 
  152.5000    76.9000    12.0890    11.6950    15.5080    24.1770     2.4270   -15.4700 
  152.6250    79.4670    11.8140    11.3770    13.4500    24.1770     2.4070   -15.4130 
  152.7500    77.2750    12.1160    11.5250    12.8020    24.1770     2.4170   -15.2990 
  152.8750    69.8580    13.1490    12.2130    13.3190    24.1790     2.4550   -15.2350 
  153.0000    61.3260    14.7700    13.3870    15.2800    24.1800     2.5100   -15.1280 
  153.1250    57.9240    17.0710    14.9310    18.2640    24.1810     2.5610   -15.0980 
  153.2500    58.8530    19.4630    16.5520    19.1980    24.1850     2.5930   -14.9820 
  153.3750    59.2760    21.2760    18.0160    18.7830    24.1880     2.6030   -14.9390 
  153.5000    57.0990    22.3380    19.1460    19.2480    24.1900     2.6010   -14.8600 
  153.6250    54.9880    22.8060    19.8010    20.5960    24.1900     2.5980   -14.8570 
  153.7500    54.1220    22.8210    20.0680    22.4110    24.1900     2.6000   -14.9180 
  153.8750    53.0490    22.5180    20.0290    23.7970    24.1900     2.6040   -14.9140 
  154.0000    51.8680    22.0890    19.8040    23.0560    24.1900     2.6030   -14.9270 
  154.1250    50.7240    21.7000    19.5170    20.2840    24.1890     2.5930   -14.8340 
  154.2500    49.0930    21.4700    19.2920    17.9350    24.1850     2.5800   -14.8320 
  154.3750    48.3740    21.5040    19.2250    17.3590    24.1750     2.5690   -14.7710 
  154.5000    48.7240    21.8350    19.3660    18.0200    24.1660     2.5650   -14.7440 
  154.6250    48.3610    22.4550    19.7380    19.5150    24.1640     2.5670   -14.6920 
  154.7500    48.1160    23.2100    20.2530    21.0450    24.1600     2.5700   -14.6340 
  154.8750    48.6150    23.9590    20.8300    21.4110    24.1390     2.5680   -14.6170 
  155.0000    49.7690    24.5620    21.3860    21.6290    24.1050     2.5610   -14.5670 
  155.1250    51.3690    24.9220    21.8400    22.2180    24.0510     2.5520   -14.5470 
  155.2500    53.5700    25.0890    22.1720    23.1060    24.0660     2.5430   -14.4720 
  155.3750    54.2060    25.0900    22.3820    23.7460    24.1920     2.5360   -14.4570 
  155.5000    51.3190    24.9670    22.4860    23.9580    24.3370     2.5290   -14.4260 
  155.6250    48.2090    24.7770    22.4860    22.5050    24.3990     2.5230   -14.4260 
  155.7500    47.2680    24.5590    22.4180    22.2040    24.4060     2.5170   -14.3650 
  155.8750    49.9640    24.3460    22.3090    22.5670    24.4050     2.5130   -14.3590 
  156.0000    55.2690    24.1570    22.1760    21.8490    24.4040     2.5140   -14.3470 
  156.1250    59.0120    23.9630    22.0060    21.1600    24.3940     2.5210   -14.3990 
  156.2500    58.6760    23.6980    21.7750    21.1560    24.3700     2.5320   -14.4290 
  156.3750    55.9050    23.2990    21.4300    21.5690    24.3460     2.5440   -14.4280 
  156.5000    54.1710    22.7330    20.9330    22.0450    24.3360     2.5540   -14.3960 
  156.6250    53.8130    22.0030    20.2650    21.3070    24.3350     2.5540   -14.3330 
  156.7500    56.3740    21.2230    19.5210    20.6420    24.3310     2.5460   -14.3500 
  156.8750    61.9370    20.5000    18.7870    19.6530    24.3390     2.5320   -14.2660 
  157.0000    66.6100    19.9200    18.1580    18.2150    24.4000     2.5170   -14.2250 
  157.1250    66.8020    19.5800    17.7440    16.9890    24.5550     2.5050   -14.1090 
  157.2500    65.3250    19.4580    17.5460    16.6180    24.6990     2.4960   -14.0540 
  157.3750    64.5240    19.5090    17.5510    16.9670    24.7560     2.4890   -13.9990 
  157.5000    62.1440    19.6760    17.7080    16.9600    24.7780     2.4830   -13.9990 
  157.6250    56.9840    19.8790    17.9440    17.2100    24.8300     2.4800   -14.0200 
  157.7500    53.8780    20.0250    18.1600    16.9370    24.8940     2.4810   -13.9960 
  157.8750    54.5680    20.0670    18.2890    16.6990    24.9230     2.4870   -14.0040 
  158.0000    57.1810    19.9840    18.2890    16.9950    24.9270     2.4950   -13.9930 
  158.1250    59.4440    19.7530    18.1230    17.4320    24.9210     2.4960   -13.9650 
  158.2500    60.3320    19.4030    17.8250    18.1000    24.9230     2.4890   -13.9320 
  158.3750    59.9890    18.9540    17.4130    18.8270    24.9450     2.4750   -13.9070 
  158.5000    59.6840    18.4230    16.9090    18.5790    24.9830     2.4630   -13.8460 
  158.6250    61.3350    17.8080    16.3220    17.4130    25.0060     2.4600   -13.7750 
  158.7500    62.9430    17.1580    15.6940    16.3210    25.0130     2.4670   -13.6720 
  158.8750    62.8340    16.5090    15.0630    15.3180    25.0080     2.4780   -13.6020 
  159.0000    61.0920    15.9010    14.4690    14.8340    25.0020     2.4860   -13.5050 
  159.1250    59.5240    15.4090    13.9610    14.2130    25.0000     2.4890   -13.5090 
  159.2500    59.5830    15.0520    13.5690    13.1450    24.9990     2.4900   -13.4830 
  159.3750    60.1870    14.8590    13.3260    12.2750    24.9970     2.4910   -13.4890 
  159.5000    58.0020    14.8520    13.2560    12.1440    24.9910     2.4960   -13.4740 
  159.6250    56.0650    15.0760    13.3950    12.9190    24.9930     2.5020   -13.5080 
  159.7500    58.3280    15.4700    13.6900    13.9380    24.9910     2.5070   -13.5260 
  159.8750    61.4420    15.9830    14.0990    14.6730    24.9910     2.5100   -13.5120 
  160.0000    60.8210    16.5490    14.5570    15.0510    24.9940     2.5130   -13.5780 
  160.1250    58.3730    17.0730    14.9850    16.0480    25.0000     2.5180   -13.5400 
  160.2500    58.9890    17.5110    15.3320    16.9030    25.0030     2.5260   -13.5410 
  160.3750    61.3380    17.8580    15.5900    17.0640    25.0010     2.5370   -13.4790 
  160.5000    63.7960    18.1510    15.7960    16.9790    25.0010     2.5480   -13.4860 
  160.6250    66.4480    18.4820    16.0360    16.7260    25.0040     2.5560   -13.4080 
  160.7500    69.2080    18.9240    16.3800    16.8160    25.0080     2.5570   -13.4070 
  160.8750    70.7270    19.5010    16.8620    17.3460    25.0100     2.5480   -13.4100 
  161.0000    71.2340    20.1890    17.4870    18.5340    25.0090     2.5320   -13.3700 
  161.1250    72.4860    20.9320    18.2140    19.4190    25.0040     2.5130   -13.3810 
  161.2500    72.9350    21.5980    18.9290    20.4480    24.9970     2.4970   -13.4070 
  161.3750    69.7130    22.1020    19.5580    21.4880    24.9910     2.4880   -13.4830 
  161.5000    64.3970    22.4290    20.0690    22.2350    24.9880     2.4860   -13.5780 
  161.6250    63.7850    22.6270    20.4870    21.8980    24.9870     2.4900   -13.7460 
  161.7500    68.6490    22.8230    20.9040    21.1140    24.9890     2.4970   -13.9140 
  161.8750    73.4680    23.0470    21.3480    20.2660    24.9900     2.5030   -14.1090 
  162.0000    74.5060    23.1830    21.7310    19.5830    24.9900     2.5070   -14.3710 
  162.1250    73.9210    22.9300    21.7640    20.0090    24.9910     2.5060   -14.6760 
  162.2500    75.5000    22.1000    21.2310    21.1450    24.9920     2.4970   -14.9970 
  162.3750    77.4480    20.6040    19.9940    21.8470    25.0280     2.4760   -15.3220 
