~V
VERS. 2.00: Ver 2.00
~W
STRT.M 53.0000:
STOP.M 257.0000:
STEP.M 0.1250:
NULL. -999.2500:
UWI. DF5014:
~C
DEPT.M :
GR.API :
RML.OHMM :
RI. :
RXO.OHMM :
CALI.CM :
DEN.GM/CC :
SP.MV :
~A
# ...
  165.5000    78.8370    28.4860    24.5410    34.6260    24.3590     2.3160   -15.6110 
  165.6250    76.4780    32.6040    28.4890    41.0950    24.3460     2.3010   -15.5870 
  165.7500    75.5360    36.2780    32.1390    42.6770    24.3150     2.2920   -15.5290 
  165.8750    75.1820    39.9110    35.5260    42.5240    24.3000     2.2880   -15.4130 
  166.0000    73.3990    44.4210    39.3670    44.4970    24.2940     2.2860   -15.2910 
  166.1250    71.0560    50.3850    44.3180    50.6300    24.2940     2.2830   -15.1830 
  166.2500    70.3170    57.5890    50.4590    62.7790    24.3010     2.2790   -15.1200 
  166.3750    70.8760    64.6300    56.8550    71.0600    24.3260     2.2770   -15.0260 
  166.5000    71.2610    69.6430    61.8430    72.4990    24.3480     2.2780   -15.0110 
  166.6250    71.4270    71.4730    64.2340    67.9040    24.3440     2.2810   -15.0370 
  166.7500    72.5010    70.1480    63.7860    61.0060    24.3120     2.2840   -15.0840 
  166.8750    74.2750    66.8930    61.3100    53.3380    24.2920     2.2840   -15.1040 
  167.0000    75.0090    63.9410    58.7940    48.0540    24.2710     2.2800   -15.0850 
  167.1250    73.7640    62.5770    57.4640    46.2690    24.2180     2.2720   -15.0380 
  167.2500    72.5060    63.5580    58.0990    47.4090    24.1040     2.2630   -14.9690 
  167.3750    74.5830    67.6060    61.4570    51.1780    23.8970     2.2550   -14.9200 
  167.5000    76.4530    73.8570    66.8980    57.7750    23.6870     2.2500   -14.8290 
  167.6250    74.0720    81.1880    73.5300    67.0320    23.5880     2.2470   -14.7420 
  167.7500    67.6730    87.9510    79.9540    76.0320    23.6270     2.2460   -14.6640 
  167.8750    64.7610    91.9420    84.1930    82.9830    23.6990     2.2460   -14.5850 
  168.0000    66.0920    92.8800    85.7410    81.1110    23.7450     2.2470   -14.5300 
  168.1250    68.6580    91.7310    85.1810    73.3210    23.7630     2.2490   -14.4850 
  168.2500    70.6610    90.4590    84.0690    65.5890    23.7630     2.2510   -14.4450 
  168.3750    71.7680    91.4850    84.5720    60.5070    23.7120     2.2520   -14.3800 
  168.5000    70.3390    95.3190    87.5120    58.0880    23.5760     2.2520   -14.3110 
  168.6250    66.0950   101.3610    92.6520    59.4250    23.3700     2.2500   -14.1880 
  168.7500    62.5170   108.1290    98.8500    62.6460    23.1840     2.2470   -14.0310 
  168.8750    62.1130   113.3530   104.1720    66.0510    23.1170     2.2440   -13.9040 
  169.0000    64.5800   115.7740   107.2640    66.9530    23.1030     2.2410   -13.8240 
  169.1250    68.2060   115.1890   107.7260    66.7940    23.1030     2.2380   -13.7520 
  169.2500    69.2670   112.4050   106.0760    67.7900    23.1040     2.2360   -13.6960 
  169.3750    65.6450   108.8570   103.4610    69.6820    23.1350     2.2350   -13.6670 
  169.5000    62.9730   105.9880   101.3060    71.6590    23.2070     2.2350   -13.7050 
  169.6250    64.7280   104.4010   100.3080    72.8890    23.2660     2.2370   -13.8170 
  169.7500    66.9000   104.3160   100.6200    72.4720    23.2630     2.2390   -13.9530 
  169.8750    66.1990   105.3880   101.8450    70.9770    23.2060     2.2370   -14.0400 
  170.0000    66.4130   106.5970   102.7720    70.5380    23.2040     2.2330   -14.0630 
  170.1250    67.2740   106.8180   102.3290    71.3180    23.2930     2.2290   -14.0170 
  170.2500    66.5830   105.4360    99.8170    72.9610    23.4990     2.2280   -13.9040 
  170.3750    65.0880   102.0540    95.1840    74.2340    23.7420     2.2320   -13.7720 
  170.5000    65.3920    97.1630    90.0750    74.0680    23.8670     2.2390   -13.5780 
  170.6250    65.8640    93.0670    86.0800    69.7080    23.8230     2.2460   -13.3160 
  170.7500    64.7230    91.9340    84.5240    65.0880    23.7120     2.2500   -13.0080 
  170.8750    62.5820    94.8500    86.6640    62.4860    23.6650     2.2490   -12.7410 
  171.0000    61.3860   100.8740    91.8540    64.2710    23.7620     2.2440   -12.5230 
  171.1250    63.6130   109.1320    99.3570    70.4790    23.9740     2.2360   -12.3320 
  171.2500    66.2130   118.4660   108.0700    77.2890    24.1590     2.2280   -12.1410 
  171.3750    62.3390   127.4980   116.6380    84.9590    24.2480     2.2220   -11.9310 
  171.5000    57.2300   135.2200   124.0300    94.0430    24.2540     2.2170   -11.7050 
  171.6250    57.2510   141.0980   129.7320   102.5910    24.2500     2.2160   -11.4520 
  171.7500    60.4010   144.9520   133.5750   106.7460    24.2660     2.2180   -11.1780 
  171.8750    61.2550   146.6000   135.3720   105.7670    24.2480     2.2240   -10.8910 
  172.0000    61.8860   146.7060   135.7130   104.8140    24.1540     2.2310   -10.5890 
  172.1250    63.8450   145.7110   134.9880   104.7000    24.0050     2.2360   -10.3600 
  172.2500    64.6590   144.0950   133.6600   103.5170    23.9270     2.2370   -10.2080 
  172.3750    65.3950   142.2110   132.1060   102.2050    23.9960     2.2350   -10.1590 
  172.5000    68.2040   140.2760   130.5540   101.1620    24.1170     2.2320   -10.1960 
  172.6250    71.1600   138.4650   129.1340   100.6660    24.2250     2.2310   -10.4160 
  172.7500    72.0440   137.1530   128.1410   100.3680    24.2770     2.2320   -10.7580 
  172.8750    70.7740   137.2230   128.3170    99.9230    24.2860     2.2340   -11.2260 
  173.0000    70.3610   139.2460   130.1760    99.5130    24.2860     2.2340   -11.7770 
  173.1250    70.5140   143.7380   134.2110   100.4910    24.2860     2.2300   -12.3370 
  173.2500    68.8270   150.8400   140.6110   104.6450    24.2860     2.2250   -12.8880 
  173.3750    65.9440   160.4060   149.3120   109.2690    24.2770     2.2200   -13.3860 
  173.5000    63.0530   171.0160   159.0050   110.7090    24.2560     2.2180   -13.8070 
  173.6250    60.2570   181.4950   168.5480   109.6610    24.2350     2.2170   -14.0590 
  173.7500    57.8630   190.7670   176.8750   107.7850    24.2260     2.2170   -14.2010 
  173.8750    58.5650   197.7700   182.9490   104.4100    24.2250     2.2160   -14.2290 
  174.0000    59.5400   202.6910   187.0170   101.2260    24.2230     2.2130   -14.1650 
  174.1250    58.3970   205.8130   189.4350    98.9190    24.2210     2.2100   -14.0090 
  174.2500    57.2540   207.6940   190.8080    98.5010    24.2240     2.2080   -13.7680 
  174.3750    59.2750   209.3170   192.1410   100.3850    24.2260     2.2080   -13.4830 
  174.5000    61.0340   211.9520   194.6630   102.9380    24.2250     2.2100   -13.1740 
  174.6250    59.7210   216.3890   199.2510   104.4750    24.2150     2.2110   -12.8730 
  174.7500    58.0590   222.5770   206.0870   104.7850    24.1900     2.2120   -12.5600 
  174.8750    58.8750   228.7530   213.9820   105.1920    24.1700     2.2100   -12.2050 
  175.0000    60.4550   231.5050   219.7320   107.4300    24.1790     2.2080   -11.8410 
  175.1250    60.1020   227.4220   219.9090   109.8490    24.2030     2.2060   -11.5810 
  175.2500    58.0710   214.3270   211.8150   109.6490    24.2190     2.2060   -11.4200 
  175.3750    58.7060   191.6390   193.6620   104.9460    24.2220     2.2080   -11.3040 
  175.5000    62.6640   164.5300   169.6150    97.0990    24.2340     2.2140   -11.2000 
  175.6250    68.2150   137.0270   143.4460    85.6360    24.2610     2.2230   -11.1380 
  175.7500    72.5850   112.1140   118.5370    70.8230    24.2810     2.2350   -11.0970 
  175.8750    76.7590    92.3150    97.9520    54.5910    24.2860     2.2540   -11.0050 
  176.0000    82.2340    77.7520    82.3140    39.5480    24.2690     2.2760   -10.8440 
  176.1250    86.6040    68.8090    72.1220    28.5710    24.2230     2.2990   -10.5400 
  176.2500    84.8790    65.8160    67.7740    22.5520    24.1630     2.3160   -10.1570 
  176.3750    76.2630    70.5170    71.1850    22.5790    24.0740     2.3170    -9.7200 
  176.5000    67.9730    82.8060    82.4690    28.9310    23.9390     2.3010    -9.3000 
  176.6250    62.0380   103.5190   102.5610    38.8100    23.8360     2.2710    -8.8620 
