~V
VERS. 2.00: Ver 2.00
~W
STRT.M 61.0000:
STOP.M 247.0000:
STEP.M 0.1250:
NULL. -999.2500:
UWI. DF5042:
~C
DEPT.M :
SP.MV :
GR.API :
CALI.CM :
RXO.OHMM :
RI. :
RML.OHMM :
DEN.GM/CC :
~A
# ...
  139.7500   -24.0000    81.8220    25.7870    11.0000     9.0060     9.9380     2.1440 
  139.8750   -24.1130    86.2570    25.7630    10.0380     8.1170     8.8020     2.1620 
  140.0000   -24.1590    91.7770    25.6810     7.9660     7.2130     7.7850     2.1980 
  140.1250   -24.1560    93.8330    25.5080     6.4850     6.5320     7.1350     2.2480 
  140.2500   -24.1120    91.2940    25.3400     7.0790     6.1260     6.8490     2.3020 
  140.3750   -24.1010    87.3320    25.2900     7.6790     6.0270     6.9500     2.3480 
  140.5000   -24.1100    85.4990    25.3770     6.8190     6.2780     7.5000     2.3810 
  140.6250   -24.1380    85.0710    25.4940     6.4820     7.0300     8.6780     2.4050 
  140.7500   -24.1740    81.3290    25.5470     8.4640     8.2520    10.3490     2.4270 
  140.8750   -24.1990    72.0930    25.5470    11.0870     9.8460    12.2360     2.4510 
  141.0000   -24.2440    61.1430    25.5310    12.2690    11.4900    13.8520     2.4720 
  141.1250   -24.2930    55.7410    25.5140    12.4580    12.5620    14.5560     2.4820 
  141.2500   -24.3650    57.0120    25.5090    11.9700    12.8650    14.4500     2.4780 
  141.3750   -24.4120    61.7700    25.5230    11.0680    12.6580    14.0360     2.4620 
  141.5000   -24.4490    66.4310    25.5430     9.6400    12.4590    13.9720     2.4490 
  141.6250   -24.4640    68.8320    25.5330    10.3370    12.8220    14.8670     2.4460 
  141.7500   -24.4520    67.0780    25.4870    13.4450    13.8610    16.6220     2.4590 
  141.8750   -24.4370    61.5950    25.4260    16.1880    15.5160    18.9630     2.4880 
  142.0000   -24.3910    55.1670    25.3810    17.5120    17.5440    21.4220     2.5230 
  142.1250   -24.3540    50.8540    25.3690    19.3070    19.3960    23.2650     2.5530 
  142.2500   -24.3220    48.1980    25.3640    20.2280    20.5630    24.1430     2.5710 
  142.3750   -24.3090    46.7700    25.3500    18.8320    20.9130    24.1170     2.5760 
  142.5000   -24.2570    48.2240    25.3250    16.3570    20.6670    23.5530     2.5740 
  142.6250   -24.2170    53.1940    25.3140    15.1810    20.1510    22.8620     2.5700 
  142.7500   -24.1910    58.1380    25.3280    15.0610    19.6590    22.3220     2.5650 
  142.8750   -24.1870    60.3220    25.3520    15.6280    19.3280    22.0320     2.5550 
  143.0000   -24.2080    60.7610    25.3660    15.9880    19.2170    21.9970     2.5430 
  143.1250   -24.2080    61.7680    25.3680    16.1470    19.3150    22.1500     2.5300 
  143.2500   -24.1900    62.6440    25.3670    15.6790    19.5010    22.3480     2.5210 
  143.3750   -24.1440    63.6430    25.3670    15.5610    19.6820    22.4980     2.5170 
  143.5000   -24.1100    66.6190    25.3670    16.3270    19.7580    22.4900     2.5120 
  143.6250   -24.0830    69.7250    25.3670    16.6490    19.5690    22.1570     2.5040 
  143.7500   -24.0740    69.6000    25.3650    16.0510    19.0860    21.5080     2.4930 
  143.8750   -24.0520    67.5200    25.3500    15.2700    18.3620    20.6350     2.4830 
  144.0000   -24.0480    66.8960    25.3150    14.1910    17.5480    19.7240     2.4780 
  144.1250   -24.0680    67.4540    25.2670    12.7170    16.8870    19.0590     2.4770 
  144.2500   -24.1010    66.3970    25.2290    12.0940    16.5230    18.7740     2.4800 
  144.3750   -24.1680    63.9700    25.2090    12.5610    16.5090    18.8900     2.4860 
  144.5000   -24.2640    62.1110    25.2010    13.6050    16.8220    19.3460     2.4940 
  144.6250   -24.3270    62.0730    25.1980    14.2960    17.4150    20.0400     2.5020 
  144.7500   -24.3300    62.4850    25.1910    14.8340    18.1110    20.7710     2.5080 
  144.8750   -24.2780    61.2640    25.1690    14.8210    18.7650    21.3880     2.5110 
  145.0000   -24.2050    58.6600    25.1420    14.7130    19.2250    21.7460     2.5110 
  145.1250   -24.1650    57.8710    25.1570    15.3930    19.2420    21.5860     2.5110 
  145.2500   -24.1530    59.9320    25.2180    15.5940    18.7190    20.8360     2.5130 
  145.3750   -24.1250    61.9470    25.2870    14.8210    17.6520    19.5200     2.5130 
  145.5000   -24.0780    59.4380    25.3320    14.0540    16.2230    17.8610     2.5090 
  145.6250   -24.0520    56.1460    25.3520    12.1950    14.7710    16.2730     2.5020 
  145.7500   -24.0680    57.5800    25.3590    10.1770    13.6080    15.0950     2.4930 
  145.8750   -24.1560    62.6990    25.3620     9.2600    12.8750    14.4710     2.4870 
  146.0000   -24.2520    65.9700    25.3830    10.9760    12.6000    14.3850     2.4870 
  146.1250   -24.3450    64.4340    25.4250    12.1820    12.7760    14.7550     2.4920 
  146.2500   -24.4200    61.0870    25.4610    12.3630    13.2130    15.3240     2.4970 
  146.3750   -24.5040    57.5530    25.4770    11.7920    13.7790    15.9370     2.5000 
  146.5000   -24.5800    55.6350    25.4720    11.6660    14.3470    16.4830     2.5030 
  146.6250   -24.6290    55.1590    25.4420    12.0880    14.8160    16.8970     2.5060 
  146.7500   -24.6550    55.3710    25.3980    12.1790    15.1880    17.2300     2.5130 
  146.8750   -24.6440    55.8780    25.3670    12.2830    15.4990    17.5340     2.5230 
  147.0000   -24.6240    56.0910    25.3740    12.4720    15.7770    17.8340     2.5320 
  147.1250   -24.5620    54.8900    25.4170    12.5470    16.0100    18.1030     2.5360 
  147.2500   -24.5220    52.5910    25.4620    12.9450    16.1590    18.2770     2.5330 
  147.3750   -24.4980    51.4450    25.4940    13.6210    16.1680    18.2770     2.5210 
  147.5000   -24.4880    53.0530    25.5120    13.9400    15.9850    18.0470     2.5060 
  147.6250   -24.4910    58.9050    25.5190    13.4400    15.5820    17.5710     2.4890 
  147.7500   -24.4950    65.8460    25.5120    12.5150    15.0800    16.9940     2.4740 
  147.8750   -24.5100    68.4930    25.4940    11.8410    14.5900    16.4510     2.4640 
  148.0000   -24.5360    64.8280    25.4760    11.8620    14.2180    16.0670     2.4570 
  148.1250   -24.5710    60.5780    25.4670    11.7950    14.0770    15.9610     2.4560 
  148.2500   -24.6010    60.1230    25.4630    11.7810    14.1560    16.0990     2.4580 
  148.3750   -24.5950    61.7860    25.4600    11.9680    14.4260    16.4230     2.4630 
  148.5000   -24.5910    61.7610    25.4610    12.5940    14.8210    16.8320     2.4690 
  148.6250   -24.5860    61.2860    25.4560    13.4570    15.2350    17.1760     2.4730 
  148.7500   -24.6090    62.1840    25.4270    13.9690    15.5490    17.3290     2.4740 
  148.8750   -24.6620    62.2170    25.3730    14.0140    15.6930    17.2270     2.4740 
  149.0000   -24.8010    60.9070    25.3180    13.7130    15.6530    16.8790     2.4730 
  149.1250   -25.0400    59.8530    25.2930    13.3780    15.4480    16.3420     2.4740 
  149.2500   -25.3390    60.5340    25.2790    12.6470    15.1690    15.7580     2.4780 
  149.3750   -25.6990    61.4650    25.2560    11.9610    14.8740    15.2180     2.4820 
  149.5000   -26.1060    60.6300    25.2250    11.6930    14.6200    14.7880     2.4840 
  149.6250   -26.4650    59.3330    25.2000    11.3760    14.4580    14.5220     2.4830 
  149.7500   -26.6860    58.6760    25.1870    10.8980    14.3730    14.3700     2.4810 
  149.8750   -27.0900    60.2310    25.1820    10.6720    14.3070    14.2580     2.4790 
  150.0000   -27.5110    63.8330    25.1820    10.7880    14.1520    14.0700     2.4760 
  150.1250   -27.8460    66.1080    25.1820    10.7470    13.7160    13.6120     2.4720 
  150.2500   -28.0680    66.6680    25.1820    10.1660    12.9290    12.8330     2.4660 
  150.3750   -28.2370    66.2670    25.1820     9.2230    11.8420    11.8030     2.4570 
  150.5000   -28.4150    65.2110    25.1820     8.4250    10.6650    10.7630     2.4440 
  150.6250   -28.5540    63.6340    25.1810     7.5690     9.7830    10.1720     2.4280 
  150.7500   -28.6380    63.4320    25.1930     6.8780     9.4730    10.3820     2.4110 
  150.8750   -28.6880    67.6070    25.2260     7.2350     9.9920    11.7840     2.3940 
