~V
VERS. 2.00: Ver 2.00
~W
STRT.M 53.0000:
STOP.M 257.0000:
STEP.M 0.1250:
NULL. -999.2500:
UWI. DF5014:
~C
DEPT.M :
GR.API :
RML.OHMM :
RI. :
RXO.OHMM :
CALI.CM :
DEN.GM/CC :
SP.MV :
~A
# ...
  131.7500    62.3590    12.1860    11.4910     9.0140    22.5280     2.2050   -13.3540 
  131.8750    60.8230    12.2820    11.5610     9.0900    22.4700     2.2020   -13.4100 
  132.0000    62.2590    12.4090    11.6810     9.2690    22.4150     2.2060   -13.4770 
  132.1250    64.0730    12.5140    11.8060     9.5200    22.4540     2.2160   -13.5070 
  132.2500    66.8090    12.5570    11.8930     9.7200    22.5660     2.2270   -13.5140 
  132.3750    70.3610    12.5130    11.9040     9.7210    22.5620     2.2330   -13.4850 
  132.5000    72.3290    12.4230    11.8500     9.5550    22.3860     2.2330   -13.4160 
  132.6250    71.7140    12.3210    11.7490     9.3700    22.1290     2.2290   -13.3070 
  132.7500    70.0280    12.2280    11.6230     9.2700    21.9460     2.2230   -13.2090 
  132.8750    68.2380    12.1420    11.4860     9.2360    21.8940     2.2160   -13.1830 
  133.0000    65.8950    12.0510    11.3520     9.2110    21.8850     2.2100   -13.1700 
  133.1250    65.1680    11.9600    11.2300     9.1870    21.8850     2.2060   -13.1930 
  133.2500    67.4440    11.8920    11.1340     9.1680    21.8850     2.2080   -13.2890 
  133.3750    71.7600    11.9030    11.0990     9.2370    21.8850     2.2170   -13.4020 
  133.5000    75.7920    12.0200    11.1470     9.4370    21.8850     2.2320   -13.5150 
  133.6250    78.0940    12.2660    11.2980     9.8280    21.8850     2.2480   -13.6280 
  133.7500    78.9830    12.6320    11.5500    10.4360    21.8850     2.2600   -13.6800 
  133.8750    78.7430    13.0720    11.8740    11.1890    21.8850     2.2630   -13.6570 
  134.0000    77.8160    13.4690    12.1860    12.1100    21.8850     2.2600   -13.6100 
  134.1250    74.4310    13.7200    12.4110    12.8490    21.8850     2.2530   -13.5360 
  134.2500    68.2010    13.7550    12.4900    13.1440    21.8850     2.2430   -13.3940 
  134.3750    64.6710    13.5400    12.3770    12.4220    21.8840     2.2340   -13.2320 
  134.5000    65.6190    13.1910    12.1370    10.7830    21.8730     2.2250   -13.1350 
  134.6250    68.3840    12.8110    11.8440     9.6310    21.8490     2.2170   -13.0920 
  134.7500    67.9760    12.5020    11.5780     9.1560    21.8250     2.2110   -13.1260 
  134.8750    65.7330    12.3830    11.4430     9.0790    21.7820     2.2080   -13.2360 
  135.0000    66.6130    12.4700    11.4680     9.1140    21.7430     2.2080   -13.3890 
  135.1250    70.1890    12.7450    11.6510     9.2200    21.8280     2.2150   -13.5870 
  135.2500    71.5730    13.1270    11.9410     9.4630    22.1740     2.2330   -13.8410 
  135.3750    66.2010    13.4510    12.2240     9.7120    22.6180     2.2620   -14.1170 
  135.5000    60.3230    13.5640    12.3650     9.7960    22.9020     2.2910   -14.3540 
  135.6250    59.8470    13.3810    12.2810     9.5370    22.9710     2.3090   -14.5580 
  135.7500    63.5290    12.9200    11.9620     9.2040    22.9570     2.3060   -14.7570 
  135.8750    66.6710    12.3030    11.4810     8.9730    22.9620     2.2830   -14.9540 
  136.0000    67.8600    11.7500    11.0180     8.7960    22.9910     2.2560   -15.1320 
  136.1250    68.6220    11.3930    10.6850     8.7150    23.0110     2.2370   -15.2840 
  136.2500    68.0300    11.2690    10.5360     8.7720    23.0240     2.2290   -15.3980 
  136.3750    66.6650    11.3280    10.5650     8.9720    23.0370     2.2280   -15.4900 
  136.5000    66.2790    11.3960    10.6530     9.1320    23.0510     2.2280   -15.5300 
  136.6250    66.6840    11.3450    10.6960     9.2050    23.0580     2.2260   -15.4960 
  136.7500    68.0580    11.1150    10.6230     9.2060    23.0600     2.2250   -15.3740 
  136.8750    69.8230    10.7330    10.4130     9.0810    23.0710     2.2260   -15.1580 
  137.0000    69.8980    10.3450    10.1580     8.7700    23.0950     2.2290   -14.8890 
  137.1250    69.5270    10.0480     9.9320     8.2730    23.1130     2.2310   -14.5890 
  137.2500    72.7480     9.8530     9.7600     7.7660    23.0900     2.2300   -14.2760 
  137.3750    75.7390     9.6540     9.5730     7.6310    23.0170     2.2260   -13.9800 
  137.5000    73.9790     9.2940     9.2550     7.8370    22.9770     2.2260   -13.7480 
  137.6250    71.0140     8.6890     8.7300     7.8470    23.0270     2.2350   -13.5720 
  137.7500    72.7700     7.8700     8.0110     7.4120    23.1920     2.2560   -13.4160 
  137.8750    79.8720     7.0000     7.2210     6.5530    23.4570     2.2850   -13.2820 
  138.0000    89.0550     6.3000     6.5510     5.7750    23.6800     2.3110   -13.1840 
  138.1250    96.5000     5.8950     6.1220     5.4440    23.7160     2.3260   -13.1140 
  138.2500    98.3200     5.8100     5.9720     5.5850    23.5380     2.3310   -13.0380 
  138.3750    95.5100     5.9920     6.0830     5.6580    23.3330     2.3300   -12.9160 
  138.5000    92.2510     6.2580     6.3040     5.6350    23.1350     2.3290   -12.7760 
  138.6250    89.3010     6.4870     6.5240     5.6230    22.9510     2.3290   -12.6220 
  138.7500    87.3470     6.6020     6.6570     5.6450    22.8860     2.3280   -12.5200 
  138.8750    88.3660     6.5560     6.6320     5.5720    22.9570     2.3220   -12.4930 
  139.0000    91.5520     6.3880     6.4660     5.4230    22.9840     2.3090   -12.4810 
  139.1250    95.2360     6.1020     6.1700     5.3160    22.9980     2.2940   -12.4460 
  139.2500    98.7470     5.6880     5.7570     5.2390    23.0150     2.2860   -12.4780 
  139.3750    99.7880     5.1560     5.2580     5.1860    23.0080     2.2900   -12.6170 
  139.5000    97.8250     4.6570     4.7830     5.1380    23.0130     2.3010   -12.7680 
  139.6250    95.1340     4.4440     4.4930     5.1660    23.0510     2.3130   -12.9330 
  139.7500    93.5690     4.8540     4.6240     5.4510    23.0980     2.3240   -13.0950 
  139.8750    90.5020     6.3710     5.5850     7.2480    23.0660     2.3430   -13.2290 
  140.0000    84.6690     8.8640     7.4060    11.0340    22.9490     2.3760   -13.4030 
  140.1250    77.0680    11.9300     9.9150    16.3110    22.8050     2.4210   -13.6230 
  140.2500    68.8550    14.7920    12.5840    22.0870    22.7000     2.4570   -13.8400 
  140.3750    60.7770    16.2200    14.3850    24.0050    22.6530     2.4560   -14.0610 
  140.5000    57.4400    15.8920    14.7380    20.1230    22.6120     2.4150   -14.3350 
  140.6250    59.2810    14.2640    13.7740    14.1570    22.6200     2.3540   -14.6810 
  140.7500    61.2330    12.3670    12.2750    10.4390    22.6620     2.3000   -15.0800 
  140.8750    58.9820    11.2030    11.1300     9.4240    22.7150     2.2760   -15.5150 
  141.0000    58.3580    10.8540    10.5820     9.2070    22.7840     2.2800   -15.9160 
  141.1250    62.5790    11.0930    10.5510     9.2240    22.8380     2.3010   -16.3130 
  141.2500    68.5520    11.6010    10.8370     9.2820    22.8460     2.3190   -16.6490 
  141.3750    70.4810    12.0360    11.1930     9.4100    22.7980     2.3170   -16.8670 
  141.5000    69.3100    12.1990    11.4040     9.5570    22.7240     2.2940   -17.0030 
  141.6250    68.6830    12.0610    11.3960     9.6730    22.6810     2.2600   -17.0660 
  141.7500    70.5810    11.7110    11.1950     9.7460    22.6710     2.2270   -17.0640 
  141.8750    72.8980    11.3130    10.8910     9.7340    22.6690     2.2050   -17.0520 
  142.0000    74.4320    11.0220    10.6200     9.6500    22.6380     2.1940   -17.0250 
  142.1250    76.4130    10.9180    10.4710     9.5020    22.5500     2.1900   -16.9560 
  142.2500    79.1520    11.0330    10.5010     9.3790    22.4260     2.1900   -16.8940 
  142.3750    80.7680    11.3730    10.7430     9.3450    22.3350     2.1940   -16.8770 
  142.5000    78.6090    11.7920    11.0820     9.3560    22.3890     2.2050   -16.8490 
  142.6250    71.3980    12.1070    11.3650     9.3560    22.6160     2.2260   -16.7740 
  142.7500    63.1810    12.0860    11.3940     9.2410    22.8950     2.2530   -16.6440 
  142.8750    61.5570    11.4520    10.9250     8.8990    23.0040     2.2790   -16.3960 
