~V
VERS. 2.00: Ver 2.00
~W
STRT.M 60.0000:
STOP.M 273.0000:
STEP.M 0.1250:
NULL. -999.2500:
UWI. DF5008:
~C
DEPT.M :
GR.API :
CALI.CM :
RXO.OHMM :
RI. :
RML.OHMM :
DEN.GM/CC :
SP.MV :
~A
# ...
  195.0000    71.7660    24.1060    53.1190    66.1840    72.9490     2.2400   -58.3400 
  195.1250    70.9070    23.9740    55.7350    74.3130    83.4130     2.2280   -58.5360 
  195.2500    68.3500    23.8490    61.6320    86.1380    97.4840     2.2160   -58.6880 
  195.3750    65.5100    23.7790    78.1720   101.3690   114.6850     2.2040   -58.8590 
  195.5000    63.6910    23.8250   101.9300   118.9720   133.8720     2.1940   -59.0110 
  195.6250    62.0660    24.0720   125.4130   136.9600   152.9530     2.1840   -59.1500 
  195.7500    59.9700    24.4530   143.8580   153.2580   169.9000     2.1760   -59.2250 
  195.8750    59.4250    24.8170   155.3510   166.9070   183.6580     2.1700   -59.2580 
  196.0000    60.3430    25.0230   156.4290   177.2860   193.4090     2.1690   -59.2800 
  196.1250    60.1710    25.0340   146.7850   182.0080   196.3230     2.1750   -59.3060 
  196.2500    60.0730    24.9810   147.1210   179.8900   191.4040     2.1850   -59.3650 
  196.3750    60.7470    24.9380   177.6160   170.8460   179.2190     2.1960   -59.3930 
  196.5000    61.3600    24.9180   203.3880   157.3330   163.1800     2.2050   -59.3530 
  196.6250    61.8190    24.8880   161.1690   143.5130   148.1380     2.2090   -59.3060 
  196.7500    62.9680    24.8440   119.1410   132.6390   136.9020     2.2090   -59.3070 
  196.8750    63.4250    24.8220   124.0780   125.9810   130.2890     2.2070   -59.3040 
  197.0000    61.5600    24.8410   161.1520   123.7750   128.2430     2.2030   -59.2980 
  197.1250    58.9830    24.8630   160.6570   126.5080   131.1090     2.1970   -59.2630 
  197.2500    58.0520    24.8580   130.7300   133.2190   137.8050     2.1910   -59.1490 
  197.3750    58.3940    24.8440   122.2700   143.5190   147.7940     2.1840   -59.0110 
  197.5000    59.0650    24.8360   144.7960   156.5090   160.0190     2.1770   -58.9020 
  197.6250    59.2730    24.8370   172.2950   170.3850   172.4410     2.1720   -58.8310 
  197.7500    59.1910    24.8490   186.1470   182.1710   182.1510     2.1700   -58.6700 
  197.8750    58.0510    24.8620   197.1840   188.9040   186.3810     2.1700   -58.5450 
  198.0000    55.3260    24.8460   190.4030   188.4750   183.4580     2.1730   -58.4140 
  198.1250    52.4900    24.7920   161.7320   180.1250   173.1830     2.1790   -58.2730 
  198.2500    51.5390    24.7500   152.9320   167.2390   159.0970     2.1850   -58.2000 
  198.3750    52.0840    24.7380   164.3150   152.1130   143.6100     2.1890   -58.1090 
  198.5000    53.0870    24.7210   154.0180   137.0940   129.1010     2.1910   -58.1150 
  198.6250    54.5540    24.6730   131.9220   125.1790   118.3750     2.1910   -58.0020 
  198.7500    55.4810    24.6340   117.7620   117.3950   111.8990     2.1900   -57.9160 
  198.8750    55.0080    24.6290   108.7640   113.8320   109.4720     2.1900   -57.7940 
  199.0000    53.9940    24.6410   109.1750   113.9630   110.4300     2.1930   -57.6760 
  199.1250    54.6550    24.6690   125.6900   117.2300   114.1870     2.1950   -57.5520 
  199.2500    57.9410    24.7230   124.5050   122.0110   119.3400     2.1940   -57.4220 
  199.3750    61.3440    24.7770   115.4390   127.5010   125.2760     2.1900   -57.3200 
  199.5000    62.3020    24.8030   117.0830   133.2470   131.6670     2.1850   -57.1080 
  199.6250    60.3630    24.8030   143.5490   138.9150   138.2450     2.1820   -56.9720 
  199.7500    58.3760    24.8030   165.8990   144.0160   144.4560     2.1790   -56.8030 
  199.8750    57.9630    24.8130   164.8520   147.8690   149.5480     2.1760   -56.6570 
  200.0000    58.2380    24.8240   149.1270   149.6940   152.6190     2.1720   -56.4800 
  200.1250    57.8020    24.8280   142.8660   148.5570   152.5070     2.1710   -56.3060 
  200.2500    58.1760    24.8160   145.1280   145.1590   149.7360     2.1760   -56.0710 
  200.3750    60.7940    24.7940   141.6390   140.1500   144.8040     2.1830   -55.7950 
  200.5000    64.0650    24.7670   122.8550   134.0550   138.2070     2.1890   -55.4670 
  200.6250    63.2170    24.7330   112.6810   127.3450   130.6330     2.1900   -55.1030 
  200.7500    60.1380    24.7040   107.5680   121.2640   123.8190     2.1860   -54.8330 
  200.8750    60.0330    24.6910   103.4600   117.3050   119.4630     2.1820   -54.5260 
  201.0000    63.3350    24.6760    99.0660   116.7150   118.7440     2.1800   -54.2110 
  201.1250    65.5690    24.6190    95.5530   120.3180   122.2000     2.1820   -53.8900 
  201.2500    64.5990    24.5220   101.5150   125.9080   127.3260     2.1830   -53.5760 
  201.3750    61.5160    24.4180   116.6550   130.1400   130.5350     2.1820   -53.2440 
  201.5000    58.2750    24.3640   131.6440   128.6230   127.2750     2.1780   -52.9850 
  201.6250    57.3850    24.4220   125.6260   116.8420   113.4510     2.1730   -52.7510 
  201.7500    58.9900    24.5060   101.4390    98.1230    93.6190     2.1730   -52.4570 
  201.8750    61.5740    24.4650    71.5530    77.5390    73.3910     2.1780   -52.1310 
  202.0000    63.3430    24.2490    48.0460    59.9890    57.2290     2.1870   -51.8260 
  202.1250    63.6010    24.0450    37.4220    49.0290    48.1120     2.1900   -51.4760 
  202.2500    61.0670    24.0820    32.6620    43.9190    45.1210     2.1870   -51.1790 
  202.3750    57.1470    24.3250    31.2860    44.5150    48.1250     2.1800   -50.9050 
  202.5000    55.1860    24.5540    50.8670    51.3780    57.3410     2.1760   -50.5930 
  202.6250    57.3640    24.5970   126.0980    66.5040    74.0640     2.1800   -50.2270 
  202.7500    59.8220    24.5550   183.3240    87.1960    95.5410     2.1890   -49.8610 
  202.8750    60.4880    24.5400   179.3890   107.2200   115.6000     2.1970   -49.5090 
  203.0000    60.9460    24.5850   144.3200   116.7830   123.8170     2.2040   -49.1360 
  203.1250    61.4220    24.6680   141.4300   107.8580   111.9950     2.2120   -48.7450 
  203.2500    60.6110    24.7680   120.8170    89.6790    91.7620     2.2230   -48.2880 
  203.3750    60.6920    24.8600    90.0830    71.1900    72.8110     2.2350   -47.8070 
  203.5000    65.7040    24.9190    57.8910    57.0300    59.0080     2.2500   -47.2990 
  203.6250    72.9970    24.8910    46.8460    48.5010    51.0320     2.2740   -46.8010 
  203.7500    74.9200    24.7880    46.5900    43.8630    47.0200     2.3110   -46.2410 
  203.8750    71.9830    24.6690    53.4350    42.4190    46.2950     2.3630   -45.6720 
  204.0000    70.2390    24.5970    60.1390    43.6940    48.3330     2.4290   -45.0730 
  204.1250    71.1520    24.5800    60.9950    47.4260    52.6770     2.5040   -44.4780 
  204.2500    70.2910    24.5590    69.3630    52.0690    57.4960     2.5720   -43.8740 
  204.3750    66.6470    24.5030    78.9990    55.3670    60.2900     2.6230   -43.3070 
  204.5000    64.3600    24.4210    80.4260    54.1020    57.9340     2.6480   -42.8040 
  204.6250    66.9660    24.3480    65.4340    45.6590    48.2260     2.6430   -42.3290 
  204.7500    68.5170    24.2950    45.1430    34.1400    35.4950     2.6130   -41.8950 
  204.8750    66.9870    24.2520    24.2560    23.5850    23.8850     2.5680   -41.5110 
  205.0000    68.6980    24.1940    12.3920    15.9720    15.6030     2.5210   -41.2180 
  205.1250    80.3640    24.1710     8.4390    11.6520    11.1720     2.4860   -41.0320 
  205.2500    93.2650    24.2300     7.9270     9.2660     9.0020     2.4630   -40.9800 
  205.3750   100.4970    24.3290     8.0060     8.1420     8.2320     2.4490   -40.9920 
  205.5000   102.7400    24.3710     8.5410     7.8520     8.2950     2.4390   -41.0290 
  205.6250   103.3750    24.2880     9.4110     8.1720     8.8460     2.4320   -41.1520 
  205.7500   103.0510    24.1670    10.2830     8.7380     9.4870     2.4230   -41.3310 
  205.8750   100.5710    24.0700    10.9160     9.3240    10.0030     2.4160   -41.5550 
  206.0000    96.3390    24.0160    10.9720     9.7630    10.2850     2.4130   -41.7970 
  206.1250    92.4000    23.9960    10.8390     9.9380    10.2960     2.4140   -42.0500 
