~V
VERS. 2.00: Ver 2.00
~W
STRT.M 50.0000:
STOP.M 260.0000:
STEP.M 0.1250:
NULL. -999.2500:
UWI. DF5023:
~C
DEPT.M :
GR.API :
RML.OHMM :
RI. :
RXO.OHMM :
CALI.CM :
DEN.GM/CC :
SP.MV :
~A
# ...
  196.2500    67.8200    77.1590    77.2460    67.1470    24.4900     2.2160   -26.5840 
  196.3750    68.0090    79.2180    79.1930    68.0550    24.4860     2.2160   -26.8500 
  196.5000    68.7320    79.9200    79.3200    66.6250    24.4840     2.2210   -27.0850 
  196.6250    69.5720    80.0470    78.3740    63.0160    24.4850     2.2270   -27.3610 
  196.7500    69.8560    80.4980    77.5510    60.9770    24.4780     2.2320   -27.6220 
  196.8750    67.5470    81.5890    77.4220    60.9990    24.4580     2.2350   -27.8970 
  197.0000    63.7310    83.4170    78.1910    63.8450    24.4290     2.2350   -28.1830 
  197.1250    62.3100    86.2420    79.9600    65.7900    24.4530     2.2330   -28.4150 
  197.2500    62.7990    89.9190    82.5210    70.0990    24.4600     2.2300   -28.5830 
  197.3750    62.1600    94.4290    85.7920    76.2600    24.4590     2.2270   -28.7510 
  197.5000    61.4050    99.7230    89.6650    82.1020    24.4560     2.2250   -28.9710 
  197.6250    63.3710   105.7110    94.1050    84.9920    24.4820     2.2250   -29.0640 
  197.7500    64.3870   112.0180    98.8210    90.3360    24.5560     2.2250   -29.1840 
  197.8750    61.9890   118.2140   103.5430    95.8020    24.6530     2.2230   -29.1770 
  198.0000    59.3000   123.8490   107.9750   102.6500    24.7080     2.2180   -29.1300 
  198.1250    61.3180   128.5280   111.7110   107.8600    24.7220     2.2110   -28.8780 
  198.2500    65.0510   132.3800   114.8010   112.2840    24.7230     2.2040   -28.6500 
  198.3750    65.7030   135.6140   117.4080   111.2260    24.7250     2.1990   -28.3130 
  198.5000    63.4230   138.5570   119.8090   108.8120    24.7340     2.1960   -27.8480 
  198.6250    61.0810   141.7610   122.3010   108.0030    24.7580     2.1950   -27.4240 
  198.7500    59.3200   145.3540   125.0560   110.4440    24.7880     2.1960   -26.9170 
  198.8750    58.8550   149.1090   128.0510   117.6120    24.7980     2.1960   -26.4560 
  199.0000    60.3440   152.4610   131.0260   124.1340    24.7910     2.1970   -25.9310 
  199.1250    61.4000   154.5030   133.3900   123.5140    24.7870     2.1980   -25.5500 
  199.2500    60.4190   155.0920   134.9230   119.0960    24.7830     2.2000   -25.0830 
  199.3750    57.7000   154.4760   135.5930   114.4060    24.7690     2.2030   -24.6430 
  199.5000    55.7480   153.1370   135.6780   115.4170    24.7320     2.2060   -24.2220 
  199.6250    56.9290   151.6020   135.4010   125.5470    24.7140     2.2100   -23.7840 
  199.7500    58.9680   149.3070   134.4920   131.6790    24.7090     2.2100   -23.3250 
  199.8750    59.6480   144.7560   131.7320   135.5010    24.7120     2.2090   -22.8570 
  200.0000    58.7440   135.7180   125.3130   141.0980    24.7140     2.2140   -22.4030 
  200.1250    59.1370   119.4070   112.8040   140.8370    24.7120     2.2440   -21.9560 
  200.2500    60.4430    98.1060    95.3480   134.4420    24.7040     2.3040   -21.5250 
  200.3750    60.6040    75.0260    75.2570   124.4000    24.6810     2.3900   -21.1200 
  200.5000    60.3530    53.5490    55.7730    99.2500    24.6600     2.4780   -20.7130 
  200.6250    63.3920    36.5620    40.1220    60.4120    24.6490     2.5290   -20.3500 
  200.7500    71.3700    24.6750    28.6240    32.2690    24.6410     2.5330   -20.1020 
  200.8750    80.6350    18.3180    20.8380    18.5910    24.6220     2.5000   -19.8460 
  201.0000    84.3260    14.8470    15.9490    12.6960    24.5930     2.4560   -19.6750 
  201.1250    81.7510    13.0310    13.3590    11.4820    24.6240     2.4240   -19.4490 
  201.2500    81.2610    12.1310    11.9860    10.9670    24.6430     2.4070   -19.3360 
  201.3750    85.0770    11.8230    11.3890    10.7300    24.6520     2.4000   -19.1920 
  201.5000    87.8340    11.8720    11.2840    10.6380    24.6490     2.3960   -19.1320 
  201.6250    85.4520    12.1210    11.4940    10.8070    24.6450     2.3910   -18.9780 
  201.7500    82.2100    12.4350    11.8250    11.1460    24.6400     2.3880   -18.7320 
  201.8750    81.0700    12.7720    12.1930    11.6250    24.6360     2.3910   -18.4820 
  202.0000    83.1060    13.1000    12.5350    11.8910    24.6300     2.4030   -18.1250 
  202.1250    86.1310    13.3470    12.7560    11.7420    24.6330     2.4300   -17.7470 
  202.2500    86.5770    13.4490    12.7900    11.7230    24.6330     2.4660   -17.2250 
  202.3750    82.9480    13.3590    12.5910    11.9990    24.6280     2.4980   -16.6940 
  202.5000    75.9760    13.0740    12.1620    12.2740    24.6120     2.5140   -16.0860 
  202.6250    68.6610    12.6220    11.5400    11.3710    24.5880     2.4980   -15.5450 
  202.7500    63.9380    12.1190    10.8620     9.1870    24.6150     2.4580   -15.0460 
  202.8750    62.2810    11.6540    10.2230     7.6990    24.7140     2.4070   -14.6380 
  203.0000    61.1210    11.2940     9.6960     7.1610    24.8030     2.3600   -14.3100 
  203.1250    60.2880    11.0950     9.3430     7.2810    24.8100     2.3310   -14.0800 
  203.2500    60.3170    11.0200     9.1330     7.7560    24.8050     2.3220   -13.9140 
  203.3750    58.8020    11.0450     9.0420     8.5000    24.8100     2.3350   -13.8110 
  203.5000    55.0320    11.1590     9.0560     9.0340    24.8070     2.3650   -13.7300 
  203.6250    53.5000    11.4070     9.2050     8.4910    24.8030     2.3990   -13.7030 
  203.7500    55.3950    11.7900     9.4830     8.3280    24.8050     2.4180   -13.6790 
  203.8750    57.5320    12.2920     9.8860     9.2040    24.8330     2.4200   -13.6080 
  204.0000    57.0330    12.8590    10.3810    11.1050    24.8620     2.4180   -13.5470 
  204.1250    55.2930    13.3990    10.9100    13.4370    24.7280     2.4350   -13.4390 
  204.2500    52.8290    13.8440    11.3980    15.5980    24.5600     2.4770   -13.3550 
  204.3750    48.6390    14.1580    11.7900    16.7010    24.4830     2.5280   -13.2440 
  204.5000    44.7520    14.3150    12.0420    15.9940    24.4730     2.5640   -13.2300 
  204.6250    45.2780    14.2810    12.0970    12.6940    24.4730     2.5710   -13.0580 
  204.7500    48.9170    14.0750    11.9680    11.1370    24.4730     2.5650   -12.9160 
  204.8750    50.4830    13.6690    11.6350    11.5490    24.4730     2.5630   -12.7830 
  205.0000    48.7920    13.0370    11.0820    13.2890    24.4740     2.5710   -12.6440 
  205.1250    49.1300    12.1560    10.2920    14.8860    24.4770     2.5830   -12.5750 
  205.2500    53.7470    11.1320     9.3680    14.3100    24.4820     2.5920   -12.5280 
  205.3750    59.7770    10.0870     8.4140    11.1210    24.4860     2.5910   -12.5490 
  205.5000    63.6940     9.1640     7.5490     8.0390    24.4870     2.5760   -12.5710 
  205.6250    64.8920     8.5410     6.9140     6.3450    24.4900     2.5420   -12.7110 
  205.7500    67.5370     8.2320     6.5310     5.7340    24.4900     2.5010   -12.8790 
  205.8750    74.3140     8.2120     6.3990     5.7150    24.4910     2.4640   -13.0420 
  206.0000    83.1590     8.4000     6.4740     6.0400    24.5380     2.4450   -13.2300 
  206.1250    88.8240     8.6890     6.6870     6.7400    24.6760     2.4450   -13.4100 
  206.2500    92.3430     8.9780     6.9380     7.7340    24.8400     2.4520   -13.6630 
  206.3750    96.2980     9.2390     7.1840     8.4700    24.9110     2.4530   -13.9620 
  206.5000   100.0760     9.4820     7.4150     8.4840    24.9200     2.4460   -14.3350 
  206.6250   101.6170     9.7420     7.6430     8.0960    24.9070     2.4380   -14.7660 
  206.7500   102.8780    10.0370     7.8800     8.0650    24.8930     2.4400   -15.2870 
  206.8750   104.6900    10.3540     8.1200     8.4460    24.8800     2.4540   -15.8800 
  207.0000   104.5880    10.6410     8.3330     9.2130    24.9000     2.4730   -16.5750 
  207.1250   101.2970    10.8240     8.4650     9.8940    24.9150     2.4840   -17.3310 
  207.2500    98.2480    10.8820     8.5020    10.0880    24.9220     2.4790   -18.1310 
  207.3750    96.4220    10.8370     8.4580     9.9340    24.9240     2.4580   -18.9350 
