~V
VERS. 2.00: Ver 2.00
~W
STRT.M 60.0000:
STOP.M 251.0000:
STEP.M 0.1250:
NULL. -999.2500:
UWI. DF5053:
~C
DEPT.M :
GR.API :
RML.OHMM :
RI. :
RXO.OHMM :
CALI.CM :
DEN.GM/CC :
SP.MV :
~A
# ...
  138.7500    83.8030    10.1960     9.1370    11.6190    23.6380     2.2120   -18.1300 
  138.8750    81.6380    11.0540     9.8140    12.6450    23.8660     2.2150   -17.8140 
  139.0000    76.9350    11.7640    10.4360    13.8060    24.0950     2.2110   -17.3060 
  139.1250    70.3970    11.8840    10.6540    14.9710    24.2640     2.2030   -16.7100 
  139.2500    68.9410    11.1520    10.2140    15.4160    24.4660     2.1940   -16.0310 
  139.3750    76.7580     9.6390     9.1010    13.9250    24.6240     2.1920   -15.2820 
  139.5000    90.2500     7.8110     7.6040    10.2550    24.5070     2.2020   -14.5230 
  139.6250   102.7700     6.3080     6.2490     6.9700    24.2180     2.2230   -13.8380 
  139.7500   109.3210     5.4220     5.3120     5.4950    23.8650     2.2490   -13.3000 
  139.8750   108.3690     5.2050     4.8940     5.7400    23.5080     2.2740   -12.9440 
  140.0000   105.8470     5.6770     5.0750     7.0870    23.1600     2.2920   -12.7860 
  140.1250   105.9350     6.6510     5.7300     8.8230    23.0300     2.3000   -12.7860 
  140.2500   104.0690     8.0670     6.8180    10.8560    23.0980     2.2940   -12.8910 
  140.3750    96.6990     9.8580     8.2830    12.8570    23.3770     2.2750   -13.0420 
  140.5000    86.8340    11.9120    10.0480    14.5220    23.7630     2.2440   -13.1430 
  140.6250    77.1520    13.9220    11.8550    16.5310    24.0850     2.2090   -13.1220 
  140.7500    68.3180    15.5510    13.4210    19.0930    24.3150     2.1770   -12.9180 
  140.8750    63.5490    16.4560    14.4440    21.4250    24.4380     2.1560   -12.5060 
  141.0000    63.8360    16.2710    14.5600    22.0440    24.4600     2.1620   -11.8530 
  141.1250    62.4560    15.2630    13.9170    20.3340    24.4170     2.2010   -11.0440 
  141.2500    60.5260    13.7790    12.7620    16.9520    24.3220     2.2730   -10.1810 
  141.3750    64.4000    12.2450    11.4420    13.8390    24.2090     2.3650    -9.3630 
  141.5000    74.1190    11.1120    10.3400    12.7830    24.1220     2.4490    -8.6380 
  141.6250    79.5500    10.5690     9.6600    12.2210    24.0880     2.4990    -7.9990 
  141.7500    83.1300    10.7390     9.5290    11.2610    24.0810     2.5150    -7.4790 
  141.8750    87.5330    11.6800    10.0190    11.0350    24.0770     2.5150    -7.0620 
  142.0000    86.3160    13.4490    11.2250    11.9450    24.0830     2.5170    -6.7630 
  142.1250    79.1630    15.6880    12.9140    14.0610    24.0620     2.5270    -6.5650 
  142.2500    68.8110    18.0420    14.8440    16.7720    24.0180     2.5420    -6.4450 
  142.3750    58.8330    20.1190    16.7040    18.8230    24.0300     2.5530    -6.3790 
  142.5000    47.9470    21.5370    18.1340    20.0050    24.0670     2.5550    -6.3570 
  142.6250    40.2870    22.4120    19.1060    20.0900    24.0870     2.5540    -6.3550 
  142.7500    37.9110    22.9730    19.7370    20.2820    24.0910     2.5560    -6.3580 
  142.8750    37.9830    23.4430    20.1930    21.4440    24.0900     2.5620    -6.3920 
  143.0000    41.1920    23.8930    20.5600    22.9030    24.0910     2.5740    -6.4620 
  143.1250    43.3820    24.2540    20.8360    24.0100    24.0940     2.5860    -6.5300 
  143.2500    41.5810    24.4490    20.9810    23.7110    24.0950     2.5940    -6.6060 
  143.3750    37.8150    24.4760    20.9940    22.5990    24.0880     2.5970    -6.6790 
  143.5000    37.7320    24.3860    20.9150    21.4360    24.0770     2.5960    -6.7650 
  143.6250    40.8240    24.2450    20.8100    21.1480    24.0720     2.5950    -6.8870 
  143.7500    43.0030    24.0270    20.6750    21.3400    24.0710     2.5930    -7.0410 
  143.8750    44.3750    23.6530    20.4600    21.5330    24.0190     2.5930    -7.2050 
  144.0000    46.1070    22.9990    20.0620    21.1910    23.9300     2.5890    -7.3570 
  144.1250    47.8430    22.1030    19.4760    20.3210    23.8970     2.5760    -7.4860 
  144.2500    48.3030    21.0560    18.7400    19.4340    23.8840     2.5510    -7.5770 
  144.3750    46.7700    20.0070    17.9510    17.9200    23.8480     2.5190    -7.6450 
  144.5000    47.3870    19.1680    17.2670    16.7880    23.7850     2.4920    -7.7070 
  144.6250    52.8090    18.6410    16.7960    15.8950    23.7330     2.4760    -7.7610 
  144.7500    59.7080    18.4480    16.5830    15.4560    23.6040     2.4720    -7.8190 
  144.8750    62.9870    18.5260    16.6050    15.5440    23.4400     2.4720    -7.8950 
  145.0000    61.1910    18.7590    16.7900    15.9030    23.2930     2.4740    -7.9960 
  145.1250    60.4530    18.9690    16.9900    16.1610    23.0550     2.4780    -8.1270 
  145.2500    61.7040    19.0500    17.1090    15.8460    22.9530     2.4890    -8.2500 
  145.3750    61.6980    18.9350    17.0780    14.9710    23.0510     2.5040    -8.3290 
  145.5000    59.2230    18.5440    16.8170    14.5210    23.2400     2.5150    -8.3540 
  145.6250    55.9870    17.8980    16.3330    14.2610    23.4110     2.5150    -8.3290 
  145.7500    55.2220    17.0190    15.6350    13.7770    23.5510     2.5060    -8.2820 
  145.8750    57.9560    15.9930    14.7800    13.0880    23.6790     2.4960    -8.2320 
  146.0000    61.8610    14.9990    13.9010    12.1080    23.8000     2.4940    -8.1760 
  146.1250    63.9650    14.2420    13.1740    11.2860    23.8470     2.5010    -8.1280 
  146.2500    62.6990    13.8560    12.7230    10.8370    23.8730     2.5100    -8.0990 
  146.3750    58.5010    13.8700    12.5960    10.9570    23.9410     2.5130    -8.1040 
  146.5000    55.8150    14.2100    12.7690    11.3340    24.0330     2.5080    -8.1170 
  146.6250    55.4240    14.6290    13.0520    11.6150    24.0470     2.5000    -8.1410 
  146.7500    57.2540    14.9750    13.3150    11.7850    24.0190     2.4910    -8.1560 
  146.8750    57.9910    15.1890    13.4860    11.8610    23.9710     2.4800    -8.1470 
  147.0000    54.3160    15.3240    13.5840    11.8340    23.9100     2.4640    -8.1410 
  147.1250    50.1320    15.5200    13.7120    11.7910    23.8330     2.4470    -8.1290 
  147.2500    47.0050    15.8410    13.9330    12.1200    23.7970     2.4350    -8.1260 
  147.3750    45.1180    16.2590    14.2440    12.9710    23.7820     2.4340    -8.1360 
  147.5000    44.8440    16.6580    14.5700    13.9430    23.7710     2.4460    -8.1630 
  147.6250    47.0480    16.9190    14.8120    14.6190    23.7540     2.4570    -8.1910 
  147.7500    49.7790    16.9920    14.9120    14.6400    23.7550     2.4560    -8.2140 
  147.8750    48.3920    16.8890    14.8610    14.1600    23.7610     2.4380    -8.2280 
  148.0000    45.9880    16.6530    14.6770    13.6280    23.7760     2.4110    -8.2160 
  148.1250    48.1050    16.3510    14.4210    13.6300    23.7550     2.3920    -8.2100 
  148.2500    52.5240    15.9960    14.1130    13.7120    23.7230     2.3890    -8.2170 
  148.3750    56.0040    15.5840    13.7540    13.5130    23.7910     2.4000    -8.2280 
  148.5000    55.5260    15.1200    13.3510    12.9370    23.9590     2.4190    -8.2500 
  148.6250    53.3580    14.6500    12.9380    12.2420    24.1390     2.4370    -8.2890 
  148.7500    53.3260    14.2220    12.5570    11.6580    24.2080     2.4490    -8.3430 
  148.8750    56.7740    13.9000    12.2580    11.5200    24.1750     2.4550    -8.4120 
  149.0000    62.1450    13.8300    12.1520    11.6950    24.2010     2.4530    -8.5020 
  149.1250    63.3570    14.1180    12.3260    12.2090    24.2320     2.4400    -8.6100 
  149.2500    61.0940    14.8580    12.8700    13.0510    24.2800     2.4140    -8.7420 
  149.3750    62.8190    16.0240    13.7950    14.4770    24.3430     2.3780    -8.9130 
  149.5000    68.4040    17.3750    14.9680    16.5960    24.4270     2.3350    -9.1140 
  149.6250    70.8010    18.4050    15.9980    19.0470    24.4720     2.2970    -9.3250 
  149.7500    70.6090    18.6620    16.4990    20.7490    24.4400     2.2720    -9.5630 
  149.8750    74.2960    17.8840    16.1840    19.3170    24.3720     2.2650    -9.8230 
