~V
VERS. 2.00: Ver 2.00
~W
STRT.M 50.0000:
STOP.M 276.0000:
STEP.M 0.1250:
NULL. -999.2500:
UWI. DF5011:
~C
DEPT.M :
DEN.GM/CC :
GR.API :
CALI.CM :
RXO.OHMM :
RI. :
RML.OHMM :
SP.MV :
~A
# ...
   61.2500     2.1970    58.1660    22.0090     7.2920     5.2130     3.8920   -48.9970 
   61.3750     2.1890    56.4070    22.0430     7.2440     5.3750     4.0550   -50.4530 
   61.5000     2.1820    57.2370    22.0870     7.2200     5.4740     4.1850   -51.3830 
   61.6250     2.1730    58.8700    22.2180     7.0860     5.5450     4.2980   -52.0700 
   61.7500     2.1690    59.4700    22.4720     6.9450     5.6190     4.4180   -52.5580 
   61.8750     2.1790    61.1430    22.7860     6.8620     5.7120     4.5600   -52.7470 
   62.0000     2.1970    63.5570    23.1080     6.9240     5.8320     4.7290   -52.8990 
   62.1250     2.2080    63.7970    23.3750     7.2310     5.9770     4.9210   -53.0150 
   62.2500     2.2040    60.9510    23.5110     7.7980     6.1310     5.1170   -53.0210 
   62.3750     2.1980    57.4350    23.5500     8.1330     6.2660     5.2870   -53.0360 
   62.5000     2.1980    54.2930    23.5580     8.0520     6.3530     5.4040   -53.1710 
   62.6250     2.2010    52.4900    23.5800     7.7780     6.3670     5.4500   -53.3810 
   62.7500     2.1980    53.4400    23.6220     7.6360     6.2940     5.4180   -53.4570 
   62.8750     2.1880    55.8130    23.6580     7.5640     6.1690     5.3460   -53.6860 
   63.0000     2.1740    56.9450    23.6750     7.5880     6.0280     5.2710   -53.9650 
   63.1250     2.1580    55.7830    23.6780     7.6770     5.9020     5.2200   -54.1740 
   63.2500     2.1450    54.1680    23.6780     7.6340     5.8230     5.2180   -54.3300 
   63.3750     2.1370    54.4450    23.6780     7.5300     5.7910     5.2550   -54.4550 
   63.5000     2.1380    56.0070    23.6780     7.5720     5.7960     5.3140   -54.4700 
   63.6250     2.1440    56.4420    23.6780     7.7510     5.8240     5.3800   -54.4180 
   63.7500     2.1520    55.1710    23.6770     7.9380     5.8610     5.4440   -54.4970 
   63.8750     2.1600    54.5640    23.6720     8.0270     5.8980     5.5040   -54.5860 
   64.0000     2.1620    55.9170    23.6960     8.0250     5.9310     5.5660   -54.6190 
   64.1250     2.1570    58.4640    23.8040     7.9550     5.9630     5.6360   -54.5040 
   64.2500     2.1530    59.2940    23.9810     7.9120     6.0030     5.7270   -54.3880 
   64.3750     2.1550    58.0840    24.1160     7.8990     6.0550     5.8380   -54.4910 
   64.5000     2.1630    55.5420    24.1660     7.9130     6.1160     5.9660   -54.6770 
   64.6250     2.1690    52.9350    24.1660     7.9560     6.1830     6.1050   -54.6990 
   64.7500     2.1710    53.5670    24.1650     8.0200     6.2490     6.2360   -54.6420 
   64.8750     2.1700    56.2800    24.1650     8.0540     6.3020     6.3400   -54.5710 
   65.0000     2.1690    56.6760    24.1650     8.1470     6.3290     6.4050   -54.5860 
   65.1250     2.1630    54.4270    24.1650     8.2120     6.3250     6.4270   -54.6620 
   65.2500     2.1540    55.0150    24.1650     8.1590     6.2910     6.4130   -54.6880 
   65.3750     2.1490    56.8500    24.1650     8.0670     6.2480     6.3940   -54.6710 
   65.5000     2.1540    55.8150    24.1650     8.0440     6.2140     6.3930   -54.6640 
   65.6250     2.1680    54.3180    24.1650     8.0800     6.2040     6.4250   -54.6440 
   65.7500     2.1820    56.1650    24.1650     8.1580     6.2390     6.5130   -54.4880 
   65.8750     2.1870    57.1620    24.1650     8.2520     6.3250     6.6620   -54.3540 
   66.0000     2.1850    54.8590    24.1690     8.3320     6.4670     6.8690   -54.2110 
   66.1250     2.1810    53.2070    24.1740     8.3360     6.6440     7.1060   -54.1130 
   66.2500     2.1820    54.2000    24.1050     8.6480     6.8070     7.3040   -53.9390 
   66.3750     2.1840    55.1960    23.9390    10.1580     6.9000     7.4030   -53.6310 
   66.5000     2.1830    56.0430    23.7330    11.2140     6.8870     7.3690   -53.4050 
   66.6250     2.1820    57.2620    23.5360    10.4050     6.7680     7.2200   -53.3200 
   66.7500     2.1880    57.6640    23.3310     7.9120     6.5850     7.0290   -53.2640 
   66.8750     2.2000    57.1550    23.1170     7.4360     6.4140     6.8840   -53.1520 
   67.0000     2.2100    57.4460    22.9650     7.3540     6.2940     6.8220   -53.1100 
   67.1250     2.2120    59.9420    22.8980     7.3180     6.2380     6.8380   -53.0400 
   67.2500     2.2050    62.3480    22.8530     7.2110     6.2350     6.8940   -52.9720 
   67.3750     2.1930    61.4570    22.7870     7.1470     6.2420     6.9360   -53.0300 
   67.5000     2.1750    57.2940    22.7310     7.0460     6.2410     6.9520   -53.1480 
   67.6250     2.1570    53.9050    22.7090     6.9520     6.2350     6.9560   -53.2100 
   67.7500     2.1450    55.2940    22.7120     7.0380     6.2350     6.9730   -53.3030 
   67.8750     2.1420    57.8200    22.7110     7.0790     6.2450     7.0100   -53.5340 
   68.0000     2.1460    58.1380    22.7140     7.2240     6.2600     7.0550   -53.6270 
   68.1250     2.1560    57.4040    22.7450     7.4080     6.2660     7.0900   -53.7290 
   68.2500     2.1700    59.7570    22.8140     7.5140     6.2450     7.0930   -53.9150 
   68.3750     2.1800    62.7090    22.8700     7.5340     6.2000     7.0700   -54.0280 
   68.5000     2.1830    62.2420    22.8660     7.5890     6.1400     7.0330   -54.0080 
   68.6250     2.1820    57.9790    22.8170     7.5890     6.0790     7.0010   -53.9120 
   68.7500     2.1790    55.7750    22.7790     7.3650     6.0350     6.9850   -54.0000 
   68.8750     2.1730    57.2640    22.7700     7.1320     6.0130     6.9850   -54.0430 
   69.0000     2.1650    58.6070    22.7810     7.0780     6.0080     6.9910   -54.0720 
   69.1250     2.1590    57.8370    22.8130     7.2680     6.0100     6.9950   -54.0950 
   69.2500     2.1580    57.7340    22.9200     7.5690     6.0060     6.9870   -54.1470 
   69.3750     2.1570    59.2810    23.1400     7.8920     5.9870     6.9670   -54.1740 
   69.5000     2.1540    58.3970    23.4330     8.0400     5.9540     6.9420   -54.0640 
   69.6250     2.1510    53.9150    23.6800     8.0080     5.9170     6.9220   -54.0460 
   69.7500     2.1460    51.2430    23.7760     7.9490     5.8880     6.9140   -53.8720 
   69.8750     2.1400    53.1540    23.7870     7.9270     5.8690     6.9130   -53.6500 
   70.0000     2.1360    56.9350    23.7910     7.9050     5.8560     6.9120   -53.3630 
   70.1250     2.1370    58.7150    23.7950     7.8400     5.8410     6.9050   -53.0700 
   70.2500     2.1340    58.0030    23.7410     7.8300     5.8250     6.8940   -52.6750 
   70.3750     2.1260    57.6630    23.6410     7.8680     5.8140     6.8930   -52.1980 
   70.5000     2.1180    58.4050    23.5570     8.0590     5.8200     6.9130   -51.8390 
   70.6250     2.1160    59.0560    23.5340     8.2620     5.8500     6.9580   -51.3560 
   70.7500     2.1200    59.0040    23.4600     8.1730     5.8960     7.0150   -50.8910 
   70.8750     2.1240    60.0070    23.2030     7.8790     5.9330     7.0570   -50.3550 
   71.0000     2.1340    62.4020    22.8390     7.6150     5.9400     7.0560   -49.8750 
   71.1250     2.1490    65.5120    22.5310     7.3350     5.9040     6.9960   -49.3860 
   71.2500     2.1550    67.1190    22.3280     6.8880     5.8190     6.8800   -48.9530 
   71.3750     2.1520    68.0030    22.1300     6.5240     5.7140     6.7520   -48.4830 
   71.5000     2.1510    70.4120    21.9470     6.3520     5.6200     6.6520   -48.0090 
   71.6250     2.1590    74.6750    21.8300     6.3520     5.5650     6.6110   -47.6410 
   71.7500     2.1710    77.9200    21.7120     6.4570     5.5780     6.6480   -47.2810 
   71.8750     2.1770    78.0430    21.5630     6.6710     5.6440     6.7360   -46.9760 
   72.0000     2.1720    76.4440    21.4430     7.0190     5.7390     6.8370   -46.6990 
   72.1250     2.1590    74.3210    21.3980     7.2900     5.8260     6.9080   -46.4580 
   72.2500     2.1430    72.7000    21.4040     7.2380     5.8630     6.9030   -46.3020 
   72.3750     2.1280    72.7630    21.4050     7.1360     5.8420     6.8300   -46.2900 
