~V
VERS. 2.00: Ver 2.00
~W
STRT.M 72.0000:
STOP.M 259.0000:
STEP.M 0.1250:
NULL. -999.2500:
UWI. DF5020:
~C
DEPT.M :
DEN.GM/CC :
GR.API :
RML.OHMM :
RI. :
RXO.OHMM :
CALI.CM :
SP.MV :
~A
# ...
   94.5000     2.1390    65.3130     8.1690     7.3680     9.1650    23.8840   -41.9860 
   94.6250     2.1270    66.9910     8.2320     7.3490     9.0240    23.8660   -42.0650 
   94.7500     2.1270    70.7990     8.3490     7.3950     9.0230    23.8440   -41.9710 
   94.8750     2.1320    72.5380     8.3740     7.4220     9.1150    23.8370   -41.7250 
   95.0000     2.1380    69.1740     8.2720     7.3970     9.1840    23.8360   -41.3570 
   95.1250     2.1430    67.2710     8.1500     7.3580     9.3390    23.8390   -40.8750 
   95.2500     2.1450    70.3860     8.2040     7.3960     9.3400    23.8400   -40.2920 
   95.3750     2.1450    73.9560     8.5470     7.5820     9.3610    23.8410   -39.6180 
   95.5000     2.1480    76.2220     9.1420     7.9130     9.6040    23.8540   -38.8370 
   95.6250     2.1710    77.3590     9.7400     8.2600    10.2440    23.9420   -37.9530 
   95.7500     2.2180    76.8580     9.9980     8.4120    11.4610    24.1560   -37.0820 
   95.8750     2.2870    75.9530     9.6980     8.2200    13.5080    24.4600   -36.1920 
   96.0000     2.3580    79.9800     8.8490     7.6520    15.5730    24.7270   -35.3880 
   96.1250     2.3950    89.4930     7.7190     6.8260    12.3720    24.8440   -34.7090 
   96.2500     2.3920    96.1670     6.7390     6.0250     8.0840    24.8330   -34.1220 
   96.3750     2.3590    97.5960     6.0970     5.4110     6.3970    24.7190   -33.6990 
   96.5000     2.3220    95.0640     5.8200     5.0480     6.0430    24.5770   -33.3800 
   96.6250     2.3030    93.3130     5.8770     4.9560     5.8760    24.5360   -33.2700 
   96.7500     2.3010    95.5290     6.1150     5.0300     5.6820    24.5600   -33.1660 
   96.8750     2.3060    97.2250     6.4410     5.1970     5.7520    24.5660   -33.1820 
   97.0000     2.3070    93.5080     6.7740     5.3900     5.9830    24.4950   -33.1850 
   97.1250     2.2980    85.8860     7.0120     5.5420     6.3560    24.2880   -33.1680 
   97.2500     2.2840    81.9980     7.0920     5.6150     6.6600    24.1300   -33.1150 
   97.3750     2.2740    85.1380     6.9870     5.5860     6.8030    24.1540   -33.0060 
   97.5000     2.2760    91.9930     6.7370     5.4630     6.5490    24.3910   -32.9530 
   97.6250     2.2920    96.9520     6.4480     5.2860     5.9970    24.6420   -32.8720 
   97.7500     2.3100    96.3910     6.2330     5.1260     5.6470    24.7730   -32.8490 
   97.8750     2.3220    91.6890     6.1400     5.0260     5.5900    24.8220   -32.8630 
   98.0000     2.3210    86.5870     6.1780     5.0140     5.7910    24.8390   -32.9340 
   98.1250     2.3080    81.7360     6.3690     5.1230     5.8550    24.7460   -33.0520 
   98.2500     2.2930    78.1610     6.7070     5.3480     6.2240    24.5060   -33.2310 
   98.3750     2.2820    76.5330     7.2050     5.6890     6.5390    24.2310   -33.4180 
   98.5000     2.2790    76.5670     7.8210     6.1140     6.8910    24.1880   -33.5450 
   98.6250     2.2800    77.2570     8.4110     6.5340     7.5300    24.3540   -33.6700 
   98.7500     2.2830    76.0080     8.7810     6.8260     8.0070    24.3950   -33.7160 
   98.8750     2.2820    72.1100     8.8010     6.9010     8.2730    24.2480   -33.6560 
   99.0000     2.2750    68.9460     8.4590     6.7360     7.2810    24.1310   -33.4900 
   99.1250     2.2630    72.1130     7.8940     6.3870     6.7640    24.2360   -33.3620 
   99.2500     2.2500    77.7450     7.3840     6.0230     6.1030    24.4200   -33.1630 
   99.3750     2.2420    80.7250     7.0720     5.7520     5.8570    24.5760   -33.0570 
   99.5000     2.2470    79.6990     6.9880     5.6180     5.9910    24.7040   -32.9960 
   99.6250     2.2710    78.2480     7.0790     5.6200     6.2680    24.7360   -32.9730 
   99.7500     2.3050    80.0880     7.1990     5.6770     6.4470    24.7030   -33.0660 
   99.8750     2.3370    85.0370     7.2690     5.7320     6.6710    24.6310   -33.2500 
  100.0000     2.3530    86.9150     7.2680     5.7590     6.9630    24.5090   -33.5330 
  100.1250     2.3450    80.9930     7.2220     5.7570     6.7510    24.3270   -33.8000 
  100.2500     2.3240    75.1760     7.1800     5.7520     6.6050    24.1780   -34.1800 
  100.3750     2.3020    75.6590     7.1650     5.7590     6.4520    24.1260   -34.5090 
  100.5000     2.2860    82.2540     7.1930     5.7880     6.3410    24.1770   -34.8270 
  100.6250     2.2760    87.8560     7.2810     5.8460     6.3830    24.3010   -35.1100 
  100.7500     2.2680    87.9530     7.4100     5.9230     6.4890    24.4150   -35.3550 
  100.8750     2.2600    83.0930     7.5480     5.9980     6.4600    24.3720   -35.5440 
  101.0000     2.2520    78.5600     7.6340     6.0430     6.5290    24.1550   -35.6810 
  101.1250     2.2470    79.2350     7.5700     6.0040     6.6080    24.0600   -35.8090 
  101.2500     2.2480    81.9250     7.3440     5.8700     6.7130    24.0670   -35.9160 
  101.3750     2.2560    84.4000     7.0060     5.6610     6.6740    24.1280   -36.1010 
  101.5000     2.2730    86.1650     6.6710     5.4310     6.5720    24.2360   -36.3520 
  101.6250     2.2950    85.7710     6.5180     5.2790     6.3760    24.3510   -36.7160 
  101.7500     2.3130    86.2610     6.6220     5.2640     6.1760    24.3460   -37.1980 
  101.8750     2.3210    88.1460     6.9860     5.4040     6.4020    24.1510   -37.7940 
  102.0000     2.3150    87.0090     7.5310     5.6760     6.9500    23.9580   -38.4950 
  102.1250     2.2940    78.8750     8.1170     6.0190     7.2360    23.8310   -39.2330 
  102.2500     2.2680    71.3060     8.5980     6.3420     7.5300    23.7720   -40.0080 
  102.3750     2.2470    69.8850     8.9100     6.5910     7.6760    23.7570   -40.6420 
  102.5000     2.2370    71.6510     9.0630     6.7510     7.7700    23.7690   -41.2230 
  102.6250     2.2410    71.0770     9.1330     6.8360     7.5430    23.7910   -41.6620 
  102.7500     2.2510    68.9080     9.2260     6.9030     7.6830    23.7400   -41.9590 
  102.8750     2.2580    68.5530     9.3820     6.9820     8.0350    23.6030   -42.1450 
  103.0000     2.2550    69.9870     9.5920     7.0820     8.4860    23.5370   -42.2550 
  103.1250     2.2380    69.7930     9.8060     7.1850     8.7370    23.4610   -42.2940 
  103.2500     2.2160    67.9190     9.9540     7.2580     8.6020    23.3760   -42.2760 
  103.3750     2.1950    68.3370     9.9960     7.2810     8.1430    23.2910   -42.3170 
  103.5000     2.1790    72.2400     9.9350     7.2520     7.8390    23.2570   -42.3640 
  103.6250     2.1720    73.4960     9.8230     7.1930     7.7060    23.2550   -42.4360 
  103.7500     2.1720    71.1460     9.7570     7.1550     7.7570    23.2250   -42.5600 
  103.8750     2.1800    69.1000     9.8080     7.1780     7.8720    23.1400   -42.7110 
  104.0000     2.1940    69.7660    10.0020     7.2860     8.0800    23.0520   -42.9080 
  104.1250     2.2050    71.1920    10.3090     7.4800     8.2510    23.0810   -43.1460 
  104.2500     2.2080    70.0300    10.6200     7.7070     8.4320    23.2620   -43.4140 
  104.3750     2.2010    66.6350    10.8480     7.9150     8.7620    23.5130   -43.6690 
  104.5000     2.1840    62.8270    10.9380     8.0650     9.2400    23.6310   -43.9150 
  104.6250     2.1650    61.4830    10.8650     8.1190     9.4980    23.6020   -44.1360 
  104.7500     2.1480    61.4920    10.6970     8.1000     9.3630    23.5380   -44.3420 
  104.8750     2.1370    61.3470    10.4910     8.0310     9.2400    23.4680   -44.4930 
  105.0000     2.1340    61.0210    10.2900     7.9410     9.3530    23.3820   -44.5560 
  105.1250     2.1380    61.6400    10.1310     7.8500     9.3980    23.2720   -44.5400 
  105.2500     2.1450    63.8620    10.0100     7.7690     9.3340    23.2120   -44.4950 
  105.3750     2.1540    67.2360     9.9150     7.6960     9.2020    23.2800   -44.4080 
  105.5000     2.1620    69.0380     9.8240     7.6260     9.0560    23.3890   -44.2440 
  105.6250     2.1690    64.7380     9.7150     7.5600     9.1020    23.5190   -44.0700 
