~V
VERS. 2.00: Ver 2.00
~W
STRT.M 55.0000:
STOP.M 247.0000:
STEP.M 0.1250:
NULL. -999.2500:
UWI. DF5063:
~C
DEPT.M :
SP.MV :
GR.API :
RML.OHMM :
RI. :
RXO.OHMM :
CALI.CM :
DEN.GM/CC :
~A
# ...
  111.2500   -25.5970    75.1180     8.1980     6.9120     8.4790    23.3250     2.1520 
  111.3750   -26.2800    75.4960     7.8210     6.6040     7.9670    23.3620     2.1470 
  111.5000   -26.8480    75.2840     7.5380     6.3380     7.6760    23.3880     2.1440 
  111.6250   -27.2850    75.2800     7.4520     6.2150     7.5250    23.3470     2.1400 
  111.7500   -27.6170    77.7100     7.5280     6.2310     7.6560    23.3210     2.1380 
  111.8750   -27.8250    80.5790     7.7130     6.3510     8.1500    23.2910     2.1400 
  112.0000   -27.9410    79.2660     7.9290     6.5190     8.5560    23.2570     2.1410 
  112.1250   -27.9520    74.7140     8.0750     6.6580     8.6370    23.2230     2.1430 
  112.2500   -27.7880    72.3940     8.0870     6.7060     8.5400    23.1880     2.1490 
  112.3750   -27.3410    73.1350     7.9300     6.6190     8.3870    23.1650     2.1610 
  112.5000   -26.5540    74.6380     7.6020     6.3840     8.1370    23.1810     2.1790 
  112.6250   -25.3740    76.9290     7.1290     6.0160     7.6810    23.2890     2.2060 
  112.7500   -23.9290    81.2410     6.6110     5.6070     6.8900    23.5060     2.2390 
  112.8750   -22.3650    88.5920     6.1280     5.2290     5.8370    23.7820     2.2720 
  113.0000   -20.7910    99.0690     5.7500     4.9390     5.1940    24.0410     2.2930 
  113.1250   -19.2410   105.4830     5.5460     4.7790     5.2890    24.2020     2.2920 
  113.2500   -17.8110   101.9570     5.4910     4.7170     5.3550    24.3640     2.2780 
  113.3750   -16.6160    91.9490     5.5450     4.7130     5.4390    24.3890     2.2640 
  113.5000   -15.7260    87.0630     5.6420     4.7250     5.5250    24.3430     2.2600 
  113.6250   -15.1380    92.7830     5.6950     4.7100     5.4670    24.3530     2.2700 
  113.7500   -14.7650    99.3040     5.6680     4.6620     5.4390    24.3790     2.2840 
  113.8750   -14.5460   101.8590     5.5780     4.5950     5.3710    24.3970     2.2950 
  114.0000   -14.3450    99.4010     5.4800     4.5410     5.3300    24.4040     2.2980 
  114.1250   -14.1580    95.1280     5.4480     4.5420     5.3680    24.4260     2.2950 
  114.2500   -14.0370    93.3750     5.4940     4.6100     5.4100    24.3780     2.2960 
  114.3750   -14.0130    93.1280     5.5940     4.7300     5.4360    24.3150     2.3060 
  114.5000   -14.1120    90.0790     5.7070     4.8630     5.6090    24.2570     2.3250 
  114.6250   -14.2810    86.8820     5.7850     4.9510     5.8760    24.0410     2.3430 
  114.7500   -14.4270    89.6030     5.8130     4.9680     6.0050    23.8010     2.3460 
  114.8750   -14.5510    96.7580     5.8030     4.9250     5.7610    23.8000     2.3350 
  115.0000   -14.7140   101.2040     5.7830     4.8600     5.2660    24.0590     2.3200 
  115.1250   -14.8830    99.9230     5.8010     4.8310     5.3430    24.1510     2.3060 
  115.2500   -14.9770    96.3030     5.8660     4.8610     5.7290    23.9560     2.2870 
  115.3750   -14.9680    93.0240     5.9560     4.9350     6.0350    23.6950     2.2690 
  115.5000   -14.8300    91.8430     6.0180     5.0130     5.9500    23.5660     2.2620 
  115.6250   -14.6320    92.4170     5.9730     5.0320     5.9100    23.6410     2.2660 
  115.7500   -14.4470    92.0010     5.8130     4.9680     5.7390    23.8800     2.2690 
  115.8750   -14.2060    90.9410     5.5760     4.8310     5.4970    24.1850     2.2730 
  116.0000   -13.9140    90.4840     5.3270     4.6600     5.1880    24.3630     2.2840 
  116.1250   -13.6340    93.5270     5.1330     4.5090     4.9940    24.4480     2.3030 
  116.2500   -13.4180    98.7660     5.0070     4.4010     5.0330    24.4940     2.3230 
  116.3750   -13.2540   101.1880     4.9340     4.3380     5.3630    24.5320     2.3430 
  116.5000   -13.1480    99.4280     4.8930     4.3060     5.5430    24.5530     2.3600 
  116.6250   -13.1020    97.4760     4.8620     4.2890     5.3730    24.5450     2.3660 
  116.7500   -13.1010    96.4740     4.8260     4.2670     5.0450    24.5400     2.3530 
  116.8750   -13.1500    94.6690     4.7820     4.2310     4.8690    24.5270     2.3300 
  117.0000   -13.2300    92.8400     4.7240     4.1760     4.9750    24.4700     2.3120 
  117.1250   -13.3640    92.4250     4.6520     4.1000     5.1530    24.3910     2.3070 
  117.2500   -13.5350    90.4520     4.5730     4.0180     4.9060    24.4090     2.3050 
  117.3750   -13.8030    87.5890     4.5130     3.9550     4.6300    24.4670     2.2980 
  117.5000   -14.3240    87.1550     4.5140     3.9460     4.6700    24.4700     2.2820 
  117.6250   -15.1960    87.3250     4.6640     4.0560     4.7010    24.3320     2.2620 
  117.7500   -16.2720    83.1700     4.9870     4.3000     5.0030    23.9590     2.2410 
  117.8750   -17.5130    76.4460     5.4720     4.6800     5.8200    23.3620     2.2190 
  118.0000   -18.8220    72.2540     6.0490     5.1650     6.7870    22.8590     2.2000 
  118.1250   -20.1300    73.2890     6.5920     5.6860     7.2440    22.8380     2.1930 
  118.2500   -21.3720    75.2720     6.9940     6.1520     7.4250    23.0260     2.1960 
  118.3750   -22.4860    74.1650     7.2220     6.5100     7.6050    23.1340     2.2020 
  118.5000   -23.3340    71.3890     7.3020     6.7450     7.6920    23.1910     2.2020 
  118.6250   -23.7970    70.7640     7.3000     6.8560     7.6150    23.2590     2.1960 
  118.7500   -23.9490    72.4690     7.2820     6.8850     7.4950    23.3060     2.1920 
  118.8750   -23.7890    73.5790     7.2380     6.8230     7.4690    23.3280     2.1960 
  119.0000   -23.3410    73.0470     7.1030     6.6350     7.3610    23.3080     2.2050 
  119.1250   -22.5170    74.4150     6.7630     6.2470     7.1390    23.3090     2.2200 
  119.2500   -21.4400    78.5910     6.2220     5.6870     6.8420    23.4330     2.2350 
  119.3750   -20.2000    84.4860     5.5510     5.0190     6.1260    23.7600     2.2500 
  119.5000   -18.8770    90.3040     4.9050     4.3630     4.9000    24.1860     2.2660 
  119.6250   -17.6330    94.4380     4.5630     3.9410     4.3400    24.4550     2.2830 
  119.7500   -16.6350    95.6040     4.7030     3.9110     4.0960    24.5820     2.2980 
  119.8750   -15.9650    92.2430     5.4350     4.3920     4.4020    24.6020     2.3140 
  120.0000   -15.7120    85.4420     6.7300     5.4070     6.3540    24.5390     2.3470 
  120.1250   -16.0420    76.5900     8.3560     6.8380    13.1220    24.3500     2.4030 
  120.2500   -16.8300    68.5250     9.7700     8.2310    20.7810    24.0490     2.4340 
  120.3750   -17.9150    63.7790    10.5060     9.1590    17.6140    23.7070     2.3950 
  120.5000   -19.1090    62.1520    10.3260     9.3330    10.6950    23.4440     2.3090 
  120.6250   -20.2710    64.1410     9.3700     8.7530     8.3960    23.3330     2.2440 
  120.7500   -21.3140    67.5080     8.3260     7.9800     7.9010    23.3050     2.2200 
  120.8750   -22.1670    68.5090     7.5850     7.3670     7.9280    23.3170     2.2210 
  121.0000   -22.8080    66.1970     7.2680     7.0630     7.9770    23.3770     2.2300 
  121.1250   -23.2550    64.8100     7.3460     7.0770     7.9150    23.4610     2.2440 
  121.2500   -23.5700    67.2110     7.5960     7.2430     7.9070    23.4870     2.2620 
  121.3750   -23.7610    69.7720     7.8850     7.4570     8.0940    23.4520     2.2720 
  121.5000   -23.8400    68.6290     8.1190     7.6490     8.2840    23.3760     2.2660 
  121.6250   -23.8190    66.8120     8.2390     7.7770     8.3060    23.3170     2.2490 
  121.7500   -23.7370    69.3830     8.2720     7.8440     8.2990    23.2820     2.2350 
  121.8750   -23.6500    74.3670     8.2420     7.8550     8.3840    23.2690     2.2260 
  122.0000   -23.5660    76.3890     8.1690     7.8150     8.5020    23.2640     2.2200 
  122.1250   -23.4190    73.1020     8.0550     7.7170     8.5590    23.2300     2.2170 
  122.2500   -23.2210    69.9850     7.9170     7.5750     8.4360    23.1980     2.2120 
  122.3750   -23.0080    69.9680     7.7770     7.4080     8.1960    23.1770     2.2030 
