~V
VERS. 2.00: Ver 2.00
~W
STRT.M 58.0000:
STOP.M 256.0000:
STEP.M 0.1250:
NULL. -999.2500:
UWI. DF5024:
~C
DEPT.M :
SP.MV :
GR.API :
CALI.CM :
RXO.OHMM :
RI. :
RML.OHMM :
DEN.GM/CC :
~A
# ...
  136.7500   -21.9590    83.7640    22.8940     7.6080     5.7330     6.7770     2.2330 
  136.8750   -22.0930    82.1540    22.8330     7.9840     6.4600     7.7330     2.2530 
  137.0000   -22.2090    80.1500    22.9320     9.2090     7.5850     9.1540     2.2890 
  137.1250   -22.3500    77.7780    23.1540    13.1400     9.2010    11.0510     2.3500 
  137.2500   -22.5370    75.1520    23.4230    20.6770    11.0970    13.1030     2.4330 
  137.3750   -22.7720    71.8670    23.6380    30.0790    12.9500    14.9160     2.5280 
  137.5000   -23.0440    67.7700    23.8030    36.8690    14.3080    16.0260     2.6050 
  137.6250   -23.3490    64.5660    23.8720    37.2460    14.6050    15.9170     2.6170 
  137.7500   -23.6720    64.5750    23.8600    33.5450    13.9580    14.8470     2.5760 
  137.8750   -23.9880    67.8090    23.6750    28.2150    12.6870    13.2330     2.5080 
  138.0000   -24.2540    71.6890    23.2600    22.3910    11.2230    11.5710     2.4310 
  138.1250   -24.3910    73.1890    22.7290    17.3730     9.9800    10.3210     2.3490 
  138.2500   -24.3670    72.8250    22.4220    14.0810     9.1150     9.5740     2.2740 
  138.3750   -24.1660    72.0590    22.2650    12.3950     8.6460     9.2770     2.2250 
  138.5000   -23.7900    71.9280    22.1550    11.6770     8.5000     9.2780     2.2070 
  138.6250   -23.2260    73.1060    22.1230    11.7290     8.5480     9.3760     2.2090 
  138.7500   -22.5230    74.8800    22.1290    12.1940     8.5700     9.3450     2.2130 
  138.8750   -21.7190    76.3010    22.1360    12.5890     8.4180     9.0570     2.2140 
  139.0000   -20.8690    78.0510    22.1820    12.6460     8.0130     8.4730     2.2100 
  139.1250   -20.0600    83.5730    22.3710    12.3280     7.3450     7.6360     2.2040 
  139.2500   -19.3540    92.4400    22.7170    11.1130     6.5660     6.7340     2.2110 
  139.3750   -18.7860   100.7080    23.2400     8.9610     5.7940     5.8990     2.2410 
  139.5000   -18.3680   104.4750    23.7710     6.6890     5.1210     5.2260     2.2910 
  139.6250   -18.1350   102.6240    24.0710     5.4640     4.6280     4.7880     2.3290 
  139.7500   -18.0640    99.8260    24.1720     5.0870     4.3010     4.5370     2.3360 
  139.8750   -18.1500    99.9150    24.1890     4.9720     4.1250     4.4400     2.3200 
  140.0000   -18.3670   103.5440    24.1690     4.7880     4.0710     4.4530     2.3030 
  140.1250   -18.6790   107.0920    24.0940     4.5990     4.1100     4.5370     2.2950 
  140.2500   -19.0210   106.8610    23.9960     4.5960     4.1900     4.6390     2.2890 
  140.3750   -19.3700   102.9940    23.8810     4.8600     4.2960     4.7550     2.2760 
  140.5000   -19.7240    97.4690    23.7010     5.5390     4.4460     4.9280     2.2600 
  140.6250   -20.0850    93.5880    23.4440     6.5740     4.7170     5.2800     2.2520 
  140.7500   -20.4450    92.7380    23.2900     7.2120     5.1610     5.8860     2.2580 
  140.8750   -20.7850    92.9300    23.3470     7.2120     5.8360     6.8030     2.2810 
  141.0000   -21.0950    91.1020    23.5080     7.3150     6.7820     8.0380     2.3180 
  141.1250   -21.3720    86.8170    23.6440     9.8850     8.0130     9.5330     2.3630 
  141.2500   -21.6350    83.0450    23.7580    15.4580     9.3440    11.0390     2.4100 
  141.3750   -21.8800    80.0790    23.7960    22.6420    10.5490    12.2960     2.4540 
  141.5000   -22.0850    76.5110    23.6810    27.7540    11.3850    13.0540     2.4790 
  141.6250   -22.2080    72.1290    23.3510    26.8480    11.6280    13.1030     2.4470 
  141.7500   -22.2440    69.2330    22.9820    22.4480    11.4530    12.7140     2.3630 
  141.8750   -22.1980    69.1540    22.7440    17.8880    11.0910    12.1960     2.2610 
  142.0000   -22.0820    70.9510    22.6190    15.4100    10.7920    11.8650     2.1810 
  142.1250   -21.8930    72.8250    22.5450    14.7230    10.7920    11.9760     2.1450 
  142.2500   -21.6430    74.5080    22.4670    14.4830    11.0690    12.4120     2.1390 
  142.3750   -21.3390    76.3980    22.4200    14.7570    11.4860    12.9470     2.1560 
  142.5000   -21.0070    78.0440    22.3900    16.0150    11.8090    13.2870     2.1900 
  142.6250   -20.6930    79.3150    22.3830    18.1290    11.7020    13.0640     2.2350 
  142.7500   -20.4270    81.3640    22.3930    19.5040    11.0950    12.2610     2.2830 
  142.8750   -20.2190    84.4770    22.4270    18.8530    10.0800    11.0190     2.3200 
  143.0000   -20.0650    88.5060    22.5270    15.8770     8.8750     9.6120     2.3320 
  143.1250   -19.9700    93.8750    22.7310    11.5640     7.7580     8.3890     2.3190 
  143.2500   -19.9320    99.4800    23.0210     8.3970     6.9150     7.5500     2.3050 
  143.3750   -19.9510   102.9610    23.2400     6.8870     6.4260     7.1600     2.3020 
  143.5000   -20.0080   102.5420    23.1760     6.7950     6.3010     7.1850     2.3040 
  143.6250   -20.0650    98.1570    22.8850     7.6460     6.5350     7.5620     2.2970 
  143.7500   -20.0790    92.1440    22.6990     8.8610     6.9850     8.1070     2.2800 
  143.8750   -20.0310    86.5140    22.6340    10.0460     7.5640     8.7140     2.2600 
  144.0000   -19.9170    82.5580    22.6310    11.1310     8.2020     9.3140     2.2380 
  144.1250   -19.7330    80.4360    22.6270    12.1970     8.8390     9.8500     2.2090 
  144.2500   -19.4860    78.5960    22.6350    12.8890     9.4240    10.3090     2.1790 
  144.3750   -19.1710    76.7400    22.6460    13.2110     9.9170    10.6660     2.1590 
  144.5000   -18.7940    75.9270    22.6530    13.6370    10.2510    10.8600     2.1640 
  144.6250   -18.3760    77.4340    22.6670    15.0520    10.2660    10.7300     2.2070 
  144.7500   -17.9590    80.2750    22.6850    16.8590     9.9300    10.2510     2.2740 
  144.8750   -17.5610    83.8350    22.7070    17.2090     9.2630     9.4580     2.3330 
  145.0000   -17.1870    88.4500    22.7460    15.0230     8.3670     8.4680     2.3550 
  145.1250   -16.8380    94.2450    22.8560    11.4910     7.4110     7.4710     2.3380 
  145.2500   -16.5220    99.7210    23.1250     8.9340     6.5690     6.6340     2.3210 
  145.3750   -16.2570   103.9840    23.5140     7.2570     5.9200     6.0310     2.3180 
  145.5000   -16.0570   106.6170    23.9080     6.1050     5.4870     5.6690     2.3230 
  145.6250   -15.9230   107.4640    24.0870     5.6760     5.2760     5.5340     2.3210 
  145.7500   -15.8250   107.3960    24.1530     5.6700     5.1950     5.5140     2.3160 
  145.8750   -15.7510   106.3920    24.1640     5.8940     5.1860     5.5370     2.3050 
  146.0000   -15.7040   103.7200    24.1570     6.1000     5.2100     5.5710     2.2800 
  146.1250   -15.7010    99.8290    24.1600     6.1460     5.2690     5.6380     2.2420 
  146.2500   -15.7320    96.7100    24.1790     6.0330     5.3870     5.7820     2.2230 
  146.3750   -15.7790    94.1770    24.1780     6.0090     5.6020     6.0560     2.2420 
  146.5000   -15.8210    90.9280    24.1110     6.4780     5.9620     6.5150     2.2860 
  146.6250   -15.8510    87.7030    23.9710     7.5770     6.5690     7.2690     2.3230 
  146.7500   -15.8810    86.6760    23.8910     8.9190     7.4390     8.3070     2.3430 
  146.8750   -15.9200    87.3370    23.8790    10.9860     8.5770     9.6230     2.3570 
  147.0000   -15.9640    87.0070    23.9000    14.6560     9.9710    11.1930     2.3820 
  147.1250   -15.9880    83.8050    23.9270    18.7570    11.5880    12.9560     2.4300 
  147.2500   -15.9850    80.0030    23.9250    21.9440    13.2620    14.7250     2.4850 
  147.3750   -15.9630    77.8560    23.9400    25.0420    14.8520    16.3510     2.5290 
  147.5000   -15.9420    76.8810    24.0180    28.2630    16.2280    17.7160     2.5550 
  147.6250   -15.9400    74.0440    24.0840    29.5160    17.2320    18.6890     2.5760 
  147.7500   -15.9500    68.6350    24.1180    28.2950    17.9360    19.3730     2.5870 
  147.8750   -15.9600    62.5380    24.1340    26.3500    18.4490    19.8830     2.5800 
