~V
VERS. 2.00: Ver 2.00
~W
STRT.M 61.0000:
STOP.M 236.0000:
STEP.M 0.1250:
NULL. -999.2500:
UWI. DF5057:
~C
DEPT.M :
GR.API :
RML.OHMM :
RI. :
RXO.OHMM :
CALI.CM :
DEN.GM/CC :
SP.MV :
~A
# ...
  117.2500    90.2480     5.6370     5.3720     5.1700    25.2850     2.2890    -7.1700 
  117.3750    89.9270     5.6860     5.4310     5.2540    25.2150     2.2870    -7.2910 
  117.5000    90.2780     5.6940     5.4550     5.2180    25.0880     2.2890    -7.3870 
  117.6250    90.0590     5.6370     5.4220     5.4840    24.9860     2.2930    -7.3570 
  117.7500    91.0270     5.5260     5.3450     5.5210    25.0780     2.3000    -7.2500 
  117.8750    92.8760     5.3890     5.2400     5.1130    25.3220     2.3060    -7.1080 
  118.0000    95.1200     5.2660     5.1390     4.8460    25.5180     2.3110    -6.9410 
  118.1250    96.5240     5.1970     5.0710     4.9420    25.5230     2.3130    -6.6700 
  118.2500    94.5400     5.1840     5.0470     5.0230    25.5270     2.3140    -6.3080 
  118.3750    91.2480     5.2330     5.0770     4.9430    25.5310     2.3140    -5.9370 
  118.5000    89.7590     5.3420     5.1660     4.7700    25.5210     2.3120    -5.6290 
  118.6250    91.3290     5.5000     5.3070     4.7840    25.5230     2.3100    -5.4670 
  118.7500    92.2830     5.6710     5.4630     4.9960    25.4940     2.3110    -5.3970 
  118.8750    93.0750     5.8080     5.5950     5.2230    25.4060     2.3150    -5.3660 
  119.0000    96.5620     5.8500     5.6490     5.3330    25.2970     2.3210    -5.2910 
  119.1250    99.6390     5.7350     5.5660     5.0950    25.3110     2.3260    -5.1690 
  119.2500   100.1290     5.5020     5.3700     4.9540    25.3530     2.3290    -5.0450 
  119.3750    99.7920     5.2070     5.1040     4.8190    25.3070     2.3340    -4.9330 
  119.5000    99.8800     4.9100     4.8200     4.7320    25.1880     2.3480    -4.8330 
  119.6250    99.5210     4.6840     4.5840     4.4280    25.1910     2.3710    -4.7280 
  119.7500    98.7400     4.5650     4.4360     4.4090    25.1920     2.3970    -4.6840 
  119.8750    97.6330     4.5920     4.4110     4.5270    25.1760     2.4120    -4.7210 
  120.0000    95.6510     4.7990     4.5360     4.7130    25.1210     2.4080    -4.9650 
  120.1250    92.1900     5.2520     4.8650     5.1090    24.9760     2.3780    -5.5720 
  120.2500    87.5560     5.9150     5.3740     5.7710    24.7310     2.3320    -6.4480 
  120.3750    80.8850     6.7450     6.0400     6.5960    24.4780     2.2820    -7.5050 
  120.5000    74.8530     7.6660     6.8080     7.5360    24.3430     2.2370    -8.6530 
  120.6250    72.5450     8.5580     7.5890     8.0720    24.3660     2.2050    -9.8240 
  120.7500    70.7940     9.3230     8.2830     8.3740    24.3950     2.1850   -10.9610 
  120.8750    69.2100     9.9220     8.8380     8.4710    24.3850     2.1770   -11.9950 
  121.0000    70.9820    10.3650     9.2450     8.5370    24.2960     2.1780   -12.8230 
  121.1250    74.2540    10.6550     9.5020     8.6990    24.1300     2.1860   -13.2710 
  121.2500    73.2210    10.8300     9.6570     8.8490    24.0140     2.1950   -13.4300 
  121.3750    67.7530    10.9220     9.7520     8.9570    24.0690     2.2010   -13.3780 
  121.5000    62.4610    10.9980     9.8570     9.0680    24.2360     2.2020   -13.1950 
  121.6250    62.2960    11.2030    10.0880     9.1630    24.3050     2.2040   -12.9260 
  121.7500    65.3800    11.7160    10.5440     9.3220    24.2430     2.2120   -12.5990 
  121.8750    68.1480    12.8190    11.3880    10.1710    24.1820     2.2320   -12.2340 
  122.0000    69.5690    14.8240    12.8450    12.3980    24.2220     2.2650   -11.8090 
  122.1250    71.6270    17.9090    15.1820    14.5460    24.3580     2.3160   -11.2940 
  122.2500    73.7840    21.0820    17.8580    16.2680    24.5490     2.3840   -10.6950 
  122.3750    72.9090    22.6640    19.6260    18.6000    24.7980     2.4610   -10.0410 
  122.5000    69.8340    21.0680    18.9440    22.3530    24.9810     2.5320    -9.3460 
  122.6250    70.8200    16.3720    15.4430    21.0900    25.0010     2.5680    -8.5940 
  122.7500    78.0790    11.4020    11.4210    17.0040    25.0930     2.5610    -7.8200 
  122.8750    88.4090     7.6500     8.1840     8.6600    25.2460     2.5180    -7.1140 
  123.0000    95.9760     5.9240     6.0520     4.7700    25.3170     2.4590    -6.5230 
  123.1250    97.2800     4.9500     4.9480     4.1560    25.2750     2.4120    -6.0740 
  123.2500    96.7400     4.6670     4.4230     4.2550    25.2410     2.3870    -5.7580 
  123.3750    98.2950     4.6960     4.2520     4.3250    25.2440     2.3820    -5.5490 
  123.5000   102.0180     4.7500     4.2450     4.3230    25.2740     2.3860    -5.4570 
  123.6250   103.6330     4.7100     4.2840     4.0990    25.2780     2.3900    -5.5190 
  123.7500   102.5080     4.7180     4.3810     3.9190    25.3390     2.3820    -5.7240 
  123.8750    99.7790     4.9590     4.6290     3.9230    25.4020     2.3580    -6.0230 
  124.0000    96.1500     5.5430     5.1060     4.3770    25.3370     2.3160    -6.3910 
  124.1250    89.1830     6.4740     5.8660     5.6990    25.0110     2.2610    -6.8090 
  124.2500    80.2080     7.4940     6.7570     7.1310    24.6920     2.2060    -7.2380 
  124.3750    74.5810     8.3300     7.5650     7.8740    24.5650     2.1590    -7.6510 
  124.5000    75.4710     8.7680     8.0660     7.8520    24.5680     2.1270    -8.0170 
  124.6250    78.2780     8.7500     8.1300     7.2200    24.5180     2.1150    -8.2940 
  124.7500    77.6780     8.5790     7.9800     6.7080    24.4180     2.1190    -8.4580 
  124.8750    76.6490     8.4700     7.8000     6.5220    24.3360     2.1360    -8.4860 
  125.0000    79.3170     8.5000     7.6860     6.5800    24.3090     2.1580    -8.3840 
  125.1250    81.5820     8.5730     7.6100     7.0590    24.3080     2.1770    -8.2010 
  125.2500    80.6720     8.5000     7.4580     7.6740    24.3000     2.1900    -7.9370 
  125.3750    81.5060     8.1720     7.1520     7.7710    24.3300     2.2010    -7.5660 
  125.5000    87.3080     7.6110     6.6980     6.6670    24.4740     2.2190    -7.1180 
  125.6250    96.0590     6.9790     6.1920     5.4530    24.7240     2.2450    -6.6790 
  125.7500   100.4780     6.4860     5.7680     5.0330    24.9150     2.2720    -6.2680 
  125.8750   100.3860     6.2270     5.4920     4.9590    25.1130     2.2930    -5.8950 
  126.0000    99.3990     6.1990     5.3720     4.9820    25.3180     2.3030    -5.5720 
  126.1250    97.7880     6.3190     5.3760     5.0880    25.3960     2.3040    -5.2940 
  126.2500    95.6220     6.4300     5.4010     5.1110    25.3450     2.3020    -5.0990 
  126.3750    94.8570     6.4570     5.3840     5.2630    25.2760     2.3030    -5.0420 
  126.5000    97.4730     6.3960     5.3090     5.2930    25.2650     2.3050    -5.0730 
  126.6250    98.5770     6.2890     5.1970     4.8560    25.3480     2.2980    -5.1840 
  126.7500    94.5810     6.1790     5.0850     4.8050    25.4280     2.2780    -5.3480 
  126.8750    89.4220     6.1050     5.0080     5.1900    25.4140     2.2410    -5.5650 
  127.0000    87.2600     6.1590     5.0280     5.8080    25.2790     2.1970    -5.8180 
  127.1250    87.0330     6.5960     5.3030     6.2990    25.1070     2.1690    -6.0600 
  127.2500    85.8750     7.5990     5.9420     6.5040    25.0340     2.1840    -6.2850 
  127.3750    83.1840     9.3070     7.0590     7.0620    25.2150     2.2550    -6.4970 
  127.5000    80.3910    11.6580     8.6870     9.5750    25.4260     2.3670    -6.7400 
  127.6250    77.0280    14.1380    10.6330    17.0930    25.5350     2.4710    -7.0040 
  127.7500    72.4580    15.7980    12.2230    22.2230    25.5310     2.5140    -7.2560 
  127.8750    69.6570    16.0080    12.8650    20.1550    25.3840     2.4760    -7.4820 
  128.0000    70.2740    14.9010    12.4660    14.8520    25.0710     2.3760    -7.6970 
  128.1250    72.0660    13.3210    11.4900    11.1320    24.7280     2.2610    -7.9730 
  128.2500    72.2390    12.1060    10.5850     9.8710    24.6050     2.1760    -8.2610 
  128.3750    72.4180    11.3860     9.9200    10.1240    24.6010     2.1300    -8.5140 
