~V
VERS. 2.00: Ver 2.00
~W
STRT.M 58.0000:
STOP.M 256.0000:
STEP.M 0.1250:
NULL. -999.2500:
UWI. DF5024:
~C
DEPT.M :
SP.MV :
GR.API :
CALI.CM :
RXO.OHMM :
RI. :
RML.OHMM :
DEN.GM/CC :
~A
# ...
  215.5000   -15.7410    64.3030    24.5020    87.8240    87.6950    92.9810     2.1530 
  215.6250   -15.8460    66.0850    24.4990    80.4040    87.0060    92.2520     2.1480 
  215.7500   -15.9540    69.2370    24.4400    71.8830    85.6810    90.8510     2.1300 
  215.8750   -16.0640    70.7600    24.2910    62.1260    83.3130    88.3450     2.1010 
  216.0000   -16.1770    70.4010    23.9810    51.6920    80.0570    84.9010     2.0780 
  216.1250   -16.2860    70.0180    23.5430    42.5570    76.7040    81.3530     2.0890 
  216.2500   -16.3810    70.3390    23.1750    36.1290    74.2910    78.8000     2.1220 
  216.3750   -16.4560    70.9450    22.9770    31.6560    73.5350    78.0000     2.1600 
  216.5000   -16.5130    71.8720    22.9170    29.0110    74.6550    79.1850     2.1840 
  216.6250   -16.5520    73.0350    22.9170    29.2320    77.2700    81.9510     2.1850 
  216.7500   -16.5760    73.5660    22.9150    31.6000    79.9530    84.7900     2.1750 
  216.8750   -16.5830    73.3990    22.9150    34.9780    81.5110    86.4380     2.1600 
  217.0000   -16.5760    73.3770    22.9270    37.6310    81.0310    85.9300     2.1470 
  217.1250   -16.5630    74.4560    22.9250    38.0460    77.9170    82.6360     2.1430 
  217.2500   -16.5500    76.1280    22.9180    36.3090    73.3420    77.7960     2.1530 
  217.3750   -16.5400    77.0210    22.9250    32.8810    68.6230    72.8030     2.1750 
  217.5000   -16.5350    75.8880    22.9270    29.4260    65.0620    69.0360     2.1950 
  217.6250   -16.5420    72.9640    22.9190    28.7030    64.0110    67.9230     2.2000 
  217.7500   -16.5620    70.3040    22.9280    31.1580    65.4080    69.4010     2.1980 
  217.8750   -16.5940    69.0690    22.9410    35.6240    68.9370    73.1350     2.1970 
  218.0000   -16.6350    69.7670    22.9440    40.4140    73.9150    78.4020     2.1950 
  218.1250   -16.6870    72.1670    22.9410    44.4250    79.3130    84.1130     2.1850 
  218.2500   -16.7480    73.8320    22.9540    48.1720    83.8960    88.9620     2.1700 
  218.3750   -16.8180    72.8520    22.9590    51.7440    86.8010    92.0350     2.1540 
  218.5000   -16.8910    70.0170    22.9530    54.0050    87.6020    92.8830     2.1430 
  218.6250   -16.9640    68.0800    22.9840    54.1210    86.2360    91.4380     2.1420 
  218.7500   -17.0380    67.8560    23.0400    54.2100    83.7370    88.7930     2.1500 
  218.8750   -17.1150    68.6000    23.1700    57.8620    80.8700    85.7610     2.1630 
  219.0000   -17.1980    69.8390    23.4320    66.2470    78.3540    83.0990     2.1780 
  219.1250   -17.2850    71.6210    23.7860    75.9970    76.9550    81.6180     2.1880 
  219.2500   -17.3790    73.6750    24.0680    83.8340    76.9510    81.6140     2.1900 
  219.3750   -17.4790    75.5550    24.2080    89.6090    78.7020    83.4670     2.1840 
  219.5000   -17.5820    76.8650    24.2390    94.0040    82.6410    87.6340     2.1770 
  219.6250   -17.6840    76.1300    24.2030    96.8370    89.7390    95.1440     2.1750 
  219.7500   -17.7820    72.9470    24.1500    99.1870    99.8040   105.7930     2.1710 
  219.8750   -17.8760    68.4770    24.0800   105.1760   112.6040   119.3350     2.1640 
  220.0000   -17.9620    64.6400    23.9910   120.8980   127.1990   134.7770     2.1620 
  220.1250   -18.0320    62.7990    23.8320   150.9590   141.2650   149.6590     2.1770 
  220.2500   -18.0870    62.3020    23.7950   180.5920   151.8750   160.8840     2.1960 
  220.3750   -18.1270    62.7410    23.8860   197.3720   156.6360   165.9210     2.2050 
  220.5000   -18.1540    64.0220    24.0620   195.5330   154.4780   163.6380     2.2010 
  220.6250   -18.1680    65.7300    24.1740   182.5430   145.4720   154.1090     2.1920 
  220.7500   -18.1720    67.0180    24.2110   167.6660   133.3570   141.2920     2.1830 
  220.8750   -18.1690    67.2800    24.2150   150.6980   120.8540   128.0630     2.1770 
  221.0000   -18.1620    66.8020    24.2230   129.4640   109.9310   116.5070     2.1710 
  221.1250   -18.1520    67.1790    24.2120   111.4570   101.8780   107.9870     2.1590 
  221.2500   -18.1390    69.0090    24.1790   101.7570    96.0660   101.8380     2.1420 
  221.3750   -18.1280    71.6090    24.1260    97.8430    91.8090    97.3340     2.1260 
  221.5000   -18.1220    73.8030    24.0070    96.1330    88.3580    93.6830     2.1190 
  221.6250   -18.1220    74.4080    23.9100    94.3130    85.1160    90.2530     2.1290 
  221.7500   -18.1270    73.5330    23.8730    90.9630    81.6790    86.6170     2.1410 
  221.8750   -18.1360    72.3600    23.8710    84.7970    78.0080    82.7320     2.1370 
  222.0000   -18.1480    71.8050    23.8860    76.2540    74.3090    78.8190     2.1120 
  222.1250   -18.1670    70.8280    23.8970    69.2990    71.2380    75.5690     2.0960 
  222.2500   -18.1900    69.3900    23.8490    67.8800    69.3910    73.6160     2.1170 
  222.3750   -18.2160    69.7560    23.7280    73.0140    69.3500    73.5720     2.1720 
  222.5000   -18.2430    72.4930    23.6570    77.2880    71.7370    76.0970     2.2300 
  222.6250   -18.2700    74.0760    23.7400    77.0380    77.5300    82.2270     2.2590 
  222.7500   -18.2970    73.0320    23.8800    79.9060    86.1520    91.3490     2.2580 
  222.8750   -18.3190    71.3840    23.9630    99.6590    96.8540   102.6710     2.2400 
  223.0000   -18.3340    70.2880    23.9600   132.7240   108.3270   114.8100     2.2150 
  223.1250   -18.3350    68.6680    23.8750   162.1280   118.2660   125.3250     2.1900 
  223.2500   -18.3220    66.7650    23.7060   174.5130   124.7610   132.1980     2.1670 
  223.3750   -18.2910    65.5320    23.5160   169.1090   126.8090   134.3640     2.1480 
  223.5000   -18.2440    64.4030    23.4020   149.5840   124.7310   132.1650     2.1350 
  223.6250   -18.1810    62.6300    23.3850   129.4960   120.0090   127.1700     2.1320 
  223.7500   -18.1130    61.8420    23.4310   121.4640   115.4340   122.3290     2.1370 
  223.8750   -18.0450    63.7010    23.5250   124.4790   112.4890   119.2130     2.1430 
  224.0000   -17.9840    67.1460    23.5940   128.5620   111.4080   118.0690     2.1470 
  224.1250   -17.9420    68.7530    23.6020   125.8660   111.6030   118.2760     2.1530 
  224.2500   -17.9260    68.3880    23.5500   127.6560   111.9160   118.6070     2.1680 
  224.3750   -17.9420    67.8080    23.4640   143.2810   111.5750   118.2460     2.1890 
  224.5000   -17.9940    67.7820    23.3990   168.6820   109.9930   116.5730     2.2130 
  224.6250   -18.0890    67.5740    23.3920   178.2570   106.9470   113.3500     2.2340 
  224.7500   -18.2170    67.2950    23.4330   160.9230   103.1940   109.3790     2.2410 
  224.8750   -18.3730    67.4790    23.4930   130.0000    99.1330   105.0820     2.2210 
  225.0000   -18.5490    67.5090    23.4810   111.7270    95.0080   100.7190     2.1850 
  225.1250   -18.7390    66.9530    23.4090   116.9580    90.9270    96.4000     2.1730 
  225.2500   -18.9300    66.6660    23.4050   125.8470    86.8260    92.0620     2.1960 
  225.3750   -19.1110    67.2220    23.5380   124.8610    82.7860    87.7880     2.2240 
  225.5000   -19.2720    68.6530    23.8220   113.5530    79.0730    83.8590     2.2220 
  225.6250   -19.4050    70.5490    24.0430    98.9960    76.1320    80.7480     2.1890 
  225.7500   -19.5120    72.0290    24.0060    88.2970    74.1630    78.6650     2.1580 
  225.8750   -19.5940    72.1200    23.7230    83.1600    73.3710    77.8270     2.1420 
  226.0000   -19.6520    70.5900    23.3280    84.1850    73.6560    78.1280     2.1380 
  226.1250   -19.6870    68.6760    23.1320    88.8410    74.5030    79.0240     2.1410 
  226.2500   -19.7100    67.8660    23.1750    93.9990    75.1010    79.6570     2.1510 
  226.3750   -19.7240    68.0770    23.5040    97.3190    75.0550    79.6090     2.1700 
  226.5000   -19.7300    68.7290    24.0450    97.8400    74.3720    78.8860     2.1890 
  226.6250   -19.7260    69.6140    24.4980    93.3730    73.4920    77.9540     2.1890 
