~V
VERS. 2.00: Ver 2.00
~W
STRT.M 50.0000:
STOP.M 245.0000:
STEP.M 0.1250:
NULL. -999.2500:
UWI. DF5062:
~C
DEPT.M :
DEN.GM/CC :
GR.API :
RML.OHMM :
RI. :
RXO.OHMM :
CALI.CM :
SP.MV :
~A
# ...
  207.5000     2.1930    64.6160   149.4480   130.5520   122.3360    24.4370   -29.0800 
  207.6250     2.1980    62.7940   145.2230   127.1720   120.3360    24.5200   -28.9080 
  207.7500     2.2060    64.2230   140.9150   123.5120   116.1680    24.7720   -28.6930 
  207.8750     2.2150    65.2690   137.8290   120.7500   111.6730    24.9580   -28.5990 
  208.0000     2.2230    62.9620   136.9250   119.8270   108.3840    25.0070   -28.5060 
  208.1250     2.2290    61.6370   139.0050   121.6140   108.5230    25.0580   -28.3580 
  208.2500     2.2350    62.1020   142.9570   125.2940   113.5950    25.0960   -28.3320 
  208.3750     2.2420    61.5210   147.1140   129.5400   120.7770    25.1250   -28.2390 
  208.5000     2.2500    59.7960   149.2030   132.4060   128.3670    25.1280   -28.2200 
  208.6250     2.2560    60.3360   146.2380   131.1750   132.7820    25.1030   -28.2360 
  208.7500     2.2580    61.4450   138.2810   125.4980   128.4530    24.9700   -28.2040 
  208.8750     2.2570    61.1770   126.6800   116.1760   115.7830    24.6810   -28.1870 
  209.0000     2.2530    62.6080   113.9180   105.1690   106.6260    24.2450   -28.1770 
  209.1250     2.2440    66.7060   102.9070    95.0460    83.7540    23.9640   -28.1800 
  209.2500     2.2300    67.7800    94.8100    87.2510    70.1530    24.1510   -28.1490 
  209.3750     2.2110    65.3670    89.8000    82.1960    66.6110    24.6400   -28.1980 
  209.5000     2.1940    62.6980    87.6140    79.7780    69.3620    25.1080   -28.1740 
  209.6250     2.1890    62.9620    88.4080    80.1730    72.3570    25.3260   -28.1310 
  209.7500     2.1940    62.7520    91.7980    82.9840    72.4310    25.3200   -28.2230 
  209.8750     2.2070    60.5970    98.0400    88.4340    71.8460    25.3000   -28.2360 
  210.0000     2.2190    58.2410   107.2680    96.6970    73.7850    25.3250   -28.2590 
  210.1250     2.2280    56.9250   119.1770   107.6780    83.4630    25.3340   -28.3050 
  210.2500     2.2320    57.4570   131.2720   119.2380   101.3650    25.2270   -28.3750 
  210.3750     2.2350    60.1710   140.5250   128.6920   121.9330    25.1150   -28.4070 
  210.5000     2.2350    62.2860   143.6930   133.0100   127.9600    24.9790   -28.5190 
  210.6250     2.2320    62.2630   137.3140   128.7320   122.6610    24.8320   -28.5930 
  210.7500     2.2280    63.6910   123.7800   117.5330   113.9140    24.7290   -28.5280 
  210.8750     2.2260    67.8460   106.5760   102.2170   102.3210    24.6540   -28.5950 
  211.0000     2.2320    70.3010    89.9070    86.5230    83.3360    24.6080   -28.5740 
  211.1250     2.2470    68.6860    78.0470    74.5290    63.1580    24.5310   -28.6300 
  211.2500     2.2660    67.9170    72.4310    67.7740    50.7790    24.5550   -28.7230 
  211.3750     2.2830    68.5190    73.7780    67.0440    47.9440    24.6880   -28.7610 
  211.5000     2.2900    67.4720    81.7770    72.5730    52.8860    24.7930   -28.8790 
  211.6250     2.2830    65.2950    96.3000    84.7770    66.5270    24.8060   -28.9640 
  211.7500     2.2670    64.8190   113.0920   101.0040    89.6960    24.7820   -29.1630 
  211.8750     2.2490    64.5640   129.2510   118.7430   111.5580    24.7500   -29.3880 
  212.0000     2.2340    61.7820   142.2550   135.1660   119.9170    24.7140   -29.5900 
  212.1250     2.2230    57.4530   150.1240   147.4180   121.7930    24.7040   -29.8190 
  212.2500     2.2130    57.0490   158.7980   155.7790   129.5960    24.7360   -29.9860 
  212.3750     2.2020    60.4900   165.1280   161.3950   140.6860    24.8080   -30.1270 
  212.5000     2.1910    64.4620   170.4140   165.5680   152.1040    24.8820   -30.2830 
  212.6250     2.1860    64.8440   175.0270   168.7620   154.6960    24.9510   -30.4240 
  212.7500     2.1900    62.6010   178.6870   170.8960   149.9520    25.0090   -30.4870 
  212.8750     2.2020    61.0940   181.0170   171.6930   150.6800    25.0070   -30.5130 
  213.0000     2.2180    60.9850   182.0680   171.2760   158.1300    24.9080   -30.5630 
  213.1250     2.2310    60.3610   182.4900   170.3010   162.2980    24.7620   -30.6180 
  213.2500     2.2360    59.2740   183.5810   169.9460   152.4440    24.6770   -30.6090 
  213.3750     2.2310    59.9860   186.4080   171.1460   137.0200    24.6680   -30.5860 
  213.5000     2.2190    62.0470   191.5480   174.4330   127.2910    24.6920   -30.5270 
  213.6250     2.2060    61.5110   198.7070   179.6950   130.6740    24.7030   -30.4530 
  213.7500     2.1990    60.9550   205.5490   185.0230   134.9720    24.7320   -30.4870 
  213.8750     2.1970    62.3040   209.4160   188.1980   140.0580    24.7620   -30.3760 
  214.0000     2.2010    64.6270   207.8380   187.0580   146.2600    24.7630   -30.2760 
  214.1250     2.2080    65.5290   198.6390   179.5370   154.4590    24.7640   -30.1270 
  214.2500     2.2150    65.8390   184.3050   167.4340   159.1050    24.7540   -29.9130 
  214.3750     2.2220    66.1940   167.6450   152.9540   145.6780    24.7290   -29.8000 
  214.5000     2.2260    64.7200   151.5610   138.5780   122.9850    24.7000   -29.5960 
  214.6250     2.2260    62.9110   138.6380   126.7070   107.1410    24.6780   -29.4920 
  214.7500     2.2260    62.4260   129.0760   117.8190    98.7240    24.6770   -29.2420 
  214.8750     2.2250    61.6870   122.4810   111.7330    95.3280    24.7380   -28.9180 
  215.0000     2.2260    59.3420   118.0390   107.7900    95.5540    24.8610   -28.6770 
  215.1250     2.2270    58.8140   114.9650   105.2740    98.3760    24.9710   -28.3680 
  215.2500     2.2290    62.2780   112.3390   103.2280    99.5600    25.0300   -28.1430 
  215.3750     2.2330    66.3100   109.7880   101.2310    97.8120    25.0620   -27.9600 
  215.5000     2.2410    67.8650   107.0540    99.0130    95.1840    25.0670   -27.7220 
  215.6250     2.2540    65.7090   103.7680    96.2250    92.0640    25.0430   -27.4700 
  215.7500     2.2650    62.4240    99.7160    92.6760    89.6470    24.9920   -27.3560 
  215.8750     2.2700    61.4160    94.7230    88.1860    86.0780    24.9110   -27.2890 
  216.0000     2.2660    63.8230    88.7910    82.7310    80.2800    24.8090   -27.2160 
  216.1250     2.2550    67.2610    82.2260    76.5360    71.0210    24.7720   -27.1830 
  216.2500     2.2430    68.7190    75.9570    70.4540    64.2720    24.7880   -27.1300 
  216.3750     2.2350    68.9300    70.9470    65.3650    59.9240    24.7840   -27.0290 
  216.5000     2.2340    69.8740    68.1250    62.1250    54.2310    24.7420   -26.9500 
  216.6250     2.2410    71.1570    68.7480    61.8910    47.9730    24.6840   -26.8570 
  216.7500     2.2520    70.6280    72.5600    64.5190    44.2030    24.5310   -26.6540 
  216.8750     2.2660    68.4710    79.0790    69.6960    44.4470    24.1770   -26.5590 
  217.0000     2.2830    67.2310    87.0880    76.4860    49.2220    23.6900   -26.3520 
  217.1250     2.3000    67.1710    94.3180    83.1200    49.8290    23.6090   -26.1080 
  217.2500     2.3140    65.5690    98.6300    87.6790    51.2350    23.7120   -25.9580 
  217.3750     2.3200    64.5240    98.8490    88.9900    50.2680    23.8170   -25.6820 
  217.5000     2.3160    66.4970    95.1470    86.9020    49.3470    23.8760   -25.4550 
  217.6250     2.3000    69.2630    88.9730    82.2630    54.5920    24.2590   -25.1360 
  217.7500     2.2790    67.0970    83.0850    77.3810    60.7480    24.5380   -24.8290 
  217.8750     2.2610    62.0570    79.0560    73.7470    62.1390    24.6810   -24.5310 
  218.0000     2.2510    60.5950    77.2590    71.9620    61.8950    24.7370   -24.1610 
  218.1250     2.2640    66.0550    76.3820    71.2450    61.9820    24.7940   -23.8360 
  218.2500     2.3060    72.9390    73.5110    69.1320    62.6870    24.8410   -23.3950 
  218.3750     2.3820    75.4510    66.3910    63.4520    64.4700    24.8630   -22.9900 
  218.5000     2.4820    71.3070    54.5450    53.3680    67.9850    24.8280   -22.6590 
  218.6250     2.5780    62.4610    40.2100    40.3660    67.9580    24.7860   -22.3240 
