~V
VERS. 2.00: Ver 2.00
~W
STRT.M 65.0000:
STOP.M 258.0000:
STEP.M 0.1250:
NULL. -999.2500:
UWI. DF5030:
~C
DEPT.M :
SP.MV :
GR.API :
RML.OHMM :
RI. :
RXO.OHMM :
CALI.CM :
DEN.GM/CC :
~A
# ...
  211.2500   -10.5220    68.7300    43.6050    40.3690    20.1040    23.8760     2.2480 
  211.3750   -10.9700    67.2240    46.0650    42.1240    20.7680    23.8640     2.2560 
  211.5000   -11.4350    67.4870    50.0810    45.2940    22.5930    23.8280     2.2650 
  211.6250   -11.9230    66.5040    55.5260    49.8340    25.1150    23.7750     2.2690 
  211.7500   -12.4210    63.8520    62.2220    55.6200    27.6590    23.7240     2.2620 
  211.8750   -12.9590    60.6390    70.1940    62.6620    28.9370    23.5000     2.2320 
  212.0000   -13.5160    57.2880    79.1420    70.6230    28.7180    23.1330     2.1860 
  212.1250   -14.0590    54.9230    88.9470    79.3690    29.1040    22.8000     2.1380 
  212.2500   -14.6120    55.6180    99.4070    88.7270    31.2840    22.5680     2.0990 
  212.3750   -15.1410    59.6700   110.1050    98.3700    36.1840    22.4100     2.0800 
  212.5000   -15.6490    61.7140   120.1700   107.5700    41.7960    22.3930     2.0750 
  212.6250   -16.1390    58.8730   128.4030   115.3430    50.8160    22.4660     2.0770 
  212.7500   -16.5890    53.7930   133.2160   120.3660    62.7340    22.5530     2.0850 
  212.8750   -16.9630    49.3230   131.9220   120.3020    75.2880    22.7250     2.1000 
  213.0000   -17.2820    46.0490   124.6110   114.9500    88.5800    23.0090     2.1200 
  213.1250   -17.5510    46.0550   112.3530   104.9880    97.7610    23.2710     2.1420 
  213.2500   -17.7490    49.6660    98.1410    92.6740    96.7710    23.3200     2.1600 
  213.3750   -17.9310    53.1390    86.3980    81.6520   112.0080    23.2400     2.1710 
  213.5000   -18.1000    53.7240    79.7420    74.4880   150.3830    23.2220     2.1760 
  213.6250   -18.2560    53.4860    79.2100    72.3250   184.6250    23.3440     2.1750 
  213.7500   -18.4140    55.4930    85.1330    75.2650   202.3160    23.6250     2.1680 
  213.8750   -18.5710    56.8470    96.3900    83.0240   154.3740    24.1230     2.1600 
  214.0000   -18.7350    54.4090   109.1440    93.0170    92.9270    24.7760     2.1550 
  214.1250   -18.9210    51.3050   119.7660   103.0430    77.5440    25.3090     2.1560 
  214.2500   -19.0980    51.7910   127.5730   110.9230    88.0400    25.4240     2.1630 
  214.3750   -19.2290    54.9220   130.4060   114.5280   106.9570    25.0070     2.1710 
  214.5000   -19.3660    54.8010   129.3850   114.5560   121.2800    24.2650     2.1750 
  214.6250   -19.4990    52.3890   126.1050   112.2800   124.9480    23.8060     2.1780 
  214.7500   -19.5980    52.2990   122.3870   109.3340   118.5890    23.6570     2.1800 
  214.8750   -19.6790    53.9510   119.9700   107.3760   115.9390    23.6090     2.1830 
  215.0000   -19.7330    54.2000   119.3360   106.9960   112.8140    23.5710     2.1880 
  215.1250   -19.7540    56.3900   120.2110   108.0010   112.4230    23.5470     2.1930 
  215.2500   -19.7690    63.1000   121.6830   109.5830   111.8510    23.5040     2.1970 
  215.3750   -19.8130    67.7460   122.1890   110.3780   111.0130    23.4110     2.2000 
  215.5000   -19.8550    65.0830   120.5990   109.4010   110.7010    23.3250     2.2030 
  215.6250   -19.8910    60.7260   116.4110   106.1920   111.2210    23.2710     2.2060 
  215.7500   -19.9520    61.2050   109.9140   100.9220   108.2040    23.2500     2.2100 
  215.8750   -20.0270    63.9910   102.0790    94.2830   101.4450    23.2320     2.2130 
  216.0000   -20.1260    63.1730    94.5240    87.6480    95.3040    23.2150     2.2150 
  216.1250   -20.2300    59.3970    88.2810    81.9500    92.6240    23.1820     2.2150 
  216.2500   -20.3430    55.3310    83.9990    77.8620    92.5140    23.1390     2.2150 
  216.3750   -20.4450    54.3890    82.2600    76.0650    89.2280    23.0870     2.2150 
  216.5000   -20.5200    57.6420    82.4410    76.1640    84.7130    23.0580     2.2150 
  216.6250   -20.6080    60.2640    83.9940    77.7680    83.4660    23.0730     2.2130 
  216.7500   -20.6850    59.1960    86.2210    80.2800    87.2370    23.1530     2.2080 
  216.8750   -20.7580    55.7160    88.3150    82.9340    94.3320    23.3460     2.2020 
  217.0000   -20.8250    53.5610    89.7070    85.0320   102.3050    23.6210     2.1950 
  217.1250   -20.8920    55.6980    90.1780    86.2410   103.5520    23.8800     2.1890 
  217.2500   -20.9590    61.0590    89.7830    86.5250    98.1020    24.0270     2.1840 
  217.3750   -21.0390    67.6200    88.6980    86.0060    93.8870    24.0670     2.1830 
  217.5000   -21.1390    73.9140    87.2850    85.0770    92.7230    24.0700     2.1860 
  217.6250   -21.2310    77.8710    85.5570    83.7880    90.7560    24.0700     2.1910 
  217.7500   -21.3260    75.7570    83.2280    81.8870    87.1470    24.0690     2.2000 
  217.8750   -21.4310    66.5670    79.6380    78.7000    82.9730    24.0660     2.2100 
  218.0000   -21.5670    60.3740    74.8720    74.2460    79.8890    24.0590     2.2210 
  218.1250   -21.7390    64.7960    69.5840    69.0720    77.4750    24.0530     2.2340 
  218.2500   -21.9420    76.2880    65.0050    64.3060    72.0260    24.0500     2.2460 
  218.3750   -22.2030    82.3300    63.0050    61.7050    62.4280    24.0330     2.2580 
  218.5000   -22.4760    78.7070    64.1240    61.9430    58.9160    24.0090     2.2650 
  218.6250   -22.7950    70.1670    68.2610    65.1020    66.6960    23.9990     2.2660 
  218.7500   -23.1690    63.6260    74.4980    70.4970    83.1530    24.0050     2.2610 
  218.8750   -23.5810    60.6970    81.2820    76.7850    96.9910    24.0280     2.2520 
  219.0000   -23.9710    60.1810    87.1350    82.3690   102.4990    24.0550     2.2440 
  219.1250   -24.3620    61.2980    91.7900    86.7210   101.2900    24.0660     2.2380 
  219.2500   -24.7500    63.9730    96.1660    90.4360    98.9140    24.0640     2.2350 
  219.3750   -25.1140    67.8600   102.5190    95.4530    99.6330    24.0620     2.2310 
  219.5000   -25.4730    71.7330   112.1840   103.2490   107.5930    24.0610     2.2270 
  219.6250   -25.7990    71.7660   125.3010   114.2150   124.0610    24.0560     2.2220 
  219.7500   -26.0860    66.6170   140.6270   127.4460   144.9970    24.0340     2.2170 
  219.8750   -26.3240    61.1830   155.3240   140.6010   165.5080    23.9840     2.2120 
  220.0000   -26.5470    59.5740   166.3790   150.9430   172.3370    23.9500     2.2110 
  220.1250   -26.7420    59.8430   171.8200   156.6320   170.9320    23.9450     2.2120 
  220.2500   -26.9230    58.3570   171.0450   156.9440   172.9460    23.9670     2.2150 
  220.3750   -27.0580    58.3970   164.2420   151.7490   168.6060    24.0050     2.2170 
  220.5000   -27.1670    63.1020   154.2960   143.4340   162.9160    24.0430     2.2180 
  220.6250   -27.2380    69.7290   143.0740   133.6180   157.5990    24.0760     2.2180 
  220.7500   -27.3010    77.0040   132.1670   123.7740   147.2460    24.1100     2.2190 
  220.8750   -27.3570    81.7260   123.2220   115.4670   129.8180    24.1240     2.2190 
  221.0000   -27.4110    79.2280   116.7980   109.3600   118.5780    24.1290     2.2150 
  221.1250   -27.4780    70.0790   113.1450   105.7610   116.9620    24.1290     2.2040 
  221.2500   -27.5390    61.8290   112.1760   104.6400   118.5050    24.1290     2.1870 
  221.3750   -27.5860    59.0840   113.9320   106.0660   119.5190    24.1290     2.1670 
  221.5000   -27.6520    60.6230   117.5780   109.2470   122.2550    24.1290     2.1500 
  221.6250   -27.7360    64.4670   122.7150   113.7980   128.2010    24.1260     2.1400 
  221.7500   -27.8080    66.4210   128.9590   119.3670   137.0900    24.1150     2.1380 
  221.8750   -27.8620    63.6920   135.9740   125.6720   148.7380    24.0920     2.1460 
  222.0000   -27.9080    60.9130   143.2130   132.2020   160.5520    24.0830     2.1590 
  222.1250   -27.9270    61.0620   150.3650   138.6230   172.2020    24.1030     2.1740 
  222.2500   -27.8990    61.8260   157.2120   144.6630   179.2390    24.1220     2.1880 
  222.3750   -27.8700    59.6410   163.4830   149.9790   181.9650    24.1170     2.1960 
