~V
VERS. 2.00: Ver 2.00
~W
STRT.M 57.0000:
STOP.M 276.0000:
STEP.M 0.1250:
NULL. -999.2500:
UWI. DF5005:
~C
DEPT.M :
GR.API :
RML.OHMM :
RI. :
RXO.OHMM :
CALI.CM :
DEN.GM/CC :
SP.MV :
~A
# ...
  259.5000    51.8900     9.0520     7.8700     9.6060    23.8530     2.3830    -9.4450 
  259.6250    51.2370     9.0850     7.9160     9.4380    23.8520     2.3910    -9.6020 
  259.7500    51.9910     9.0900     7.9520     9.2690    23.8510     2.3950    -9.7980 
  259.8750    53.2130     9.0680     7.9670     9.0710    23.8490     2.3940    -9.9770 
  260.0000    54.2580     9.0350     7.9610     8.8220    23.8510     2.3930   -10.1000 
  260.1250    54.1750     8.9980     7.9300     8.6110    23.8510     2.3950   -10.1910 
  260.2500    54.1990     8.9560     7.8710     8.3650    23.8500     2.3990   -10.2430 
  260.3750    55.9510     8.8910     7.7770     8.0950    23.8370     2.4050   -10.2590 
  260.5000    56.9400     8.7920     7.6520     7.9450    23.8140     2.4090   -10.2510 
  260.6250    54.6650     8.6530     7.5000     7.9630    23.7930     2.4100   -10.2300 
  260.7500    50.7890     8.4840     7.3340     7.9480    23.7860     2.4080   -10.1810 
  260.8750    50.6150     8.3220     7.1830     7.5010    23.7940     2.4030   -10.1070 
  261.0000    52.5370     8.2180     7.0790     6.9310    23.8070     2.3960   -10.0270 
  261.1250    53.6270     8.2030     7.0420     6.5180    23.8110     2.3900    -9.9750 
  261.2500    53.8340     8.2790     7.0730     6.3650    23.7960     2.3880    -9.9290 
  261.3750    54.5140     8.4110     7.1490     6.3970    23.7990     2.3880    -9.8860 
  261.5000    54.8340     8.5220     7.2150     6.4770    23.8330     2.3870    -9.8460 
  261.6250    53.1860     8.5610     7.2320     6.4570    23.9070     2.3820    -9.7280 
  261.7500    50.3590     8.5100     7.1830     6.2790    24.0080     2.3700    -9.5800 
  261.8750    48.7850     8.3980     7.0790     6.1110    24.0740     2.3570    -9.5000 
  262.0000    48.9080     8.2880     6.9700     6.1880    24.0980     2.3500    -9.4020 
  262.1250    49.2760     8.2220     6.8900     6.4420    24.1010     2.3490    -9.3090 
  262.2500    48.7860     8.2050     6.8620     6.7180    24.1030     2.3510    -9.2490 
  262.3750    48.2590     8.2300     6.8940     7.0790    24.1230     2.3460    -9.1680 
  262.5000    49.2900     8.2540     6.9580     7.3270    24.1490     2.3360    -9.1390 
  262.6250    52.5510     8.2700     7.0270     7.3030    24.1340     2.3250    -9.1870 
  262.7500    55.8420     8.3260     7.0830     7.1030    24.0830     2.3200    -9.2480 
  262.8750    55.8840     8.4080     7.1140     6.7610    24.0160     2.3250    -9.3060 
  263.0000    54.3820     8.4730     7.1250     6.4120    23.9940     2.3360    -9.3270 
  263.1250    54.2850     8.5060     7.1200     6.4390    24.0400     2.3470    -9.2790 
  263.2500    55.6120     8.4250     7.0970     6.7300    24.1190     2.3560    -9.2410 
  263.3750    55.4850     8.2770     7.0410     6.8760    24.1530     2.3610    -9.1900 
  263.5000    55.9760     8.1240     6.9510     6.6430    24.1580     2.3610    -9.1180 
  263.6250    57.6700     8.0040     6.8350     6.4310    24.1390     2.3550    -9.0190 
  263.7500    57.9600     7.8820     6.7110     6.4020    24.0870     2.3450    -8.9280 
  263.8750    55.9690     7.7600     6.6090     6.4030    24.0380     2.3360    -8.8030 
  264.0000    54.1750     7.6360     6.5420     6.3200    24.0540     2.3300    -8.7170 
  264.1250    53.6310     7.5550     6.5080     6.2210    24.1600     2.3280    -8.7050 
  264.2500    53.8700     7.5170     6.4950     6.0710    24.2900     2.3260    -8.6460 
  264.3750    53.8580     7.5060     6.4830     5.8850    24.4350     2.3210    -8.6280 
  264.5000    53.2130     7.4780     6.4570     5.5750    24.5150     2.3130    -8.5850 
  264.6250    52.1180     7.4220     6.4150     5.4480    24.5250     2.3050    -8.5560 
  264.7500    52.3910     7.3530     6.3600     5.4750    24.5220     2.3010    -8.5600 
  264.8750    53.6540     7.2860     6.2960     5.6190    24.5300     2.3060    -8.5610 
  265.0000    53.2450     7.2290     6.2310     5.7860    24.4910     2.3150    -8.5930 
  265.1250    51.8320     7.1820     6.1650     5.9140    24.4070     2.3220    -8.6020 
  265.2500    51.7900     7.1470     6.1020     5.9300    24.3770     2.3230    -8.6560 
  265.3750    53.9840     7.1330     6.0470     5.8980    24.4320     2.3150    -8.7120 
  265.5000    53.9840     7.1440     6.0070     5.9540    24.5010     2.3040    -8.7780 
  265.6250    53.9840     7.1780     5.9840     6.1480    24.5430     2.2970    -8.8610 
  265.7500    53.9840     7.2170     5.9700     6.4850    24.5580     2.2950    -8.9050 
  265.8750    53.9840     7.2220     5.9480     6.7860    24.5580     2.2990    -9.0120 
  266.0000    53.9840     7.1690     5.9030     6.9560    24.5500     2.3030    -9.1180 
  266.1250    53.9840     7.0630     5.8320     6.9100    24.5280     2.3050    -9.2110 
  266.2500    53.9840     6.9400     5.7540     6.6870    24.5060     2.3060    -9.2700 
  266.3750    53.9840     6.8740     5.7150     6.4410    24.4960     2.3100    -9.2760 
  266.5000    53.9840     6.9090     5.7430     6.2200    24.4910     2.3200    -9.2850 
  266.6250    53.9840     7.0470     5.8450     6.1630    24.4860     2.3350    -9.2850 
  266.7500    53.9840     7.2490     6.0020     6.2590    24.4860     2.3510    -9.2750 
  266.8750    53.9840     7.4480     6.1740     6.4480    24.4860     2.3610    -9.2160 
  267.0000    53.9840     7.5880     6.3150     6.6480    24.4760     2.3630    -9.0980 
  267.1250    53.9840     7.6480     6.4000     6.8630    24.4500     2.3590    -8.9710 
  267.2500    53.9840     7.6360     6.4220     7.1470    24.4280     2.3540    -8.8900 
  267.3750    53.9840     7.5710     6.3810     7.3690    24.4070     2.3520    -8.9090 
  267.5000    53.9840     7.4810     6.3000     7.3760    24.3430     2.3510    -8.9350 
  267.6250    53.9840     7.3800     6.1960     6.9950    24.1810     2.3490    -8.9240 
  267.7500    53.9840     7.2760     6.0850     6.4560    23.9540     2.3450    -8.9310 
  267.8750    53.9840     7.1880     5.9860     6.1900    23.8500     2.3410    -8.9810 
  268.0000    53.9840     7.1320     5.9110     6.0730    23.9910     2.3390    -9.0560 
  268.1250    53.9840     7.1170     5.8660     5.9950    24.2110     2.3410    -9.1170 
  268.2500    53.9840     7.1390     5.8470     5.8690    24.3330     2.3460    -9.1440 
  268.3750    53.9840     7.1810     5.8470     5.7720    24.3560     2.3500    -9.1480 
  268.5000    53.9840     7.2170     5.8490     5.7490    24.3520     2.3520    -9.1550 
  268.6250    53.9840     7.2320     5.8500     5.8080    24.3500     2.3540    -9.1950 
  268.7500    53.9840     7.2250     5.8510     5.9410    24.3500     2.3570    -9.2220 
  268.8750    53.9840     7.2020     5.8520     6.1130    24.3590     2.3610    -9.2030 
  269.0000    53.9840     7.1740     5.8560     6.1210    24.3820     2.3620    -9.1820 
  269.1250    53.9840     7.1490     5.8580     5.9410    24.4030     2.3600    -9.1460 
  269.2500    53.9840     7.1320     5.8600     5.6720    24.4110     2.3560    -9.0500 
  269.3750    53.9840     7.1270     5.8620     5.4050    24.4110     2.3520    -8.8910 
  269.5000    53.9840     7.1310     5.8640     5.3070    24.4110     2.3520    -8.7140 
  269.6250    53.9840     7.1390     5.8680     5.4290    24.4110     2.3520    -8.5550 
  269.7500    53.9840     7.1480     5.8700     5.5810    24.4110     2.3520    -8.4320 
  269.8750    53.9840     7.1520     5.8700     5.5770    24.4090     2.3500    -8.3240 
  270.0000    53.9840     7.1530     5.8690     5.5130    24.3970     2.3490    -8.2240 
  270.1250    53.9840     7.1510     5.8670     5.4550    24.3690     2.3520    -8.1840 
  270.2500    53.9840     7.1480     5.8650     5.4450    24.3490     2.3570    -8.1990 
  270.3750    53.9840     7.1420     5.8630     5.4910    24.3420     2.3600    -8.2140 
  270.5000    53.9840     7.1330     5.8620     5.5210    24.3420     2.3570    -8.2780 
  270.6250    53.9840     7.1210     5.8610     5.4850    24.3370     2.3490    -8.3190 
