~V
VERS. 2.00: Ver 2.00
~W
STRT.M 60.0000:
STOP.M 257.0000:
STEP.M 0.1250:
NULL. -999.2500:
UWI. DF5064:
~C
DEPT.M :
SP.MV :
GR.API :
RML.OHMM :
RI. :
RXO.OHMM :
CALI.CM :
DEN.GM/CC :
~A
# ...
   82.5000   -23.8890    73.6290     7.8300     6.8840     9.7370    25.1790     2.1740 
   82.6250   -24.3520    72.4630     7.8820     7.0780    11.5670    25.1420     2.1650 
   82.7500   -24.8320    72.6800     7.7700     7.1690    12.5880    25.2010     2.1610 
   82.8750   -25.2390    73.5570     7.6610     7.1690    12.7920    25.3160     2.1620 
   83.0000   -25.5580    73.1050     7.6750     7.1020    12.3720    25.4130     2.1650 
   83.1250   -25.8070    70.9280     7.8460     7.0030    11.5470    25.4670     2.1670 
   83.2500   -25.9980    71.8910     8.0820     6.9170    11.1570    25.4880     2.1670 
   83.3750   -26.1130    76.1920     8.3200     6.8670    11.3440    25.5020     2.1620 
   83.5000   -26.1710    78.3850     8.5320     6.8640    12.1300    25.5270     2.1540 
   83.6250   -26.1640    75.7250     8.7270     6.9130    12.8110    25.5420     2.1450 
   83.7500   -26.1200    73.4160     8.9190     6.9950    13.2630    25.5720     2.1400 
   83.8750   -26.0510    73.2050     9.0980     7.1030    13.2560    25.6370     2.1410 
   84.0000   -25.9390    72.8630     9.2480     7.2260    12.9430    25.7170     2.1470 
   84.1250   -25.7540    71.7200     9.3260     7.3450    12.7310    25.7950     2.1530 
   84.2500   -25.4840    69.9030     9.3010     7.4270    12.3010    25.8600     2.1550 
   84.3750   -25.1470    67.2680     9.1520     7.4440    12.2700    25.9030     2.1550 
   84.5000   -24.7750    64.5680     8.8910     7.3880    13.3800    25.9540     2.1540 
   84.6250   -24.4090    66.0500     8.5770     7.2710    14.2570    26.0200     2.1560 
   84.7500   -24.0570    72.3780     8.3200     7.1540    13.4890    26.0950     2.1580 
   84.8750   -23.7220    77.7690     8.2050     7.0840    11.7980    26.1310     2.1560 
   85.0000   -23.3960    77.4090     8.2710     7.0920    10.9470    26.1030     2.1490 
   85.1250   -22.9760    72.0130     8.5000     7.1850    12.0380    26.0080     2.1420 
   85.2500   -22.4220    69.0100     8.7410     7.2900    12.5950    25.9280     2.1390 
   85.3750   -21.7370    69.3490     8.8380     7.3220    12.3810    25.9140     2.1460 
   85.5000   -20.9040    70.5710     8.6570     7.1950    12.0160    25.9090     2.1650 
   85.6250   -19.8730    73.4210     8.1070     6.8450    11.6350    25.8840     2.1990 
   85.7500   -18.6810    80.1930     7.3470     6.3570    11.2120    26.0130     2.2390 
   85.8750   -17.4170    89.8930     6.5740     5.8450     9.2600    26.5950     2.2730 
   86.0000   -16.1920    99.4880     6.0060     5.4380     6.0180    27.8530     2.2960 
   86.1250   -15.1490   105.4830     5.8690     5.2750     4.6530    29.3710     2.3020 
   86.2500   -14.3760   107.7110     6.1270     5.3580     4.3470    30.0310     2.2990 
   86.3750   -13.9090   105.3100     6.6900     5.6580     4.6960    29.3350     2.2930 
   86.5000   -13.7740    98.9440     7.4070     6.1100     5.6720    27.9730     2.2820 
   86.6250   -14.0480    91.3830     8.0990     6.6180     7.3500    27.1170     2.2660 
   86.7500   -14.6170    85.1720     8.6650     7.0820     8.3690    26.8310     2.2460 
   86.8750   -15.3570    81.9640     9.0900     7.4570     8.4510    26.7410     2.2280 
   87.0000   -16.1530    78.5130     9.3940     7.7230     8.6550    26.6440     2.2140 
   87.1250   -16.9130    72.9560     9.5510     7.8520     9.7350    26.4700     2.2060 
   87.2500   -17.5520    68.7070     9.5310     7.8540    11.1800    26.2780     2.2000 
   87.3750   -18.0710    68.4130     9.2950     7.7270    11.7240    26.1740     2.1950 
   87.5000   -18.4910    71.0240     8.8870     7.5040    11.2940    26.2050     2.1890 
   87.6250   -18.8010    72.9550     8.5660     7.3150    10.6600    26.3230     2.1780 
   87.7500   -19.0020    74.5540     8.7830     7.3980    10.7620    26.3600     2.1660 
   87.8750   -19.0760    74.1010    10.0090     8.0370    11.1460    26.3240     2.1630 
   88.0000   -19.0190    72.4990    12.5300     9.4660    11.5520    26.2210     2.1900 
   88.1250   -18.9140    72.8200    16.2890    11.8030    13.5180    26.0910     2.2730 
   88.2500   -18.8740    72.1950    20.1440    14.4570    20.4510    26.0150     2.3940 
   88.3750   -18.9370    68.2860    22.7930    16.6490    37.8550    25.9660     2.5140 
   88.5000   -19.0870    64.3700    23.0530    17.5330    55.9860    25.9100     2.5830 
   88.6250   -19.3170    65.4820    20.3230    16.4130    58.3390    25.8370     2.5590 
   88.7500   -19.6010    68.1870    16.3870    14.1460    41.7410    25.7320     2.4730 
   88.8750   -19.9360    69.3670    12.7830    11.6840    24.1480    25.6090     2.3650 
   89.0000   -20.3590    69.2850    10.3220     9.6980    15.8840    25.5180     2.2750 
   89.1250   -20.8800    69.2000     9.2390     8.5170    13.6180    25.4980     2.2280 
   89.2500   -21.3980    69.4620     9.0380     7.9540    12.6300    25.5130     2.2090 
   89.3750   -21.8810    70.4140     9.4150     7.8730    11.8790    25.5330     2.2030 
   89.5000   -22.3680    70.5810    10.0880     8.1270    11.7440    25.5240     2.1980 
   89.6250   -22.8530    67.8350    10.7810     8.5620    12.1800    25.4270     2.1900 
   89.7500   -23.3590    64.2450    11.2820     8.9850    13.2070    25.2520     2.1820 
   89.8750   -23.8720    62.6370    11.4880     9.2900    15.9140    25.0650     2.1770 
   90.0000   -24.3260    62.9580    11.3920     9.4210    19.5220    24.9960     2.1750 
   90.1250   -24.6070    63.1950    11.0640     9.3570    19.3450    24.9860     2.1750 
   90.2500   -24.7490    62.0840    10.6860     9.1830    15.3360    24.9760     2.1750 
   90.3750   -24.7420    61.5360    10.3520     8.9540    13.5240    24.9430     2.1750 
   90.5000   -24.5250    62.0900    10.0810     8.7000    13.6240    24.9140     2.1760 
   90.6250   -24.0700    63.5200     9.8200     8.4180    14.0810    24.9150     2.1780 
   90.7500   -23.4550    66.6850     9.4960     8.0980    13.9990    24.9720     2.1790 
   90.8750   -22.7680    70.3080     9.0930     7.7400    13.5260    25.0710     2.1790 
   91.0000   -22.1070    73.4060     8.6670     7.3790    12.9290    25.1800     2.1780 
   91.1250   -21.5620    76.2430     8.3660     7.0950    12.3690    25.2420     2.1800 
   91.2500   -21.1680    77.5310     8.2940     6.9500    11.9850    25.2860     2.1860 
   91.3750   -20.9730    77.9200     8.4920     6.9760    11.2550    25.3070     2.1960 
   91.5000   -21.0170    77.6700     8.9220     7.1680    10.6720    25.3410     2.2060 
   91.6250   -21.3100    74.9110     9.4710     7.4880    11.0760    25.3300     2.2110 
   91.7500   -21.7610    69.3110     9.9610     7.8350    12.2450    25.2460     2.2070 
   91.8750   -22.2930    65.0660    10.2860     8.1360    12.9140    25.1210     2.1970 
   92.0000   -22.8510    66.2890    10.4030     8.3430    13.1120    25.0140     2.1830 
   92.1250   -23.3960    68.2380    10.3220     8.4250    12.9440    24.9050     2.1730 
   92.2500   -23.8750    67.0330    10.1560     8.4270    13.2730    24.7860     2.1690 
   92.3750   -24.2360    64.8460     9.9820     8.3890    14.1100    24.7390     2.1700 
   92.5000   -24.4570    65.1400     9.8570     8.3470    14.5670    24.7650     2.1750 
   92.6250   -24.5900    68.9650     9.8310     8.3400    14.3770    24.8060     2.1830 
   92.7500   -24.6840    72.3610     9.9010     8.3800    13.6660    24.8360     2.1930 
   92.8750   -24.7820    73.0080    10.0470     8.4640    12.8880    24.8420     2.2030 
   93.0000   -24.8710    71.1020    10.2250     8.5700    12.7090    24.7970     2.2130 
   93.1250   -24.9140    69.9270    10.3570     8.6570    13.3240    24.7420     2.2200 
   93.2500   -24.9110    69.6890    10.3910     8.6860    13.8490    24.7570     2.2260 
   93.3750   -24.8660    69.6820    10.3070     8.6400    14.0220    24.8610     2.2310 
   93.5000   -24.7920    69.6400    10.1240     8.5210    13.7790    25.0120     2.2320 
   93.6250   -24.6870    69.5150     9.8950     8.3540    13.2110    25.1490     2.2280 
