~V
VERS. 2.00: Ver 2.00
~W
STRT.M 55.0000:
STOP.M 268.0000:
STEP.M 0.1250:
NULL. -999.2500:
UWI. DF5007:
~C
DEPT.M :
SP.MV :
GR.API :
RML.OHMM :
RI. :
RXO.OHMM :
CALI.CM :
DEN.GM/CC :
~A
# ...
  145.0000   -22.4030    94.3290     7.9340     5.9580     5.7540    23.4550     2.3080 
  145.1250   -22.0150    94.6400     7.9470     5.9130     5.7540    23.2500     2.3270 
  145.2500   -21.7160    92.6160     7.9350     5.8880     5.8150    23.0300     2.3400 
  145.3750   -21.5130    90.0630     7.8530     5.8360     5.8890    22.9350     2.3460 
  145.5000   -21.3350    88.9490     7.6840     5.7320     5.8220    23.0730     2.3460 
  145.6250   -21.2530    90.3360     7.4390     5.5670     5.6760    23.3570     2.3440 
  145.7500   -21.2070    92.8520     7.1810     5.3790     5.4850    23.5160     2.3440 
  145.8750   -21.1890    95.8140     6.9670     5.2070     5.3100    23.5460     2.3470 
  146.0000   -21.2380    97.8400     6.8430     5.0870     5.1420    23.5650     2.3520 
  146.1250   -21.3480    96.9290     6.8500     5.0640     5.1160    23.5940     2.3520 
  146.2500   -21.5190    94.8490     6.9720     5.1370     5.2870    23.5790     2.3470 
  146.3750   -21.6990    92.1110     7.1900     5.2990     5.5480    23.5500     2.3370 
  146.5000   -21.8980    87.7630     7.4670     5.5320     5.6950    23.5540     2.3220 
  146.6250   -22.1890    83.7570     7.7460     5.7970     5.8220    23.5710     2.3030 
  146.7500   -22.4050    83.5940     7.9660     6.0380     5.9530    23.5070     2.2810 
  146.8750   -22.6340    86.2870     8.1070     6.2230     6.1430    23.3660     2.2590 
  147.0000   -22.7770    88.0120     8.1770     6.3430     6.3750    23.2070     2.2450 
  147.1250   -22.7390    87.8300     8.1940     6.3970     6.6870    23.1290     2.2490 
  147.2500   -22.6770    88.7590     8.1920     6.4090     6.8940    23.1730     2.2760 
  147.3750   -22.4770    90.6210     8.1920     6.4010     6.6930    23.2270     2.3200 
  147.5000   -22.3380    92.5160     8.2100     6.3980     6.4090    23.0750     2.3700 
  147.6250   -22.1290    91.9840     8.2740     6.4350     6.8110    22.6410     2.4060 
  147.7500   -21.8930    88.5600     8.4030     6.5280     7.6510    22.2500     2.4180 
  147.8750   -21.6790    85.6050     8.6060     6.6880     7.7530    22.1330     2.4120 
  148.0000   -21.4050    86.4050     8.8680     6.9060     7.0170    22.2050     2.3990 
  148.1250   -21.2830    89.2170     9.1620     7.1660     6.6410    22.4810     2.3910 
  148.2500   -21.1370    88.4340     9.4380     7.4260     6.8910    22.8660     2.3840 
  148.3750   -21.0910    84.4270     9.6370     7.6380     7.6120    23.1300     2.3680 
  148.5000   -21.0390    81.8080     9.7300     7.7660     8.4700    23.1430     2.3380 
  148.6250   -20.8900    84.2840     9.7370     7.8180     8.2930    22.8620     2.3000 
  148.7500   -20.8170    87.8050     9.7480     7.8690     7.5620    22.4440     2.2710 
  148.8750   -20.7160    88.2320     9.8690     7.9990     7.2650    22.2090     2.2620 
  149.0000   -20.6130    84.8490    10.2320     8.3160     7.4480    22.2440     2.2830 
  149.1250   -20.5010    80.6920    11.0210     8.9850     8.0620    22.3290     2.3370 
  149.2500   -20.3570    77.1520    12.2110    10.0120     9.2620    22.4170     2.4080 
  149.3750   -20.1750    73.3040    13.7500    11.3630    11.3340    22.5540     2.4830 
  149.5000   -20.0030    69.1130    15.4870    12.9230    13.8820    22.8000     2.5480 
  149.6250   -19.8260    65.8120    17.1310    14.4540    15.5610    23.1430     2.5890 
  149.7500   -19.6310    63.5370    18.4280    15.7240    16.5050    23.3500     2.6110 
  149.8750   -19.4400    61.0950    19.2510    16.6050    16.9010    23.3840     2.6190 
  150.0000   -19.3500    59.1600    19.6000    17.0700    16.6110    23.3450     2.6190 
  150.1250   -19.2060    59.3630    19.5690    17.1570    16.1520    23.3210     2.6130 
  150.2500   -19.1190    60.3910    19.4240    17.0950    15.8590    23.2660     2.6060 
  150.3750   -19.0640    60.4450    19.3200    17.0300    15.5850    23.2010     2.6000 
  150.5000   -18.9420    59.2720    19.3320    17.0450    15.3550    23.1850     2.5970 
  150.6250   -18.9570    59.5030    19.5080    17.1980    15.1890    23.2190     2.5990 
  150.7500   -18.8930    60.1780    19.8050    17.4760    15.0010    23.2390     2.6030 
  150.8750   -18.8620    58.7620    20.1900    17.8630    15.0070    23.3090     2.6070 
  151.0000   -18.7780    57.2760    20.6250    18.3320    15.5940    23.4360     2.6060 
  151.1250   -18.7230    57.0360    21.0800    18.8440    16.5500    23.5460     2.5960 
  151.2500   -18.6990    55.4660    21.5140    19.3460    16.7780    23.6040     2.5840 
  151.3750   -18.5870    51.5380    21.8820    19.8030    16.5230    23.6210     2.5730 
  151.5000   -18.5460    47.3000    22.1660    20.1900    16.3580    23.6160     2.5700 
  151.6250   -18.4370    46.8000    22.3630    20.4870    16.9080    23.5900     2.5750 
  151.7500   -18.3540    48.5430    22.4990    20.7140    17.1860    23.5520     2.5840 
  151.8750   -18.3180    49.5120    22.5950    20.8900    17.2370    23.5500     2.5870 
  152.0000   -18.2540    48.3300    22.6860    21.0460    17.2130    23.5840     2.5800 
  152.1250   -18.2270    46.4530    22.8330    21.2310    17.1770    23.5830     2.5620 
  152.2500   -18.1810    47.1670    23.0630    21.4710    16.9160    23.5630     2.5410 
  152.3750   -18.1670    49.3340    23.4180    21.7910    16.7650    23.5830     2.5250 
  152.5000   -18.1750    50.6920    23.9130    22.2190    16.9620    23.6350     2.5200 
  152.6250   -18.1770    50.1880    24.5240    22.7650    17.5370    23.7260     2.5290 
  152.7500   -18.2210    48.4300    25.1490    23.3430    18.9760    23.8560     2.5440 
  152.8750   -18.2380    47.4150    25.6910    23.8640    20.8400    23.9690     2.5620 
  153.0000   -18.2550    48.6580    26.0650    24.2570    21.9760    24.0210     2.5750 
  153.1250   -18.2660    51.8820    26.2050    24.4470    22.3810    23.9970     2.5750 
  153.2500   -18.2520    54.5260    26.1860    24.4780    23.2190    24.0160     2.5600 
  153.3750   -18.3070    56.2160    26.0970    24.4200    23.2650    24.0760     2.5350 
  153.5000   -18.2860    56.8230    26.0370    24.3700    22.1950    24.1290     2.5120 
  153.6250   -18.2380    56.2650    26.1120    24.4370    20.0360    24.1490     2.5050 
  153.7500   -18.2190    55.3700    26.3200    24.6460    20.2060    24.1580     2.5140 
  153.8750   -18.1230    55.1680    26.6120    24.9570    21.5440    24.1430     2.5320 
  154.0000   -18.1220    55.3950    26.8840    25.2580    23.0250    24.1100     2.5470 
  154.1250   -18.0580    56.8200    26.9590    25.3730    23.3570    24.1120     2.5500 
  154.2500   -18.0430    59.2040    26.7690    25.2220    23.3290    24.1370     2.5430 
  154.3750   -17.9780    60.4550    26.2930    24.7680    22.8850    24.1240     2.5300 
  154.5000   -17.8300    59.2600    25.5740    24.0350    22.0440    24.1150     2.5140 
  154.6250   -17.7570    58.5000    24.7560    23.1310    21.5820    24.1750     2.4930 
  154.7500   -17.6100    60.2590    24.0210    22.2570    20.5250    24.2130     2.4740 
  154.8750   -17.5600    63.0060    23.4720    21.5330    19.6850    24.1490     2.4640 
  155.0000   -17.4950    65.9420    23.1620    21.0340    19.6790    24.0120     2.4660 
  155.1250   -17.4060    68.8260    23.1380    20.8190    20.3140    23.9490     2.4830 
  155.2500   -17.3820    69.3860    23.3010    20.8090    20.9890    23.9480     2.5040 
  155.3750   -17.3530    67.6810    23.5480    20.9340    21.6850    23.8730     2.5180 
  155.5000   -17.3670    66.2600    23.7880    21.1120    20.9820    23.8690     2.5200 
  155.6250   -17.4220    66.7390    23.8930    21.2260    20.9420    23.9500     2.5110 
  155.7500   -17.4650    66.2200    23.8210    21.2000    20.2660    23.9410     2.4960 
  155.8750   -17.4570    63.6490    23.5780    21.0160    19.1290    23.8580     2.4820 
  156.0000   -17.4290    60.4690    23.1960    20.6850    18.1230    23.8260     2.4740 
  156.1250   -17.4000    58.4720    22.6870    20.2180    17.7150    23.8320     2.4740 
