~V
VERS. 2.00: Ver 2.00
~W
STRT.M 55.0000:
STOP.M 253.0000:
STEP.M 0.1250:
NULL. -999.2500:
UWI. DF5051:
~C
DEPT.M :
SP.MV :
GR.API :
RML.OHMM :
RI. :
RXO.OHMM :
CALI.CM :
DEN.GM/CC :
~A
# ...
  235.0000   -11.5510    68.7480    35.0200    31.0680    31.4590    24.1780     2.3860 
  235.1250   -11.6070    72.1380    38.5160    34.3180    34.6590    24.1860     2.4070 
  235.2500   -11.6480    73.9250    41.1870    36.9390    37.8970    24.1690     2.4040 
  235.3750   -11.5750    72.2080    42.2770    38.2120    38.9650    24.0930     2.3830 
  235.5000   -11.4590    70.6100    41.2840    37.6060    38.8860    23.9820     2.3600 
  235.6250   -11.3490    73.7710    37.9560    34.7950    38.5960    23.9880     2.3450 
  235.7500   -11.1450    77.0810    33.4100    30.7600    35.2940    24.0550     2.3400 
  235.8750   -10.9310    78.5510    28.5730    26.3530    28.9610    24.0720     2.3400 
  236.0000   -10.7270    80.6200    24.1550    22.2600    21.4670    24.1170     2.3390 
  236.1250   -10.4660    85.2750    20.6490    18.9460    17.9490    24.1650     2.3390 
  236.2500   -10.2020    88.0220    17.8540    16.3300    16.0280    24.1780     2.3440 
  236.3750    -9.9560    84.8580    15.6370    14.3290    14.0150    24.1310     2.3580 
  236.5000    -9.7260    77.4780    13.9100    12.8590    11.3050    24.0510     2.3800 
  236.6250    -9.4950    70.1280    12.7260    11.9310     9.4440    23.9740     2.4040 
  236.7500    -9.3080    64.5810    12.2850    11.4140     8.8750    23.9310     2.4250 
  236.8750    -9.1660    61.1410    12.1830    11.2340     8.9330    23.8990     2.4400 
  237.0000    -9.0600    60.1600    12.2980    11.2850     9.2470    23.9020     2.4440 
  237.1250    -8.9980    61.1410    12.4500    11.4160     9.6380    23.9980     2.4350 
  237.2500    -8.9810    62.2310    12.4830    11.4750     9.9960    24.0900     2.4200 
  237.3750    -9.0050    61.9470    12.3670    11.4100    10.1450    24.1270     2.4060 
  237.5000    -9.0420    61.2350    12.1700    11.2500     9.9930    24.1300     2.4000 
  237.6250    -9.1320    62.1240    12.0180    11.0820     9.1300    24.1230     2.4040 
  237.7500    -9.2340    64.6330    11.9710    10.9780     8.9320    24.1210     2.4110 
  237.8750    -9.3040    66.5360    12.0160    10.9570     9.0700    24.1310     2.4190 
  238.0000    -9.3960    66.2930    12.1000    11.0000     9.3780    24.1190     2.4260 
  238.1250    -9.4980    64.7790    12.1260    11.0730     9.6750    24.0770     2.4310 
  238.2500    -9.5880    63.3320    12.0730    11.1300     9.9130    24.0560     2.4350 
  238.3750    -9.7060    61.8770    11.9500    11.1460    10.0040    24.0570     2.4360 
  238.5000    -9.8110    61.5250    11.8560    11.1090     9.6990    24.0620     2.4340 
  238.6250    -9.9070    63.5270    11.8100    11.0260     9.3880    24.0630     2.4290 
  238.7500   -10.0120    65.1560    11.8040    10.9380     9.1600    24.0570     2.4240 
  238.8750   -10.0860    64.8300    11.8780    10.8790     9.1200    24.0400     2.4230 
  239.0000   -10.1470    62.8380    12.0000    10.8840     9.2940    24.0120     2.4260 
  239.1250   -10.2060    61.1690    12.2110    10.9790     9.5020    24.0100     2.4350 
  239.2500   -10.2570    61.5690    12.4890    11.1420     9.6140    24.0350     2.4470 
  239.3750   -10.2790    64.1260    12.7980    11.3460     9.6040    24.0700     2.4600 
  239.5000   -10.3050    67.8370    13.1090    11.5650     9.5820    24.0930     2.4680 
  239.6250   -10.3180    70.0560    13.4130    11.7880     9.7460    24.1050     2.4690 
  239.7500   -10.3050    70.6220    13.7260    12.0200     9.9890    24.1020     2.4640 
  239.8750   -10.3530    70.7850    14.0640    12.2720    10.4510    24.0810     2.4590 
  240.0000   -10.4030    70.7750    14.4340    12.5490    11.1790    24.0640     2.4580 
  240.1250   -10.4370    69.5840    14.8140    12.8350    11.8880    24.0570     2.4640 
  240.2500   -10.4850    66.9240    15.1700    13.1020    12.4140    24.0610     2.4750 
  240.3750   -10.5570    65.0580    15.4760    13.3320    12.7330    24.0630     2.4860 
  240.5000   -10.6170    65.0300    15.7350    13.5230    12.6970    24.0630     2.4980 
  240.6250   -10.6820    65.8010    15.9730    13.6980    12.5560    24.0530     2.5100 
  240.7500   -10.7850    65.7490    16.2330    13.8920    12.2450    24.0300     2.5220 
  240.8750   -10.8320    64.9920    16.5280    14.1220    11.8380    24.0070     2.5330 
  241.0000   -10.8670    64.2320    16.8450    14.3840    11.4190    23.9990     2.5410 
  241.1250   -10.9360    63.4800    17.1420    14.6510    11.2780    23.9990     2.5430 
  241.2500   -10.9950    63.2010    17.3830    14.8900    11.7300    24.0040     2.5410 
  241.3750   -11.0450    63.0520    17.5520    15.0850    12.6200    24.0020     2.5380 
  241.5000   -11.1420    62.5870    17.6530    15.2330    13.5810    23.9940     2.5380 
  241.6250   -11.2320    63.1860    17.7030    15.3390    13.9220    24.0280     2.5410 
  241.7500   -11.2790    64.7140    17.7290    15.4230    13.5090    24.1590     2.5470 
  241.8750   -11.3310    65.6840    17.7410    15.4910    13.3440    24.2740     2.5510 
  242.0000   -11.3860    65.3470    17.7340    15.5390    14.4390    24.3180     2.5510 
  242.1250   -11.4480    64.9110    17.6820    15.5460    16.8570    24.3180     2.5460 
  242.2500   -11.5110    64.4390    17.5770    15.5030    19.5010    24.3180     2.5350 
  242.3750   -11.5410    63.3090    17.4160    15.4020    20.8140    24.3200     2.5210 
  242.5000   -11.5140    62.9610    17.2040    15.2470    19.5810    24.3240     2.5080 
  242.6250   -11.4860    65.6880    16.9430    15.0380    17.3170    24.3260     2.5010 
  242.7500   -11.5260    67.7890    16.6540    14.7950    15.5990    24.3260     2.5010 
  242.8750   -11.5980    67.7890    16.3500    14.5290    14.2330    24.3260     2.5050 
  243.0000   -11.6360    67.7890    16.0430    14.2530    13.2650    24.3260     2.5120 
  243.1250   -11.6420    67.7890    15.7600    13.9920    12.9680    24.3260     2.5180 
  243.2500   -11.6540    67.7890    15.5300    13.7750    12.9730    24.3260     2.5190 
  243.3750   -11.7030    67.7890    15.3870    13.6320    13.0060    24.3260     2.5190 
  243.5000   -11.7580    67.7890    15.3580    13.5880    13.0880    24.3260     2.5190 
  243.6250   -11.7780    67.7890    15.4770    13.6770    13.2860    24.3280     2.5230 
  243.7500   -11.7890    67.7890    15.7060    13.8690    13.4960    24.3290     2.5290 
  243.8750   -11.8130    67.7890    16.0070    14.1340    13.4160    24.3290     2.5340 
  244.0000   -11.8500    67.7890    16.3280    14.4310    13.0130    24.3300     2.5330 
  244.1250   -11.8820    67.7890    16.6120    14.7080    12.6580    24.3320     2.5240 
  244.2500   -11.9230    67.7890    16.8310    14.9360    12.4240    24.3290     2.5110 
  244.3750   -11.9780    67.7890    16.9840    15.1070    12.2400    24.3140     2.4970 
  244.5000   -12.0630    67.7890    17.0920    15.2280    11.9810    24.2820     2.4870 
  244.6250   -12.1380    67.7890    17.1800    15.3130    11.7400    24.2320     2.4860 
  244.7500   -12.1760    67.7890    17.2740    15.3810    11.4630    24.1770     2.4920 
  244.8750   -12.2230    67.7890    17.3760    15.4380    11.1660    24.1390     2.5040 
  245.0000   -12.2650    67.7890    17.4800    15.4890    10.9430    24.1240     2.5160 
  245.1250   -12.3090    67.7890    17.5760    15.5370    11.2200    24.1230     2.5190 
  245.2500   -12.3810    67.7890    17.6590    15.5890    12.2780    24.1230     2.5150 
  245.3750   -12.4570    67.7890    17.7380    15.6540    14.1760    24.1230     2.5040 
  245.5000   -12.5330    67.7890    17.8210    15.7430    16.5910    24.1160     2.4950 
  245.6250   -12.6670    67.7890    17.9240    15.8650    18.2160    24.0960     2.4910 
  245.7500   -12.8380    67.7890    18.0480    16.0150    18.5730    24.0680     2.4940 
  245.8750   -12.9910    67.7890    18.1850    16.1810    18.0910    24.0570     2.5000 
  246.0000   -13.1860    67.7890    18.3190    16.3430    16.9450    24.0550     2.5070 
  246.1250   -13.4210    67.7890    18.4240    16.4750    16.7770    24.0550     2.5130 
