~V
VERS. 2.00: Ver 2.00
~W
STRT.M 61.0000:
STOP.M 247.0000:
STEP.M 0.1250:
NULL. -999.2500:
UWI. DF5042:
~C
DEPT.M :
SP.MV :
GR.API :
CALI.CM :
RXO.OHMM :
RI. :
RML.OHMM :
DEN.GM/CC :
~A
# ...
  162.2500   -36.9890    63.4740    25.8650   109.9640   150.2550   155.1630     2.1340 
  162.3750   -36.7590    62.6040    25.8940   104.0790   146.1800   148.1340     2.1250 
  162.5000   -36.5590    62.0750    25.9350    89.6010   136.2840   135.4060     2.1240 
  162.6250   -36.4230    61.1200    25.9700    72.9980   122.5030   119.8730     2.1300 
  162.7500   -36.3790    60.8300    25.9830    63.9430   108.6850   105.2770     2.1420 
  162.8750   -36.3680    61.8810    25.9770    62.6910    96.7710    93.1950     2.1540 
  163.0000   -36.3360    63.3320    25.9680    61.4170    87.6810    84.2270     2.1630 
  163.1250   -36.2890    64.8570    25.9670    54.7690    82.1630    78.8950     2.1700 
  163.2500   -36.2510    66.8750    25.9680    47.0430    79.3950    76.2300     2.1740 
  163.3750   -36.1910    68.8210    25.9700    47.1070    78.8310    75.6070     2.1760 
  163.5000   -36.1330    68.3090    25.9620    58.7040    79.7800    76.2790     2.1760 
  163.6250   -36.0420    65.8820    25.9350    71.0000    81.3210    77.2820     2.1770 
  163.7500   -35.9090    66.1570    25.9030    67.8010    82.2010    77.5380     2.1800 
  163.8750   -35.7280    67.8990    25.8850    63.1750    81.6310    76.4850     2.1820 
  164.0000   -35.5900    67.4110    25.8820    66.3830    79.4230    74.1340     2.1830 
  164.1250   -35.4840    64.3670    25.8830    62.1200    76.0290    71.0960     2.1820 
  164.2500   -35.4360    62.8090    25.8800    56.6070    72.7260    68.5200     2.1790 
  164.3750   -35.4530    64.6800    25.8740    49.5620    70.4940    67.2930     2.1780 
  164.5000   -35.4840    67.5190    25.8740    46.9590    70.1240    68.1090     2.1810 
  164.6250   -35.5570    67.3240    25.8980    55.9350    72.6230    71.9000     2.1880 
  164.7500   -35.6390    65.9090    25.9420    61.1960    77.8950    78.4700     2.1960 
  164.8750   -35.7400    66.2500    25.9800    63.4400    85.9830    87.7100     2.2020 
  165.0000   -35.8240    68.5380    25.9840    73.0040    96.4020    98.9560     2.2050 
  165.1250   -35.9410    68.8030    25.9350    81.0720   107.4660   110.3940     2.2060 
  165.2500   -36.0810    66.4760    25.8750    77.2460   116.3090   119.3180     2.2020 
  165.3750   -36.2040    63.0740    25.8380    73.7510   120.7170   123.6620     2.1940 
  165.5000   -36.2970    60.4220    25.8300    77.6030   119.8480   122.8470     2.1830 
  165.6250   -36.3100    61.9650    25.8310    76.6890   114.7610   118.4590     2.1720 
  165.7500   -36.2920    66.2570    25.8200    67.4880   109.7670   115.0190     2.1660 
  165.8750   -36.2640    69.3830    25.8000    62.6460   108.4080   116.0760     2.1660 
  166.0000   -36.2570    69.4530    25.7760    60.0060   113.6460   124.4200     2.1670 
  166.1250   -36.1970    66.7240    25.7620    68.5960   129.9630   144.1650     2.1690 
  166.2500   -36.0420    63.5760    25.7590    83.7300   157.8620   175.1330     2.1690 
  166.3750   -35.8310    62.4420    25.7590   101.3330   195.3160   214.5270     2.1680 
  166.5000   -35.5890    63.4410    25.7620   111.9930   230.9320   249.0000     2.1660 
  166.6250   -35.3530    64.7940    25.7600   110.0060   235.2310   244.5460     2.1610 
  166.7500   -35.1120    65.0370    25.7250   104.6890   201.8090   200.1310     2.1570 
  166.8750   -34.8620    64.8400    25.6520    96.7130   150.5440   144.2050     2.1580 
  167.0000   -34.5290    64.4970    25.5710    79.8060   105.4430   101.1930     2.1690 
  167.1250   -34.1510    64.6120    25.5010    53.4190    78.9740    79.0810     2.1870 
  167.2500   -33.7590    66.9430    25.4040    34.5300    66.7340    70.7440     2.2050 
  167.3750   -33.3610    69.3780    25.2690    33.3540    65.0450    72.3960     2.2130 
  167.5000   -32.9450    68.7420    25.1420    43.2640    70.9660    81.3020     2.2130 
  167.6250   -32.4980    65.9880    25.0780    54.2440    82.7650    95.4840     2.2080 
  167.7500   -32.0190    64.7760    25.0620    58.8710    96.5410   110.7140     2.2050 
  167.8750   -31.5190    65.5380    25.0680    59.4430   108.8140   123.3290     2.2050 
  168.0000   -31.0570    66.7800    25.0870    58.1700   116.8340   130.7600     2.2040 
  168.1250   -30.6370    67.3140    25.1340    56.4120   119.6010   132.4140     2.2020 
  168.2500   -30.2680    66.1150    25.2000    55.3540   119.5400   131.1640     2.2000 
  168.3750   -29.9390    64.7820    25.2570    55.2340   117.9010   128.3930     2.1990 
  168.5000   -29.6400    66.0620    25.2730    54.9800   115.4350   124.9140     2.2010 
  168.6250   -29.4050    70.3640    25.2540    53.8990   112.7680   121.2910     2.2030 
  168.7500   -29.2160    74.2030    25.2300    53.7650   109.9790   117.3100     2.2040 
  168.8750   -29.0790    75.1080    25.2040    53.5380   106.0910   111.7170     2.2060 
  169.0000   -28.9160    74.4930    25.1790    52.9760    99.5030   102.8860     2.2060 
  169.1250   -28.7680    73.3720    25.1620    51.6240    88.4300    89.5320     2.2060 
  169.2500   -28.6380    72.1000    25.1580    48.2820    74.3770    73.8830     2.2030 
  169.3750   -28.5360    71.1290    25.1590    41.1580    59.6930    58.5300     2.2030 
  169.5000   -28.4670    71.5090    25.1600    28.6330    46.8740    45.7170     2.2070 
  169.6250   -28.4050    74.4370    25.1530    20.2250    37.9820    37.1780     2.2180 
  169.7500   -28.3510    78.1080    25.1340    17.0440    32.5310    32.2510     2.2340 
  169.8750   -28.3040    81.5270    25.1100    16.5500    30.0750    30.4990     2.2530 
  170.0000   -28.3310    84.0360    25.0930    17.8530    30.2280    31.4910     2.2690 
  170.1250   -28.3920    84.7650    25.0880    23.3620    33.1190    35.1160     2.2770 
  170.2500   -28.4950    83.9060    25.0940    29.0330    38.0390    40.3490     2.2750 
  170.3750   -28.5970    80.8970    25.1130    33.6870    44.3740    46.3460     2.2660 
  170.5000   -28.7000    77.7410    25.1400    36.7520    51.0560    52.0560     2.2550 
  170.6250   -28.8350    77.1410    25.1550    38.6510    56.4140    56.1480     2.2450 
  170.7500   -29.0240    77.0480    25.1580    39.9580    59.6390    58.3390     2.2370 
  170.8750   -29.2800    75.4960    25.1560    39.4430    60.6870    58.8050     2.2310 
  171.0000   -29.5540    75.2640    25.1550    37.3980    60.0050    58.0110     2.2280 
  171.1250   -29.8260    79.4650    25.1530    35.7750    58.0040    56.3350     2.2270 
  171.2500   -30.0880    82.7760    25.1510    34.0430    55.3220    54.2360     2.2280 
  171.3750   -30.3660    81.8030    25.1510    32.1450    52.2260    51.8530     2.2300 
  171.5000   -30.7090    79.3210    25.1540    31.1520    48.8500    49.2220     2.2340 
  171.6250   -31.0060    78.8450    25.1570    29.2580    45.3870    46.5260     2.2390 
  171.7500   -31.2350    79.3240    25.1590    28.1080    42.3850    44.4290     2.2450 
  171.8750   -31.4030    79.2150    25.1590    27.3200    40.6170    43.9410     2.2510 
  172.0000   -31.5690    78.5140    25.1590    26.1130    41.0100    46.3500     2.2540 
  172.1250   -31.7660    77.4270    25.1580    26.2310    45.6830    54.3180     2.2540 
  172.2500   -31.9260    75.1120    25.1600    33.5860    56.3420    69.2410     2.2480 
  172.3750   -32.0980    72.0740    25.1670    47.8680    75.4350    93.0420     2.2350 
  172.5000   -32.2450    69.2420    25.1790    61.1890   104.6580   127.0040     2.2170 
  172.6250   -32.4920    67.8520    25.1880    65.1980   143.5290   170.7490     2.2000 
  172.7500   -32.8070    67.4380    25.1900    67.8520   182.6310   214.6830     2.1870 
  172.8750   -33.1600    65.6570    25.1900    69.9070   212.2380   247.8280     2.1800 
  173.0000   -33.4830    62.3760    25.1900    71.0870   227.5940   264.4980     2.1740 
  173.1250   -33.7360    59.9900    25.1900    69.9200   230.7300   267.4950     2.1660 
  173.2500   -33.9710    61.4250    25.1900    68.2350   229.1870   265.4780     2.1580 
  173.3750   -34.1660    65.2660    25.1880    67.9510   225.0350   260.2430     2.1530 
