~V
VERS. 2.00: Ver 2.00
~W
STRT.M 50.0000:
STOP.M 260.0000:
STEP.M 0.1250:
NULL. -999.2500:
UWI. DF5023:
~C
DEPT.M :
GR.API :
RML.OHMM :
RI. :
RXO.OHMM :
CALI.CM :
DEN.GM/CC :
SP.MV :
~A
# ...
   95.0000    66.3950    11.9430     8.9630    13.4100    23.2110     2.2030   -35.5200 
   95.1250    65.3480    11.9610     9.0100    13.6300    23.1780     2.2040   -35.5080 
   95.2500    65.2370    11.9360     9.0380    13.9310    23.1390     2.2020   -35.3490 
   95.3750    65.4790    11.8790     9.0420    14.3860    23.0950     2.1930   -35.1580 
   95.5000    65.6480    11.8180     9.0280    14.4600    23.0480     2.1770   -34.7870 
   95.6250    67.3950    11.7830     9.0080    13.5360    23.0070     2.1580   -34.3480 
   95.7500    69.6980    11.7560     8.9790    12.9010    22.9840     2.1410   -33.7160 
   95.8750    68.9960    11.6820     8.9180    12.4870    22.8980     2.1270   -32.9930 
   96.0000    64.1630    11.4820     8.7840    12.2540    22.9410     2.1170   -32.2180 
   96.1250    61.0770    11.0640     8.5240    12.0380    23.0010     2.1110   -31.2750 
   96.2500    63.4450    10.4670     8.1540    11.7080    23.0300     2.1100   -30.3810 
   96.3750    69.2630     9.7560     7.7010    11.0000    23.0900     2.1210   -29.4230 
   96.5000    76.1720     9.0280     7.2150     9.5120    23.2740     2.1460   -28.5500 
   96.6250    81.3540     8.4060     6.7680     7.6850    23.5840     2.1800   -27.6590 
   96.7500    83.0460     7.9380     6.4060     6.4650    23.8450     2.2140   -26.8990 
   96.8750    83.0050     7.6330     6.1480     6.4690    23.9700     2.2400   -26.1980 
   97.0000    84.0620     7.4770     5.9960     7.0390    24.0450     2.2560   -25.5770 
   97.1250    88.3060     7.4550     5.9550     7.5020    24.0840     2.2650   -25.1500 
   97.2500    93.3690     7.5050     5.9820     7.2180    24.0950     2.2700   -24.7380 
   97.3750    96.4900     7.5910     6.0490     6.7650    24.0930     2.2670   -24.4590 
   97.5000    96.1760     7.6720     6.1270     6.3340    24.0760     2.2530   -24.2590 
   97.6250    93.8640     7.6950     6.1740     6.2870    24.0070     2.2290   -24.1830 
   97.7500    91.8790     7.6350     6.1690     6.5810    23.9140     2.2080   -24.0640 
   97.8750    90.5020     7.4910     6.1000     6.9180    23.9200     2.1990   -23.9260 
   98.0000    90.4620     7.2830     5.9710     6.9270    24.0940     2.2070   -23.7160 
   98.1250    91.7660     7.0500     5.7950     6.2290    24.2010     2.2300   -23.5540 
   98.2500    94.8150     6.8420     5.6080     5.6550    24.2370     2.2580   -23.3890 
   98.3750   100.4000     6.6850     5.4310     5.4390    24.2380     2.2810   -23.2200 
   98.5000   105.6130     6.5800     5.2790     5.5350    24.2380     2.2940   -23.0200 
   98.6250   105.0600     6.4920     5.1470     5.6840    24.2350     2.2970   -22.8630 
   98.7500   103.8590     6.3720     5.0180     5.7880    24.2090     2.2980   -22.8280 
   98.8750   106.0050     6.1940     4.8820     5.8150    24.1500     2.3040   -22.8480 
   99.0000   107.3120     5.9880     4.7490     5.7150    24.1070     2.3170   -23.0810 
   99.1250   105.3250     5.8680     4.6720     5.5210    24.0960     2.3310   -23.3360 
   99.2500   106.8440     5.9440     4.7020     5.2890    24.0960     2.3350   -23.6970 
   99.3750   110.6010     6.2780     4.8820     5.3240    24.0670     2.3220   -24.1510 
   99.5000   108.2890     6.8690     5.2220     5.6980    23.9470     2.2900   -24.6370 
   99.6250    98.5610     7.6460     5.7050     6.4300    23.6990     2.2420   -25.1160 
   99.7500    89.4480     8.4040     6.2200     7.5020    23.4570     2.1940   -25.4090 
   99.8750    82.3120     8.9670     6.6620     8.9690    23.3530     2.1600   -25.5650 
  100.0000    76.9310     9.2020     6.9360     9.9110    23.4180     2.1500   -25.4060 
  100.1250    75.5200     9.0360     6.9610     9.7280    23.6830     2.1700   -25.1150 
  100.2500    78.9020     8.6690     6.8180     8.6500    24.0080     2.2040   -24.6860 
  100.3750    85.1310     8.2720     6.5910     7.3020    24.1900     2.2350   -24.1610 
  100.5000    91.3190     7.9600     6.3540     6.6520    24.2370     2.2520   -23.5750 
  100.6250    92.8540     7.7970     6.1640     6.7420    24.2360     2.2490   -22.9070 
  100.7500    90.0880     7.7370     6.0290     6.7770    24.2350     2.2440   -22.3270 
  100.8750    89.2730     7.7220     5.9330     6.7660    24.2370     2.2510   -21.8980 
  101.0000    93.9500     7.6890     5.8460     7.1260    24.2390     2.2740   -21.6950 
  101.1250    97.6040     7.5960     5.7450     7.0910    24.2420     2.3040   -21.5110 
  101.2500    95.5240     7.4570     5.6320     6.5450    24.2440     2.3280   -21.4760 
  101.3750    90.5020     7.2960     5.5200     5.8800    24.2270     2.3350   -21.5050 
  101.5000    86.8630     7.1480     5.4310     5.8540    24.1720     2.3250   -21.6830 
  101.6250    85.3960     7.0820     5.4090     6.3520    24.0630     2.3020   -21.9320 
  101.7500    83.1870     7.1600     5.4900     6.5700    23.9420     2.2720   -22.3030 
  101.8750    79.6660     7.4750     5.7280     6.9510    23.8480     2.2410   -22.6690 
  102.0000    75.2090     8.1020     6.1720     7.3790    23.8440     2.2180   -23.0570 
  102.1250    72.5040     9.0720     6.8540     8.4140    23.9380     2.2210   -23.4900 
  102.2500    72.3280    10.1970     7.6580    10.2590    24.0620     2.2570   -23.7460 
  102.3750    71.2950    11.2550     8.4530    13.3760    24.1500     2.3240   -23.9200 
  102.5000    68.2180    11.9450     9.0560    17.8330    24.1840     2.4020   -23.8930 
  102.6250    67.7820    11.8640     9.1990    23.6170    24.1430     2.4510   -23.7770 
  102.7500    72.1380    11.1010     8.8840    23.0750    24.0230     2.4520   -23.5140 
  102.8750    78.3750     9.9180     8.2210    15.0390    23.9130     2.4110   -23.2240 
  103.0000    83.0330     8.6850     7.4120     8.6600    23.8790     2.3530   -22.9100 
  103.1250    86.9450     7.8370     6.7240     6.9480    23.9160     2.3080   -22.5680 
  103.2500    89.9170     7.4960     6.3040     6.4690    23.9750     2.2840   -22.3550 
  103.3750    90.2730     7.6240     6.1820     6.3620    24.0030     2.2720   -22.1730 
  103.5000    87.8900     8.0840     6.3120     6.5970    24.0110     2.2610   -22.0920 
  103.6250    83.4740     8.6430     6.5940     6.9470    24.0190     2.2470   -21.9700 
  103.7500    78.0410     9.0000     6.8380     7.4940    24.0590     2.2320   -21.8300 
  103.8750    72.1540     8.9930     6.9190     7.8870    24.1510     2.2240   -21.5980 
  104.0000    68.7700     8.6200     6.7890     7.5960    24.2230     2.2260   -21.3050 
  104.1250    71.6550     7.9730     6.4570     6.8160    24.2470     2.2390   -20.9570 
  104.2500    77.3580     7.2670     6.0340     6.2000    24.2480     2.2570   -20.5880 
  104.3750    81.1100     6.6380     5.6050     5.7490    24.2490     2.2730   -20.1680 
  104.5000    81.3580     6.1640     5.2370     5.4570    24.2500     2.2860   -19.7610 
  104.6250    82.1290     5.8940     4.9840     5.4080    24.2510     2.2970   -19.3700 
  104.7500    86.5830     5.7830     4.8410     5.3720    24.2480     2.3110   -19.0650 
  104.8750    92.1370     5.8030     4.7990     5.1680    24.2420     2.3290   -18.9290 
  105.0000    94.6900     5.9290     4.8440     5.0910    24.2370     2.3470   -18.8330 
  105.1250    93.1740     6.1640     4.9780     5.1710    24.2290     2.3550   -18.9440 
  105.2500    91.7260     6.4810     5.1790     5.3800    24.2180     2.3490   -19.0530 
  105.3750    90.3670     6.8470     5.4290     5.7950    24.2070     2.3300   -19.2430 
  105.5000    86.5520     7.2130     5.6990     6.2120    24.2070     2.3030   -19.3880 
  105.6250    83.3850     7.5040     5.9450     6.4590    24.2100     2.2770   -19.5300 
  105.7500    86.8290     7.6800     6.1320     6.5510    24.2010     2.2570   -19.7030 
  105.8750    94.9000     7.7340     6.2420     6.7060    24.1720     2.2470   -19.8160 
  106.0000   100.1890     7.6880     6.2760     6.8540    24.1490     2.2470   -20.0110 
  106.1250    99.3560     7.5940     6.2510     6.9640    24.1460     2.2550   -20.0990 
