~V
VERS. 2.00: Ver 2.00
~W
STRT.M 59.0000:
STOP.M 277.0000:
STEP.M 0.1250:
NULL. -999.2500:
UWI. DF5027:
~C
DEPT.M :
GR.API :
RML.OHMM :
RI. :
RXO.OHMM :
CALI.CM :
DEN.GM/CC :
SP.MV :
~A
   59.0000    45.6530     0.3180     0.2560    -0.4740    23.6210     2.2260    33.4370 
   59.1250    46.7180    -0.5870     0.1590    -0.4530    23.6450     2.3860    28.8490 
   59.2500    48.7870    -1.0140     0.1100    -0.4490    23.6690     2.5260    23.4890 
   59.3750    48.9160    -1.1250     0.1300    -0.4580    23.6960     2.5590    17.3360 
   59.5000    48.0800    -0.9230     0.2650    -0.1230    23.7150     2.4570    10.5920 
   59.6250    50.5580    -0.2480     0.6250     0.7720    23.7150     2.2770     3.3870 
   59.7500    55.1140     0.9290     1.2560     2.3990    23.6930     2.1140    -3.7420 
   59.8750    59.6220     2.5760     2.1880     6.6310    23.6450     2.0030   -10.6920 
   60.0000    62.3980     4.4790     3.3700     9.1200    23.5760     1.9630   -17.1420 
   60.1250    61.9050     6.1840     4.6530    10.1540    23.5030     1.9920   -22.7360 
   60.2500    60.2360     7.4050     5.8260    10.8880    23.4400     2.0470   -27.4720 
   60.3750    59.9040     8.1060     6.7590    11.2380    23.3800     2.0970   -31.1600 
   60.5000    61.1550     8.4650     7.4020    11.2980    23.3330     2.1250   -34.0000 
   60.6250    62.3550     8.7460     7.7520    11.0900    23.4900     2.1350   -35.9380 
   60.7500    65.1510     9.0650     7.9240    10.8490    23.2260     2.1390   -37.4330 
   60.8750    69.7850     9.3400     7.9450    10.6360    23.0810     2.1370   -38.5210 
   61.0000    73.5910     9.5030     7.8520    10.3220    23.1260     2.1340   -39.4080 
   61.1250    74.5330     9.5540     7.7040    10.3190    23.2350     2.1320   -40.0870 
   61.2500    74.0900     9.5960     7.5830    10.0440    23.2790     2.1360   -40.7170 
   61.3750    71.7510     9.6910     7.5380     9.6360    23.2860     2.1460   -41.3750 
   61.5000    66.5580     9.8170     7.5970     9.5930    23.2860     2.1590   -42.0510 
   61.6250    61.8830     9.8430     7.7690    10.0330    23.2900     2.1690   -42.8780 
   61.7500    62.0650     9.6390     7.9990    10.6840    23.3180     2.1740   -43.6410 
   61.8750    64.5160     9.2160     8.2390    11.1730    23.4010     2.1730   -44.4580 
   62.0000    64.2450     8.7780     8.4460    11.4870    23.5360     2.1680   -45.1510 
   62.1250    61.5170     8.4410     8.5680    11.5500    23.6170     2.1600   -45.7230 
   62.2500    61.0010     8.1880     8.6000    11.6290    23.6570     2.1510   -46.1920 
   62.3750    62.8380     8.0520     8.5480    11.7480    23.6910     2.1430   -46.4590 
   62.5000    63.6660     8.0840     8.4410    11.8640    23.7210     2.1390   -46.5860 
   62.6250    60.4920     8.3220     8.3140    11.7530    23.7430     2.1400   -46.5170 
   62.7500    57.1790     8.7060     8.2040    11.4850    23.7440     2.1450   -46.3870 
   62.8750    56.3640     9.1830     8.1330    11.3240    23.7370     2.1520   -46.1750 
   63.0000    58.9350     9.6740     8.1160    11.2360    23.7310     2.1570   -45.9140 
   63.1250    62.2960    10.1200     8.1640    11.2590    23.7130     2.1560   -45.7070 
   63.2500    63.3380    10.5510     8.2600    11.3800    23.6460     2.1510   -45.3680 
   63.3750    61.6050    10.8820     8.3720    11.5350    23.5090     2.1440   -45.0660 
   63.5000    58.5110    11.0000     8.4560    11.5290    23.3440     2.1360   -44.6390 
   63.6250    57.5990    10.8530     8.4520    11.2730    23.2160     2.1320   -44.1270 
   63.7500    60.0330    10.5560     8.3500    11.0880    23.2140     2.1310   -43.5340 
   63.8750    65.0260    10.1610     8.1550    10.9260    23.2990     2.1390   -42.8210 
   64.0000    71.8450     9.7230     7.8880    10.6140    23.4650     2.1550   -42.0810 
   64.1250    78.6960     9.3030     7.5830     9.8280    23.7190     2.1790   -41.2660 
   64.2500    83.3280     8.9520     7.2910     8.7510    23.8890     2.2030   -40.5710 
   64.3750    86.0270     8.6820     7.0390     7.7290    23.9650     2.2210   -39.8610 
   64.5000    87.2970     8.4670     6.8340     7.4890    24.0020     2.2310   -39.3040 
   64.6250    88.6580     8.2730     6.6800     7.7530    24.1020     2.2390   -38.7840 
   64.7500    89.6260     8.0730     6.5580     7.7060    24.2970     2.2500   -38.4620 
   64.8750    89.7810     7.8660     6.4600     6.9710    24.5240     2.2650   -38.3460 
   65.0000    91.3370     7.6870     6.3860     6.3400    24.6950     2.2770   -38.4370 
   65.1250    95.9810     7.6080     6.3660     6.2220    24.7360     2.2800   -38.8660 
   65.2500   100.0380     7.6680     6.4190     6.2390    24.6630     2.2740   -39.3740 
   65.3750    99.0130     7.9000     6.5680     6.2880    24.5520     2.2620   -40.1390 
   65.5000    91.7990     8.3150     6.8260     6.3300    24.4530     2.2490   -41.0500 
   65.6250    84.0240     8.8970     7.1930     6.5250    24.3360     2.2360   -42.1440 
   65.7500    79.3980     9.5230     7.6060     7.2650    24.1560     2.2220   -43.3140 
   65.8750    77.0330    10.0810     8.0120     8.4810    23.9770     2.2050   -44.4200 
   66.0000    73.6880    10.4620     8.3460     9.8250    23.7700     2.1850   -45.4560 
   66.1250    69.8420    10.5500     8.5250    11.7050    23.4700     2.1630   -46.2090 
   66.2500    68.5630    10.4110     8.5440    13.1100    23.2220     2.1440   -46.8360 
   66.3750    70.0300    10.1330     8.4270    11.8220    23.2180     2.1330   -47.2110 
   66.5000    72.4510     9.8210     8.2220    10.0740    23.4520     2.1320   -47.4340 
   66.6250    75.5110     9.5860     7.9920     9.2950    23.7120     2.1410   -47.5210 
   66.7500    77.5240     9.4700     7.7950     9.1680    23.7720     2.1540   -47.4280 
   66.8750    76.5250     9.4670     7.6540     8.9440    23.7520     2.1670   -47.2620 
   67.0000    73.3290     9.5270     7.5650     8.8860    23.7770     2.1750   -46.9330 
   67.1250    72.9230     9.5520     7.4960     9.1260    23.8760     2.1700   -46.5730 
   67.2500    72.5960     9.4600     7.3950     9.4130    23.9290     2.1560   -46.1490 
   67.3750    70.5330     9.2210     7.2320     9.4320    23.8610     2.1360   -45.7660 
   67.5000    69.4470     8.8750     7.0090     9.2770    23.6590     2.1170   -45.3160 
   67.6250    73.9290     8.4930     6.7500     8.6840    23.3860     2.1090   -44.9770 
   67.7500    80.7960     8.1580     6.5040     8.0980    23.2710     2.1130   -44.7360 
   67.8750    86.2240     7.9250     6.3090     7.5230    23.3980     2.1280   -44.6140 
   68.0000    88.4540     7.8260     6.1950     7.1360    23.6260     2.1440   -44.7240 
   68.1250    84.4370     7.8890     6.1890     6.8950    23.7140     2.1500   -44.9120 
   68.2500    76.0690     8.0620     6.2630     7.2210    23.6620     2.1440   -45.2340 
   68.3750    69.4640     8.3050     6.3970     8.0380    23.6150     2.1330   -45.4870 
   68.5000    67.9830     8.5720     6.5610     8.7850    23.6880     2.1230   -45.7490 
   68.6250    69.2190     8.8060     6.7180     8.9280    23.7880     2.1220   -45.8680 
   68.7500    68.9960     8.9630     6.8380     8.6110    23.7800     2.1250   -45.7490 
   68.8750    68.6270     8.9950     6.8900     8.5190    23.6990     2.1270   -45.4700 
   69.0000    69.2540     8.8790     6.8570     8.5360    23.6580     2.1290   -44.9130 
   69.1250    68.9860     8.6250     6.7340     8.8400    23.6810     2.1350   -44.2130 
   69.2500    68.9480     8.3220     6.5650     8.7820    23.7580     2.1490   -43.3750 
   69.3750    74.0290     8.0470     6.3910     8.3930    23.9090     2.1680   -42.5280 
   69.5000    84.4120     7.8730     6.2550     7.7740    24.1320     2.1880   -41.7210 
   69.6250    91.7900     7.8580     6.2050     6.9620    24.2910     2.1980   -40.9090 
   69.7500    91.1400     7.9560     6.2300     6.7080    24.3530     2.1980   -40.2960 
   69.8750    85.9420     8.1060     6.3080     7.1450    24.3340     2.1920   -39.6920 
   70.0000    83.5570     8.2310     6.4010     7.6660    24.2090     2.1860   -39.1760 
   70.1250    88.4970     8.2350     6.4540     8.0680    24.0720     2.1880   -38.6400 
