~V
VERS. 2.00: Ver 2.00
~W
STRT.M 59.0000:
STOP.M 275.0000:
STEP.M 0.1250:
NULL. -999.2500:
UWI. DF5021:
~C
DEPT.M :
SP.MV :
GR.API :
CALI.CM :
RXO.OHMM :
RI. :
RML.OHMM :
DEN.GM/CC :
~A
# ...
   70.2500   -19.6960    86.6840    23.9240     8.6180     7.4130     8.0510     2.1950 
   70.3750   -19.6970    83.2720    23.9630     8.5720     7.3740     7.9550     2.1910 
   70.5000   -19.7520    82.2650    23.9590     8.4260     7.3130     7.8400     2.1830 
   70.6250   -19.9310    83.4230    23.9310     8.2090     7.2510     7.7310     2.1710 
   70.7500   -19.9800    84.5600    23.8830     7.9160     7.2000     7.6470     2.1660 
   70.8750   -20.0550    84.3720    23.8140     7.6070     7.1700     7.5950     2.1720 
   71.0000   -20.2710    83.3430    23.7950     7.4540     7.1550     7.5650     2.1770 
   71.1250   -20.3710    81.6710    23.8350     7.5600     7.1480     7.5480     2.1650 
   71.2500   -20.3660    79.8010    23.9290     7.8030     7.1390     7.5320     2.1310 
   71.3750   -20.4550    80.0190    23.9490     7.8900     7.1160     7.5110     2.0970 
   71.5000   -20.4950    82.9590    23.8940     7.8190     7.0790     7.4820     2.0890 
   71.6250   -20.3180    87.2570    23.8180     7.7030     7.0310     7.4460     2.1070 
   71.7500   -20.1970    91.1390    23.7920     7.5880     6.9780     7.4030     2.1340 
   71.8750   -20.0290    93.7590    23.8360     7.4630     6.9300     7.3670     2.1520 
   72.0000   -19.6890    95.1000    23.9040     7.3540     6.8970     7.3540     2.1740 
   72.1250   -19.4470    94.6240    23.9590     7.2500     6.8890     7.3710     2.2070 
   72.2500   -19.2470    92.3770    24.0020     7.1410     6.9130     7.4220     2.2380 
   72.3750   -18.9470    89.5380    23.9770     7.1630     6.9680     7.5060     2.2430 
   72.5000   -18.7420    87.3280    23.8840     7.3290     7.0400     7.6040     2.2290 
   72.6250   -18.7080    85.6120    23.7590     7.5520     7.1130     7.7010     2.2120 
   72.7500   -18.6330    84.0710    23.6460     7.7460     7.1780     7.7820     2.1980 
   72.8750   -18.6260    83.2690    23.5570     7.7720     7.2220     7.8350     2.1830 
   73.0000   -18.7980    83.3840    23.4990     7.6080     7.2470     7.8660     2.1710 
   73.1250   -18.8770    83.3060    23.5020     7.3970     7.2630     7.8850     2.1670 
   73.2500   -18.9350    82.0140    23.5660     7.2840     7.2830     7.9070     2.1700 
   73.3750   -19.1030    80.3270    23.6520     7.2890     7.3260     7.9540     2.1700 
   73.5000   -19.1560    80.1730    23.7330     7.3350     7.3950     8.0330     2.1620 
   73.6250   -19.0960    82.0900    23.7700     7.3820     7.4890     8.1430     2.1560 
   73.7500   -19.1380    84.9850    23.7850     7.4210     7.5960     8.2680     2.1610 
   73.8750   -19.1380    86.9670    23.8090     7.4640     7.6890     8.3770     2.1760 
   74.0000   -18.9730    87.5270    23.8360     7.5760     7.7470     8.4420     2.1860 
   74.1250   -18.9070    86.8930    23.8320     7.7550     7.7560     8.4500     2.1850 
   74.2500   -18.9280    85.2410    23.7950     7.9340     7.7090     8.3950     2.1750 
   74.3750   -18.8380    83.1890    23.7750     7.9750     7.6000     8.2670     2.1620 
   74.5000   -18.8260    82.5810    23.7800     7.8750     7.4530     8.0930     2.1500 
   74.6250   -18.9630    83.8700    23.8000     7.7490     7.2880     7.9000     2.1400 
   74.7500   -18.9660    85.0620    23.8090     7.7350     7.1270     7.7140     2.1370 
   74.8750   -18.9590    83.7250    23.8020     7.8270     6.9970     7.5680     2.1370 
   75.0000   -19.1060    81.2170    23.8190     7.8400     6.9090     7.4700     2.1330 
   75.1250   -19.1730    79.1710    23.8380     7.7530     6.8690     7.4240     2.1250 
   75.2500   -19.1590    78.1660    23.8320     7.6810     6.8740     7.4300     2.1200 
   75.3750   -19.2820    78.0430    23.8000     7.6890     6.9220     7.4870     2.1240 
   75.5000   -19.3590    78.6690    23.7990     7.6900     6.9930     7.5670     2.1310 
   75.6250   -19.3450    80.1470    23.8250     7.6670     7.0710     7.6510     2.1430 
   75.7500   -19.4820    81.6030    23.8420     7.7050     7.1420     7.7230     2.1620 
   75.8750   -19.5920    80.7050    23.8460     7.8590     7.1930     7.7660     2.1810 
   76.0000   -19.6120    77.8300    23.8940     7.9900     7.2190     7.7790     2.1910 
   76.1250   -19.7640    75.7170    24.0320     7.9950     7.2220     7.7690     2.1890 
   76.2500   -19.9060    75.6010    24.1420     7.9040     7.2090     7.7480     2.1780 
   76.3750   -19.9010    75.0950    24.1610     7.8260     7.1880     7.7300     2.1680 
   76.5000   -19.9620    72.8630    24.1460     7.8260     7.1660     7.7220     2.1640 
   76.6250   -20.0590    70.7850    24.1720     7.8740     7.1460     7.7250     2.1640 
   76.7500   -19.9970    70.7810    24.1900     7.9450     7.1360     7.7430     2.1640 
   76.8750   -19.9990    72.8670    24.1640     8.0650     7.1530     7.7880     2.1660 
   77.0000   -20.0670    74.9270    24.1160     8.1400     7.2020     7.8630     2.1700 
   77.1250   -19.9820    75.1830    24.0930     8.1140     7.2870     7.9690     2.1680 
   77.2500   -19.9690    73.2070    24.1040     7.9870     7.4010     8.0970     2.1590 
   77.3750   -20.0730    71.4250    24.1420     7.8080     7.5280     8.2310     2.1640 
   77.5000   -20.0670    71.8880    24.1900     7.6510     7.6380     8.3390     2.1990 
   77.6250   -20.0460    73.1590    24.2030     7.6050     7.7050     8.3910     2.2520 
   77.7500   -20.1800    73.0750    24.1760     7.7300     7.7090     8.3700     2.2760 
   77.8750   -20.2600    71.4840    24.1260     7.9550     7.6400     8.2660     2.2320 
   78.0000   -20.2150    70.2810    24.1220     8.1070     7.5260     8.1180     2.1600 
   78.1250   -20.2900    69.8490    24.1620     8.1090     7.3980     7.9650     2.1110 
   78.2500   -20.3200    69.8720    24.1860     7.9940     7.2850     7.8390     2.1010 
   78.3750   -20.2290    70.5610    24.1600     7.8360     7.2120     7.7740     2.1140 
   78.5000   -20.2430    71.7660    24.1120     7.6900     7.1790     7.7630     2.1330 
   78.6250   -20.2430    73.1980    24.0980     7.6240     7.1780     7.7940     2.1570 
   78.7500   -20.0820    74.1810    24.1250     7.6530     7.1920     7.8390     2.1820 
   78.8750   -19.9780    74.5350    24.1750     7.6960     7.2050     7.8710     2.1940 
   79.0000   -19.9760    75.4420    24.1790     7.6920     7.2130     7.8860     2.1880 
   79.1250   -19.8290    77.3270    24.1370     7.6540     7.2200     7.8830     2.1640 
   79.2500   -19.7200    79.3630    24.0980     7.5940     7.2320     7.8720     2.1270 
   79.3750   -19.7220    80.6830    24.1050     7.5070     7.2560     7.8590     2.0950 
   79.5000   -19.5970    82.1340    24.1490     7.4680     7.2910     7.8510     2.0830 
   79.6250   -19.4620    83.8820    24.1830     7.4750     7.3320     7.8460     2.0920 
   79.7500   -19.4430    84.6740    24.1730     7.4840     7.3760     7.8440     2.1080 
   79.8750   -19.3030    83.0220    24.1250     7.4530     7.4090     7.8440     2.1190 
   80.0000   -19.0570    79.8580    24.1220     7.3690     7.4300     7.8440     2.1230 
   80.1250   -18.9220    76.3760    24.1640     7.2910     7.4410     7.8480     2.1300 
   80.2500   -18.7000    73.9600    24.2030     7.3270     7.4530     7.8700     2.1480 
   80.3750   -18.3400    74.3200    24.1960     7.5350     7.4890     7.9350     2.1780 
   80.5000   -18.0610    77.0980    24.1520     7.7650     7.5560     8.0400     2.2020 
   80.6250   -17.7630    80.3080    24.1090     7.8780     7.6490     8.1630     2.2080 
   80.7500   -17.3250    82.2520    24.1060     7.8330     7.7410     8.2630     2.1940 
   80.8750   -16.9700    83.6620    24.1490     7.7060     7.7730     8.2640     2.1770 
   81.0000   -16.6790    86.2500    24.2130     7.7020     7.6970     8.1220     2.1760 
   81.1250   -16.2150    90.0680    24.2510     7.9540     7.4770     7.8090     2.1920 
   81.2500   -15.7670    94.6210    24.2610     8.3360     7.1100     7.3420     2.2150 
   81.3750   -15.4310   100.0630    24.2790     8.0110     6.6310     6.7720     2.2300 
