~V
VERS. 2.00: Ver 2.00
~W
STRT.M 55.0000:
STOP.M 277.0000:
STEP.M 0.1250:
NULL. -999.2500:
UWI. DF5040:
~C
DEPT.M :
GR.API :
CALI.CM :
RXO.OHMM :
RI. :
RML.OHMM :
DEN.GM/CC :
SP.MV :
~A
# ...
  156.2500    57.5030    23.7090    13.7090    14.7520    14.9880     2.4890   -26.6830 
  156.3750    57.8280    23.6970    14.8040    14.9950    15.2310     2.5040   -26.8270 
  156.5000    58.2910    23.7090    16.0630    15.1860    15.4120     2.5300   -26.9660 
  156.6250    58.8760    23.6770    16.5940    15.2520    15.4700     2.5460   -27.0690 
  156.7500    59.1280    23.5950    16.0540    15.1940    15.4250     2.5480   -27.1330 
  156.8750    59.5100    23.5260    14.8660    15.0460    15.3160     2.5350   -27.1680 
  157.0000    60.9400    23.5160    13.9720    14.8620    15.1980     2.5080   -27.1930 
  157.1250    63.4290    23.5220    14.1640    14.7200    15.1690     2.4800   -27.2340 
  157.2500    65.6000    23.5070    14.8970    14.7100    15.3210     2.4640   -27.3080 
  157.3750    67.2150    23.5180    15.6130    14.9270    15.7380     2.4600   -27.4270 
  157.5000    69.1980    23.5570    16.4020    15.4640    16.5170     2.4640   -27.5900 
  157.6250    72.2440    23.6490    17.7830    16.5210    17.8800     2.4690   -27.7910 
  157.7500    74.9000    23.6920    19.2320    18.1570    19.8460     2.4670   -27.9990 
  157.8750    76.0220    23.6950    20.5360    20.4740    22.4150     2.4460   -28.1910 
  158.0000    75.9860    23.6850    22.8940    23.5070    25.4870     2.4010   -28.3560 
  158.1250    75.3890    23.6880    28.4350    27.1170    29.2090     2.3390   -28.4870 
  158.2500    74.2910    23.6560    36.1810    30.6150    32.8720     2.2800   -28.5970 
  158.3750    73.2560    23.5860    42.9450    33.2520    35.6630     2.2410   -28.6890 
  158.5000    73.2670    23.4900    46.8590    34.3910    36.8700     2.2310   -28.7600 
  158.6250    73.7140    23.4310    47.5190    33.5540    35.9840     2.2490   -28.8040 
  158.7500    73.4710    23.4210    46.0160    31.4740    33.7810     2.2740   -28.8270 
  158.8750    73.3140    23.4440    41.6730    28.9490    31.1070     2.2940   -28.8390 
  159.0000    74.3790    23.4880    33.9480    26.8340    28.8680     2.3040   -28.8480 
  159.1250    75.5870    23.4820    26.1230    26.0500    28.0370     2.2940   -28.8560 
  159.2500    75.5190    23.4690    23.1210    26.7710    28.8000     2.2680   -28.8650 
  159.3750    74.6270    23.4490    26.9930    29.0250    31.1870     2.2410   -28.8860 
  159.5000    73.7220    23.4200    36.0350    32.6160    34.9900     2.2300   -28.9350 
  159.6250    72.9340    23.3600    46.6430    37.2350    39.8810     2.2350   -29.0450 
  159.7500    72.6240    23.2710    54.8400    42.0620    44.9930     2.2370   -29.2130 
  159.8750    72.8490    23.2250    58.7450    46.4500    49.6410     2.2330   -29.4250 
  160.0000    72.4330    23.2840    59.2620    49.9260    53.3220     2.2260   -29.6500 
  160.1250    70.6240    23.4580    60.6070    52.2950    55.8300     2.2240   -29.8500 
  160.2500    69.8990    23.6160    63.8750    53.9720    57.6060     2.2320   -30.0010 
  160.3750    70.9890    23.6890    67.4110    54.8330    58.5180     2.2440   -30.0920 
  160.5000    71.3340    23.7010    70.2300    54.2710    57.9230     2.2530   -30.1270 
  160.6250    69.0730    23.7070    73.9270    51.1530    54.6220     2.2620   -30.1150 
  160.7500    67.8330    23.7410    75.8120    45.6520    48.7960     2.2860   -30.0900 
  160.8750    70.4930    23.8250    73.2410    38.4120    41.1290     2.3290   -30.0800 
  161.0000    76.1830    23.9330    64.5670    30.6170    32.8730     2.3750   -30.1080 
  161.1250    82.0940    23.9870    48.0130    23.6940    25.5420     2.3940   -30.1960 
  161.2500    86.2500    23.9950    29.3150    18.2480    19.7740     2.3800   -30.3330 
  161.3750    87.9370    24.0040    15.8300    14.4050    15.7050     2.3460   -30.4970 
  161.5000    87.8290    24.0460     9.7890    11.9790    13.1350     2.3160   -30.6630 
  161.6250    87.9290    24.1390     8.3460    10.7320    11.8150     2.3110   -30.8020 
  161.7500    89.2000    24.2540     8.0070    10.0940    11.1400     2.3220   -30.9060 
  161.8750    91.0980    24.3180     8.0300     9.7810    10.8080     2.3310   -30.9800 
  162.0000    92.8710    24.3310     8.1490     9.5740    10.5890     2.3310   -31.0340 
  162.1250    94.3200    24.3220     8.0030     9.3190    10.3190     2.3270   -31.0840 
  162.2500    96.1470    24.3150     7.5260     8.9890     9.9700     2.3280   -31.1380 
  162.3750    98.4470    24.3160     6.8900     8.6350     9.5940     2.3350   -31.2000 
  162.5000   100.1690    24.3180     6.4050     8.3670     9.3110     2.3510   -31.2730 
  162.6250    99.7520    24.3300     6.3390     8.4060     9.3520     2.3660   -31.3660 
  162.7500    98.0750    24.3620     6.7050     8.9230     9.8990     2.3650   -31.4780 
  162.8750    96.0100    24.4050     7.5920    10.1910    11.2430     2.3430   -31.6120 
  163.0000    92.8990    24.4350     9.2170    12.6370    13.8330     2.3140   -31.7620 
  163.1250    87.4870    24.4380    12.9960    17.2040    18.6690     2.2960   -31.9240 
  163.2500    81.2220    24.4120    23.0050    24.2480    26.1290     2.2830   -32.0860 
  163.3750    76.0000    24.3590    44.4780    34.2080    36.6760     2.2570   -32.2460 
  163.5000    72.3790    24.3160    75.9910    47.1420    50.3740     2.2150   -32.4010 
  163.6250    69.7550    24.3050   105.1260    62.4940    66.6310     2.1780   -32.5580 
  163.7500    67.3980    24.3310   123.2910    78.0260    83.0800     2.1650   -32.7190 
  163.8750    65.8500    24.3850   133.4690    91.7680    97.6320     2.1720   -32.8840 
  164.0000    65.5370    24.4290   139.5440   102.1840   108.6620     2.1820   -33.0480 
  164.1250    66.1380    24.4410   142.9700   108.2350   115.0710     2.1800   -33.1990 
  164.2500    66.4290    24.4160   149.1110   111.3560   118.3760     2.1750   -33.3370 
  164.3750    66.4860    24.3610   159.6570   112.2760   119.3500     2.1730   -33.4690 
  164.5000    67.4690    24.3160   168.2330   111.0070   118.0070     2.1800   -33.6090 
  164.6250    69.6640    24.3020   163.4960   106.6490   113.3920     2.1910   -33.7770 
  164.7500    71.1860    24.3170   147.0890    99.5020   105.8220     2.2020   -33.9670 
  164.8750    71.5740    24.3530   127.3570    90.0510    95.8140     2.2090   -34.1610 
  165.0000    71.9930    24.3810   110.1670    79.2270    84.3510     2.2080   -34.3380 
  165.1250    74.3000    24.3820    93.6490    68.3360    72.8170     2.2050   -34.4770 
  165.2500    78.5310    24.3630    75.8890    58.5070    62.4090     2.2150   -34.5920 
  165.3750    84.0370    24.3300    58.0010    50.3030    53.7210     2.2400   -34.7020 
  165.5000    89.2490    24.2750    42.7690    43.9200    46.9610     2.2700   -34.8250 
  165.6250    91.5800    24.1850    33.3470    39.6340    42.4230     2.2890   -34.9720 
  165.7500    91.3520    24.1080    29.6940    37.0890    39.7280     2.2980   -35.1340 
  165.8750    90.4760    24.1090    30.0080    36.3300    38.9230     2.2990   -35.3060 
  166.0000    90.6780    24.1340    31.1620    37.6820    40.3550     2.2930   -35.4890 
  166.1250    91.5040    24.1260    31.0410    42.4850    45.4420     2.2820   -35.6890 
  166.2500    90.0200    24.0900    33.0440    51.2340    54.7060     2.2690   -35.8950 
  166.3750    84.5530    24.0530    47.4400    64.2730    68.5150     2.2530   -36.0910 
  166.5000    76.4020    24.0610    91.6850    81.2570    86.5010     2.2320   -36.2560 
  166.6250    69.7310    24.1310   176.6000   101.1420   107.5590     2.2140   -36.3690 
  166.7500    66.4830    24.2360   268.3020   120.7770   128.3530     2.2100   -36.4440 
  166.8750    66.1340    24.2950   322.8380   137.2010   145.7460     2.2190   -36.5010 
  167.0000    67.3300    24.3140   313.1920   148.3170   157.5180     2.2270   -36.5600 
  167.1250    67.8540    24.3220   249.0730   153.4580   162.9620     2.2270   -36.6450 
  167.2500    66.7760    24.3230   186.6320   156.0860   165.7450     2.2270   -36.7620 
  167.3750    65.1760    24.3120   171.3720   159.3280   169.1790     2.2320   -36.9090 
