~V
VERS. 2.00: Ver 2.00
~W
STRT.M 58.0000:
STOP.M 261.0000:
STEP.M 0.1250:
NULL. -999.2500:
UWI. DF5035:
~C
DEPT.M :
DEN.GM/CC :
GR.API :
CALI.CM :
RXO.OHMM :
RI. :
RML.OHMM :
SP.MV :
~A
# ...
  181.7500     2.1850    61.4690    24.5600   133.2300   147.3100   140.1430   -52.1120 
  181.8750     2.1700    63.0800    25.0990   160.6370   162.1560   155.3520   -52.1260 
  182.0000     2.1580    63.8490    25.4870   226.7930   181.4070   174.6700   -52.1430 
  182.1250     2.1490    60.8400    25.6500   228.1990   203.9690   197.3570   -51.9610 
  182.2500     2.1480    57.3780    25.6990   218.7640   228.1000   221.8110   -51.7950 
  182.3750     2.1550    54.6410    25.6960   188.8920   253.5760   247.6190   -51.6520 
  182.5000     2.1670    52.6780    25.6900   166.1290   281.4080   275.3660   -51.4660 
  182.6250     2.1810    51.9830    25.7120   164.4660   314.6440   307.3300   -51.1300 
  182.7500     2.1900    53.0050    25.7480   226.9330   353.9810   343.7680   -50.7090 
  182.8750     2.1920    54.4950    25.7510   312.7570   397.3210   381.9730   -50.1650 
  183.0000     2.1880    53.8300    25.6970   344.1140   434.8780   411.2290   -49.5200 
  183.1250     2.1780    51.5260    25.6040   297.3620   435.6940   398.5930   -48.8930 
  183.2500     2.1700    51.0740    25.4940   209.9510   383.8880   333.8300   -48.2420 
  183.3750     2.1660    53.5580    25.3630   153.0580   294.5080   242.8610   -47.4530 
  183.5000     2.1720    56.5470    25.2430   136.8540   203.5860   163.2910   -46.5800 
  183.6250     2.1870    57.1170    25.2120   114.5670   140.0310   114.5640   -45.8320 
  183.7500     2.2040    57.1660    25.2480    70.9450   102.0660    87.8110   -45.0520 
  183.8750     2.2130    60.0300    25.2860    41.5240    84.1390    76.8350   -44.2940 
  184.0000     2.2080    65.2630    25.2970    31.6220    81.4060    77.7040   -43.6640 
  184.1250     2.1930    67.2270    25.3280    39.8600    93.2470    90.2680   -42.8920 
  184.2500     2.1800    64.1980    25.3860    66.3940   115.9710   112.1050   -42.2210 
  184.3750     2.1740    59.5390    25.4130    92.1370   145.9170   140.9970   -41.6510 
  184.5000     2.1720    56.8550    25.3680    96.2300   175.3680   170.7200   -40.9920 
  184.6250     2.1700    56.2230    25.2440    88.2850   193.1920   190.2630   -40.5090 
  184.7500     2.1640    56.1600    25.0850    80.0730   200.0430   199.2170   -40.1110 
  184.8750     2.1540    56.5810    24.9450    75.9220   202.9280   204.4320   -39.6120 
  185.0000     2.1420    56.5330    24.9010    84.1480   207.7900   211.6540   -39.2350 
  185.1250     2.1390    55.9000    25.0270   114.8930   212.9350   218.6430   -38.8720 
  185.2500     2.1480    56.3130    25.2560   142.3130   210.6400   217.0180   -38.4540 
  185.3750     2.1720    58.6190    25.4990   167.3780   196.9490   202.8010   -38.2240 
  185.5000     2.2110    60.4710    25.6840   165.8420   175.0470   180.4720   -37.9660 
  185.6250     2.2600    60.0870    25.7460   116.4830   153.3100   159.5830   -37.6430 
  185.7500     2.3100    58.6250    25.7120    70.8190   137.4790   144.9300   -37.3720 
  185.8750     2.3530    57.4540    25.6380    78.3510   127.8220   135.7470   -37.0770 
  186.0000     2.3800    57.4560    25.5760   113.6850   121.6300   128.8690   -36.7650 
  186.1250     2.3870    58.1150    25.5430   130.5730   115.2590   120.5130   -36.5090 
  186.2500     2.3920    57.9940    25.4990   123.1930   106.7480   109.4070   -36.2830 
  186.3750     2.4080    56.2840    25.4480    96.6430    96.1740    96.4760   -35.9110 
  186.5000     2.4440    54.8510    25.4330    77.8640    84.9140    83.7960   -35.6240 
  186.6250     2.5000    55.7660    25.4600    74.6190    74.9900    73.5060   -35.3590 
  186.7500     2.5590    58.6810    25.4500    78.4160    66.8040    65.2850   -35.0170 
  186.8750     2.5970    63.0730    25.3950    75.4240    59.3260    57.7100   -34.7670 
  187.0000     2.6020    65.9980    25.3690    62.3130    50.6650    48.9540   -34.4350 
  187.1250     2.5810    66.4840    25.4450    56.2160    39.4090    37.8940   -34.1580 
  187.2500     2.5470    65.6970    25.5560    49.6180    27.7130    26.4190   -33.9250 
  187.3750     2.5060    64.9720    25.6140    35.4380    18.0140    16.7850   -33.7150 
  187.5000     2.4610    64.0640    25.5330    18.4030    11.3350    10.2020   -33.5810 
  187.6250     2.4190    62.3780    25.2580     7.4020     7.6300     6.7930   -33.4680 
  187.7500     2.3870    57.9360    24.9040     4.1190     5.5740     5.0990   -33.4310 
  187.8750     2.3720    50.4900    24.5870     3.7630     4.5580     4.3900   -33.4860 
  188.0000     2.3730    44.5960    24.4180     3.6970     4.2040     4.2340   -33.5990 
  188.1250     2.3820    45.6640    24.4770     3.7630     4.3070     4.4090   -33.7730 
  188.2500     2.3890    50.4470    24.6280     3.9100     4.5950     4.6890   -33.9800 
  188.3750     2.3920    54.7040    24.7200     4.1660     4.9220     4.9650   -34.2290 
  188.5000     2.3930    57.0290    24.6720     4.3610     5.2010     5.1920   -34.5080 
  188.6250     2.3970    57.0580    24.5310     4.4550     5.3940     5.3770   -34.8490 
  188.7500     2.4050    57.4800    24.4050     4.5170     5.5300     5.5520   -35.2150 
  188.8750     2.4130    61.8950    24.3340     4.5770     5.6280     5.7190   -35.5260 
  189.0000     2.4170    69.8440    24.3120     4.7060     5.6930     5.8690   -35.8860 
  189.1250     2.4160    77.8820    24.3430     4.9520     5.7200     5.9940   -36.2250 
  189.2500     2.4140    85.3860    24.4760     5.2980     5.7220     6.1210   -36.5570 
  189.3750     2.4150    94.6440    24.6850     5.5320     5.7230     6.2910   -36.8900 
  189.5000     2.4180   103.9500    24.8230     5.6430     5.7570     6.5460   -37.1920 
  189.6250     2.4150   107.5650    24.7420     5.8620     5.8740     6.9460   -37.5040 
  189.7500     2.4070   105.4110    24.6100     6.5400     6.1010     7.4950   -37.8140 
  189.8750     2.3990   101.5020    24.6350     7.5220     6.4610     8.1910   -38.0910 
  190.0000     2.3940    99.2720    24.8630     8.2290     6.9480     8.9920   -38.3930 
  190.1250     2.3920   100.0760    25.1720     8.6110     7.5180     9.8080   -38.6950 
  190.2500     2.3880   100.4590    25.4410    10.2240     8.0610    10.5130   -38.9390 
  190.3750     2.3730    99.1120    25.6720    12.0720     8.4750    10.9910   -39.2060 
  190.5000     2.3510    95.7020    25.8580    12.1300     8.6770    11.1660   -39.3140 
  190.6250     2.3330    90.7760    25.9640     9.9490     8.6280    11.0360   -39.2610 
  190.7500     2.3270    87.6220    26.0230     9.3440     8.4620    10.8110   -39.2990 
  190.8750     2.3330    88.0760    26.0650     9.3770     8.3000    10.6650   -39.2090 
  191.0000     2.3480    90.1640    26.0710     9.0250     8.2380    10.7080   -39.0220 
  191.1250     2.3650    89.8250    25.9880     8.8560     8.3310    10.9640   -38.8980 
  191.2500     2.3770    87.8580    25.8410     9.5680     8.5000    11.2640   -38.5860 
  191.3750     2.3820    87.5630    25.6990    11.1750     8.6440    11.4500   -38.2680 
  191.5000     2.3810    89.8400    25.6290    11.5810     8.6770    11.4320   -38.0400 
  191.6250     2.3790    91.9320    25.6580    10.5340     8.5880    11.2570   -37.6540 
  191.7500     2.3820    92.5220    25.7000     9.2950     8.4960    11.1380   -37.2620 
  191.8750     2.3950    93.4190    25.7080     8.9030     8.5070    11.2210   -36.9570 
  192.0000     2.4120    95.7700    25.6960     8.8430     8.6710    11.5210   -36.5150 
  192.1250     2.4220    97.2340    25.6840     9.3680     8.9130    11.8380   -36.0450 
  192.2500     2.4150    96.1190    25.6760    10.7460     8.9950    11.8220   -35.6420 
  192.3750     2.3890    98.2490    25.6760    11.3170     8.7250    11.2640   -35.2310 
  192.5000     2.3540   105.4530    25.6790     9.8600     8.0990    10.2520   -34.8130 
  192.6250     2.3310   108.5600    25.6160     8.1430     7.3470     9.2040   -34.4070 
  192.7500     2.3270   103.1190    25.4880     6.8010     6.7780     8.5540   -34.0230 
  192.8750     2.3410    93.3120    25.3830     6.2660     6.5530     8.4730   -33.6250 
