~V
VERS. 2.00: Ver 2.00
~W
STRT.M 58.0000:
STOP.M 240.0000:
STEP.M 0.1250:
NULL. -999.2500:
UWI. DF5049:
~C
DEPT.M :
GR.API :
RML.OHMM :
RI. :
RXO.OHMM :
CALI.CM :
DEN.GM/CC :
SP.MV :
~A
# ...
  181.7500    85.1490    11.8250     9.0540     9.3020    25.6480     2.3770   -30.4590 
  181.8750    88.5850    11.8870     9.2050     9.5840    25.6860     2.3860   -30.8850 
  182.0000    93.0480    11.9610     9.2790    10.1400    25.8100     2.3820   -30.9910 
  182.1250    97.0750    11.9710     9.2340    10.5330    25.8750     2.3660   -30.6800 
  182.2500    99.9200    11.8100     9.0600    10.3010    25.9080     2.3470   -29.9790 
  182.3750   102.3980    11.3890     8.7440     9.7800    25.9420     2.3340   -28.9930 
  182.5000   103.1080    10.6950     8.2970     9.3650    25.9530     2.3300   -27.7100 
  182.6250    98.3700     9.8200     7.7720     8.9860    25.8450     2.3340   -26.0580 
  182.7500    91.6740     8.9820     7.2670     8.2070    25.5430     2.3360   -24.0830 
  182.8750    86.8170     8.3420     6.8530     7.0410    25.2310     2.3320   -21.8280 
  183.0000    83.2270     7.9810     6.5740     6.2550    25.3530     2.3260   -19.5000 
  183.1250    76.8110     7.9170     6.4610     6.7380    25.5490     2.3280   -17.2250 
  183.2500    68.4250     7.9980     6.4530     7.1560    25.6760     2.3440   -15.0910 
  183.3750    61.0150     8.0950     6.4970     6.9520    25.6370     2.3690   -13.1010 
  183.5000    56.3580     8.1170     6.5450     6.3910    25.5360     2.3900   -11.3290 
  183.6250    54.5880     8.0270     6.5630     6.1100    25.3100     2.3890    -9.9320 
  183.7500    52.8660     7.9070     6.5600     6.0540    25.1460     2.3690    -8.8970 
  183.8750    50.6430     7.8250     6.5560     6.1210    25.0570     2.3390    -8.1840 
  184.0000    47.9060     7.7950     6.5610     6.2800    25.0080     2.3120    -7.7080 
  184.1250    47.1740     7.7690     6.5640     6.4870    24.9390     2.3030    -7.2930 
  184.2500    50.9740     7.6890     6.5550     6.5560    24.8680     2.3100    -6.8980 
  184.3750    56.8580     7.5640     6.5340     6.4520    24.8160     2.3300    -6.5070 
  184.5000    61.0950     7.4390     6.5150     6.3400    24.8040     2.3540    -6.1580 
  184.6250    62.9230     7.3550     6.5150     6.3790    24.7930     2.3750    -5.8370 
  184.7500    65.3470     7.3210     6.5370     6.5820    24.7910     2.3910    -5.5260 
  184.8750    68.6890     7.3290     6.5770     6.7960    24.8030     2.4030    -5.3260 
  185.0000    72.5250     7.3870     6.6310     6.8340    24.8520     2.4130    -5.1640 
  185.1250    77.5150     7.5050     6.7000     6.7850    24.9170     2.4190    -5.1230 
  185.2500    81.5140     7.6440     6.7790     6.8080    24.9010     2.4220    -5.1190 
  185.3750    82.0870     7.7690     6.8570     6.7910    24.8430     2.4230    -5.2030 
  185.5000    80.5500     7.8660     6.9210     6.8880    24.7910     2.4230    -5.3370 
  185.6250    81.4260     7.9330     6.9370     6.9560    24.7720     2.4200    -5.5260 
  185.7500    84.0420     7.9460     6.8950     6.7510    24.7680     2.4120    -5.7890 
  185.8750    86.4890     7.8840     6.8140     6.5080    24.6520     2.3990    -6.0080 
  186.0000    87.5540     7.7910     6.7570     6.7980    24.3160     2.3850    -6.2340 
  186.1250    87.4670     7.7910     6.8330     7.2930    23.7940     2.3750    -6.4590 
  186.2500    85.4470     7.9570     7.0820     7.2980    23.5900     2.3710    -6.7090 
  186.3750    82.4540     8.2710     7.4800     7.4730    23.5570     2.3730    -6.9010 
  186.5000    81.3750     8.6200     7.9300     8.2360    23.5470     2.3770    -7.0680 
  186.6250    84.0100     8.7900     8.2430     9.6070    23.5500     2.3800    -7.1700 
  186.7500    87.4400     8.7110     8.3270     9.9770    23.6220     2.3780    -7.1730 
  186.8750    88.1480     8.4700     8.2190     9.1690    23.9440     2.3710    -7.1040 
  187.0000    85.9740     8.2510     8.0640     8.5040    24.5640     2.3590    -6.9910 
  187.1250    83.5870     8.3340     8.1030     9.4160    25.1110     2.3490    -6.8220 
  187.2500    81.4400     8.8910     8.5070    11.0970    25.5450     2.3470    -6.6670 
  187.3750    78.3160    10.0270     9.4080    12.3030    25.8300     2.3550    -6.5310 
  187.5000    75.0230    11.7030    10.8560    13.4790    25.9480     2.3720    -6.4200 
  187.6250    74.6250    13.7100    12.7920    15.8250    25.9500     2.3870    -6.4220 
  187.7500    75.0100    15.6370    14.8290    20.0730    25.9120     2.3900    -6.4940 
  187.8750    74.0640    17.2780    16.6870    23.6680    25.8590     2.3760    -6.6810 
  188.0000    72.8290    18.7380    18.3190    25.3490    25.8330     2.3470    -6.9390 
  188.1250    73.1900    20.6490    20.1190    21.6060    25.8460     2.3110    -7.2790 
  188.2500    73.1140    23.6910    22.7130    22.9780    25.8730     2.2750    -7.6730 
  188.3750    72.0850    28.3040    26.6560    35.1960    25.8850     2.2450    -8.1110 
  188.5000    70.9120    34.4870    32.2370    52.9840    25.8950     2.2240    -8.5860 
  188.6250    69.7200    48.1540    39.2880    64.5690    25.9150     2.2160    -9.0170 
  188.7500    68.9850    55.5020    46.3740    65.4940    25.9280     2.2150    -9.4320 
  188.8750    69.5640    60.9610    52.2140    62.3460    25.9070     2.2180    -9.7990 
  189.0000    70.2500    64.3520    56.2530    60.2780    25.8730     2.2200   -10.1630 
  189.1250    68.2320    66.3960    58.8010    66.9370    25.8310     2.2170   -10.5070 
  189.2500    66.1720    68.2080    60.8600    68.8980    25.7930     2.2100   -10.8130 
  189.3750    66.8570    70.0920    62.7770    67.0060    25.7330     2.2000   -11.1000 
  189.5000    69.3020    72.1470    64.7010    67.9130    25.6670     2.1890   -11.3490 
  189.6250    70.7970    74.7230    66.9310    72.8490    25.6370     2.1810   -11.5760 
  189.7500    71.5540    78.3100    69.9260    77.8390    25.6520     2.1750   -11.8160 
  189.8750    70.8560    83.5930    74.3440    80.9270    25.6510     2.1680   -12.0230 
  190.0000    67.8590    91.2710    80.9150    84.3880    25.6340     2.1570   -12.1820 
  190.1250    65.0040   102.5190    90.8810    92.3290    25.6460     2.1460   -12.3340 
  190.2500    64.5170   117.1530   104.1200   117.9370    25.6580     2.1400   -12.4670 
  190.3750    65.6450   134.6310   120.0940   167.0580    25.6530     2.1440   -12.6330 
  190.5000    65.7480   152.9180   137.0090   205.5660    25.6410     2.1560   -12.7900 
  190.6250    63.9050   167.0680   150.8980   249.1750    25.5790     2.1720   -12.9910 
  190.7500    62.7540   173.4540   158.7320   275.1800    25.3970     2.1860   -13.1530 
  190.8750    63.5090   171.4090   159.4570   257.8060    25.1240     2.1940   -13.3620 
  191.0000    64.5890   163.4840   154.4500   201.6980    24.9190     2.1980   -13.5660 
  191.1250    64.3030   153.4840   146.4370   161.5570    24.8350     2.1990   -13.7290 
  191.2500    64.2330   144.3910   138.4420   156.7430    24.7950     2.1980   -13.8770 
  191.3750    66.3200   136.8280   131.4310   163.2840    24.7300     2.1980   -13.9620 
  191.5000    69.4720   130.4720   125.4770   153.4290    24.6360     2.2010   -14.0340 
  191.6250    70.2520   124.7900   120.4050   131.9820    24.5470     2.2070   -14.0290 
  191.7500    68.7580   119.4600   115.9030   123.0220    24.4490     2.2170   -14.0470 
  191.8750    66.8760   114.8060   112.0480   110.3820    24.3330     2.2330   -14.0210 
  192.0000    66.2060   111.5040   109.1980    97.7460    24.2320     2.2550   -14.0020 
  192.1250    67.0370   110.9340   108.4380    97.8320    24.1670     2.2770   -14.0180 
  192.2500    68.0250   113.4560   110.2620    93.8210    24.0940     2.2870   -14.0430 
  192.3750    67.0770   119.1010   114.8900    87.9670    24.0420     2.2760   -14.0550 
  192.5000    64.1730   127.1730   121.8560    85.3930    24.1210     2.2420   -14.0590 
  192.6250    61.8280   135.9400   129.7400    99.5500    24.4530     2.1980   -14.0710 
  192.7500    62.1630   142.7630   136.1440   128.6120    24.8270     2.1630   -14.1070 
  192.8750    64.3710   145.9350   139.4710   143.6200    25.1760     2.1480   -14.1730 
