~V
VERS. 2.00: Ver 2.00
~W
STRT.M 50.0000:
STOP.M 245.0000:
STEP.M 0.1250:
NULL. -999.2500:
UWI. DF5062:
~C
DEPT.M :
DEN.GM/CC :
GR.API :
RML.OHMM :
RI. :
RXO.OHMM :
CALI.CM :
SP.MV :
~A
# ...
  185.0000     2.2450    69.4390    91.5630    81.4470    70.6470    24.9450   -28.7410 
  185.1250     2.2450    69.5090    87.3170    77.1500    66.0280    24.9930   -28.2740 
  185.2500     2.2450    67.2440    86.0930    75.6160    65.3120    25.0400   -27.7950 
  185.3750     2.2500    67.3920    86.9380    76.0270    67.3000    25.0970   -27.3640 
  185.5000     2.2580    69.1290    88.9130    77.5330    70.9230    25.1550   -27.0780 
  185.6250     2.2670    68.0090    91.0860    79.2740    74.4910    25.1920   -26.7880 
  185.7500     2.2730    67.2310    92.6860    80.5270    76.9550    25.2290   -26.6540 
  185.8750     2.2740    69.5370    93.3950    80.9800    78.3830    25.2610   -26.4940 
  186.0000     2.2700    72.2820    93.2990    80.6540    78.8320    25.2760   -26.4430 
  186.1250     2.2630    71.1440    92.9750    79.9500    77.7290    25.2660   -26.5120 
  186.2500     2.2570    68.5670    93.4120    79.7010    75.4650    25.2410   -26.5320 
  186.3750     2.2530    66.8150    95.4710    80.6590    72.3190    25.2130   -26.6160 
  186.5000     2.2500    66.6740    99.6720    83.3370    72.6520    25.1930   -26.6330 
  186.6250     2.2450    66.2350   105.9250    87.8170    75.7580    25.1690   -26.6130 
  186.7500     2.2400    62.8760   112.2710    92.6170    82.2890    25.1110   -26.5750 
  186.8750     2.2360    57.8920   116.3650    95.9040    90.3060    25.0170   -26.4970 
  187.0000     2.2360    54.9030   115.9650    95.8380    95.2400    24.9500   -26.3240 
  187.1250     2.2410    55.2500   109.5230    90.9820    95.3660    24.9280   -26.0330 
  187.2500     2.2450    56.3750   100.0180    83.4020    89.7750    24.9110   -25.7140 
  187.3750     2.2430    57.7810    90.7760    75.6210    79.7590    24.8860   -25.2960 
  187.5000     2.2360    59.6600    84.6630    70.0780    65.2980    24.8840   -24.8350 
  187.6250     2.2390    60.4930    83.9830    68.9500    57.0060    24.9690   -24.2550 
  187.7500     2.2670    60.0970    87.6410    71.5800    61.2920    25.0730   -23.5720 
  187.8750     2.3310    59.2550    93.8250    76.6020    75.8610    25.0720   -22.8730 
  188.0000     2.4280    59.0650    99.5190    81.6350    93.6380    24.9350   -22.1680 
  188.1250     2.5360    60.7330    99.7940    82.7450   103.3460    24.8540   -21.4220 
  188.2500     2.6240    62.7340    92.2730    77.7300   100.9970    24.8220   -20.5810 
  188.3750     2.6790    62.5000    76.9590    66.1440    94.6390    24.8140   -19.7800 
  188.5000     2.7050    60.9720    57.1770    50.1370    86.4470    24.8100   -18.9210 
  188.6250     2.7090    62.9030    38.6370    34.2680    72.6140    24.8120   -18.1630 
  188.7500     2.6900    66.1520    24.7520    22.0210    47.1530    24.7760   -17.4380 
  188.8750     2.6410    66.1900    15.7530    14.0030    21.9480    24.7130   -16.6890 
  189.0000     2.5700    62.3040    10.5670     9.3670     9.0300    24.5750   -16.1130 
  189.1250     2.4940    58.6060     8.3820     7.1820     5.9770    24.7790   -15.5790 
  189.2500     2.4360    56.4060     7.3710     6.1710     5.2020    24.7580   -15.1610 
  189.3750     2.4050    54.7350     7.0580     5.8580     5.1290    24.7710   -14.9000 
  189.5000     2.3950    53.2790     7.1450     5.9450     5.2090    24.8220   -14.7400 
  189.6250     2.3950    51.6790     7.4290     6.2290     5.2950    24.8460   -14.7080 
  189.7500     2.3900    51.4630     7.7300     6.5300     5.3830    24.7540   -14.7770 
  189.8750     2.3760    54.0160     7.9900     6.7900     5.5190    24.7500   -14.9400 
  190.0000     2.3600    58.2590     8.2050     7.0050     5.7410    24.7770   -15.1520 
  190.1250     2.3500    62.7650     8.4090     7.2090     5.9300    24.7750   -15.5060 
  190.2500     2.3530    68.6250     8.6450     7.4450     6.1380    24.7850   -15.9060 
  190.3750     2.3660    75.7090     8.9320     7.7320     6.3970    24.8160   -16.3150 
  190.5000     2.3860    80.0800     9.2560     8.0560     6.7220    24.7900   -16.8030 
  190.6250     2.4080    80.9920     9.5570     8.3570     7.2690    24.7770   -17.2770 
  190.7500     2.4280    83.9590     9.7620     8.5620     8.0970    24.7020   -17.7610 
  190.8750     2.4440    88.1800     9.8210     8.6210     8.8390    24.5220   -18.2280 
  191.0000     2.4550    90.5650     9.7270     8.5270     9.2040    24.3190   -18.6890 
  191.1250     2.4610    91.3740     9.5080     8.3080     8.6570    24.0970   -19.0670 
  191.2500     2.4620    94.4670     9.2610     8.0610     8.2510    23.8630   -19.4340 
  191.3750     2.4610    98.3840     9.0520     7.8520     8.1540    23.5980   -19.7860 
  191.5000     2.4590    99.2360     8.9190     7.7190     8.2840    23.2380   -20.0260 
  191.6250     2.4560    99.2340     8.8800     7.6800     8.3460    22.9980   -20.2830 
  191.7500     2.4530   100.1160     8.9010     7.7010     8.2460    23.0280   -20.4830 
  191.8750     2.4470   100.8720     8.9630     7.7630     8.3870    23.2030   -20.7400 
  192.0000     2.4400   101.9970     9.0580     7.8580     8.7130    23.5020   -21.0050 
  192.1250     2.4350   103.5730     9.1960     7.9960     9.0080    23.7750   -21.2250 
  192.2500     2.4320   102.9270     9.3860     8.1860     9.5060    24.0260   -21.5390 
  192.3750     2.4330    97.8230     9.6360     8.4360    10.3890    24.1950   -21.8080 
  192.5000     2.4330    91.6960     9.9440     8.7440    11.2020    24.2150   -22.1280 
  192.6250     2.4310    90.6000    10.2810     9.0810    11.0720    24.1660   -22.4940 
  192.7500     2.4290    91.6630    10.5770     9.3770    11.2340    24.1060   -22.7840 
  192.8750     2.4290    90.8730    10.7610     9.5610    11.5610    24.0330   -23.0250 
  193.0000     2.4320    88.6090    10.7760     9.5760    12.0010    23.8760   -23.2090 
  193.1250     2.4360    89.3360    10.5800     9.3800    11.8710    23.7030   -23.3180 
  193.2500     2.4370    93.1450    10.2590     9.0590    11.2200    23.6550   -23.2910 
  193.3750     2.4340    95.1340     9.9030     8.7030    10.3020    23.7620   -23.2630 
  193.5000     2.4270    94.4030     9.6070     8.4070     9.5980    23.8690   -23.1410 
  193.6250     2.4200    94.2550     9.4700     8.2700     9.2900    23.8470   -22.9000 
  193.7500     2.4130    93.6330     9.5070     8.3070     9.3460    23.8810   -22.7480 
  193.8750     2.4070    89.7240     9.7260     8.5260     9.7960    23.9900   -22.5100 
  194.0000     2.4040    83.0470    10.1200     8.9200    10.2330    24.0350   -22.2320 
  194.1250     2.4040    79.9450    10.6860     9.4860    10.2550    24.1010   -22.0000 
  194.2500     2.4090    81.3650    11.3330    10.1330    10.1710    24.1870   -21.7530 
  194.3750     2.4200    85.4600    11.9540    10.7540    10.5060    24.2720   -21.4420 
  194.5000     2.4350    89.2100    12.4030    11.2030    11.6090    24.2880   -21.0970 
  194.6250     2.4580    89.4750    12.4430    11.2430    12.5980    24.2050   -20.7380 
  194.7500     2.4870    86.0370    12.0270    10.8270    12.2650    24.1520   -20.1840 
  194.8750     2.5200    81.2890    11.1920     9.9920    11.0570    24.2260   -19.6000 
  195.0000     2.5420    78.0680    10.1030     8.9030    10.1480    24.3880   -18.9150 
  195.1250     2.5290    75.5450     9.0090     7.8090     8.6190    24.5500   -18.1010 
  195.2500     2.4760    73.0100     8.1120     6.9120     7.0340    24.6960   -17.3220 
  195.3750     2.3880    70.2940     7.4900     6.2900     5.9030    24.7780   -16.4280 
  195.5000     2.2880    67.3640     7.1470     5.9470     5.5410    24.7390   -15.6070 
  195.6250     2.2060    65.2560     7.0720     5.8720     5.6850    24.6350   -14.8910 
  195.7500     2.1620    65.8350     7.1520     5.9520     5.7940    24.4230   -14.2880 
  195.8750     2.1620    68.8270     7.3200     6.1200     5.9510    24.0800   -13.8920 
  196.0000     2.2020    72.1850     7.5150     6.3150     6.0630    23.7070   -13.6750 
  196.1250     2.2660    77.6760     7.6880     6.4880     6.0850    23.5180   -13.6090 
