~V
VERS. 2.00: Ver 2.00
~W
STRT.M 57.0000:
STOP.M 276.0000:
STEP.M 0.1250:
NULL. -999.2500:
UWI. DF5005:
~C
DEPT.M :
GR.API :
RML.OHMM :
RI. :
RXO.OHMM :
CALI.CM :
DEN.GM/CC :
SP.MV :
~A
# ...
  214.5000    88.0060     8.9260     7.7700     7.7570    24.0890     2.3770    -8.4090 
  214.6250    85.9240     8.8640     7.7140     7.7150    24.4040     2.3690    -8.6680 
  214.7500    89.8150     8.8170     7.6530     7.6310    24.5880     2.3600    -9.0000 
  214.8750    94.4380     8.8400     7.6170     7.6090    24.6300     2.3500    -9.2970 
  215.0000    95.0630     8.9900     7.6640     7.7040    24.6320     2.3410    -9.5890 
  215.1250    94.5560     9.3180     7.8560     7.9250    24.6240     2.3380    -9.9160 
  215.2500    94.4650     9.8390     8.2250     8.2320    24.6060     2.3440   -10.2320 
  215.3750    91.2870    10.5250     8.7810     9.0110    24.5940     2.3600   -10.5580 
  215.5000    85.2910    11.2630     9.4360    10.0340    24.5770     2.3790   -10.9610 
  215.6250    81.1450    11.9950    10.1350    10.9860    24.5370     2.3930   -11.3270 
  215.7500    82.9230    12.7370    10.8590    11.3940    24.4470     2.3930   -11.5920 
  215.8750    87.9100    13.5780    11.6770    10.9770    24.3030     2.3760   -11.8360 
  216.0000    88.8570    14.6070    12.6980    10.4070    24.2350     2.3530   -12.0670 
  216.1250    84.4750    16.0680    14.0510    10.2400    24.2780     2.3360   -12.2490 
  216.2500    78.8730    18.0800    15.8580    10.7320    24.3490     2.3310   -12.4210 
  216.3750    76.4950    21.4360    18.3850    12.6740    24.3840     2.3380   -12.5940 
  216.5000    76.2650    26.1910    21.8160    16.5740    24.4310     2.3440   -12.7220 
  216.6250    76.5270    33.0820    26.5910    23.4030    24.5280     2.3380   -12.8460 
  216.7500    75.0820    42.6590    33.2540    34.4830    24.6100     2.3160   -13.0240 
  216.8750    72.4640    53.9390    42.5400    49.6710    24.6400     2.2820   -13.2520 
  217.0000    72.0000    66.9590    53.5940    67.0500    24.6350     2.2500   -13.4350 
  217.1250    72.1810    79.7600    64.9380    84.2880    24.6070     2.2240   -13.5860 
  217.2500    68.3960    89.7050    74.4060    96.3480    24.5290     2.2080   -13.7610 
  217.3750    60.6830    93.7320    79.2860    97.9430    24.4340     2.2040   -13.9210 
  217.5000    56.1620    93.0420    80.0320    93.2740    24.3360     2.2110   -14.0200 
  217.6250    56.6600    90.3230    78.3680    87.8000    24.2960     2.2240   -14.1330 
  217.7500    59.2420    88.7780    76.7630    83.8930    24.2960     2.2330   -14.2240 
  217.8750    59.8350    91.1880    77.7820    87.6670    24.3420     2.2220   -14.1990 
  218.0000    59.2380    97.1800    81.8480   102.5610    24.3410     2.1930   -14.2080 
  218.1250    61.2270   105.4890    88.4480   122.9280    24.2070     2.1570   -14.2720 
  218.2500    66.3000   114.0800    96.2600   140.8260    23.9140     2.1310   -14.2720 
  218.3750    68.9300   120.0950   103.1500   144.6280    23.5700     2.1330   -14.2130 
  218.5000    67.0080   122.2880   107.5410   134.9250    23.4040     2.1570   -14.2190 
  218.6250    64.3070   120.7320   108.8880   116.9710    23.5450     2.1920   -14.2070 
  218.7500    64.7080   116.6110   107.6290   101.5790    23.8950     2.2200   -14.1420 
  218.8750    66.2010   111.2190   104.5920    87.8160    24.2640     2.2320   -14.1190 
  219.0000    65.5190   105.7590   100.8670    80.0880    24.5160     2.2350   -14.1360 
  219.1250    63.1310   100.1770    96.5650    77.9650    24.6250     2.2340   -14.1380 
  219.2500    61.1990    94.3820    91.3030    76.8990    24.6550     2.2330   -14.1290 
  219.3750    61.9160    87.2420    84.3300    72.9190    24.6630     2.2310   -14.1350 
  219.5000    65.1490    79.5490    76.0000    66.6760    24.6300     2.2310   -14.1340 
  219.6250    68.9000    71.8760    67.2410    58.9470    24.5360     2.2340   -14.1250 
  219.7500    70.2110    64.1500    59.5310    49.8710    24.3940     2.2420   -14.1340 
  219.8750    65.9560    59.8990    55.0150    41.3260    24.4240     2.2520   -14.1660 
  220.0000    61.9360    60.1540    54.4040    38.8620    24.6430     2.2570   -14.2030 
  220.1250    62.8140    65.2770    58.1460    44.7570    24.8080     2.2540   -14.2370 
  220.2500    67.6890    75.0120    66.1670    57.0770    24.8110     2.2420   -14.3100 
  220.3750    68.8560    88.6530    78.0860    72.4840    24.7490     2.2300   -14.4220 
  220.5000    65.2010   103.4310    91.5020    85.4520    24.7170     2.2230   -14.5230 
  220.6250    60.9230   117.1120   104.4250    89.7010    24.7110     2.2220   -14.6140 
  220.7500    59.5580   128.0630   115.2730    89.1400    24.7090     2.2250   -14.7600 
  220.8750    61.3790   135.4930   123.0310    95.6310    24.7050     2.2270   -14.9050 
  221.0000    62.3070   140.8340   128.5940   106.0390    24.7020     2.2260   -14.9460 
  221.1250    60.4840   145.0140   132.5770   115.5710    24.6910     2.2230   -15.0000 
  221.2500    57.4490   148.6390   135.4710   118.4080    24.6560     2.2210   -15.1010 
  221.3750    57.4580   152.3860   137.8610   118.7910    24.6200     2.2220   -15.1600 
  221.5000    59.9700   157.2050   140.8350   119.7700    24.5880     2.2270   -15.2220 
  221.6250    62.2750   163.8960   145.3220   122.7490    24.5750     2.2330   -15.3710 
  221.7500    63.5690   172.6300   151.7380   128.6390    24.5660     2.2380   -15.4840 
  221.8750    62.9240   182.6580   159.7810   139.6800    24.5580     2.2390   -15.5740 
  222.0000    61.3820   192.1430   167.9720   152.4450    24.5680     2.2350   -15.7370 
  222.1250    59.1720   199.8770   175.2850   162.8420    24.6050     2.2250   -15.8630 
  222.2500    58.5580   205.7710   181.4710   164.5920    24.6300     2.2140   -15.8740 
  222.3750    60.9810   211.5470   187.6850   161.7230    24.6260     2.2050   -15.8560 
  222.5000    61.7360   219.8700   195.9880   163.9790    24.6030     2.2020   -15.8550 
  222.6250    59.1800   232.3550   207.8540   171.3200    24.5710     2.2070   -15.7800 
  222.7500    55.2460   248.8210   223.4410   183.7170    24.5040     2.2160   -15.6650 
  222.8750    54.8190   266.2770   240.9900   208.8040    24.4210     2.2190   -15.5560 
  223.0000    57.2640   280.1100   256.4380   233.3030    24.4210     2.2110   -15.4320 
  223.1250    59.8980   286.6110   266.2070   246.0940    24.5500     2.1950   -15.2810 
  223.2500    61.5130   284.7480   267.9090   240.8660    24.6300     2.1760   -15.1940 
  223.3750    58.9810   274.4870   260.1680   212.2710    24.6300     2.1660   -15.1570 
  223.5000    55.5440   261.4840   246.8460   196.9020    24.6040     2.1700   -15.0310 
  223.6250    55.5820   248.5190   231.2530   189.1510    24.5830     2.1860   -14.8560 
  223.7500    58.4500   234.8030   216.4770   180.8330    24.5680     2.2060   -14.7290 
  223.8750    59.8540   222.0470   205.4010   159.1760    24.5170     2.2200   -14.5880 
  224.0000    59.8500   213.3700   198.5150   144.6210    24.4180     2.2230   -14.3740 
  224.1250    61.4620   208.9400   195.6310   138.1080    24.3590     2.2150   -14.1920 
  224.2500    63.6590   207.3530   195.6410   139.0520    24.4320     2.1990   -14.0260 
  224.3750    62.3290   208.8450   196.5300   146.3890    24.3890     2.1820   -13.8330 
  224.5000    58.0520   208.7340   195.9810   148.6910    24.2450     2.1710   -13.7320 
  224.6250    55.7830   205.1520   192.9950   147.4730    24.1430     2.1680   -13.7730 
  224.7500    57.9010   199.3800   188.0080   143.9360    24.1420     2.1750   -13.8170 
  224.8750    61.3230   194.7250   183.1760   134.7750    24.2460     2.1870   -13.8910 
  225.0000    62.2450   193.7620   181.1850   127.0560    24.3660     2.1980   -14.0970 
  225.1250    61.3880   198.0740   183.7900   125.6980    24.4100     2.2030   -14.3620 
  225.2500    62.6080   208.0020   191.5560   127.8700    24.3860     2.2020   -14.5850 
  225.3750    64.2720   222.7930   204.0250   136.7620    24.3690     2.1980   -14.7520 
  225.5000    63.1820   238.6490   217.8050   154.8210    24.2860     2.1990   -14.9230 
  225.6250    60.6380   252.1730   229.8070   175.5840    24.1140     2.2040   -15.0570 
