~V
VERS. 2.00: Ver 2.00
~W
STRT.M 57.0000:
STOP.M 276.0000:
STEP.M 0.1250:
NULL. -999.2500:
UWI. DF5005:
~C
DEPT.M :
GR.API :
RML.OHMM :
RI. :
RXO.OHMM :
CALI.CM :
DEN.GM/CC :
SP.MV :
~A
# ...
  237.0000   114.6520    10.1580     9.0790     8.9080    24.7270     2.3780    -7.9750 
  237.1250   118.7770    10.1740     9.0370     9.0520    24.7000     2.3840    -8.0750 
  237.2500   120.6930    10.0900     8.9380     9.1320    24.6820     2.3860    -8.1910 
  237.3750   119.6950     9.9590     8.8170     9.2090    24.6770     2.3830    -8.2180 
  237.5000   117.8720     9.9090     8.7630     9.3690    24.6740     2.3750    -8.2050 
  237.6250   116.3440    10.0950     8.8860     9.6650    24.6600     2.3660    -8.1980 
  237.7500   112.6140    10.7030     9.3210    10.2680    24.6290     2.3560    -8.1960 
  237.8750   106.3950    12.0000    10.2830    11.3900    24.6130     2.3520    -8.1710 
  238.0000   104.1880    13.8670    11.7120    13.1130    24.5970     2.3570    -8.1620 
  238.1250   104.6760    15.9920    13.4040    15.4480    24.5600     2.3710    -8.1800 
  238.2500   103.2050    17.8010    14.9300    17.9570    24.4940     2.3900    -8.1950 
  238.3750    99.3130    18.3970    15.5510    19.7360    24.4370     2.4030    -8.2600 
  238.5000    99.2160    17.5780    15.0070    19.6800    24.4180     2.4040    -8.3950 
  238.6250   105.7340    15.6160    13.4490    17.3350    24.4440     2.3900    -8.5310 
  238.7500   113.6860    13.2200    11.4590    13.4970    24.5220     2.3660    -8.5900 
  238.8750   116.3360    11.4760     9.8190    10.7170    24.6210     2.3420    -8.6400 
  239.0000   112.1060    11.0770     8.9850     9.9480    24.6380     2.3240    -8.7570 
  239.1250   103.0890    12.7810     9.4360    11.6330    24.5640     2.3160    -8.8610 
  239.2500    92.5770    17.3980    11.9740    15.8140    24.4440     2.3210    -8.9430 
  239.3750    83.0460    26.7150    18.3470    25.2740    24.3080     2.3410    -9.1030 
  239.5000    75.7430    39.9970    28.7280    41.3800    24.2260     2.3630    -9.2440 
  239.6250    70.2160    55.4390    42.4040    64.4200    24.2080     2.3720    -9.3490 
  239.7500    68.3460    70.0230    57.0020    92.2610    24.2820     2.3580    -9.5460 
  239.8750    68.0210    79.1630    68.0390   113.1220    24.4150     2.3230    -9.7940 
  240.0000    66.1300    81.8150    73.4160   115.1890    24.5060     2.2860    -9.9540 
  240.1250    64.8220    80.2330    74.1650    99.4670    24.5330     2.2610   -10.1100 
  240.2500    66.8560    78.6400    73.5020    80.3560    24.5240     2.2480   -10.3020 
  240.3750    69.1180    80.5950    74.6950    76.3530    24.4820     2.2420   -10.3910 
  240.5000    67.3170    85.1900    77.8500    87.1960    24.4040     2.2330   -10.4350 
  240.6250    64.1010    89.8910    81.2250   103.4410    24.2890     2.2200   -10.5340 
  240.7500    64.3300    91.7130    82.4560   109.4990    24.2040     2.2070   -10.6300 
  240.8750    67.3040    88.0980    79.3550   101.9180    24.1510     2.2000   -10.6770 
  241.0000    71.1470    81.2620    73.4430    80.8090    24.1280     2.2000   -10.7520 
  241.1250    74.9690    74.7640    67.4530    61.2610    24.1010     2.2050   -10.8630 
  241.2500    77.1750    72.1360    64.4160    52.9420    24.0850     2.2130   -10.9710 
  241.3750    74.6200    76.7490    67.5470    60.2630    24.0770     2.2190   -11.1430 
  241.5000    70.2460    88.2500    76.8450    75.7940    24.0760     2.2180   -11.4070 
  241.6250    66.8160   105.8340    91.7550    96.4990    24.0700     2.2110   -11.6240 
  241.7500    63.6810   127.1630   110.3370   120.0400    24.0820     2.2000   -11.7390 
  241.8750    59.7120   147.7920   128.8760   138.6140    24.1350     2.1890   -11.8740 
  242.0000    57.5790   163.0500   143.5350   145.9570    24.2210     2.1820   -12.0040 
  242.1250    56.8760   170.7680   152.4150   144.7430    24.2520     2.1790   -12.0050 
  242.2500    56.8880   171.6520   155.4680   137.9030    24.2440     2.1790   -11.9630 
  242.3750    56.4460   166.6190   152.8310   129.8840    24.2610     2.1790   -11.9170 
  242.5000    56.6130   158.0990   145.7240   125.5290    24.2700     2.1770   -11.7490 
  242.6250    58.8630   145.9920   134.0910   123.3170    24.2910     2.1750   -11.5630 
  242.7500    63.4140   130.6700   118.5900   119.5680    24.3590     2.1730   -11.4740 
  242.8750    67.2980   114.1590   101.3580   109.7680    24.5120     2.1780   -11.3620 
  243.0000    67.7650    95.8330    85.7540    90.7710    24.6230     2.1880   -11.2350 
  243.1250    67.4650    82.3570    73.7340    70.5510    24.6590     2.2010   -11.2180 
  243.2500    68.1670    73.9810    65.9740    57.8820    24.6610     2.2130   -11.2470 
  243.3750    68.1660    70.4320    62.5840    57.2880    24.6600     2.2210   -11.2130 
  243.5000    67.7360    69.5230    61.7680    60.2090    24.6600     2.2240   -11.1880 
  243.6250    69.3340    69.8020    62.2880    63.5570    24.6600     2.2250   -11.1960 
  243.7500    73.6740    69.9010    62.9000    64.5380    24.6600     2.2260   -11.2030 
  243.8750    74.9880    68.4720    62.3040    63.1450    24.6600     2.2280   -11.1920 
  244.0000    72.2630    65.3220    60.1400    60.9480    24.6600     2.2300   -11.1750 
  244.1250    69.7690    60.7420    56.5440    57.4770    24.6600     2.2320   -11.1620 
  244.2500    70.9810    55.4160    52.0490    51.8820    24.6600     2.2340   -11.1530 
  244.3750    75.1190    50.2740    47.4630    47.8450    24.6690     2.2400   -11.1560 
  244.5000    79.4380    46.0520    43.5850    44.0440    24.6900     2.2470   -11.2350 
  244.6250    82.9690    43.3010    40.9230    40.6690    24.7110     2.2540   -11.3460 
  244.7500    81.7340    42.2840    39.7960    38.2970    24.7210     2.2560   -11.3840 
  244.8750    74.4070    43.8230    40.6930    38.4550    24.7240     2.2530   -11.3820 
  245.0000    68.6770    47.4640    43.4070    41.2440    24.7270     2.2460   -11.4140 
  245.1250    69.3860    53.0740    47.8090    45.7060    24.7260     2.2380   -11.3950 
  245.2500    74.0300    59.8680    53.3760    50.1050    24.7170     2.2330   -11.2970 
  245.3750    74.7900    64.9450    58.7810    54.9590    24.6960     2.2300   -11.2620 
  245.5000    71.2190    67.5390    62.2160    60.2100    24.6660     2.2260   -11.2140 
  245.6250    67.9510    66.4370    62.2980    64.9340    24.6280     2.2220   -11.0980 
  245.7500    68.9020    61.5980    58.6540    67.3590    24.5590     2.2190   -11.0580 
  245.8750    74.6590    54.3080    52.1440    60.2510    24.4520     2.2250   -11.1400 
  246.0000    80.0660    47.2180    45.3420    44.7400    24.3730     2.2440   -11.1760 
  246.1250    82.1090    41.7720    39.7680    32.6040    24.3540     2.2740   -11.2310 
  246.2500    79.5590    38.5070    36.1050    29.9520    24.3980     2.3100   -11.3620 
  246.3750    76.6970    37.5400    34.6210    31.8490    24.5440     2.3370   -11.3830 
  246.5000    76.9960    38.0450    34.6400    33.1050    24.6620     2.3460   -11.3280 
  246.6250    77.4530    39.7410    35.9120    34.3900    24.7680     2.3350   -11.3370 
  246.7500    74.4250    42.7210    38.4710    36.6100    24.8500     2.3100   -11.3360 
  246.8750    69.2030    47.8210    43.0270    41.0780    24.8980     2.2810   -11.2640 
  247.0000    66.3160    55.1780    49.7320    48.3840    24.9130     2.2600   -11.2440 
  247.1250    65.3440    64.4290    58.3840    56.7700    24.8780     2.2530   -11.2650 
  247.2500    65.7250    74.1330    67.7870    67.8710    24.7600     2.2610   -11.2370 
  247.3750    67.8770    81.2360    75.1670    86.6940    24.6090     2.2790   -11.2970 
  247.5000    68.8040    83.7640    78.4050   104.2370    24.6030     2.2920   -11.4870 
  247.6250    67.9720    81.5300    76.9980   107.5990    24.6760     2.2930   -11.6410 
  247.7500    69.7340    76.6880    72.5320    88.7430    24.7200     2.2810   -11.7060 
  247.8750    75.0430    72.9650    68.2810    67.3320    24.7160     2.2660   -11.7720 
  248.0000    77.3520    72.8780    66.9240    61.6420    24.6520     2.2660   -11.7820 
  248.1250    76.9180    76.6630    69.3390    66.9160    24.4390     2.2900   -11.6640 
