~V
VERS. 2.00: Ver 2.00
~W
STRT.M 60.0000:
STOP.M 273.0000:
STEP.M 0.1250:
NULL. -999.2500:
UWI. DF5008:
~C
DEPT.M :
GR.API :
CALI.CM :
RXO.OHMM :
RI. :
RML.OHMM :
DEN.GM/CC :
SP.MV :
~A
# ...
  138.7500    79.0770    24.5190     6.8000     5.5850     5.8370     2.2830   -38.6680 
  138.8750    76.4150    24.4890     6.9910     5.7140     5.9720     2.2880   -38.8330 
  139.0000    79.0270    24.3980     6.9800     5.8210     5.9720     2.2940   -39.1070 
  139.1250    85.2160    24.3130     6.5450     5.8020     5.8190     2.2960   -39.4260 
  139.2500    86.6150    24.2700     6.3650     5.7110     5.6530     2.2910   -39.7780 
  139.3750    84.1370    24.2550     6.2030     5.6310     5.5790     2.2770   -40.1440 
  139.5000    84.9400    24.2560     6.0580     5.6250     5.6430     2.2590   -40.4120 
  139.6250    89.9210    24.2670     6.2070     5.7120     5.8150     2.2480   -40.6990 
  139.7500    91.2980    24.2660     6.5320     5.8120     5.9570     2.2490   -40.9830 
  139.8750    86.5730    24.2450     7.1070     5.8220     5.9440     2.2650   -41.2990 
  140.0000    81.0600    24.2220     7.3520     5.6750     5.7280     2.2930   -41.5530 
  140.1250    79.8600    24.2480     6.7410     5.4150     5.4310     2.3290   -41.8050 
  140.2500    83.7710    24.3200     6.0190     5.2360     5.3190     2.3640   -42.0630 
  140.3750    90.3010    24.3970     5.7960     5.2910     5.5640     2.3870   -42.3200 
  140.5000    96.0000    24.4430     6.2200     5.6600     6.2160     2.3860   -42.6760 
  140.6250    94.2190    24.4590     8.4130     6.3610     7.1900     2.3510   -43.0290 
  140.7500    86.0780    24.4480    12.9510     7.1510     8.1180     2.3000   -43.4350 
  140.8750    76.8720    24.3880    14.4890     7.7360     8.6530     2.2480   -43.8730 
  141.0000    71.5200    24.2790    11.4840     7.8920     8.6220     2.2060   -44.3290 
  141.1250    72.1000    24.1560     8.3560     7.6070     8.1490     2.1810   -44.8560 
  141.2500    74.3300    24.0630     7.5730     7.2100     7.6700     2.1690   -45.3900 
  141.3750    76.1950    24.0110     7.3890     6.9170     7.4230     2.1630   -45.9380 
  141.5000    77.4380    23.9880     7.6450     6.8340     7.4790     2.1600   -46.4640 
  141.6250    78.8720    23.9700     7.9260     6.9810     7.7770     2.1570   -46.8600 
  141.7500    80.6950    23.9490     8.3520     7.2210     8.1190     2.1570   -47.2050 
  141.8750    80.8710    23.9480     9.0030     7.4590     8.4180     2.1660   -47.4350 
  142.0000    78.1330    23.9970     9.6370     7.6800     8.7120     2.1910   -47.6230 
  142.1250    74.8720    24.0600    11.3750     7.9790     9.1740     2.2360   -47.7290 
  142.2500    73.2040    24.0700    11.2670     8.4560     9.9140     2.2880   -47.7940 
  142.3750    70.8370    24.0360    10.3200     9.1560    10.9350     2.3230   -47.8440 
  142.5000    66.5960    24.0230    11.5840    10.0280    12.0780     2.3120   -47.8060 
  142.6250    64.4960    24.0810    15.7090    10.8210    12.9290     2.2570   -47.8700 
  142.7500    66.2530    24.1600    18.7700    11.2160    13.1550     2.2010   -47.9460 
  142.8750    68.5330    24.2190    17.4290    11.0480    12.6660     2.1620   -48.0730 
  143.0000    67.4260    24.2470    13.3220    10.4170    11.6850     2.1450   -48.1840 
  143.1250    65.1800    24.2450    10.6380     9.6100    10.6450     2.1490   -48.2850 
  143.2500    65.1990    24.2310     9.8050     8.9380     9.8930     2.1620   -48.3850 
  143.3750    67.3550    24.1980     9.4550     8.5170     9.5230     2.1750   -48.4360 
  143.5000    69.2950    24.1500     9.6400     8.3530     9.4730     2.1820   -48.5130 
  143.6250    70.0620    24.0950     9.8430     8.3950     9.6160     2.1830   -48.5090 
  143.7500    71.0410    24.0380     9.8810     8.5150     9.7850     2.1820   -48.4860 
  143.8750    72.4140    23.9750     9.8590     8.6390     9.9060     2.1820   -48.3390 
  144.0000    73.0270    23.9070    10.0140     8.7270     9.9660     2.1850   -48.1530 
  144.1250    72.7260    23.8450    10.1540     8.7860    10.0180     2.1880   -47.9080 
  144.2500    73.1810    23.8010    10.1990     8.8740    10.1450     2.1870   -47.6260 
  144.3750    73.5470    23.7770    10.1990     9.0330    10.3890     2.1830   -47.3340 
  144.5000    72.5930    23.7620    10.3540     9.2740    10.7310     2.1750   -47.0010 
  144.6250    70.2210    23.7300    10.9530     9.5540    11.0710     2.1670   -46.6620 
  144.7500    68.8490    23.6460    11.4060     9.7700    11.2700     2.1620   -46.2380 
  144.8750    70.1310    23.4750    11.0900     9.8340    11.2380     2.1620   -45.8690 
  145.0000    72.3900    23.2170    10.5820     9.7130    10.9720     2.1660   -45.5060 
  145.1250    71.3510    22.9140     9.9860     9.4340    10.5490     2.1720   -45.1930 
  145.2500    67.7410    22.6410     9.6250     9.1200    10.1240     2.1760   -44.8660 
  145.3750    67.3750    22.4290     9.3950     8.8600     9.7940     2.1750   -44.4960 
  145.5000    71.9790    22.3060     9.8900     8.7090     9.6290     2.1710   -44.1640 
  145.6250    74.4550    22.3870    10.5860     8.7390     9.7410     2.1740   -43.7750 
  145.7500    70.9490    22.6930    10.4250     8.9600    10.1190     2.1910   -43.4530 
  145.8750    68.2440    23.1350     9.7780     9.3320    10.6320     2.2290   -43.1130 
  146.0000    70.3830    23.5450     9.7680     9.6680    10.9600     2.2850   -42.7670 
  146.1250    71.9610    23.8000    10.5820     9.5580    10.5710     2.3350   -42.3480 
  146.2500    70.9970    23.9620    13.8520     8.8810     9.4480     2.3540   -41.8980 
  146.3750    72.8530    24.0800    17.0180     7.8130     7.9250     2.3420   -41.4570 
  146.5000    81.7630    24.1610    14.8090     6.7240     6.5370     2.3160   -40.9980 
  146.6250    93.1540    24.1920     8.1270     6.0140     5.7880     2.2950   -40.6370 
  146.7500    99.6320    24.1940     6.1740     5.7540     5.6420     2.2860   -40.3000 
  146.8750    98.1070    24.1670     7.6670     5.9050     5.9430     2.2890   -40.0360 
  147.0000    91.0860    24.1070     9.2360     6.3400     6.4610     2.2960   -39.8700 
  147.1250    86.1470    24.0360     9.6960     6.8120     6.8650     2.3010   -39.7750 
  147.2500    85.6100    24.0000     8.3470     7.0440     6.9310     2.3020   -39.7170 
  147.3750    86.8000    24.0200     6.9120     6.9480     6.6580     2.3010   -39.6820 
  147.5000    89.3680    24.0820     6.3300     6.6240     6.2230     2.3030   -39.6260 
  147.6250    93.8690    24.1460     6.2690     6.2580     5.8480     2.3140   -39.5710 
  147.7500    99.0410    24.1790     6.2340     5.9790     5.6110     2.3300   -39.4700 
  147.8750   103.3450    24.1830     6.1490     5.8060     5.4940     2.3490   -39.3600 
  148.0000   104.6360    24.1800     6.3530     5.7210     5.4690     2.3680   -39.2230 
  148.1250    99.7700    24.1940     7.0470     5.7330     5.5810     2.3910   -39.1440 
  148.2500    93.7880    24.2240     7.6700     5.8830     5.9230     2.4240   -39.0980 
  148.3750    89.4240    24.2460     7.7170     6.2750     6.6480     2.4680   -39.0430 
  148.5000    84.9880    24.2340     7.7300     7.0370     7.9170     2.5180   -39.0770 
  148.6250    77.9170    24.2110    11.4570     8.3770     9.9020     2.5570   -39.0890 
  148.7500    69.2680    24.2210    17.4100    10.2160    12.3110     2.5800   -39.1620 
  148.8750    61.8920    24.2670    22.2030    12.3190    14.7010     2.5890   -39.2170 
  149.0000    57.4460    24.3170    23.5900    14.2270    16.5330     2.5910   -39.2350 
  149.1250    56.4910    24.3430    21.5410    15.3390    17.3390     2.5910   -39.2030 
  149.2500    55.3930    24.3520    19.2730    15.7410    17.4910     2.5930   -39.1800 
  149.3750    52.8080    24.3530    17.6350    15.7930    17.4730     2.5950   -39.1940 
  149.5000    51.8720    24.3420    17.9080    15.8600    17.6450     2.5940   -39.1740 
  149.6250    52.5610    24.3130    19.5470    16.1250    18.0970     2.5870   -39.1590 
  149.7500    52.3930    24.3040    20.8860    16.4910    18.6040     2.5770   -39.0740 
  149.8750    52.0490    24.3370    21.2310    16.8320    18.9930     2.5710   -38.9930 
