~V
VERS. 2.00: Ver 2.00
~W
STRT.M 55.0000:
STOP.M 253.0000:
STEP.M 0.1250:
NULL. -999.2500:
UWI. DF5051:
~C
DEPT.M :
SP.MV :
GR.API :
RML.OHMM :
RI. :
RXO.OHMM :
CALI.CM :
DEN.GM/CC :
~A
# ...
   88.7500   -21.1420    71.7900     9.3420     8.5330     9.2230    23.3430     2.2000 
   88.8750   -20.4400    74.9140     9.0100     8.2580     8.8320    23.4190     2.1970 
   89.0000   -19.6800    80.7870     8.6220     7.9310     8.4730    23.5400     2.2040 
   89.1250   -18.8630    84.4810     8.2410     7.5930     8.1190    23.6980     2.2190 
   89.2500   -18.0840    84.8520     7.9500     7.3010     7.7440    23.8770     2.2360 
   89.3750   -17.3700    84.7770     7.8110     7.1010     7.4310    23.9730     2.2500 
   89.5000   -16.7810    85.0330     7.8540     7.0160     7.4140    23.9380     2.2560 
   89.6250   -16.3100    84.8210     8.0590     7.0460     7.5610    23.9190     2.2590 
   89.7500   -15.9210    84.7430     8.2930     7.1140     7.6770    23.9550     2.2610 
   89.8750   -15.6460    82.7070     8.4390     7.1530     7.6110    23.9680     2.2650 
   90.0000   -15.4570    79.8190     8.4040     7.1100     7.5990    23.9530     2.2710 
   90.1250   -15.4190    81.1350     8.1230     6.9660     7.6130    23.9690     2.2730 
   90.2500   -15.4660    85.4080     7.7870     6.8060     7.5700    23.8940     2.2710 
   90.3750   -15.6000    87.9720     7.6480     6.7720     7.6350    23.6100     2.2650 
   90.5000   -15.8110    87.8490     8.1830     7.1060     8.0720    23.0980     2.2650 
   90.6250   -16.0810    86.3060    10.1270     8.3710     9.2530    22.6320     2.2850 
   90.7500   -16.3850    83.0200    13.8470    10.8810    11.9510    22.5560     2.3340 
   90.8750   -16.6610    77.7070    19.1980    14.7450    17.2290    22.7710     2.4080 
   91.0000   -16.9890    71.3190    25.0500    19.5140    24.8950    23.1080     2.4950 
   91.1250   -17.3410    65.0400    29.5650    23.7790    32.9910    23.4720     2.5640 
   91.2500   -17.6850    59.4720    31.0140    25.8860    38.1340    23.7850     2.5890 
   91.3750   -18.0370    58.2400    28.6940    24.9330    35.2280    23.9340     2.5590 
   91.5000   -18.3440    61.6940    23.6730    21.4470    24.8830    23.7900     2.4870 
   91.6250   -18.6720    64.6160    18.3630    17.2020    16.6970    23.3860     2.3980 
   91.7500   -18.9880    64.5290    14.4410    13.7590    12.3660    23.1140     2.3200 
   91.8750   -19.2810    62.9380    12.1280    11.4540    11.0520    23.0300     2.2640 
   92.0000   -19.4850    61.2910    11.1340    10.1820    10.8580    23.0280     2.2320 
   92.1250   -19.5480    60.4170    11.1530     9.8050    11.0240    23.0400     2.2240 
   92.2500   -19.5280    61.6350    11.6240     9.9230    11.5150    23.0940     2.2340 
   92.3750   -19.3570    66.0470    12.2280    10.2960    12.5030    23.2170     2.2580 
   92.5000   -19.1070    73.7050    12.7060    10.6990    13.5910    23.4090     2.2880 
   92.6250   -18.7530    80.4860    12.8400    10.9180    14.6620    23.5010     2.3050 
   92.7500   -18.3440    82.3560    12.6510    10.8920    14.5850    23.4480     2.2980 
   92.8750   -17.9210    80.0560    12.2300    10.6380    12.5520    23.1980     2.2690 
   93.0000   -17.4950    75.6240    11.6780    10.2100    10.7010    22.8440     2.2320 
   93.1250   -17.0500    68.1160    11.0400     9.6490     9.8210    22.5920     2.2050 
   93.2500   -16.5520    62.0700    10.3100     9.0030     9.2670    22.5070     2.1970 
   93.3750   -16.0410    62.8350     9.4730     8.2970     8.5830    22.4980     2.2050 
   93.5000   -15.5180    71.1670     8.5270     7.5820     7.7610    22.5410     2.2220 
   93.6250   -15.0880    80.7220     7.6870     6.9720     6.9900    22.7210     2.2350 
   93.7500   -14.7790    86.4850     7.1830     6.5620     6.5620    23.0120     2.2430 
   93.8750   -14.6040    87.2190     7.2010     6.4160     6.6070    23.2190     2.2440 
   94.0000   -14.5960    82.7880     7.5460     6.5400     6.9460    23.1690     2.2420 
   94.1250   -14.7320    77.2830     8.1260     6.9020     7.5620    22.8360     2.2380 
   94.2500   -15.0170    74.4530     8.7170     7.3460     8.1710    22.5540     2.2320 
   94.3750   -15.4400    72.6830     9.1660     7.7560     8.5390    22.4700     2.2250 
   94.5000   -15.9330    69.4200     9.3850     8.0420     8.6960    22.5250     2.2170 
   94.6250   -16.4180    67.5550     9.3650     8.1490     8.7870    22.6440     2.2100 
   94.7500   -16.8330    68.7660     9.2440     8.1400     8.8280    22.8000     2.2040 
   94.8750   -17.1470    70.7390     9.1100     8.0680     8.8290    22.9440     2.1990 
   95.0000   -17.3670    71.2290     9.0070     7.9750     8.8170    23.0150     2.1960 
   95.1250   -17.5240    70.9960     8.9360     7.8800     8.8170    23.0280     2.1950 
   95.2500   -17.5690    71.5300     8.8780     7.7890     8.7910    23.0280     2.1960 
   95.3750   -17.5670    71.8880     8.8250     7.7030     8.7330    23.0280     2.1990 
   95.5000   -17.5870    70.9710     8.7840     7.6270     8.6590    23.0290     2.2040 
   95.6250   -17.5640    67.8890     8.7680     7.5700     8.5610    23.0310     2.2100 
   95.7500   -17.5500    65.6030     8.7800     7.5360     8.4730    23.0330     2.2170 
   95.8750   -17.5370    66.9040     8.8150     7.5260     8.4190    23.0310     2.2240 
   96.0000   -17.5380    70.3220     8.8640     7.5380     8.3970    23.0290     2.2300 
   96.1250   -17.5950    70.6040     8.9130     7.5660     8.3960    23.0270     2.2320 
   96.2500   -17.6750    67.6170     8.9530     7.6020     8.4140    23.0180     2.2300 
   96.3750   -17.7560    65.1330     8.9790     7.6420     8.4420    22.9960     2.2240 
   96.5000   -17.8070    65.1530     8.9970     7.6900     8.4950    22.9700     2.2180 
   96.6250   -17.9000    66.9070     9.0160     7.7560     8.5920    22.9320     2.2110 
   96.7500   -17.9780    67.5150     9.0540     7.8450     8.7220    22.8870     2.2060 
   96.8750   -18.0140    67.9110     9.1260     7.9620     8.9080    22.8520     2.2010 
   97.0000   -17.9650    69.6880     9.2400     8.1050     9.1170    22.8360     2.1970 
   97.1250   -17.7380    70.6510     9.3750     8.2530     9.2680    22.8260     2.1960 
   97.2500   -17.4650    68.5490     9.4630     8.3580     9.3350    22.8000     2.1960 
   97.3750   -17.0770    65.2140     9.4200     8.3630     9.3490    22.7380     2.1980 
   97.5000   -16.5310    63.5980     9.1730     8.2100     9.2940    22.6440     2.2010 
   97.6250   -15.7910    64.5440     8.6670     7.8450     9.0720    22.5890     2.2080 
   97.7500   -14.8950    67.9690     8.0170     7.3440     8.6140    22.6270     2.2190 
   97.8750   -13.9260    73.3090     7.3610     6.8030     7.9200    22.8260     2.2350 
   98.0000   -12.9790    78.0630     6.8450     6.3310     7.1150    23.1860     2.2530 
   98.1250   -12.1530    78.9740     6.6080     6.0430     6.4660    23.4810     2.2670 
   98.2500   -11.4280    78.2370     6.5930     5.9240     6.3220    23.5800     2.2780 
   98.3750   -10.8500    78.6120     6.6860     5.9200     6.4920    23.5380     2.2880 
   98.5000   -10.4090    82.1870     6.7470     5.9470     6.6680    23.4050     2.2990 
   98.6250   -10.1710    87.1180     6.6670     5.9290     6.6010    23.3600     2.3090 
   98.7500   -10.1470    90.6270     6.5200     5.8810     6.3310    23.4740     2.3090 
   98.8750   -10.3150    92.3230     6.4540     5.8720     6.0650    23.6320     2.2940 
   99.0000   -10.6170    91.1860     6.5980     5.9760     6.1530    23.7070     2.2640 
   99.1250   -10.9710    86.1250     6.9800     6.2230     6.7580    23.6970     2.2330 
   99.2500   -11.3190    80.8810     7.3860     6.4890     7.6450    23.7060     2.2180 
   99.3750   -11.6070    80.7080     7.5860     6.6280     8.4590    23.7580     2.2240 
   99.5000   -11.8860    84.6850     7.4070     6.5140     8.9140    23.8550     2.2470 
   99.6250   -12.1180    87.7430     6.7920     6.0860     8.7570    23.9510     2.2730 
   99.7500   -12.3260    90.2410     6.0390     5.5300     8.1600    24.0520     2.2860 
   99.8750   -12.5840    93.8840     5.4620     5.0550     7.6860    24.1230     2.2830 
