~V
VERS. 2.00: Ver 2.00
~W
STRT.M 59.0000:
STOP.M 264.0000:
STEP.M 0.1250:
NULL. -999.2500:
UWI. DF5022:
~C
DEPT.M :
GR.API :
CALI.CM :
RXO.OHMM :
RI. :
RML.OHMM :
SP.MV :
DEN.GM/CC :
~A
# ...
  250.2500    51.2560    24.2130     5.6590     7.0950     6.6430   -12.1940     2.3710 
  250.3750    52.6570    24.2130     5.4550     6.9290     6.6110   -11.9770     2.3560 
  250.5000    53.2530    24.2130     5.3300     7.0740     6.8030   -11.7790     2.3490 
  250.6250    52.3150    24.2120     5.4750     7.3280     7.0260   -11.6540     2.3490 
  250.7500    51.8170    24.2110     5.5440     7.5480     7.1680   -11.5990     2.3570 
  250.8750    53.3070    24.2100     5.4960     7.6930     7.2080   -11.6080     2.3710 
  251.0000    57.3720    24.2100     5.4600     7.7480     7.1690   -11.6690     2.3840 
  251.1250    60.6890    24.2100     5.3960     7.7030     7.0980   -11.7870     2.3810 
  251.2500    59.8240    24.2100     5.2680     7.5950     7.0470   -11.8950     2.3710 
  251.3750    55.8990    24.2100     5.1590     7.4590     7.0320   -11.9210     2.3740 
  251.5000    53.5050    24.2100     5.1570     7.3280     7.0520   -11.9500     2.3960 
  251.6250    54.8330    24.2100     5.2520     7.2290     7.0900   -12.1590     2.4250 
  251.7500    56.2490    24.2100     5.4310     7.1600     7.1320   -12.4930     2.4360 
  251.8750    56.3100    24.2100     5.7540     7.1090     7.1740   -12.7760     2.4230 
  252.0000    56.3160    24.2100     6.0350     7.0650     7.2210   -12.8890     2.3960 
  252.1250    57.0830    24.2100     6.2320     7.0230     7.2850   -12.8710     2.3830 
  252.2500    57.6440    24.2100     6.3620     7.0000     7.3720   -12.8250     2.3950 
  252.3750    56.4230    24.2100     6.6750     7.0070     7.4950   -12.8800     2.4130 
  252.5000    54.0500    24.2100     7.2790     7.0510     7.6540   -13.0540     2.4200 
  252.6250    55.3720    24.2100     7.8070     7.1250     7.8370   -13.2140     2.4190 
  252.7500    60.0260    24.2100     7.7680     7.1990     8.0040   -13.2400     2.4190 
  252.8750    62.1790    24.2100     7.7000     7.2430     8.1210   -13.1970     2.4180 
  253.0000    59.5280    24.2100     8.8660     7.2380     8.1680   -13.1460     2.4120 
  253.1250    57.0500    24.2100    10.2580     7.1880     8.1480   -13.1090     2.3980 
  253.2500    57.2860    24.2100    10.9190     7.1270     8.1130   -13.0780     2.3790 
  253.3750    57.2860    24.2100    10.7700     7.0830     8.1020   -13.0200     2.3620 
  253.5000    57.2860    24.2100    10.9140     7.0720     8.1370   -12.9080     2.3540 
  253.6250    57.2860    24.2100    12.7920     7.0920     8.2130   -12.8180     2.3550 
  253.7500    57.2860    24.2100    12.5230     7.1110     8.2830   -12.7520     2.3620 
  253.8750    57.2860    24.2100    10.2550     7.1050     8.3060   -12.6640     2.3790 
  254.0000    57.2860    24.2100     8.9770     7.0630     8.2660   -12.5970     2.4030 
  254.1250    57.2860    24.2100     9.3390     6.9880     8.1710   -12.5810     2.4150 
  254.2500    57.2860    24.2100     9.0540     6.9110     8.0700   -12.6420     2.4080 
  254.3750    57.2860    24.2100     7.8970     6.8480     7.9950   -12.7440     2.3910 
  254.5000    57.2860    24.2100     7.2600     6.8050     7.9510   -12.8530     2.3770 
  254.6250    57.2860    24.2100     6.9010     6.7680     7.9220   -12.8150     2.3750 
  254.7500    57.2860    24.2110     6.4030     6.7190     7.8760   -12.6970     2.3710 
  254.8750    57.2860    24.2100     5.9780     6.6490     7.7990   -12.6670     2.3560 
  255.0000    57.2860    24.2070     6.1870     6.5570     7.6920   -12.7430     2.3340 
  255.1250    57.2860    24.2060     6.6170     6.4610     7.5760   -12.8690     2.3200 
  255.2500    57.2860    24.2060     6.9460     6.3800     7.4820   -12.9750     2.3110 
  255.3750    57.2860    24.2070     6.8830     6.3240     7.4260   -13.0340     2.3040 
  255.5000    57.2860    24.2050     6.6410     6.2890     7.4030   -12.9560     2.3030 
  255.6250    57.2860    24.2020     6.4650     6.2570     7.3910   -12.8570     2.3150 
  255.7500    57.2860    24.2020     6.2220     6.2110     7.3650   -12.9050     2.3230 
  255.8750    57.2860    24.2020     5.9810     6.1510     7.3180   -13.0710     2.3210 
  256.0000    57.2860    24.2020     5.7730     6.0870     7.2580   -13.2190     2.3170 
  256.1250    57.2860    24.2020     5.4960     6.0380     7.2100   -13.2840     2.3180 
  256.2500    57.2860    24.2020     5.2540     6.0140     7.1920   -13.2890     2.3160 
  256.3750    57.2860    24.2020     5.1200     6.0150     7.2160   -13.2570     2.3090 
  256.5000    57.2860    24.2020     4.9630     6.0400     7.2800   -13.2800     2.3020 
  256.6250    57.2860    24.2030     4.7790     6.0820     7.3760   -13.3450     2.3030 
  256.7500    57.2860    24.1910     4.7080     6.1300     7.4750   -13.4020     2.3100 
  256.8750    57.2860    24.1390     4.7620     6.1750     7.5590   -13.3300     2.3210 
  257.0000    57.2860    24.0430     4.8100     6.2100     7.6180   -13.1940     2.3280 
  257.1250    57.2860    23.9500     4.9220     6.2300     7.6430   -13.1420     2.3260 
  257.2500    57.2860    23.9030     5.0630     6.2360     7.6480   -13.1520     2.3290 
  257.3750    57.2860    23.8950     5.2340     6.2340     7.6430   -13.1930     2.3460 
  257.5000    57.2860    23.8950     5.3810     6.2260     7.6330   -13.3280     2.3740 
  257.6250    57.2860    23.8850     5.4200     6.2160     7.6210   -13.5270     2.3920 
  257.7500    57.2860    23.8650     5.5030     6.2100     7.6140   -13.6730     2.3970 
  257.8750    57.2860    23.8380     5.7470     6.2070     7.6140   -13.8060     2.3980 
  258.0000    57.2860    23.8110     5.9640     6.2060     7.6240   -13.9990     2.4050 
  258.1250    57.2860    23.7940     6.4740     6.2080     7.6430   -14.1210     2.4130 
  258.2500    57.2860    23.7880     7.3300     6.2100     7.6600   -14.2130     2.4200 
  258.3750    57.2860    23.7890     7.7820     6.2120     7.6670   -14.3320     2.4260 
  258.5000    57.2860    23.7880     7.3540     6.2130     7.6620   -14.4080     2.4310 
  258.6250    57.2860    23.7860     6.8100     6.2140     7.6520   -14.4720     2.4280 
  258.7500    57.2860    23.7790     6.5960     6.2120     7.6450   -14.5550     2.4220 
  258.8750    57.2860    23.7610     6.3400     6.2100     7.6430   -14.6550     2.4150 
  259.0000    57.2860    23.7360     6.1070     6.2090     7.6410   -14.7190     2.4070 
  259.1250    57.2860    23.7190     6.0960     6.2090     7.6410   -14.7540     2.4000 
  259.2500    57.2860    23.7160     6.2760     6.2090     7.6410   -14.7680     2.3980 
  259.3750    57.2860    23.7200     6.4360     6.2090     7.6410   -14.7590     2.4040 
  259.5000    57.2860    23.7300     6.3810     6.2090     7.6410   -14.6830     2.4160 
  259.6250    57.2860    23.7430     6.8690     6.2090     7.6410   -14.5880     2.4310 
  259.7500    57.2860    23.7530     7.8690     6.2090     7.6410   -14.4420     2.4390 
  259.8750    57.2860    23.7530     8.7540     6.2090     7.6410   -14.3000     2.4350 
  260.0000    57.2860    23.7380     8.9190     6.2090     7.6410   -14.1640     2.4270 
  260.1250    57.2860    23.7200     8.3610     6.2090     7.6410   -14.0590     2.4230 
  260.2500    57.2860    23.7090     7.9770     6.2090     7.6410   -13.9020     2.4220 
  260.3750    57.2860    23.6940     7.9100     6.2090     7.6410   -13.7680     2.4230 
  260.5000    57.2860    23.6640     7.9330     6.2090     7.6410   -13.7490     2.4240 
  260.6250    57.2860    23.6380     8.0210     6.2090     7.6410   -13.7310     2.4100 
  260.7500    57.2860    23.5580     7.7350     6.2090     7.6410   -13.7920     2.3800 
  260.8750    57.2860    23.3120     7.3180     6.2090     7.6410   -13.9130     2.3660 
  261.0000    57.2860    22.8840     6.7850     6.2090     7.6410   -13.9870     2.3400 
  261.1250    57.2860    22.4590     6.2470     6.2090     7.6410   -13.9660     2.3490 
  261.2500    57.2860    22.1310     5.8610     6.2090     7.6410   -14.0030     2.3570 
  261.3750    57.2860    21.7660     5.7060     6.2090     7.6410   -14.0120     2.3560 
