~V
VERS. 2.00: Ver 2.00
~W
STRT.M 60.0000:
STOP.M 256.0000:
STEP.M 0.1250:
NULL. -999.2500:
UWI. DF5048:
~C
DEPT.M :
GR.API :
CALI.CM :
RXO.OHMM :
RI. :
RML.OHMM :
DEN.GM/CC :
SP.MV :
~A
# ...
  195.0000    59.9180    24.1180   176.3870   172.6990   174.6270     2.1640   -35.1180 
  195.1250    56.8740    24.0760   169.4210   182.7240   183.8120     2.1640   -34.8450 
  195.2500    54.3130    24.2260   167.5520   179.8820   178.9160     2.1680   -34.5230 
  195.3750    53.6600    24.6200   164.4410   164.0420   160.6510     2.1760   -34.1780 
  195.5000    55.1950    25.0920   145.3910   140.7650   136.0630     2.1870   -33.8550 
  195.6250    56.0920    25.3630   116.6030   118.3100   114.2130     2.2010   -33.4710 
  195.7500    55.2450    25.4250    88.1770   101.7400    99.1490     2.2120   -33.0990 
  195.8750    56.5630    25.4030    69.1270    92.5530    91.5500     2.2160   -32.6900 
  196.0000    60.6280    25.3860    72.7050    90.6050    90.7010     2.2130   -32.3180 
  196.1250    62.9670    25.3810    94.2520    95.2410    95.4510     2.2060   -31.8860 
  196.2500    62.0980    25.3850   115.6170   102.1870   101.5430     2.2010   -31.4880 
  196.3750    61.8330    25.3940   126.1880   106.8870   104.5180     2.2030   -31.0720 
  196.5000    64.3040    25.4010   126.6040   104.8490   100.3210     2.2140   -30.6340 
  196.6250    66.4260    25.3830   114.2360    93.6600    87.7240     2.2280   -30.2530 
  196.7500    67.9320    25.3530    88.7680    78.5650    72.6440     2.2400   -29.8230 
  196.8750    70.2040    25.3410    61.7630    64.1190    59.3080     2.2480   -29.4290 
  197.0000    72.8330    25.3540    45.4050    52.9710    49.6440     2.2510   -29.0060 
  197.1250    73.0570    25.3680    40.4500    46.3200    44.3940     2.2530   -28.6580 
  197.2500    72.7170    25.3690    38.6770    43.0390    42.4060     2.2550   -28.3070 
  197.3750    73.4300    25.3660    39.1360    42.6620    43.2650     2.2550   -27.9880 
  197.5000    73.6080    25.3700    40.4720    44.8900    46.6740     2.2510   -27.7310 
  197.6250    72.1640    25.3740    45.6650    49.8800    52.6840     2.2410   -27.3600 
  197.7500    69.9310    25.3600    57.6920    56.7600    60.3460     2.2280   -27.0260 
  197.8750    68.0620    25.3400    72.7860    64.5970    68.6920     2.2160   -26.6740 
  198.0000    66.9380    25.3380    83.8490    71.9610    76.3070     2.2070   -26.3950 
  198.1250    65.5910    25.3620    85.3850    76.7040    81.0350     2.2020   -26.0900 
  198.2500    64.0140    25.3800    81.1600    78.0650    82.2150     2.2030   -25.7730 
  198.3750    62.5620    25.3800    74.3320    76.0770    79.9720     2.2060   -25.4140 
  198.5000    61.3210    25.3750    74.2050    71.5530    75.2050     2.2110   -25.0100 
  198.6250    60.2710    25.3710    75.4240    65.4990    68.9270     2.2180   -24.5680 
  198.7500    60.6240    25.3690    69.7470    59.1130    62.2880     2.2310   -24.1930 
  198.8750    63.5200    25.3700    58.3140    52.9560    55.8330     2.2530   -23.8400 
  199.0000    66.2070    25.3690    51.3620    47.3950    49.9620     2.2890   -23.4730 
  199.1250    66.9720    25.3450    48.3050    42.9050    45.2630     2.3420   -23.1050 
  199.2500    68.7440    25.3110    45.3310    39.6280    41.9610     2.4040   -22.7320 
  199.3750    71.9220    25.2800    41.9040    37.7280    40.2190     2.4680   -22.3760 
  199.5000    73.8890    25.2550    39.2660    37.1090    39.8030     2.5270   -21.9780 
  199.6250    72.6580    25.2440    46.5260    37.0790    39.7080     2.5660   -21.7210 
  199.7500    69.8910    25.2360    58.0310    36.0300    38.2300     2.5770   -21.4110 
  199.8750    67.6090    25.2020    59.7500    32.6650    34.2310     2.5560   -21.1520 
  200.0000    66.3310    25.1180    41.3980    26.9760    27.9120     2.5070   -20.9230 
  200.1250    64.3290    25.0430    25.9880    20.5960    21.0110     2.4500   -20.7690 
  200.2500    64.6720    25.0390    14.2630    15.3050    15.3870     2.4050   -20.6390 
  200.3750    72.1780    25.0620     9.3750    11.5700    11.5730     2.3830   -20.5460 
  200.5000    84.4640    25.0420     7.9480     9.2090     9.3460     2.3800   -20.5630 
  200.6250    91.4390    24.9750     7.7510     7.9620     8.3400     2.3890   -20.5860 
  200.7500    91.7270    24.9190     7.5440     7.3300     7.9390     2.3960   -20.6880 
  200.8750    91.9370    24.8640     7.1670     7.1160     7.9080     2.3970   -20.8090 
  201.0000    95.1600    24.7900     6.7290     7.1800     8.1070     2.3930   -20.9410 
  201.1250    98.1450    24.7140     6.6720     7.4420     8.4670     2.3910   -20.9960 
  201.2500    98.8400    24.6670     7.1890     7.7910     8.8950     2.3890   -21.0570 
  201.3750    98.1410    24.6500     7.8100     8.1600     9.3150     2.3850   -21.0860 
  201.5000    97.9370    24.6350     8.0990     8.4710     9.6430     2.3780   -21.0760 
  201.6250    98.1160    24.5570     8.2240     8.6320     9.7960     2.3740   -21.0360 
  201.7500    96.9120    24.3850     8.3300     8.6520     9.8170     2.3780   -20.9690 
  201.8750    94.7730    24.1860     8.5300     8.5750     9.7810     2.3910   -20.8510 
  202.0000    92.8080    24.1120     8.9250     8.4690     9.7690     2.4070   -20.6610 
  202.1250    90.7860    24.3190     9.5320     8.4060     9.8580     2.4170   -20.4720 
  202.2500    88.0950    24.6900    10.5050     8.4240    10.0620     2.4160   -20.2670 
  202.3750    85.9110    25.0320    11.2700     8.5380    10.3710     2.4050   -20.0770 
  202.5000    84.9150    25.2200    11.5260     8.7270    10.7300     2.3930   -19.8800 
  202.6250    83.2210    25.2550    10.9050     8.9100    10.9970     2.3890   -19.7380 
  202.7500    80.8000    25.2410    10.4340     8.9610    11.0290     2.3930   -19.5510 
  202.8750    80.3430    25.2230    11.0390     8.7860    10.7380     2.4050   -19.3770 
  203.0000    82.6780    25.2110    11.0340     8.3710    10.1530     2.4230   -19.2520 
  203.1250    85.3400    25.2040     9.6590     7.8010     9.4340     2.4420   -19.1490 
  203.2500    87.5280    25.1720     7.6300     7.2620     8.8270     2.4600   -19.0720 
  203.3750    90.2540    25.1160     6.9540     6.8750     8.4750     2.4750   -19.0170 
  203.5000    92.1820    25.0850     7.1190     6.7120     8.4390     2.4810   -19.0140 
  203.6250    89.2330    25.1260     7.9430     6.8280     8.7320     2.4770   -18.9710 
  203.7500    84.6260    25.1960     8.5710     7.1310     9.1970     2.4620   -18.9980 
  203.8750    84.0380    25.2450     8.8890     7.5310     9.7090     2.4370   -19.0080 
  204.0000    88.5590    25.2590     9.0720     7.9280    10.1570     2.4120   -19.0140 
  204.1250    93.5810    25.2480     9.0690     8.2220    10.4410     2.3970   -19.0180 
  204.2500    95.9770    25.2360     8.9070     8.3990    10.5710     2.3950   -18.9980 
  204.3750    94.7280    25.2330     8.9300     8.4710    10.5670     2.4030   -18.9690 
  204.5000    90.2470    25.2390     9.0970     8.4640    10.4710     2.4130   -18.8490 
  204.6250    85.8810    25.2490     9.0200     8.4120    10.3610     2.4170   -18.7620 
  204.7500    84.3060    25.2550     9.1740     8.3960    10.3840     2.4160   -18.5650 
  204.8750    83.2260    25.2590     9.4890     8.5240    10.7080     2.4140   -18.3460 
  205.0000    80.3820    25.2560     9.8700     8.9130    11.4580     2.4180   -18.1050 
  205.1250    81.9690    25.2420    10.6510     9.6480    12.5930     2.4320   -17.8960 
  205.2500    88.0370    25.2160    12.7380    10.4810    13.6150     2.4560   -17.6960 
  205.3750    90.7840    25.1730    15.2980    10.9850    13.9200     2.4860   -17.5050 
  205.5000    85.8530    25.1030    18.0080    10.6960    13.0460     2.5130   -17.3730 
  205.6250    78.3390    24.9810    18.3890     9.4130    10.9880     2.5210   -17.1790 
  205.7500    76.3090    24.8170    12.9790     7.7870     8.7240     2.5070   -17.0710 
  205.8750    79.0040    24.6410     6.7150     6.3240     6.9170     2.4760   -17.0080 
  206.0000    82.8140    24.5020     4.4120     5.2890     5.8140     2.4410   -17.0370 
  206.1250    83.9670    24.4670     4.2430     4.8050     5.4310     2.4140   -17.0850 
