~V
VERS. 2.00: Ver 2.00
~W
STRT.M 55.0000:
STOP.M 261.0000:
STEP.M 0.1250:
NULL. -999.2500:
UWI. DF5033:
~C
DEPT.M :
SP.MV :
GR.API :
CALI.CM :
RXO.OHMM :
RI. :
RML.OHMM :
DEN.GM/CC :
~A
# ...
   88.7500   -19.9790    77.3510    24.7130     5.6640     5.1500     7.6680     2.2410 
   88.8750   -20.4460    78.1400    24.6970     6.2730     5.3790     7.9590     2.2300 
   89.0000   -20.9060    79.7290    24.7080     6.6000     5.5900     8.1740     2.2290 
   89.1250   -21.3400    78.9380    24.7490     6.5280     5.8720     8.5440     2.2340 
   89.2500   -21.7600    78.1080    24.8060     6.5960     6.3110     9.2510     2.2440 
   89.3750   -22.1570    77.0150    24.8570     7.4160     6.9430    10.3460     2.2710 
   89.5000   -22.5030    74.8870    24.8780     9.3380     7.7230    11.6890     2.3140 
   89.6250   -22.8040    72.6700    24.8470    11.4630     8.4510    12.8130     2.3400 
   89.7500   -23.0520    72.7580    24.7800    12.0830     8.8640    13.2320     2.3200 
   89.8750   -23.2320    74.5910    24.6990    11.0960     8.8310    12.8160     2.2650 
   90.0000   -23.3400    74.7090    24.6270     9.7610     8.4300    11.8620     2.2110 
   90.1250   -23.4090    72.5200    24.5780     9.0030     7.8840    10.8810     2.1910 
   90.2500   -23.4490    72.7390    24.5490     8.4870     7.4240    10.1970     2.1870 
   90.3750   -23.4790    74.1280    24.5350     8.0010     7.1250     9.8610     2.1850 
   90.5000   -23.5280    72.9260    24.5320     7.6130     6.9830     9.7960     2.1810 
   90.6250   -23.6100    69.1070    24.5400     7.4870     6.9600     9.8930     2.1830 
   90.7500   -23.7390    68.3210    24.5530     7.5510     6.9850    10.0150     2.1870 
   90.8750   -23.9230    70.6020    24.5670     7.6880     7.0280    10.0990     2.1860 
   91.0000   -24.1600    72.1440    24.5780     7.8130     7.0740    10.1250     2.1780 
   91.1250   -24.4170    71.8800    24.5860     7.9040     7.1170    10.1210     2.1650 
   91.2500   -24.6810    71.8590    24.5970     7.9990     7.1600    10.1510     2.1570 
   91.3750   -24.9350    72.3960    24.6180     8.1170     7.2060    10.2440     2.1540 
   91.5000   -25.1500    72.4120    24.6520     8.2440     7.2530    10.3860     2.1500 
   91.6250   -25.3230    72.3920    24.6970     8.3290     7.2820    10.4930     2.1380 
   91.7500   -25.4410    72.9450    24.7390     8.3530     7.2780    10.4940     2.1220 
   91.8750   -25.4910    72.0190    24.7720     8.3370     7.2400    10.3940     2.1100 
   92.0000   -25.4620    68.3530    24.7940     8.3020     7.1980    10.2650     2.1090 
   92.1250   -25.3680    66.8680    24.8030     8.2830     7.1940    10.2330     2.1220 
   92.2500   -25.2160    66.6540    24.8150     8.3640     7.2120    10.2260     2.1530 
   92.3750   -25.0100    70.0870    24.8350     9.1640     7.2960    10.3110     2.1920 
   92.5000   -24.7790    73.6680    24.8560    11.5440     7.4330    10.4660     2.2200 
   92.6250   -24.5200    72.2070    24.8720    14.2790     7.5660    10.5860     2.2200 
   92.7500   -24.2470    69.7780    24.8770    14.2170     7.6280    10.5690     2.2120 
   92.8750   -23.9480    70.9410    24.8680    11.3990     7.5890    10.3890     2.2130 
   93.0000   -23.6260    74.4150    24.8450     8.5930     7.4650    10.1000     2.2210 
   93.1250   -23.2470    75.0710    24.8110     7.6380     7.3230     9.8440     2.2180 
   93.2500   -22.8100    73.9250    24.7780     7.4830     7.2390     9.7470     2.2010 
   93.3750   -22.3220    74.5880    24.7610     7.4720     7.2440     9.8430     2.1840 
   93.5000   -21.7900    76.2930    24.7780     7.4520     7.3060    10.0380     2.1780 
   93.6250   -21.2510    74.8860    24.8550     7.3730     7.2940    10.0560     2.1860 
   93.7500   -20.7670    71.6370    24.9840     7.1750     7.0800     9.6710     2.2010 
   93.8750   -20.4150    70.0880    25.1500     6.7840     6.6210     8.8420     2.2270 
   94.0000   -20.2400    73.9470    25.3170     6.1080     5.9860     7.7530     2.2630 
   94.1250   -20.2720    80.8330    25.4250     5.2320     5.3510     6.7480     2.2930 
   94.2500   -20.4580    84.8450    25.4460     4.5660     4.8770     6.0600     2.3010 
   94.3750   -20.7680    84.1090    25.3750     4.3990     4.6400     5.7790     2.2820 
   94.5000   -21.1450    80.5130    25.2430     4.7810     4.6640     5.9200     2.2430 
   94.6250   -21.5300    77.7130    25.1060     5.5590     4.9640     6.4990     2.2090 
   94.7500   -21.8690    77.4090    25.0130     6.3470     5.4360     7.3350     2.1940 
   94.8750   -22.1050    77.8570    24.9770     7.0030     5.9860     8.2460     2.1950 
   95.0000   -22.2210    77.1870    24.9870     7.7740     6.5060     9.0310     2.2000 
   95.1250   -22.2210    75.1060    25.0160     8.9070     6.8860     9.5140     2.1990 
   95.2500   -22.1700    72.8570    25.0380     9.6310     7.1150     9.7450     2.1950 
   95.3750   -22.1030    71.3620    25.0440     9.2700     7.2170     9.8140     2.1940 
   95.5000   -22.0550    70.5280    25.0340     8.1840     7.2360     9.8160     2.1940 
   95.6250   -22.0510    70.8640    25.0160     7.3970     7.2100     9.8160     2.1990 
   95.7500   -22.0650    71.7040    24.9970     7.0990     7.1590     9.8080     2.2120 
   95.8750   -22.1020    72.5710    24.9870     7.0020     7.0760     9.7480     2.2360 
   96.0000   -22.1400    72.4250    24.9930     6.9040     6.9460     9.5900     2.2620 
   96.1250   -22.1780    70.6850    25.0210     6.7670     6.7560     9.3040     2.2700 
   96.2500   -22.2170    71.1690    25.0580     6.6090     6.5420     8.9620     2.2570 
   96.3750   -22.2490    74.9840    25.0890     6.5010     6.3470     8.6650     2.2360 
   96.5000   -22.2940    78.0040    25.1030     6.5220     6.2100     8.4910     2.2210 
   96.6250   -22.3480    76.1670    25.0960     6.6850     6.1620     8.4700     2.2170 
   96.7500   -22.4110    73.4360    25.0780     6.8490     6.1810     8.5250     2.2130 
   96.8750   -22.4840    71.8840    25.0600     6.9050     6.2380     8.5900     2.2050 
   97.0000   -22.5580    71.3790    25.0490     6.8540     6.3030     8.6200     2.2000 
   97.1250   -22.6180    69.9790    25.0510     6.8740     6.3560     8.6160     2.1990 
   97.2500   -22.6540    68.5850    25.0660     7.0910     6.4000     8.6270     2.1990 
   97.3750   -22.6620    69.1460    25.0940     7.3890     6.4500     8.6870     2.1970 
   97.5000   -22.6140    72.9720    25.1390     7.5270     6.5170     8.8030     2.1930 
   97.6250   -22.5150    76.0410    25.2020     7.4280     6.5910     8.9390     2.1930 
   97.7500   -22.3980    75.0650    25.2770     7.3320     6.6380     9.0290     2.1980 
   97.8750   -22.2760    72.3090    25.3520     7.3300     6.6220     9.0220     2.2040 
   98.0000   -22.1660    71.7170    25.4150     7.3750     6.5210     8.8720     2.2080 
   98.1250   -22.0930    72.4680    25.4480     7.4310     6.3040     8.5270     2.2050 
   98.2500   -22.0720    72.8080    25.4570     7.4790     6.0160     8.0690     2.2020 
   98.3750   -22.1300    75.5130    25.4500     7.3660     5.7190     7.6090     2.2050 
   98.5000   -22.2810    81.3310    25.4380     6.9020     5.4790     7.2620     2.2160 
   98.6250   -22.5070    83.1950    25.4170     6.2190     5.3760     7.1630     2.2250 
   98.7500   -22.7720    78.9450    25.3810     5.9060     5.4250     7.3310     2.2190 
   98.8750   -23.0590    73.5300    25.3310     6.2380     5.6220     7.7430     2.2000 
   99.0000   -23.3610    70.8130    25.2750     6.9470     5.9240     8.3010     2.1830 
   99.1250   -23.6610    68.4900    25.2290     7.4350     6.2560     8.8290     2.1820 
   99.2500   -23.9270    65.6190    25.1980     7.5760     6.5270     9.1640     2.1860 
   99.3750   -24.1190    65.6070    25.1720     7.5680     6.6840     9.2480     2.1900 
   99.5000   -24.2070    70.2990    25.1400     7.5590     6.7240     9.1400     2.1870 
   99.6250   -24.1740    75.7660    25.0940     7.5660     6.6880     8.9800     2.1760 
   99.7500   -24.0340    76.0770    25.0380     7.5980     6.6500     8.8860     2.1660 
   99.8750   -23.7720    71.4860    24.9740     7.6510     6.6430     8.8880     2.1600 
