~V
VERS. 2.00: Ver 2.00
~W
STRT.M 61.0000:
STOP.M 247.0000:
STEP.M 0.1250:
NULL. -999.2500:
UWI. DF5042:
~C
DEPT.M :
SP.MV :
GR.API :
CALI.CM :
RXO.OHMM :
RI. :
RML.OHMM :
DEN.GM/CC :
~A
# ...
  241.0000    -8.2700    72.1630    26.0580     6.1280     7.5410     8.8540     2.4030 
  241.1250    -8.2200    72.1630    26.0610     6.3240     7.5550     8.8400     2.4200 
  241.2500    -8.2010    72.1630    26.0660     6.3750     7.5660     8.8220     2.4290 
  241.3750    -8.1310    72.1630    26.0750     6.3190     7.5710     8.8080     2.4280 
  241.5000    -8.1020    72.1630    26.0770     6.3250     7.5740     8.8040     2.4250 
  241.6250    -8.0670    72.1630    26.0760     7.0000     7.5760     8.8090     2.4280 
  241.7500    -8.0780    72.1630    26.0720     8.4130     7.5760     8.8090     2.4400 
  241.8750    -8.1430    72.1630    26.0600    10.9700     7.5760     8.8090     2.4620 
  242.0000    -8.2080    72.1630    26.0540    13.6130     7.5760     8.8090     2.4900 
  242.1250    -8.1920    72.1630    26.0620    13.6020     7.5760     8.8090     2.5140 
  242.2500    -8.1500    72.1630    26.0730    11.7560     7.5760     8.8090     2.5240 
  242.3750    -8.1130    72.1630    26.0780    10.9050     7.5760     8.8090     2.5120 
  242.5000    -8.0060    72.1630    26.0780    11.1270     7.5760     8.8090     2.4860 
  242.6250    -7.9240    72.1630    26.0480    11.8520     7.5760     8.8090     2.4560 
  242.7500    -7.8190    72.1630    25.9710    11.9460     7.5760     8.8090     2.4330 
  242.8750    -7.7710    72.1630    25.8710    12.0810     7.5760     8.8090     2.4230 
  243.0000    -7.7150    72.1630    25.7930    13.0450     7.5760     8.8090     2.4200 
  243.1250    -7.5580    72.1630    25.7630    13.7810     7.5760     8.8090     2.4190 
  243.2500    -7.4970    72.1630    25.7540    14.3600     7.5760     8.8090     2.4190 
  243.3750    -7.5760    72.1630    25.7490    14.5350     7.5760     8.8090     2.4190 
  243.5000    -7.7150    72.1630    25.7400    14.5960     7.5760     8.8090     2.4220 
  243.6250    -7.7530    72.1630    25.7240    14.8880     7.5760     8.8090     2.4290 
  243.7500    -7.7040    72.1630    25.7000    15.8060     7.5760     8.8090     2.4410 
  243.8750    -7.6430    72.1630    25.6760    17.5340     7.5760     8.8090     2.4570 
  244.0000    -7.6050    72.1630    25.6600    23.9350     7.5760     8.8090     2.4750 
  244.1250    -7.6680    72.1630    25.6520    32.2470     7.5760     8.8090     2.4950 
  244.2500    -7.6980    72.1630    25.6290    30.4260     7.5760     8.8090     2.5100 
  244.3750    -7.6130    72.1630    25.5400    22.1390     7.5760     8.8090     2.5150 
  244.5000    -7.5290    72.1630    25.3090    18.8800     7.5760     8.8090     2.5080 
  244.6250    -7.4970    72.1630    24.8410    19.4410     7.5760     8.8090     2.4930 
  244.7500    -7.4970    72.1630    24.1230    20.7380     7.5760     8.8090     2.4750 
  244.8750  -999.2500    72.1630    23.1000    20.2880     7.5760     8.8090     2.4380 
  245.0000  -999.2500    72.1630    21.6850    17.4350     7.5760     8.8090     2.3590 
  245.1250  -999.2500    72.1630    19.8450    15.6670     7.5760     8.8090     2.2330 
  245.2500  -999.2500    72.1630    18.0680    15.3090     7.5760     8.8090     2.0940 
  245.3750  -999.2500    72.1630    16.8550    15.2940     7.5760     8.8090     1.9940 
  245.5000  -999.2500    72.1630    16.3640    15.3020     7.5760     8.8090     1.9420 
  245.6250  -999.2500    72.1630    16.3360    15.3020     7.5760     8.8090     1.9270 
  245.7500  -999.2500    72.1630    16.3500    15.3070     7.5760     8.8090     1.9300 
  245.8750  -999.2500    72.1630    16.3500    15.3110     7.5760     8.8090     1.9370 
  246.0000  -999.2500    72.1630    16.3500    15.3090     7.5760     8.8090     1.9380 
  246.1250  -999.2500    72.1630    16.3500    15.3100     7.5760     8.8090     1.9360 
  246.2500  -999.2500    72.1630    16.3500    15.3120     7.5760     8.8090     1.9330 
  246.3750  -999.2500    72.1630    16.3500    15.3150     7.5760     8.8090     1.9310 
  246.5000  -999.2500    72.1630    16.3500    15.3090     7.5760     8.8090     1.9320 
  246.6250  -999.2500  -999.2500  -999.2500  -999.2500  -999.2500  -999.2500     1.9340 
  246.7500  -999.2500  -999.2500  -999.2500  -999.2500  -999.2500  -999.2500     1.9360 
  246.8750  -999.2500  -999.2500  -999.2500  -999.2500  -999.2500  -999.2500     1.9360 
  247.0000  -999.2500  -999.2500  -999.2500  -999.2500  -999.2500  -999.2500     1.9350 
