~V
VERS. 2.00: Ver 2.00
~W
STRT.M 60.0000:
STOP.M 256.0000:
STEP.M 0.1250:
NULL. -999.2500:
UWI. DF5048:
~C
DEPT.M :
GR.API :
CALI.CM :
RXO.OHMM :
RI. :
RML.OHMM :
DEN.GM/CC :
SP.MV :
~A
# ...
  206.2500    83.6710    24.5090     4.5970     4.7240     5.4780     2.3920   -17.1990 
  206.3750    85.4110    24.5860     5.2170     4.9410     5.7970     2.3740   -17.3410 
  206.5000    89.4290    24.6670     5.7320     5.3360     6.2500     2.3550   -17.5010 
  206.6250    90.3900    24.7450     5.9770     5.8030     6.7420     2.3380   -17.7330 
  206.7500    84.9420    24.7870     6.1860     6.2840     7.2470     2.3240   -17.9640 
  206.8750    76.8680    24.7580     6.5930     6.7840     7.7950     2.3120   -18.2330 
  207.0000    73.5590    24.7370     7.6790     7.3160     8.3950     2.3020   -18.4590 
  207.1250    75.3100    24.8670     8.8460     7.8550     8.9990     2.2940   -18.7290 
  207.2500    77.6470    25.0740     9.6270     8.3150     9.5030     2.2910   -18.9980 
  207.3750    80.7770    25.2160     9.4250     8.6040     9.8170     2.2930   -19.3050 
  207.5000    83.9610    25.2440     9.1020     8.6720     9.9160     2.2980   -19.6480 
  207.6250    82.2120    25.2350     9.1390     8.5430     9.8710     2.3050   -19.9820 
  207.7500    77.9170    25.2300     9.4490     8.3840     9.8800     2.3090   -20.3370 
  207.8750    76.8950    25.2150     9.2530     8.3470    10.1260     2.3100   -20.6930 
  208.0000    78.3670    25.1950     9.7750     8.5690    10.7630     2.3090   -21.1120 
  208.1250    77.4610    25.1970    10.9370     9.2220    11.9850     2.3070   -21.5410 
  208.2500    74.9330    25.2310    12.7000    10.2990    13.7130     2.3040   -22.0060 
  208.3750    73.2720    25.2810    16.9270    11.7640    15.7890     2.3000   -22.4800 
  208.5000    73.6620    25.3170    20.2580    13.4290    17.8650     2.2970   -22.9480 
  208.6250    75.8620    25.3220    21.3970    14.8650    19.3450     2.2950   -23.4740 
  208.7500    77.8580    25.3150    20.1260    15.7550    20.0400     2.2960   -24.0250 
  208.8750    78.8000    25.3060    19.7000    16.1040    20.1630     2.2980   -24.5980 
  209.0000    78.7150    25.3050    18.8910    16.2170    20.2550     2.2990   -25.1560 
  209.1250    76.8740    25.3200    17.5980    16.6320    21.1140     2.2920   -25.7310 
  209.2500    74.0780    25.3400    18.9570    17.7400    23.1330     2.2780   -26.2970 
  209.3750    73.1240    25.3390    23.4330    19.8090    26.5200     2.2620   -26.8720 
  209.5000    74.3710    25.3120    28.8510    23.0210    31.3220     2.2480   -27.4930 
  209.6250    75.2520    25.2880    31.8830    27.6780    37.6750     2.2380   -28.0810 
  209.7500    74.7930    25.2900    37.3890    33.5240    45.1880     2.2310   -28.6520 
  209.8750    72.2420    25.3130    44.1950    40.4190    53.7310     2.2240   -29.1720 
  210.0000    68.1160    25.3390    50.4900    48.2670    63.2880     2.2180   -29.6340 
  210.1250    65.5080    25.3450    66.5980    57.2090    74.0410     2.2150   -30.0090 
  210.2500    65.6950    25.3310    85.6230    66.7990    85.3810     2.2150   -30.3810 
  210.3750    66.6260    25.3030   101.6510    76.0860    96.0270     2.2140   -30.6750 
  210.5000    64.9970    25.2720   108.9140    83.4890   103.9590     2.2090   -30.8540 
  210.6250    61.6110    25.2460   108.4140    86.8810   106.6670     2.2030   -31.0080 
  210.7500    59.3960    25.2340   109.4710    86.8160   105.3710     2.1960   -31.1010 
  210.8750    59.4660    25.2230   105.2840    84.8090   102.3390     2.1920   -31.1710 
  211.0000    59.6690    25.1630    85.3240    82.9450   100.1500     2.1910   -31.1950 
  211.1250    57.7730    25.0340    70.8600    83.6530   101.4110     2.1910   -31.3110 
  211.2500    57.1790    24.9130    79.4050    87.8000   106.6290     2.1900   -31.3570 
  211.3750    58.9110    24.8750   109.4850    95.5450   115.7040     2.1860   -31.4170 
  211.5000    60.5290    24.9390   136.0120   106.1190   127.5690     2.1830   -31.4760 
  211.6250    60.5920    25.0560   160.3900   117.4570   139.5880     2.1790   -31.4820 
  211.7500    62.2030    25.1390   157.1500   126.5400   148.3170     2.1780   -31.5060 
  211.8750    64.3440    25.1470   142.3820   131.6460   152.0430     2.1770   -31.5450 
  212.0000    64.0240    25.1060   139.7090   132.9750   151.6170     2.1770   -31.6710 
  212.1250    63.7820    25.0800   145.4570   132.2510   149.5980     2.1770   -31.6850 
  212.2500    67.1860    25.0930   142.1300   131.7370   148.3510     2.1760   -31.7020 
  212.3750    70.8100    25.1270   134.1000   132.2430   148.4820     2.1720   -31.6730 
  212.5000    70.4500    25.1570   135.0540   133.8300   149.8310     2.1630   -31.6470 
  212.6250    65.9110    25.1700   138.0100   136.1450   151.9320     2.1480   -31.5930 
  212.7500    62.2450    25.1710   138.7150   138.6590   154.2530     2.1360   -31.5580 
  212.8750    60.3930    25.1680   134.2510   141.3620   156.8380     2.1360   -31.5100 
  213.0000    60.4650    25.1710   124.6870   144.5840   160.0370     2.1470   -31.4150 
  213.1250    61.5530    25.1640   122.7120   148.9240   164.4690     2.1650   -31.3220 
  213.2500    61.3460    25.0750   123.4290   154.4150   170.1230     2.1790   -31.1950 
  213.3750    60.7370    24.8940   118.0470   160.7640   176.6210     2.1800   -31.0830 
  213.5000    60.9740    24.7110   107.9450   167.1610   183.0220     2.1710   -30.9090 
  213.6250    62.2180    24.6710   105.6320   172.2120   187.7650     2.1660   -30.8100 
  213.7500    63.8390    24.7710   115.8050   175.3860   190.3600     2.1730   -30.6740 
  213.8750    65.4490    24.9210   130.0050   176.7890   190.9510     2.1910   -30.5750 
  214.0000    65.8170    24.9710   129.4720   176.6680   189.7800     2.2160   -30.4390 
  214.1250    63.0440    24.8420   109.9960   174.8000   186.6350     2.2360   -30.3150 
  214.2500    60.6920    24.7450   105.5040   171.6890   182.2530     2.2440   -30.1550 
  214.3750    60.3840    24.8060   118.0570   168.1690   177.7190     2.2380   -29.9720 
  214.5000    59.8940    24.9630   125.8030   165.4300   174.3840     2.2200   -29.8900 
  214.6250    57.2950    25.0900    93.2490   165.1510   173.8940     2.1980   -29.7150 
  214.7500    56.3020    25.1630    65.4460   167.6020   176.1410     2.1850   -29.5730 
  214.8750    57.7970    25.1810    64.6830   172.1370   180.1460     2.1840   -29.3990 
  215.0000    59.4220    25.1350   100.8110   177.1330   184.0790     2.1890   -29.2310 
  215.1250    59.4820    25.0590   128.9630   180.3630   185.6050     2.1900   -29.0150 
  215.2500    59.6920    24.9480   122.1430   180.9650   184.2030     2.1820   -28.8040 
  215.3750    60.1090    24.7670   109.5860   179.1710   180.4130     2.1670   -28.5890 
  215.5000    59.2200    24.5480   113.1760   175.7710   175.0860     2.1530   -28.2670 
  215.6250    57.4600    24.3540   113.7410   170.5140   167.6470     2.1480   -27.9550 
  215.7500    56.8010    24.1970   114.3480   162.2100   156.8420     2.1490   -27.5990 
  215.8750    57.6880    24.0780   110.9810   149.7030   142.0010     2.1530   -27.2580 
  216.0000    59.3770    24.0030   101.7470   133.6560   124.5450     2.1560   -26.9930 
  216.1250    60.8190    23.9650    77.9880   117.0160   108.0180     2.1600   -26.7550 
  216.2500    60.8310    23.9260    55.1390   103.1370    95.1140     2.1660   -26.5560 
  216.3750    59.3700    23.8770    46.4260    93.3940    86.5460     2.1730   -26.3720 
  216.5000    58.1990    23.8380    46.5780    87.6380    81.7580     2.1810   -26.2420 
  216.6250    59.7410    23.8340    53.4750    85.2260    79.9570     2.1870   -26.1280 
  216.7500    62.2000    23.9020    66.4280    84.4590    79.5700     2.1890   -26.0260 
  216.8750    63.7810    24.0660    77.6890    84.5360    79.9390     2.1900   -25.9100 
  217.0000    65.0990    24.3010    76.0180    85.1790    80.8960     2.1890   -25.7420 
  217.1250    66.5610    24.5490    67.4130    86.6740    82.6860     2.1830   -25.6120 
  217.2500    66.2330    24.7550    70.3570    88.7850    84.9590     2.1740   -25.4770 
  217.3750    64.4030    24.8900    80.5150    90.8060    86.9920     2.1640   -25.3410 
