~V
VERS. 2.00: Ver 2.00
~W
STRT.M 59.0000:
STOP.M 264.0000:
STEP.M 0.1250:
NULL. -999.2500:
UWI. DF5022:
~C
DEPT.M :
GR.API :
CALI.CM :
RXO.OHMM :
RI. :
RML.OHMM :
SP.MV :
DEN.GM/CC :
~A
   59.0000    32.9920    25.4910     1.5450     0.6430     0.5770     6.6430     1.9890 
   59.1250    33.5060    25.2620     0.8860     0.6640     0.5770     1.3620     1.9890 
   59.2500    35.3730    24.8450     1.1730     0.7230     0.5810    -4.1210     2.0380 
   59.3750    37.7390    24.3330     2.3980     0.8380     0.6030    -9.8230     2.1090 
   59.5000    41.3990    23.9020     4.0240     1.0470     0.6850   -15.6950     2.1530 
   59.6250    46.1180    23.7000     5.2880     1.4570     0.9390   -21.4050     2.1440 
   59.7500    50.3660    23.6590     5.7520     2.1100     1.4420   -26.7480     2.1180 
   59.8750    52.8550    23.6990     5.9000     2.9550     2.1580   -31.6940     2.1040 
   60.0000    53.8020    23.7840     5.9290     3.8170     2.8760   -36.1610     2.1020 
   60.1250    53.1440    23.8930     5.9570     4.5000     3.3970   -39.9050     2.1040 
   60.2500    51.7860    23.9900     5.9910     5.0190     3.7820   -42.8190     2.1160 
   60.3750    52.1560    24.0450     6.1730     5.4310     4.1070   -44.9280     2.1430 
   60.5000    53.4820    24.0550     6.8810     5.7720     4.3940   -46.3540     2.1700 
   60.6250    54.0670    24.0430     7.8360     6.0320     4.6160   -47.3360     2.1700 
   60.7500    54.2350    24.0370     8.5910     6.2140     4.7660   -48.1470     2.1500 
   60.8750    52.8060    24.0350     8.7780     6.3130     4.8490   -48.8300     2.1280 
   61.0000    49.9470    23.9970     8.8470     6.3380     4.8850   -49.3120     2.1170 
   61.1250    48.6760    23.8780     8.9920     6.2970     4.8940   -49.6080     2.1210 
   61.2500    50.0670    23.7390     9.0280     6.2280     4.9010   -49.9440     2.1320 
   61.3750    52.1660    23.6510     8.8010     6.1500     4.9130   -50.3070     2.1420 
   61.5000    54.3570    23.6290     8.4950     6.0760     4.9310   -50.6240     2.1490 
   61.6250    55.9180    23.6320     8.3200     6.0120     4.9540   -50.9090     2.1530 
   61.7500    55.3020    23.6320     8.2800     5.9610     4.9870   -51.1420     2.1560 
   61.8750    54.6220    23.6320     8.2620     5.9290     5.0350   -51.3390     2.1590 
   62.0000    54.7570    23.6320     8.2900     5.9210     5.1020   -51.4600     2.1600 
   62.1250    53.6410    23.6340     8.3810     5.9440     5.1880   -51.6200     2.1600 
   62.2500    51.5490    23.6360     8.6320     5.9900     5.2820   -51.8530     2.1580 
   62.3750    51.4860    23.6330     8.9750     6.0450     5.3760   -52.0180     2.1530 
   62.5000    54.9470    23.6440     9.2040     6.1000     5.4630   -52.2470     2.1530 
   62.6250    57.9750    23.7280     9.0880     6.1450     5.5360   -52.3760     2.1660 
   62.7500    57.7260    23.8710     8.8580     6.1780     5.5950   -52.3870     2.1820 
   62.8750    56.2500    24.0040     8.7870     6.2000     5.6360   -52.3240     2.1870 
   63.0000    56.8120    24.0660     8.8660     6.2150     5.6660   -52.2710     2.1770 
   63.1250    60.1280    24.0690     9.0020     6.2270     5.6830   -52.3140     2.1600 
   63.2500    60.8630    24.0690     8.9860     6.2350     5.6880   -52.2470     2.1480 
   63.3750    58.0060    24.0720     8.9940     6.2350     5.6780   -52.2390     2.1440 
   63.5000    53.3100    24.0740     9.1670     6.2290     5.6610   -52.1250     2.1460 
   63.6250    50.2100    24.0750     9.1710     6.2330     5.6680   -52.0190     2.1510 
   63.7500    49.8200    24.0780     8.9740     6.2710     5.7320   -51.9350     2.1540 
   63.8750    51.5480    24.0790     8.9010     6.3530     5.8630   -51.8100     2.1530 
   64.0000    54.3710    24.0790     9.4100     6.4710     6.0410   -51.6370     2.1540 
   64.1250    56.6360    24.0820    12.2110     6.5850     6.2060   -51.4260     2.1650 
   64.2500    56.6750    24.0790    17.1840     6.6430     6.2930   -51.3530     2.1780 
   64.3750    54.0270    24.0590    17.1350     6.6120     6.2710   -51.2160     2.1860 
   64.5000    53.0020    24.0250    11.0360     6.5000     6.1570   -51.0200     2.1870 
   64.6250    55.5360    24.0020     9.1140     6.3560     6.0210   -50.7860     2.1870 
   64.7500    56.1580    23.9950     8.2810     6.2540     5.9480   -50.7030     2.1900 
   64.8750    53.0330    23.9970     8.0030     6.2340     5.9810   -50.6990     2.1900 
   65.0000    50.6230    23.9970     8.0660     6.3080     6.1190   -50.6850     2.1820 
   65.1250    52.1910    23.9970     8.4160     6.4580     6.3140   -50.7460     2.1690 
   65.2500    52.8920    23.9970     8.7890     6.6160     6.4800   -50.7340     2.1630 
   65.3750    51.8730    23.9970     9.0050     6.7330     6.5660   -50.6990     2.1660 
   65.5000    50.6920    23.9970     9.0730     6.7780     6.5620   -50.7460     2.1740 
   65.6250    50.1720    23.9960     8.9800     6.7410     6.4850   -50.7470     2.1760 
   65.7500    49.6760    23.9950     8.8770     6.6630     6.3940   -50.6360     2.1740 
   65.8750    49.0210    24.0060     8.8770     6.5800     6.3230   -50.4650     2.1730 
   66.0000    48.8800    24.0370     8.9490     6.5140     6.2870   -50.4040     2.1760 
   66.1250    49.4890    24.0760     8.9490     6.4670     6.2860   -50.2350     2.1760 
   66.2500    50.4480    24.1070     8.8230     6.4180     6.2910   -50.0440     2.1730 
   66.3750    50.4370    24.1280     8.7220     6.3500     6.2760   -49.8030     2.1690 
   66.5000    51.2700    24.1440     8.7070     6.2520     6.2170   -49.5810     2.1620 
   66.6250    56.2850    24.1510     8.7450     6.1330     6.1150   -49.3260     2.1530 
   66.7500    59.9110    24.1510     8.7320     6.0490     6.0500   -49.0590     2.1440 
   66.8750    56.9530    24.1510     8.7570     6.0810     6.1310   -48.7560     2.1370 
   67.0000    50.1200    24.1510     9.0700     6.3200     6.4800   -48.4650     2.1320 
   67.1250    49.0280    24.1510     9.4900     6.8950     7.2560   -48.0730     2.1460 
   67.2500    53.1980    24.1510     9.9060     7.7770     8.3980   -47.6070     2.1920 
   67.3750    55.8630    24.1510    10.9350     8.8730     9.7400   -47.1150     2.2590 
   67.5000    53.6240    24.1510    17.0850     9.9200    10.9150   -46.5190     2.3220 
   67.6250    49.9830    24.1510    25.5420    10.3830    11.2730   -45.9300     2.3590 
   67.7500    49.3690    24.1510    25.4140    10.0770    10.6880   -45.2530     2.3830 
   67.8750    51.1200    24.1510    17.9320     9.1830     9.4550   -44.5670     2.3960 
   68.0000    54.2830    24.1510    11.3830     8.1200     8.1230   -43.8220     2.3880 
   68.1250    60.9850    24.1500     7.9500     7.3200     7.2440   -43.1410     2.3490 
   68.2500    68.6910    24.1510     6.0800     6.8950     6.8920   -42.4560     2.3090 
   68.3750    72.3420    24.1600     6.4770     6.8070     6.9510   -41.9040     2.3030 
   68.5000    70.4780    24.1820     9.0890     6.9250     7.1940   -41.3640     2.3440 
   68.6250    70.5930    24.2380    13.6120     7.0240     7.3180   -40.9540     2.4050 
   68.7500    76.5780    24.3570    13.7600     6.9140     7.1410   -40.6020     2.4340 
   68.8750    83.3680    24.5140     9.4920     6.5750     6.6860   -40.3550     2.4070 
   69.0000    86.0980    24.6400     5.8790     6.1270     6.1290   -40.1200     2.3430 
   69.1250    84.3650    24.6770     5.7860     5.7630     5.7150   -40.0690     2.2800 
   69.2500    81.6690    24.6740     5.9100     5.5890     5.5500   -40.0680     2.2410 
   69.3750    79.7580    24.6720     5.8500     5.6380     5.6400   -40.0850     2.2280 
   69.5000    79.3500    24.6720     5.8080     5.8720     5.9140   -40.1870     2.2310 
   69.6250    80.0870    24.6720     6.4790     6.1880     6.2370   -40.3130     2.2470 
   69.7500    80.1220    24.6720     7.8410     6.4280     6.4590   -40.4980     2.2740 
   69.8750    80.0840    24.6720     8.1980     6.4950     6.5000   -40.7050     2.3050 
   70.0000    81.5710    24.6720     6.8980     6.3600     6.3480   -41.0040     2.3280 
   70.1250    84.5670    24.6720     5.4140     6.0700     6.0650   -41.2100     2.3290 
