~V
VERS. 2.00: Ver 2.00
~W
STRT.M 61.0000:
STOP.M 236.0000:
STEP.M 0.1250:
NULL. -999.2500:
UWI. DF5057:
~C
DEPT.M :
GR.API :
RML.OHMM :
RI. :
RXO.OHMM :
CALI.CM :
DEN.GM/CC :
SP.MV :
~A
# ...
  139.7500    60.7770     8.4180     8.0320     9.2060    25.3860     2.4500    -4.2090 
  139.8750    61.0130     8.2540     7.8500     9.1220    25.3800     2.4490    -4.2470 
  140.0000    61.3500     8.1860     7.7350     9.0840    25.3020     2.4440    -4.3170 
  140.1250    63.0160     8.3030     7.7690     8.9790    25.2130     2.4360    -4.4000 
  140.2500    63.3450     8.5920     7.9510     8.9610    25.2410     2.4310    -4.4720 
  140.3750    62.6250     9.0250     8.2690     9.2420    25.3390     2.4270    -4.5390 
  140.5000    63.0450     9.5330     8.6720     9.9900    25.3820     2.4250    -4.5750 
  140.6250    62.5740     9.9860     9.0620    11.0280    25.3440     2.4200    -4.5380 
  140.7500    58.8600    10.2840     9.3440    11.7860    25.2600     2.4130    -4.4840 
  140.8750    55.7920    10.4000     9.4810    12.4750    25.2520     2.4070    -4.4940 
  141.0000    56.7910    10.3680     9.4920    12.6820    25.3130     2.4070    -4.5120 
  141.1250    58.5590    10.2650     9.4230    12.0950    25.3550     2.4130    -4.5080 
  141.2500    58.4460    10.1910     9.3490    11.5260    25.3860     2.4210    -4.5290 
  141.3750    58.8390    10.1760     9.2990    12.3190    25.4040     2.4270    -4.5940 
  141.5000    60.2030    10.2060     9.2720    12.7840    25.4220     2.4280    -4.6900 
  141.6250    59.6120    10.2620     9.2700    12.1640    25.3950     2.4290    -4.8290 
  141.7500    58.0890    10.3310     9.3000    12.0670    25.3440     2.4360    -4.9650 
  141.8750    57.0230    10.4150     9.3690    12.0730    25.3130     2.4550    -5.0710 
  142.0000    55.9670    10.5180     9.4770    11.9640    25.3200     2.4880    -5.2170 
  142.1250    54.3540    10.6310     9.6070    12.1190    25.3260     2.5320    -5.4130 
  142.2500    53.1210    10.7070     9.7110    12.6690    25.3210     2.5680    -5.5690 
  142.3750    53.5580    10.7090     9.7480    12.8650    25.3310     2.5820    -5.6610 
  142.5000    55.1400    10.6360     9.7130    12.8400    25.3140     2.5680    -5.7210 
  142.6250    56.6590    10.5470     9.6480    12.2840    25.2750     2.5340    -5.7840 
  142.7500    56.9480    10.5240     9.6200    11.5290    25.2160     2.5020    -5.8810 
  142.8750    57.4060    10.6060     9.6640    11.3760    25.1000     2.4850    -5.9660 
  143.0000    59.3490    10.7740     9.7760    11.7590    25.0030     2.4860    -5.9670 
  143.1250    60.3200    10.9560     9.9140    12.5140    25.0210     2.4990    -5.9240 
  143.2500    58.9470    11.0810    10.0270    12.8920    25.2030     2.5100    -5.8900 
  143.3750    57.8620    11.1310    10.1000    12.9300    25.3740     2.5130    -5.8810 
  143.5000    57.7420    11.1280    10.1430    12.5770    25.4790     2.5080    -5.8700 
  143.6250    56.8490    11.1020    10.1740    12.7360    25.4930     2.4970    -5.8290 
  143.7500    57.8930    11.0520    10.1900    13.0290    25.4880     2.4910    -5.7660 
  143.8750    61.5550    10.9420    10.1700    13.4880    25.4510     2.4930    -5.7160 
  144.0000    62.8330    10.7610    10.1030    13.4180    25.3780     2.5030    -5.7380 
  144.1250    58.5860    10.5440    10.0150    12.9620    25.4140     2.5170    -5.8190 
  144.2500    54.8350    10.3800     9.9650    11.9780    25.4520     2.5270    -5.9040 
  144.3750    54.6950    10.3270     9.9970    11.3620    25.4820     2.5290    -5.9540 
  144.5000    55.9960    10.3880    10.1200    11.7860    25.4960     2.5230    -6.0070 
  144.6250    57.5000    10.4650    10.2810    12.4940    25.4860     2.5170    -6.0990 
  144.7500    58.5820    10.4040    10.3530    12.6860    25.4760     2.5160    -6.1790 
  144.8750    57.4630    10.1070    10.2340    11.9630    25.4940     2.5230    -6.2420 
  145.0000    54.5450     9.5740     9.8880    10.8930    25.5070     2.5320    -6.2760 
  145.1250    52.7760     8.9040     9.3570    10.2600    25.5370     2.5360    -6.2620 
  145.2500    54.3900     8.2740     8.7970     9.3640    25.5540     2.5310    -6.2220 
  145.3750    57.7880     7.7810     8.3080     8.4890    25.5590     2.5220    -6.2120 
  145.5000    60.4620     7.4700     7.9480     8.2110    25.5590     2.5120    -6.2360 
  145.6250    61.0420     7.3670     7.7630     8.3410    25.5620     2.5070    -6.2920 
  145.7500    61.3240     7.4080     7.7140     8.6450    25.5640     2.5050    -6.3820 
  145.8750    61.9350     7.5250     7.7550     8.8200    25.5770     2.5040    -6.5070 
  146.0000    61.1670     7.6250     7.8140     8.7860    25.5850     2.5000    -6.6430 
  146.1250    59.7630     7.6290     7.8210     9.1990    25.5550     2.4880    -6.8220 
  146.2500    59.3210     7.6210     7.8220     9.4930    25.4820     2.4650    -7.0900 
  146.3750    60.2560     7.8100     7.9670     9.5490    25.4520     2.4330    -7.4560 
  146.5000    61.6780     8.5250     8.4800     9.0310    25.4280     2.3930    -7.9430 
  146.6250    63.8270    10.4300     9.8380     9.2560    25.2000     2.3500    -8.6030 
  146.7500    66.0980    13.8780    12.4010    11.8630    24.8500     2.3090    -9.3810 
  146.8750    66.4830    20.5950    16.6450    19.1240    24.5530     2.2720   -10.2310 
  147.0000    63.9230    28.3640    22.8470    28.7330    24.4100     2.2440   -11.1680 
  147.1250    61.1250    36.6000    30.6310    34.5240    24.3730     2.2260   -12.1410 
  147.2500    60.8600    43.6960    37.9740    35.7520    24.3660     2.2180   -13.1150 
  147.3750    63.1130    48.3340    43.2760    35.1660    24.3970     2.2140   -14.0370 
  147.5000    65.0410    50.5830    46.2390    33.1480    24.4360     2.2120   -14.7930 
  147.6250    66.0030    51.6500    47.7420    33.2670    24.4520     2.2120   -15.3210 
  147.7500    66.8380    52.9460    49.1570    35.2170    24.4550     2.2160   -15.7240 
  147.8750    67.6840    54.8750    50.9850    36.6090    24.4470     2.2240   -16.0060 
  148.0000    68.9670    57.3640    53.3110    37.9480    24.4340     2.2320   -16.1730 
  148.1250    70.3070    60.0140    55.9160    39.0720    24.4490     2.2370   -16.2950 
  148.2500    71.7760    62.3350    58.3740    39.0140    24.4730     2.2380   -16.3600 
  148.3750    73.0880    64.1120    60.4550    39.3770    24.4950     2.2350   -16.3720 
  148.5000    74.8150    65.3520    62.1080    39.7380    24.4970     2.2320   -16.4200 
  148.6250    76.2870    66.1700    63.3730    38.9370    24.4830     2.2310   -16.4710 
  148.7500    75.2000    66.8220    64.4480    39.1830    24.4670     2.2310   -16.5080 
  148.8750    71.8370    67.4050    65.4140    42.0520    24.4680     2.2310   -16.5890 
  149.0000    67.9630    67.9380    66.2810    43.2060    24.4960     2.2310   -16.6890 
  149.1250    65.8120    68.5160    67.0930    41.4030    24.5430     2.2340   -16.7360 
  149.2500    65.7720    69.3740    68.0420    39.9960    24.5970     2.2390   -16.7830 
  149.3750    67.3560    70.7910    69.3730    39.6750    24.6400     2.2470   -16.8520 
  149.5000    69.8520    72.9820    71.2950    40.9570    24.6650     2.2530   -16.9120 
  149.6250    70.5940    76.0890    73.9680    43.4100    24.6850     2.2550   -16.9900 
  149.7500    69.9620    79.6750    77.0550    46.4950    24.7170     2.2530   -17.0380 
  149.8750    69.1910    83.2830    80.1710    49.8270    24.7600     2.2480   -17.0350 
  150.0000    68.4540    86.5370    82.9820    50.9890    24.7830     2.2400   -17.0380 
  150.1250    67.6680    89.3490    85.3880    48.8830    24.7430     2.2320   -17.0470 
  150.2500    66.6160    92.2090    87.7960    46.9210    24.7200     2.2240   -17.0210 
  150.3750    64.9700    95.7200    90.7320    46.2390    24.7320     2.2190   -16.9610 
  150.5000    62.9960   100.4420    94.7050    47.3490    24.7650     2.2160   -16.8440 
  150.6250    62.6340   106.8400   100.1480    49.5120    24.7750     2.2130   -16.6860 
  150.7500    63.2500   114.1790   106.4250    53.7110    24.7740     2.2080   -16.5230 
  150.8750    63.4720   121.3200   112.5510    59.8960    24.7910     2.2000   -16.3510 
