~V
VERS. 2.00: Ver 2.00
~W
STRT.M 60.0000:
STOP.M 273.0000:
STEP.M 0.1250:
NULL. -999.2500:
UWI. DF5008:
~C
DEPT.M :
GR.API :
CALI.CM :
RXO.OHMM :
RI. :
RML.OHMM :
DEN.GM/CC :
SP.MV :
~A
# ...
   71.2500    68.7920    23.9630     8.9010     7.7710     9.9980     2.1500   -45.8170 
   71.3750    70.3680    23.9310     8.7730     7.8450    10.0600     2.1450   -46.0210 
   71.5000    70.6060    23.9230     8.8680     7.8760    10.0400     2.1340   -46.2080 
   71.6250    68.6960    23.9720     9.6070     7.8710     9.9760     2.1170   -46.2910 
   71.7500    68.7340    24.0480     9.8770     7.8550     9.9110     2.1040   -46.2690 
   71.8750    72.3340    24.1230     9.5390     7.8370     9.8550     2.0970   -46.2780 
   72.0000    74.8630    24.1780     9.3820     7.8160     9.8050     2.0980   -46.2500 
   72.1250    71.9550    24.1920     9.4720     7.7690     9.7410     2.1040   -46.1100 
   72.2500    68.1500    24.1710     9.2700     7.6920     9.6600     2.1120   -46.0150 
   72.3750    66.2330    24.1350     8.6950     7.6050     9.5990     2.1230   -45.9250 
   72.5000    65.2520    24.1090     8.2380     7.5560     9.6160     2.1380   -45.7930 
   72.6250    64.9860    24.0940     8.0990     7.5940     9.7570     2.1520   -45.6980 
   72.7500    66.3340    24.1070     8.3190     7.7070     9.9690     2.1600   -45.6310 
   72.8750    67.0640    24.1680     8.6160     7.8530    10.1720     2.1590   -45.5410 
   73.0000    65.8020    24.2160     8.9690     7.9650    10.2770     2.1520   -45.3290 
   73.1250    63.6660    24.1290     9.7500     7.9740    10.2280     2.1480   -45.1890 
   73.2500    62.5000    23.9590     9.9310     7.9190    10.1330     2.1510   -45.1490 
   73.3750    61.7960    23.8350     9.5790     7.8730    10.1140     2.1590   -45.0590 
   73.5000    62.8390    23.8350     9.4370     7.9010    10.2480     2.1640   -45.0420 
   73.6250    67.9500    23.9120     9.8660     8.0410    10.5310     2.1630   -44.9480 
   73.7500    71.3630    23.9600    10.9490     8.2300    10.8210     2.1570   -44.8010 
   73.8750    69.8850    23.9510    11.5700     8.3760    10.9750     2.1470   -44.6410 
   74.0000    66.7770    23.9170    11.1110     8.3980    10.9120     2.1350   -44.6030 
   74.1250    67.4940    23.8920    10.0090     8.2600    10.6350     2.1230   -44.6410 
   74.2500    70.1840    23.8450     9.9260     8.0440    10.2930     2.1130   -44.6640 
   74.3750    70.0540    23.7710    10.0620     7.8250     9.9840     2.1080   -44.6730 
   74.5000    66.2250    23.7120    10.0710     7.6550     9.7690     2.1080   -44.6150 
   74.6250    61.3130    23.7030    10.1010     7.5670     9.6860     2.1150   -44.5610 
   74.7500    58.3750    23.7120    10.0380     7.5420     9.6990     2.1250   -44.5730 
   74.8750    58.5150    23.7230     9.7580     7.5630     9.7830     2.1340   -44.6440 
   75.0000    61.7290    23.7330     9.3370     7.6160     9.9090     2.1390   -44.6640 
   75.1250    65.9560    23.7460     9.2420     7.6840    10.0410     2.1340   -44.7400 
   75.2500    66.9480    23.7900     9.9270     7.7450    10.1470     2.1220   -44.7010 
   75.3750    63.5330    23.8510    10.5700     7.7850    10.2100     2.1080   -44.6520 
   75.5000    60.2380    23.8720    10.7090     7.7980    10.2330     2.0990   -44.5060 
   75.6250    60.4520    23.8230     9.8860     7.7880    10.2280     2.0970   -44.4020 
   75.7500    61.0930    23.8000     9.5330     7.7730    10.2170     2.1010   -44.3320 
   75.8750    60.7960    23.8630     9.3270     7.7600    10.2100     2.1060   -44.1790 
   76.0000    61.8270    23.9710     9.4350     7.7510    10.2090     2.1110   -44.0420 
   76.1250    64.1220    24.0150     9.6490     7.7420    10.2080     2.1150   -43.8440 
   76.2500    62.6500    23.9900     9.6510     7.7250    10.1980     2.1170   -43.7610 
   76.3750    59.5920    23.9650     9.4680     7.6960    10.1790     2.1180   -43.6150 
   76.5000    59.8690    23.9790     9.1930     7.6670    10.1580     2.1170   -43.4440 
   76.6250    61.9270    23.9820     8.9880     7.6570    10.1480     2.1150   -43.2990 
   76.7500    61.3350    23.9420     9.0260     7.6670    10.1540     2.1140   -43.0230 
   76.8750    60.2350    23.8940     9.1460     7.6900    10.1730     2.1160   -42.7200 
   77.0000    62.5560    23.8670     9.2900     7.7120    10.1870     2.1200   -42.3890 
   77.1250    64.9800    23.8380     9.3250     7.7130    10.1570     2.1230   -42.1100 
   77.2500    64.9320    23.7940     9.1700     7.6820    10.0560     2.1270   -41.6290 
   77.3750    65.0310    23.7630     8.8770     7.6080     9.8760     2.1340   -41.1400 
   77.5000    65.6230    23.7610     8.6830     7.4960     9.6450     2.1440   -40.7780 
   77.6250    64.3190    23.7590     8.7210     7.3750     9.4350     2.1560   -40.4020 
   77.7500    62.6150    23.7280     8.4940     7.2840     9.2980     2.1630   -40.0220 
   77.8750    64.2810    23.6780     7.9920     7.2350     9.2430     2.1650   -39.6380 
   78.0000    68.7320    23.6360     7.9710     7.2190     9.2340     2.1640   -39.2530 
   78.1250    70.6110    23.6020     8.6950     7.1980     9.2030     2.1680   -38.7550 
   78.2500    70.5940    23.5360     9.1280     7.1320     9.0910     2.1810   -38.4180 
   78.3750    72.0840    23.4170     9.0990     6.9980     8.8800     2.2000   -38.1220 
   78.5000    75.6350    23.2610     8.7280     6.8010     8.5840     2.2200   -37.8080 
   78.6250    76.5490    23.0920     8.2740     6.5590     8.2400     2.2350   -37.4890 
   78.7500    74.4040    22.9350     7.9660     6.3100     7.9020     2.2430   -37.2410 
   78.8750    74.9090    22.8410     7.8490     6.0830     7.6030     2.2440   -36.9690 
   79.0000    80.4980    22.9310     7.7450     5.9080     7.3820     2.2350   -36.6850 
   79.1250    86.9520    23.2800     7.5970     5.8350     7.3190     2.2140   -36.5860 
   79.2500    89.0980    23.6630     7.5520     5.8880     7.4470     2.1870   -36.4660 
   79.3750    86.5430    23.8950     7.5530     6.0880     7.7800     2.1610   -36.3410 
   79.5000    80.8010    23.9620     7.5690     6.4190     8.2650     2.1450   -36.2460 
   79.6250    72.7620    23.9870     7.9280     6.8130     8.7580     2.1520   -36.0800 
   79.7500    66.3350    24.0230     8.5720     7.1350     9.0710     2.1840   -35.9380 
   79.8750    64.6140    24.0510     8.9210     7.2750     9.0910     2.2340   -35.8650 
   80.0000    68.0660    24.0890     8.5230     7.1850     8.8010     2.2890   -35.6910 
   80.1250    76.2740    24.1830     7.8530     6.8830     8.2780     2.3230   -35.2240 
   80.2500    85.7830    24.3370     7.4900     6.5050     7.7180     2.3310   -34.7910 
   80.3750    94.3640    24.4840     7.1690     6.1460     7.2540     2.3260   -34.3950 
   80.5000    99.2840    24.5540     6.5860     5.8850     6.9740     2.3230   -34.0380 
   80.6250    98.5600    24.5520     6.4470     5.8000     6.9530     2.3320   -33.7600 
   80.7500    95.7700    24.5550     6.4920     5.8670     7.1210     2.3440   -33.4130 
   80.8750    94.4310    24.5730     6.9210     6.0420     7.4070     2.3500   -33.0880 
   81.0000    95.3620    24.5770     8.4760     6.2530     7.7180     2.3440   -32.9890 
   81.1250    94.6470    24.5600     9.7480     6.4150     7.9390     2.3350   -33.0920 
   81.2500    92.1210    24.5230     9.1400     6.4710     7.9900     2.3360   -33.2450 
   81.3750    91.1200    24.4610     7.4980     6.3830     7.8170     2.3470   -33.4390 
   81.5000    92.2170    24.4070     6.8140     6.1450     7.4380     2.3660   -33.6350 
   81.6250    91.7630    24.3700     7.4450     5.8390     7.0390     2.3870   -33.9430 
   81.7500    89.7960    24.2850     7.5360     5.6500     6.9220     2.4040   -34.3220 
   81.8750    90.4050    24.1780     6.7270     5.7380     7.3320     2.4110   -34.7270 
   82.0000    95.1050    24.1600     6.4310     6.2130     8.3980     2.3970   -35.1300 
   82.1250    97.6260    24.2750    10.7490     7.1540    10.0980     2.3500   -35.6040 
   82.2500    92.4190    24.3960    18.7020     8.3060    11.8590     2.2840   -36.0690 
   82.3750    83.2700    24.4120    22.4830     9.2710    13.0000     2.2190   -36.5800 
