~V
VERS. 2.00: Ver 2.00
~W
STRT.M 60.0000:
STOP.M 273.0000:
STEP.M 0.1250:
NULL. -999.2500:
UWI. DF5008:
~C
DEPT.M :
GR.API :
CALI.CM :
RXO.OHMM :
RI. :
RML.OHMM :
DEN.GM/CC :
SP.MV :
~A
   60.0000    43.8430    25.7900     1.3100     0.2990    -0.3690     1.9840    11.4560 
   60.1250    46.0060    25.7880     1.2340     0.3280    -0.2850     1.9720     7.4620 
   60.2500    50.5460    25.8570     0.8490     0.3810    -0.1590     1.9780     3.1020 
   60.3750    53.3580    26.0540     0.3500     0.4820     0.0710     2.0220    -1.5190 
   60.5000    53.6140    26.3010     0.3330     0.6810     0.5110     2.1120    -6.0940 
   60.6250    55.2460    26.2520     2.8130     1.1250     1.4050     2.2350   -10.4540 
   60.7500    57.9620    25.7500     9.7350     1.9580     2.9070     2.3310   -14.4690 
   60.8750    58.8740    25.0250    28.5460     3.3400     5.1540     2.3650   -18.1830 
   61.0000    58.4620    24.4670    50.7120     5.1930     7.8850     2.3410   -21.5020 
   61.1250    62.8780    24.2870    45.9780     6.7140     9.5740     2.2960   -24.3070 
   61.2500    71.2180    24.2540    23.0620     7.1460     9.2560     2.2610   -26.5780 
   61.3750    79.0870    24.1910     8.7500     6.6710     7.8190     2.2390   -28.3630 
   61.5000    85.6750    24.0760     6.5860     5.9210     6.5300     2.2240   -29.8050 
   61.6250    88.6800    23.9750     6.3840     5.4010     6.0000     2.2130   -31.0580 
   61.7500    87.5650    23.9160     6.4600     5.2320     6.0710     2.2040   -32.2170 
   61.8750    85.9030    23.8710     7.2400     5.4050     6.5770     2.2010   -33.2890 
   62.0000    85.9830    23.8220     8.9670     5.8470     7.3480     2.2110   -34.2090 
   62.1250    84.3460    23.8230    10.1450     6.5050     8.2860     2.2400   -35.0140 
   62.2500    78.8310    23.8820    10.6240     7.3330     9.3830     2.2810   -35.7550 
   62.3750    74.0880    23.9520    11.4190     8.3650    10.7220     2.3180   -36.3590 
   62.5000    73.1660    24.0200    13.1250     9.6080    12.3290     2.3260   -36.8200 
   62.6250    74.5030    24.0980    18.6730    10.9150    13.9790     2.2830   -37.0120 
   62.7500    74.4500    24.1360    24.9960    11.8730    15.0590     2.2220   -37.1580 
   62.8750    72.4810    24.0450    28.9600    12.0520    14.9590     2.1730   -37.0850 
   63.0000    71.3080    23.8150    27.3570    11.2980    13.5740     2.1500   -36.9720 
   63.1250    72.0480    23.5600    19.9550     9.8750    11.4860     2.1580   -36.8030 
   63.2500    72.2290    23.3930    11.9770     8.4190     9.5850     2.1800   -36.5880 
   63.3750    71.6710    23.4210     7.6460     7.2290     8.1950     2.2040   -36.3450 
   63.5000    73.8970    23.6970     6.3450     6.4010     7.3500     2.2190   -36.1300 
   63.6250    80.7970    24.0470     6.0360     5.9590     7.0160     2.2220   -36.0880 
   63.7500    87.8840    24.1860     5.9150     5.7760     6.9870     2.2180   -35.8830 
   63.8750    92.5930    24.1150     6.0420     5.7820     7.1360     2.2160   -35.7250 
   64.0000    93.2470    24.0050     6.1710     5.8960     7.3230     2.2200   -35.5510 
   64.1250    92.5390    23.9380     6.3140     6.0100     7.3780     2.2300   -35.4200 
   64.2500    95.4310    23.8930     6.9470     6.0320     7.2300     2.2430   -35.2980 
   64.3750    99.6370    23.9120     7.3740     5.9270     6.8940     2.2530   -35.1940 
   64.5000   100.3720    24.0400     6.7600     5.7170     6.4690     2.2550   -35.1730 
   64.6250    99.6810    24.2570     5.6510     5.4890     6.1150     2.2470   -35.0090 
   64.7500   103.2800    24.4580     5.2890     5.3310     5.9190     2.2380   -34.9500 
   64.8750   108.2270    24.5560     5.3090     5.2730     5.8940     2.2310   -34.9320 
   65.0000   107.7830    24.5170     5.4540     5.3080     6.0000     2.2270   -35.0320 
   65.1250   102.3440    24.4110     5.6640     5.3990     6.1660     2.2270   -35.1410 
   65.2500    98.3410    24.3680     5.8320     5.4820     6.3080     2.2300   -35.1850 
   65.3750    97.3730    24.4230     5.7730     5.5230     6.3930     2.2350   -35.3660 
   65.5000    98.7730    24.5190     5.7330     5.5130     6.4130     2.2440   -35.5140 
   65.6250   101.6030    24.5760     5.8410     5.4440     6.3380     2.2560   -35.7600 
   65.7500   105.6020    24.5920     5.8780     5.3210     6.1680     2.2670   -36.1120 
   65.8750   109.5210    24.5920     5.8370     5.1560     5.9390     2.2790   -36.5240 
   66.0000   111.3610    24.5860     5.7790     5.0020     5.7590     2.2940   -36.9230 
   66.1250   109.8900    24.5670     5.7140     4.9860     5.8420     2.3110   -37.2510 
   66.2500   107.8490    24.5330     5.6340     5.1870     6.2880     2.3230   -37.6920 
   66.3750   105.5750    24.4810     5.9130     5.6530     7.1280     2.3170   -38.1370 
   66.5000    99.2110    24.4140     7.3020     6.3660     8.2770     2.2860   -38.8080 
   66.6250    88.2780    24.3200    10.5590     7.1980     9.4510     2.2380   -39.5310 
   66.7500    78.5200    24.1830    11.5980     7.8630    10.2390     2.1950   -40.1780 
   66.8750    73.0850    24.0400    10.8270     8.1430    10.3960     2.1660   -40.7780 
   67.0000    71.0200    23.9490     9.8380     7.9890     9.9580     2.1520   -41.3890 
   67.1250    71.6820    23.9210     9.1000     7.5220     9.1980     2.1480   -41.9590 
   67.2500    74.8720    23.8830     8.0540     7.0270     8.5160     2.1510   -42.4530 
   67.3750    78.5010    23.7930     7.7370     6.6680     8.1330     2.1610   -42.7820 
   67.5000    80.4440    23.6450     7.6440     6.5560     8.1890     2.1840   -42.9200 
   67.6250    78.8970    23.4620     7.7730     6.8280     8.8530     2.2250   -43.0860 
   67.7500    74.4610    23.3050     8.4680     7.4720    10.0050     2.2730   -43.2090 
   67.8750    69.0840    23.2650    10.9610     8.4420    11.4370     2.3080   -43.2730 
   68.0000    66.1910    23.4000    24.1590     9.5470    12.7420     2.3090   -43.1450 
   68.1250    68.2770    23.6810    37.6510    10.3170    13.2540     2.2750   -42.9730 
   68.2500    71.7300    23.9400    38.8350    10.4250    12.8360     2.2330   -42.8070 
   68.3750    73.4940    24.0650    25.8770     9.8890    11.7500     2.1980   -42.6500 
   68.5000    73.0590    24.0610    13.5470     9.0200    10.5030     2.1730   -42.5410 
   68.6250    71.1950    23.9770     9.9590     8.1900     9.5790     2.1650   -42.3290 
   68.7500    70.8800    23.8520     9.3210     7.5580     9.0270     2.1720   -42.1080 
   68.8750    74.9240    23.7220     8.7120     7.1050     8.7000     2.1900   -41.8280 
   69.0000    82.0270    23.6440     8.2240     6.7300     8.3760     2.2140   -41.5900 
   69.1250    85.7470    23.6660     7.6560     6.3300     7.8940     2.2410   -41.3550 
   69.2500    86.7580    23.7400     7.0630     5.9280     7.3810     2.2720   -41.1350 
   69.3750    90.8150    23.8370     6.2970     5.6380     7.0810     2.3100   -40.9290 
   69.5000    97.6600    23.9320     5.7400     5.5950     7.2650     2.3560   -40.6750 
   69.6250    99.9400    23.9820     6.2230     6.0220     8.3330     2.4020   -40.6210 
   69.7500    95.3380    24.0090     8.8320     7.0020    10.2950     2.4310   -40.6810 
   69.8750    87.0670    24.0800    14.1580     8.5890    12.9780     2.4230   -40.9370 
   70.0000    77.7590    24.1960    18.8930    10.6130    15.8080     2.3760   -41.2970 
   70.1250    70.6390    24.2800    21.4810    12.3720    17.5520     2.3050   -41.8410 
   70.2500    67.6670    24.2790    23.1640    13.0360    17.5050     2.2380   -42.3550 
   70.3750    67.6060    24.1720    19.6710    12.3980    15.8310     2.1880   -42.9240 
   70.5000    67.6660    23.9840    12.1560    10.9880    13.4740     2.1570   -43.5360 
   70.6250    67.4680    23.8100     9.8980     9.5770    11.5260     2.1450   -44.0330 
   70.7500    66.9580    23.7520     9.5960     8.5420    10.3160     2.1420   -44.5510 
   70.8750    66.4860    23.8110     9.3950     7.9270     9.7700     2.1430   -44.9870 
   71.0000    66.7600    23.9130     9.1320     7.6720     9.6910     2.1460   -45.4080 
   71.1250    67.5720    23.9680     9.0260     7.6840     9.8490     2.1500   -45.6400 
