~V
VERS. 2.00: Ver 2.00
~W
STRT.M 58.0000:
STOP.M 261.0000:
STEP.M 0.1250:
NULL. -999.2500:
UWI. DF5035:
~C
DEPT.M :
DEN.GM/CC :
GR.API :
CALI.CM :
RXO.OHMM :
RI. :
RML.OHMM :
SP.MV :
~A
# ...
  125.5000     2.2830    87.2490    25.3720     4.4820     4.4170     4.4720   -45.0240 
  125.6250     2.2880    84.4370    25.4030     4.8050     4.4080     4.4610   -45.3140 
  125.7500     2.2870    81.7010    25.3910     4.9470     4.4200     4.4780   -45.7070 
  125.8750     2.2840    82.3230    25.3890     4.7750     4.4500     4.5200   -46.0920 
  126.0000     2.2820    85.1990    25.4300     4.7050     4.4800     4.5660   -46.4700 
  126.1250     2.2840    85.5560    25.4900     4.8340     4.4700     4.5700   -46.8480 
  126.2500     2.2870    85.4080    25.5270     4.9310     4.4030     4.5140   -47.2410 
  126.3750     2.2890    88.2260    25.5190     4.9360     4.2880     4.4170   -47.5660 
  126.5000     2.2880    94.3250    25.4670     4.8750     4.1630     4.3260   -47.8910 
  126.6250     2.2810    99.6180    25.3740     4.7760     4.0860     4.3150   -48.2710 
  126.7500     2.2720   100.4520    25.2090     4.9150     4.1010     4.4260   -48.5900 
  126.8750     2.2620    96.5370    24.9530     5.4310     4.2410     4.6870   -49.0590 
  127.0000     2.2520    91.6050    24.6700     5.9330     4.5270     5.1020   -49.4650 
  127.1250     2.2400    90.6580    24.4340     5.9910     4.9840     5.6800   -49.8900 
  127.2500     2.2230    89.7900    24.1990     5.7410     5.5660     6.3610   -50.3740 
  127.3750     2.2010    86.4500    23.9390     5.7500     6.2300     7.1010   -50.7750 
  127.5000     2.1780    82.0820    23.7480     6.3110     6.9230     7.8540   -51.2770 
  127.6250     2.1590    77.6980    23.7200     7.3870     7.5840     8.5590   -51.6260 
  127.7500     2.1470    74.3900    23.7440     8.1180     8.1750     9.1740   -51.8870 
  127.8750     2.1420    73.6980    23.7250     8.3030     8.6760     9.6780   -52.1380 
  128.0000     2.1400    75.5730    23.6940     8.0950     9.0860    10.0800   -52.3380 
  128.1250     2.1400    75.8350    23.7880     8.3130     9.4020    10.4020   -52.4480 
  128.2500     2.1410    72.9040    23.9890     8.6710     9.6530    10.6810   -52.5000 
  128.3750     2.1430    69.6820    24.1850     8.9340     9.8440    10.9110   -52.4870 
  128.5000     2.1450    66.8340    24.3080     9.0260     9.9760    11.0840   -52.3690 
  128.6250     2.1470    64.5100    24.3990     9.0830    10.0660    11.2480   -52.2710 
  128.7500     2.1500    63.3470    24.5040     9.1630    10.2020    11.5220   -52.1400 
  128.8750     2.1600    61.8890    24.5900     9.1580    10.4630    11.9550   -51.9130 
  129.0000     2.1850    59.7220    24.6210     9.0940    10.8040    12.3980   -51.6370 
  129.1250     2.2340    59.4980    24.5850     9.2210    10.8930    12.3700   -51.2750 
  129.2500     2.2970    62.1270    24.5830     9.3090    10.4030    11.5700   -50.8950 
  129.3750     2.3540    65.2350    24.6930     9.0560     9.2820    10.0560   -50.5570 
  129.5000     2.3810    68.1730    24.8950     7.8290     7.8320     8.2760   -50.1600 
  129.6250     2.3590    74.1120    25.0640     5.8780     6.5490     6.8810   -49.8260 
  129.7500     2.3140    81.9100    25.1240     4.6790     5.7000     6.1270   -49.6020 
  129.8750     2.2660    87.2160    25.0920     4.9010     5.3540     6.0170   -49.3320 
  130.0000     2.2230    87.4680    25.0110     6.3160     5.4890     6.4330   -49.2210 
  130.1250     2.1910    83.7930    24.9450     7.4180     6.0560     7.2000   -49.1710 
  130.2500     2.1700    78.6120    24.9270     7.8400     6.7690     7.9540   -49.0620 
  130.3750     2.1620    73.8730    24.9550     7.8370     7.3570     8.4140   -49.0040 
  130.5000     2.1680    72.0580    25.0130     7.8690     7.6030     8.4330   -48.9220 
  130.6250     2.1860    74.6580    25.0270     7.2960     7.4070     8.0170   -48.7700 
  130.7500     2.2060    78.2900    24.9420     6.4250     6.9680     7.4240   -48.5290 
  130.8750     2.2250    79.9980    24.8210     6.2830     6.4400     6.8270   -48.3100 
  131.0000     2.2370    79.6560    24.7860     6.4820     5.9530     6.3550   -48.0070 
  131.1250     2.2380    79.3120    24.8700     5.7600     5.6380     6.1430   -47.6790 
  131.2500     2.2310    79.8820    24.9430     5.2890     5.5350     6.1990   -47.3970 
  131.3750     2.2170    82.4920    24.9410     5.6660     5.6540     6.4860   -47.1930 
  131.5000     2.2010    86.0630    24.8810     6.3700     5.9380     6.8900   -47.0010 
  131.6250     2.1900    87.1200    24.8120     6.6770     6.2480     7.2050   -46.7730 
  131.7500     2.1890    84.7930    24.7660     6.7510     6.4090     7.2700   -46.6470 
  131.8750     2.2020    82.0050    24.7500     6.6810     6.3300     7.0470   -46.4470 
  132.0000     2.2300    82.5790    24.7490     6.4000     6.0400     6.6250   -46.2560 
  132.1250     2.2670    88.5810    24.7530     5.9570     5.6570     6.1790   -46.1160 
  132.2500     2.3000    95.4130    24.7820     5.7750     5.3110     5.8320   -45.9640 
  132.3750     2.3200    99.6210    24.8480     5.9650     5.0350     5.5880   -45.7790 
  132.5000     2.3250   100.5770    24.9410     6.0010     4.8090     5.3970   -45.5850 
  132.6250     2.3190   100.9400    25.0280     5.4570     4.5970     5.1970   -45.4950 
  132.7500     2.3110   101.2960    25.0800     4.7510     4.3800     4.9800   -45.4110 
  132.8750     2.3050   100.2440    25.0680     4.4540     4.1860     4.8000   -45.4150 
  133.0000     2.2990    98.0680    24.9900     4.5180     4.0670     4.7310   -45.4510 
  133.1250     2.2850    96.8580    24.9030     4.6070     4.0970     4.8440   -45.4880 
  133.2500     2.2670    97.6980    24.8620     4.8270     4.2520     5.0810   -45.5940 
  133.3750     2.2500    98.2580    24.8680     5.4510     4.4830     5.3700   -45.6550 
  133.5000     2.2410    95.7810    24.8910     6.0930     4.7260     5.6420   -45.7870 
  133.6250     2.2410    90.8340    24.9100     6.3580     4.9440     5.8720   -45.8230 
  133.7500     2.2430    87.5160    24.9190     5.7200     5.1530     6.0980   -45.7410 
  133.8750     2.2400    87.5770    24.9190     5.4050     5.3700     6.3390   -45.7320 
  134.0000     2.2300    89.7140    24.9180     6.5470     5.5860     6.5760   -45.6280 
  134.1250     2.2240    90.0430    24.9470    10.9500     5.7500     6.7320   -45.5530 
  134.2500     2.2270    87.8030    25.0040    12.1430     5.8120     6.7430   -45.4180 
  134.3750     2.2380    87.3520    25.0730     8.7990     5.7370     6.5880   -45.2360 
  134.5000     2.2480    91.8820    25.1290     5.3550     5.5400     6.3100   -45.1770 
  134.6250     2.2530    96.2380    25.1600     5.5180     5.2790     6.0060   -45.0100 
  134.7500     2.2530    94.8190    25.1960     5.8680     5.0370     5.7560   -44.8690 
  134.8750     2.2520    88.9210    25.2730     5.6140     4.8480     5.5730   -44.7630 
  135.0000     2.2500    83.5650    25.3880     4.9770     4.7080     5.4300   -44.6640 
  135.1250     2.2480    84.2820    25.4620     4.7560     4.5830     5.2780   -44.5680 
  135.2500     2.2480    87.9640    25.4530     4.7450     4.4320     5.0910   -44.4870 
  135.3750     2.2520    89.8750    25.4200     4.6000     4.2510     4.8770   -44.3840 
  135.5000     2.2620    88.7920    25.4330     4.2120     4.0510     4.6580   -44.2680 
  135.6250     2.2760    90.7680    25.4980     4.0790     3.8590     4.4660   -44.2520 
  135.7500     2.2950    96.9790    25.5530     3.9370     3.7030     4.3260   -44.2160 
  135.8750     2.3140   102.3460    25.5700     3.8450     3.6100     4.2650   -44.1560 
  136.0000     2.3310   104.0420    25.5590     3.9530     3.6000     4.3000   -44.1400 
  136.1250     2.3410   101.4610    25.5660     4.0380     3.6870     4.4320   -44.1530 
  136.2500     2.3400   100.0580    25.6140     4.1140     3.8280     4.6070   -44.1980 
  136.3750     2.3260   101.2790    25.6390     4.4060     3.9820     4.7760   -44.2370 
  136.5000     2.3040   101.3590    25.5670     4.7570     4.1080     4.8970   -44.2620 
  136.6250     2.2820    97.5110    25.4420     4.9270     4.1690     4.9370   -44.2560 
