~V
VERS. 2.00: Ver 2.00
~W
STRT.M 50.0000:
STOP.M 276.0000:
STEP.M 0.1250:
NULL. -999.2500:
UWI. DF5011:
~C
DEPT.M :
DEN.GM/CC :
GR.API :
CALI.CM :
RXO.OHMM :
RI. :
RML.OHMM :
SP.MV :
~A
# ...
   95.0000     2.2800   100.0970    23.6600     4.9410     3.7770     4.5070   -31.7810 
   95.1250     2.2820    96.7300    23.6610     4.9680     3.7230     4.4930   -32.0620 
   95.2500     2.2790    93.5930    23.6590     4.8610     3.8150     4.6820   -32.5100 
   95.3750     2.2640    95.0240    23.6530     5.3500     4.0730     5.0900   -32.8850 
   95.5000     2.2380    94.6170    23.6370     6.2870     4.5010     5.7030   -33.3520 
   95.6250     2.2070    86.4690    23.6080     7.1620     5.0620     6.4380   -33.7150 
   95.7500     2.1820    73.5610    23.5530     7.8030     5.6590     7.1350   -34.0500 
   95.8750     2.1660    65.2920    23.4380     7.9020     6.1640     7.6460   -34.2550 
   96.0000     2.1580    64.4860    23.2530     7.6070     6.5060     7.9160   -34.3450 
   96.1250     2.1580    68.0900    23.0510     7.2350     6.6730     7.9820   -34.3550 
   96.2500     2.1590    69.0450    22.9330     7.1830     6.6840     7.9120   -34.1540 
   96.3750     2.1470    66.3820    22.8990     7.2950     6.6050     7.7810   -33.9220 
   96.5000     2.1230    65.1360    22.9020     7.3430     6.4460     7.5830   -33.4620 
   96.6250     2.1060    68.6920    22.9050     7.0540     6.2030     7.2920   -33.0250 
   96.7500     2.1230    73.0480    22.8500     6.1890     5.8670     6.8870   -32.4860 
   96.8750     2.1590    76.8090    22.6940     5.6590     5.4780     6.4170   -31.9300 
   97.0000     2.1910    82.1370    22.4750     5.5310     5.0760     5.9400   -31.4170 
   97.1250     2.2120    88.3980    22.2930     5.1540     4.7110     5.5220   -30.8970 
   97.2500     2.2250    93.2960    22.2280     4.5070     4.4440     5.2400   -30.5000 
   97.3750     2.2320    95.9870    22.2220     4.3180     4.2800     5.0870   -30.0390 
   97.5000     2.2330    96.2130    22.2260     4.4180     4.2060     5.0400   -29.7760 
   97.6250     2.2360    94.4870    22.2260     4.6420     4.2060     5.0690   -29.4870 
   97.7500     2.2440    91.8370    22.2260     4.7870     4.2580     5.1350   -29.3440 
   97.8750     2.2540    89.1140    22.2260     4.7680     4.3180     5.1900   -29.3140 
   98.0000     2.2610    86.1890    22.2260     4.7200     4.3630     5.2160   -29.3650 
   98.1250     2.2650    85.0560    22.2260     4.9030     4.3910     5.2210   -29.4450 
   98.2500     2.2690    86.1570    22.2200     5.0290     4.4170     5.2310   -29.5150 
   98.3750     2.2730    85.3530    22.2480     4.8790     4.4700     5.2760   -29.7370 
   98.5000     2.2720    82.5720    22.3750     4.6660     4.5650     5.3790   -29.9690 
   98.6250     2.2620    79.6750    22.5890     4.7400     4.7050     5.5360   -30.2380 
   98.7500     2.2470    76.9350    22.7700     5.1590     4.8640     5.7020   -30.3800 
   98.8750     2.2340    73.4850    22.8420     5.5720     5.0000     5.8250   -30.5820 
   99.0000     2.2220    70.1020    22.8820     5.6480     5.0940     5.8880   -30.7580 
   99.1250     2.2100    68.4630    23.0160     5.3880     5.1510     5.9170   -31.0000 
   99.2500     2.1970    69.1650    23.2640     5.1590     5.2080     5.9830   -31.1790 
   99.3750     2.1800    72.0830    23.4820     5.3860     5.3190     6.1550   -31.4270 
   99.5000     2.1590    75.3910    23.5840     6.7890     5.5170     6.4550   -31.6890 
   99.6250     2.1450    76.8390    23.5970     8.4080     5.7820     6.8340   -31.9030 
   99.7500     2.1580    74.9040    23.5940     8.5250     6.0250     7.1570   -32.1840 
   99.8750     2.2010    71.2990    23.5970     7.2660     6.1470     7.2990   -32.3450 
  100.0000     2.2610    70.1290    23.5670     6.4300     6.0910     7.2010   -32.5850 
  100.1250     2.3120    73.4390    23.4640     5.9210     5.8580     6.8770   -32.7450 
  100.2500     2.3230    78.6730    23.3140     5.4220     5.4860     6.3920   -32.9690 
  100.3750     2.3060    82.3310    23.2110     5.4120     5.0870     5.8960   -33.1530 
  100.5000     2.2840    83.4980    23.1800     5.7110     4.7700     5.5280   -33.2370 
  100.6250     2.2740    82.3380    23.1830     5.6790     4.6510     5.4450   -33.4340 
  100.7500     2.2810    79.1550    23.1830     5.3910     4.9010     5.8740   -33.6900 
  100.8750     2.3060    78.2040    23.1830     5.9070     5.5290     6.8030   -34.0750 
  101.0000     2.3480    79.5410    23.1830     9.7500     6.4990     8.1280   -34.4040 
  101.1250     2.3940    78.0630    23.1830    16.4770     7.6250     9.5280   -34.8070 
  101.2500     2.4100    71.0660    23.1830    19.0680     8.4440    10.3300   -35.2950 
  101.3750     2.3790    64.9600    23.1830    15.3590     8.6180    10.2230   -35.7190 
  101.5000     2.3120    63.9250    23.1830    10.4910     8.1720     9.3850   -36.2520 
  101.6250     2.2440    65.1890    23.1820     7.8370     7.4240     8.3110   -36.6910 
  101.7500     2.2110    64.6300    23.1860     7.1240     6.7400     7.4940   -37.1230 
  101.8750     2.2070    64.0780    23.1980     6.7840     6.2690     7.0300   -37.4570 
  102.0000     2.2150    66.4390    23.2280     6.5550     5.9990     6.8330   -37.7590 
  102.1250     2.2200    70.5640    23.2900     6.3300     5.8610     6.7690   -38.0030 
  102.2500     2.2180    72.7980    23.3740     6.0950     5.8070     6.7600   -38.1650 
  102.3750     2.2170    74.7260    23.4360     6.0770     5.8000     6.7840   -38.3600 
  102.5000     2.2180    77.6600    23.4740     6.2410     5.8380     6.8470   -38.4180 
  102.6250     2.2220    79.2260    23.5300     6.4360     5.9190     6.9490   -38.6010 
  102.7500     2.2230    75.8880    23.6570     6.9120     6.0360     7.0760   -38.8010 
  102.8750     2.2180    69.7360    23.8030     7.2640     6.1590     7.1960   -39.0520 
  103.0000     2.2100    64.4900    23.8990     7.1760     6.2740     7.3020   -39.2950 
  103.1250     2.2010    61.0810    23.9190     6.8740     6.3890     7.4150   -39.5830 
  103.2500     2.1880    60.1440    23.8690     7.0340     6.5320     7.5820   -39.9900 
  103.3750     2.1720    60.7670    23.7760     7.3900     6.7100     7.8040   -40.2810 
  103.5000     2.1640    61.5220    23.6710     7.8750     6.9060     8.0520   -40.6820 
  103.6250     2.1770    61.7060    23.5990     8.7440     7.0870     8.2710   -40.9860 
  103.7500     2.2100    61.5360    23.5830     9.8720     7.1870     8.3780   -41.2360 
  103.8750     2.2360    61.3980    23.5690     9.7410     7.1850     8.3620   -41.4620 
  104.0000     2.2340    61.3150    23.5380     8.6270     7.1030     8.2590   -41.6830 
  104.1250     2.2080    61.2650    23.5050     7.9910     6.9870     8.1350   -41.8700 
  104.2500     2.1760    60.8880    23.4910     8.0140     6.8940     8.0560   -41.9180 
  104.3750     2.1540    61.5940    23.4900     8.1130     6.8480     8.0350   -42.0630 
  104.5000     2.1470    63.3580    23.4900     8.1830     6.8430     8.0570   -42.0610 
  104.6250     2.1480    64.6120    23.4900     8.1890     6.8580     8.0840   -42.0960 
  104.7500     2.1500    62.3080    23.4900     8.1390     6.8680     8.0880   -42.0960 
  104.8750     2.1510    59.0900    23.4900     8.1020     6.8690     8.0760   -42.0500 
  105.0000     2.1500    58.2950    23.4900     8.1120     6.8690     8.0680   -41.9680 
  105.1250     2.1480    59.4610    23.4900     8.1190     6.8760     8.0760   -41.8950 
  105.2500     2.1420    59.9800    23.4900     7.9790     6.8960     8.1040   -41.7740 
  105.3750     2.1360    58.3380    23.4960     7.8600     6.9190     8.1340   -41.6690 
  105.5000     2.1320    56.4560    23.5240     7.8990     6.9280     8.1320   -41.6690 
  105.6250     2.1320    56.3520    23.5740     7.9730     6.8870     8.0530   -41.5900 
  105.7500     2.1330    58.2660    23.6210     7.9510     6.7560     7.8500   -41.4710 
  105.8750     2.1370    61.0680    23.6430     7.8330     6.5550     7.5680   -41.2760 
  106.0000     2.1420    63.6020    23.6450     7.6670     6.3290     7.2760   -41.1860 
  106.1250     2.1490    66.0840    23.6440     7.3560     6.1380     7.0570   -40.9920 
