~V
VERS. 2.00: Ver 2.00
~W
STRT.M 59.0000:
STOP.M 277.0000:
STEP.M 0.1250:
NULL. -999.2500:
UWI. DF5027:
~C
DEPT.M :
GR.API :
RML.OHMM :
RI. :
RXO.OHMM :
CALI.CM :
DEN.GM/CC :
SP.MV :
~A
# ...
  216.5000    59.2120   136.5330   121.8110   101.5360    24.6710     2.3410   -23.4040 
  216.6250    61.1220   153.4910   136.6960   147.9190    24.8430     2.2850   -23.6460 
  216.7500    62.2110   175.0840   155.7400   216.4880    24.9260     2.2320   -23.9050 
  216.8750    62.5400   199.4630   177.2320   257.6070    24.9540     2.1940   -24.1090 
  217.0000    62.5380   223.9850   198.8760   242.2780    24.9520     2.1760   -24.2530 
  217.1250    60.9970   244.8360   217.3910   218.5630    24.9370     2.1750   -24.3430 
  217.2500    58.9450   260.1500   231.2200   252.7820    24.9250     2.1800   -24.3870 
  217.3750    57.8300   269.5150   239.9040   315.4410    24.9050     2.1850   -24.4040 
  217.5000    57.7450   273.8620   244.1250   355.8970    24.8650     2.1880   -24.4300 
  217.6250    58.1560   274.0020   244.6170   354.8330    24.8450     2.1870   -24.4120 
  217.7500    59.4740   271.6430   243.0010   327.9910    24.8410     2.1860   -24.4210 
  217.8750    60.7450   267.1920   239.7230   320.4450    24.8480     2.1840   -24.4480 
  218.0000    61.2530   260.7240   234.8900   351.2160    24.8570     2.1850   -24.5090 
  218.1250    63.1850   251.6420   227.9770   381.3470    24.7780     2.1940   -24.6400 
  218.2500    65.4420   240.0280   218.8490   400.5070    24.6480     2.2110   -24.8170 
  218.3750    64.5130   226.2340   207.6200   392.5870    24.6040     2.2300   -25.0630 
  218.5000    62.4240   211.1270   194.9430   364.0020    24.7060     2.2450   -25.2480 
  218.6250    63.2140   196.1190   181.9500   308.8930    24.7970     2.2480   -25.6200 
  218.7500    65.3270   182.5240   169.9280   248.3580    24.8150     2.2410   -25.9070 
  218.8750    65.5140   170.9530   159.5540   200.6650    24.7800     2.2280   -26.2350 
  219.0000    63.6900   161.4440   150.9820   172.2990    24.7420     2.2150   -26.4810 
  219.1250    61.7390   153.4690   143.8530   175.1590    24.7060     2.2060   -26.7510 
  219.2500    62.2730   145.7960   137.0290   176.9290    24.6710     2.2010   -27.0240 
  219.3750    65.4450   138.0050   130.0600   172.6440    24.6560     2.2000   -27.2510 
  219.5000    67.3070   130.1800   122.9690   146.2960    24.6530     2.1990   -27.5490 
  219.6250    66.2000   122.9670   116.1950   130.4230    24.6480     2.1960   -27.6950 
  219.7500    64.6690   117.0350   110.3130   128.0280    24.6370     2.1910   -27.9390 
  219.8750    63.1980   113.0080   105.9520   125.0900    24.6320     2.1840   -28.1830 
  220.0000    62.0570   111.3200   103.6100    94.2510    24.6890     2.1770   -28.5560 
  220.1250    62.2900   112.7870   104.1480    85.0940    24.7270     2.1690   -28.8960 
  220.2500    62.7090   117.2480   107.4760    92.4510    24.7440     2.1630   -29.2000 
  220.3750    61.9150   124.8250   113.7060   113.0460    24.7430     2.1600   -29.5080 
  220.5000    60.9890   135.6480   122.8990   139.7780    24.7410     2.1620   -29.7890 
  220.6250    61.5780   150.5390   135.6330   152.5840    24.7590     2.1700   -30.0730 
  220.7500    61.7740   168.8650   151.0480   179.5680    24.8120     2.1800   -30.3380 
  220.8750    60.9690   189.8890   168.1810   244.4390    24.8870     2.1890   -30.5070 
  221.0000    60.4000   211.9430   185.5040   332.3950    24.9370     2.1930   -30.5580 
  221.1250    59.8310   231.6050   200.3110   398.8300    24.9330     2.1910   -30.4810 
  221.2500    59.2560   245.6080   210.5140   412.3270    24.8960     2.1850   -30.3720 
  221.3750    60.4080   251.2860   214.4280   415.9860    24.8540     2.1780   -30.1470 
  221.5000    63.9620   247.4890   211.3030   415.1400    24.8330     2.1760   -29.8130 
  221.6250    65.8200   234.5440   201.0790   409.4280    24.8310     2.1800   -29.3750 
  221.7500    63.4990   218.0550   187.5830   391.7290    24.8220     2.1900   -28.7540 
  221.8750    60.2010   202.0120   173.7880   356.5810    24.7580     2.2020   -28.0970 
  222.0000    59.9520   189.3280   162.1870   306.6820    24.5400     2.2080   -27.3230 
  222.1250    63.6100   182.6440   155.3970   206.1300    24.1960     2.2010   -26.6620 
  222.2500    64.6950   181.3340   153.4450   148.6500    23.9650     2.1830   -25.8950 
  222.3750    60.1470   184.6080   155.9110   150.9720    24.0840     2.1620   -25.1960 
  222.5000    54.4450   190.9180   161.6140   194.2710    24.4110     2.1450   -24.5340 
  222.6250    56.1090   197.5380   168.2960   226.8410    24.6490     2.1390   -23.9680 
  222.7500    61.8830   201.6620   173.2890   281.2460    24.7550     2.1450   -23.5270 
  222.8750    64.0310   202.1510   175.2340   326.7480    24.7480     2.1580   -23.1730 
  223.0000    61.5590   199.2810   173.9330   325.9110    24.6740     2.1760   -22.9710 
  223.1250    59.9690   192.5930   169.0170   275.7830    24.6440     2.1980   -22.7410 
  223.2500    61.6180   181.4950   160.6980   237.9980    24.6410     2.2230   -22.6200 
  223.3750    63.5290   163.8180   147.9040   189.2520    24.5680     2.2490   -22.5590 
  223.5000    63.7350   138.2730   129.6080   143.7330    24.4950     2.2750   -22.5740 
  223.6250    63.6080   107.4570   106.0860   124.0700    24.5340     2.3010   -22.5880 
  223.7500    64.5030    78.0730    81.1960   140.3060    24.6050     2.3340   -22.6320 
  223.8750    65.8740    53.9740    58.0850   137.3860    24.5750     2.3740   -22.6400 
  224.0000    67.2370    36.1570    39.0800   121.6460    24.4600     2.4140   -22.6350 
  224.1250    67.7070    24.9090    26.0180    87.1290    24.3170     2.4280   -22.5960 
  224.2500    65.7040    17.4990    17.4660    30.2240    24.2280     2.4050   -22.4830 
  224.3750    63.1510    12.7790    12.2720     8.7020    24.1620     2.3560   -22.3290 
  224.5000    63.5450    10.4550     9.3670     4.6190    24.0470     2.3020   -22.0740 
  224.6250    67.7220     9.4620     7.9960     4.4150    23.9010     2.2700   -21.7790 
  224.7500    74.4290     9.0470     7.3390     4.7190    23.8540     2.2620   -21.4600 
  224.8750    82.2520     8.9680     7.1280     5.2010    23.9720     2.2720   -21.0640 
  225.0000    87.7320     9.0340     7.1680     5.9420    24.2120     2.2920   -20.6030 
  225.1250    88.4530     9.1000     7.3110     6.8400    24.3530     2.3160   -20.1040 
  225.2500    88.5030     9.1130     7.4460     7.4510    24.3400     2.3420   -19.5470 
  225.3750    90.3950     9.0890     7.5550     7.4720    24.3290     2.3650   -18.9990 
  225.5000    93.1240     9.0460     7.6360     7.5450    24.3300     2.3860   -18.4360 
  225.6250    95.1230     8.9990     7.6870     7.6540    24.4230     2.4020   -17.9270 
  225.7500    99.2840     8.9760     7.7190     7.6950    24.5220     2.4170   -17.4320 
  225.8750   104.7940     9.0030     7.7410     7.5100    24.5670     2.4280   -17.0430 
  226.0000   108.5260     9.0800     7.7540     7.3890    24.5880     2.4360   -16.7270 
  226.1250   108.4110     9.1870     7.7500     7.5450    24.6530     2.4390   -16.4980 
  226.2500   109.2520     9.2960     7.7290     7.7360    24.7590     2.4370   -16.4160 
  226.3750   113.6020     9.3900     7.6930     8.0170    24.8420     2.4300   -16.3660 
  226.5000   119.0130     9.4680     7.6470     8.3220    24.9090     2.4170   -16.4650 
  226.6250   119.7890     9.5380     7.6190     8.5450    24.9350     2.4000   -16.6020 
  226.7500   114.2980     9.6160     7.6340     8.6030    24.9060     2.3840   -16.7610 
  226.8750   104.7720     9.7190     7.7150     8.3040    24.8360     2.3740   -16.9700 
  227.0000    98.0470     9.8740     7.8710     8.0570    24.7960     2.3710   -17.2030 
  227.1250    98.8520    10.0970     8.1060     8.1110    24.7680     2.3750   -17.4060 
  227.2500   102.4440    10.3380     8.3750     8.6630    24.6940     2.3820   -17.6460 
  227.3750   106.2160    10.5440     8.6250     9.1200    24.6110     2.3880   -17.8350 
  227.5000   110.3160    10.6730     8.8070     9.3460    24.5850     2.3920   -17.9540 
  227.6250   112.9500    10.6930     8.8620     9.1460    24.6390     2.3930   -18.0070 
