~V
VERS. 2.00: Ver 2.00
~W
STRT.M 61.0000:
STOP.M 253.0000:
STEP.M 0.1250:
NULL. -999.2500:
UWI. DF5045:
~C
DEPT.M :
GR.API :
CALI.CM :
RXO.OHMM :
RI. :
RML.OHMM :
DEN.GM/CC :
SP.MV :
~A
# ...
  218.5000    70.7430    23.9770   134.6170   106.5790   111.9820     2.2040   -15.9550 
  218.6250    68.8580    23.8640   130.9840   100.0030   105.1030     2.2060   -16.0280 
  218.7500    67.7910    23.8390   115.4030    93.9020    98.7210     2.2010   -16.1620 
  218.8750    67.9040    23.9320    94.0780    89.3360    93.9460     2.1990   -16.3540 
  219.0000    68.4760    24.1700    86.5430    86.8480    91.3430     2.2010   -16.5740 
  219.1250    68.9690    24.3710    95.0670    85.5300    89.9640     2.2020   -16.7570 
  219.2500    69.4560    24.4400   110.9780    84.5410    88.9290     2.2000   -16.9180 
  219.3750    70.2710    24.4470   123.9160    83.2250    87.5540     2.1980   -17.0280 
  219.5000    72.0560    24.4610   125.1930    81.1540    85.3870     2.2010   -17.1350 
  219.6250    74.2490    24.4430   116.8500    78.4670    82.5760     2.2080   -17.2180 
  219.7500    75.8340    24.4070   103.4530    75.3890    79.3570     2.2130   -17.2340 
  219.8750    76.3530    24.3710    90.0850    72.3060    76.1330     2.2130   -17.1810 
  220.0000    75.4490    24.3240    82.3060    69.7430    73.4510     2.2150   -17.1500 
  220.1250    73.7380    24.2680    77.8810    67.8480    71.4690     2.2290   -17.1780 
  220.2500    72.6400    24.2050    74.3670    66.6420    70.2070     2.2500   -17.1670 
  220.3750    73.8030    24.1900    70.0480    66.1280    69.6700     2.2630   -17.1080 
  220.5000    76.2240    24.2380    66.5930    66.4570    70.0140     2.2620   -17.0840 
  220.6250    76.3150    24.2390    66.2680    67.4310    71.0330     2.2520   -17.1260 
  220.7500    73.6260    24.1790    70.2770    68.7320    72.3930     2.2350   -17.1520 
  220.8750    70.5340    24.1410    77.1000    69.7870    73.4970     2.2150   -17.1080 
  221.0000    69.4450    24.1670    83.4410    69.8160    73.5280     2.2070   -17.0440 
  221.1250    69.9220    24.1990    87.3790    68.7490    72.4120     2.2140   -16.9760 
  221.2500    71.4870    24.1640    86.4860    66.8500    70.4250     2.2330   -16.8870 
  221.3750    73.8690    24.1340    78.9880    64.8010    68.2810     2.2610   -16.7490 
  221.5000    76.0910    24.1730    65.9920    64.0220    67.4670     2.2930   -16.5850 
  221.6250    77.7580    24.2290    54.5920    65.6860    69.2070     2.3210   -16.4020 
  221.7500    79.2700    24.2300    51.9100    70.7550    74.5100     2.3360   -16.1860 
  221.8750    81.1140    24.2020    63.8560    79.8660    84.0400     2.3430   -15.9590 
  222.0000    83.9670    24.2520    90.7960    93.8520    98.6690     2.3550   -15.7230 
  222.1250    87.6390    24.3030   118.1190   110.5070   116.0900     2.3810   -15.4870 
  222.2500    90.8970    24.2130   142.9810   125.4360   131.7060     2.4180   -15.2340 
  222.3750    91.5340    23.9840   170.8110   131.6700   138.2270     2.4620   -14.9780 
  222.5000    87.7080    23.8720   185.0050   121.0450   127.1130     2.5110   -14.7160 
  222.6250    81.3020    23.8650   183.3610    98.3260   103.3490     2.5570   -14.4840 
  222.7500    75.1030    23.8730   176.1760    71.2500    75.0280     2.5930   -14.2840 
  222.8750    71.9480    23.8450   166.4100    46.9530    49.6130     2.6090   -14.1070 
  223.0000    73.8400    23.7990   132.0450    29.9060    31.7820     2.5860   -14.0120 
  223.1250    78.7790    23.7860    77.2680    18.8570    20.2240     2.5350   -14.0670 
  223.2500    84.1130    23.7890    31.6000    12.4700    13.5430     2.4790   -14.2420 
  223.3750    87.3690    23.8170     9.9170     9.3270    10.2560     2.4480   -14.4440 
  223.5000    88.1720    23.8970     6.2620     8.3420     9.2260     2.4520   -14.6940 
  223.6250    89.4630    24.0300     6.9420     8.2610     9.1410     2.4610   -15.0290 
  223.7500    92.6690    24.1410     8.2050     8.6370     9.5340     2.4590   -15.4300 
  223.8750    96.7830    24.1810     8.9220     9.1730    10.0950     2.4490   -15.7900 
  224.0000   100.2110    24.1380     8.9880     9.6030    10.5450     2.4440   -16.1020 
  224.1250   103.7290    24.1290     8.8260     9.8120    10.7630     2.4440   -16.4130 
  224.2500   108.8270    24.1760     8.6930     9.8300    10.7820     2.4420   -16.7180 
  224.3750   116.1740    24.2090     8.6630     9.7800    10.7300     2.4350   -16.9980 
  224.5000   125.3510    24.1840     8.7240     9.8270    10.7790     2.4200   -17.2510 
  224.6250   134.2280    24.1270     8.8730    10.0560    11.0190     2.4060   -17.5440 
  224.7500   140.8140    24.1070     9.2320    10.5040    11.4870     2.4040   -17.8580 
  224.8750   143.4800    24.1160    10.0020    11.1760    12.1910     2.4170   -18.1550 
  225.0000   140.1040    24.1040    11.6160    12.0640    13.1180     2.4230   -18.4160 
  225.1250   132.3170    24.0810    14.0400    13.0470    14.1470     2.4010   -18.6530 
  225.2500   122.9040    24.0710    16.5140    14.0280    15.1740     2.3640   -18.8450 
  225.3750   114.4320    24.0780    17.8680    14.9180    16.1040     2.3380   -18.9970 
  225.5000   108.7360    24.0820    17.6000    15.6240    16.8430     2.3360   -19.1100 
  225.6250   105.4590    24.0770    17.1520    16.1610    17.4040     2.3380   -19.1800 
  225.7500   103.2700    24.0660    17.3810    16.5630    17.8250     2.3400   -19.1940 
  225.8750   100.0100    24.0510    18.0910    16.8860    18.1630     2.3440   -19.1800 
  226.0000    95.0830    24.0420    18.7810    17.2250    18.5170     2.3490   -19.1140 
  226.1250    90.9660    24.0430    19.3460    17.6700    18.9830     2.3470   -19.0590 
  226.2500    89.0050    24.0490    19.9680    18.2760    19.6170     2.3340   -19.0420 
  226.3750    89.2080    24.0500    20.6490    19.0640    20.4400     2.3180   -19.0110 
  226.5000    91.1450    24.0440    21.4670    20.0500    21.4720     2.3080   -18.9090 
  226.6250    92.9240    23.9940    22.6780    21.1550    22.6290     2.3020   -18.8360 
  226.7500    93.0330    23.9030    24.6860    22.2930    23.8190     2.3010   -18.8670 
  226.8750    91.8010    23.8670    27.6760    23.3450    24.9190     2.3070   -18.9160 
  227.0000    91.9940    23.9210    30.3330    24.1360    25.7470     2.3170   -18.9030 
  227.1250    94.0310    23.9210    30.7990    24.6050    26.2370     2.3240   -18.8870 
  227.2500    95.1640    23.8380    28.7120    24.7370    26.3750     2.3240   -18.9310 
  227.3750    93.2480    23.7480    25.8440    24.6180    26.2500     2.3170   -19.0110 
  227.5000    90.0030    23.6530    24.2570    24.4010    26.0240     2.3000   -19.0570 
  227.6250    88.6110    23.4890    23.5910    24.2760    25.8930     2.2830   -19.0590 
  227.7500    88.9740    23.1790    22.8570    24.4040    26.0270     2.2770   -19.0660 
  227.8750    89.5250    22.7010    21.4430    24.9720    26.6210     2.2850   -19.0920 
  228.0000    88.9700    22.2070    19.9640    26.2720    28.0510     2.3040   -19.1300 
  228.1250    87.7550    21.9840    20.6190    28.3740    30.7740     2.3180   -19.1830 
  228.2500    86.8090    22.1910    24.6200    31.4440    35.2480     2.3190   -19.2470 
  228.3750    86.9760    22.7630    31.0380    35.6260    40.7860     2.3070   -19.3110 
  228.5000    87.7660    23.4450    38.5730    41.1400    47.1480     2.2990   -19.3810 
  228.6250    86.9800    23.9610    48.2320    47.5430    53.9450     2.3060   -19.4800 
  228.7500    83.9380    24.1890    61.8340    54.2410    60.7920     2.3190   -19.5950 
  228.8750    80.0050    24.2000    77.6220    60.4270    66.8920     2.3230   -19.7360 
  229.0000    77.5340    24.1130    90.3200    65.0440    71.1660     2.3070   -19.7980 
  229.1250    76.2010    24.1030    98.7150    67.8550    73.4450     2.2850   -19.7650 
  229.2500    74.8790    24.1530   103.0500    68.7760    73.7840     2.2720   -19.7210 
  229.3750    74.4600    24.1660   102.1810    68.1370    72.7220     2.2720   -19.6990 
  229.5000    76.6490    24.1130    94.2850    66.6650    71.2160     2.2800   -19.6010 
  229.6250    79.3440    24.1130    82.6430    65.4510    70.3170     2.2860   -19.3660 
