~V
VERS. 2.00: Ver 2.00
~W
STRT.M 58.0000:
STOP.M 256.0000:
STEP.M 0.1250:
NULL. -999.2500:
UWI. DF5024:
~C
DEPT.M :
SP.MV :
GR.API :
CALI.CM :
RXO.OHMM :
RI. :
RML.OHMM :
DEN.GM/CC :
~A
# ...
  238.0000   -17.6200    85.4490    23.3250    42.3740    44.5640    47.7400     2.2240 
  238.1250   -17.5690    86.1860    22.8120    39.2720    46.2230    49.5100     2.2250 
  238.2500   -17.5100    84.4730    22.4330    40.9860    51.5570    55.2010     2.2170 
  238.3750   -17.4410    81.6890    22.3520    51.8240    61.4970    65.8070     2.2030 
  238.5000   -17.3650    79.4810    22.6780    79.2110    76.6510    81.9760     2.1900 
  238.6250   -17.2790    77.4880    23.2240   131.8720    97.6290   104.3600     2.1800 
  238.7500   -17.1850    74.4980    23.5670   197.8300   121.9090   130.2670     2.1740 
  238.8750   -17.0830    71.1590    23.6830   248.1690   146.7280   156.7490     2.1710 
  239.0000   -16.9760    68.7800    23.7910   264.6760   168.7660   180.2640     2.1700 
  239.1250   -16.8670    67.8950    23.8930   253.0110   183.8280   196.3340     2.1740 
  239.2500   -16.7610    68.2230    23.9030   243.8530   191.8270   204.8700     2.1840 
  239.3750   -16.6630    69.4640    23.8700   243.6430   193.7700   206.9430     2.2100 
  239.5000   -16.5760    70.7250    23.8300   250.3720   191.3490   204.3590     2.2540 
  239.6250   -16.4990    70.7970    23.7100   254.1210   185.2900   197.8950     2.2990 
  239.7500   -16.4300    70.0090    23.5080   247.1300   176.6270   188.6510     2.3300 
  239.8750   -16.3670    69.5080    23.2870   230.8070   165.7340   177.0280     2.3540 
  240.0000   -16.3070    70.1980    23.1230   213.0550   153.3760   163.8430     2.3740 
  240.1250   -16.2470    72.3720    23.1880   197.9760   140.7960   150.4190     2.3650 
  240.2500   -16.1840    74.5550    23.3900   181.3940   129.2170   138.0650     2.3150 
  240.3750   -16.1170    75.3290    23.5040   160.0120   119.3160   127.5000     2.2420 
  240.5000   -16.0470    74.4340    23.3580   135.9300   111.5710   119.2370     2.1820 
  240.6250   -15.9770    73.0640    22.8470   117.4130   106.6380   113.9730     2.1540 
  240.7500   -15.9110    72.2930    22.2610   110.8640   104.1070   111.2720     2.1340 
  240.8750   -15.8540    71.6540    21.9210   115.3240   103.8490   110.9970     2.1110 
  241.0000   -15.8060    70.3260    21.9340   119.1720   105.5970   112.8620     2.0900 
  241.1250   -15.7610    68.3730    22.3890   116.5710   108.8650   116.3490     2.0840 
  241.2500   -15.7090    66.2160    23.0090   119.7020   112.4270   120.1500     2.0930 
  241.3750   -15.6520    63.8780    23.4280   137.9790   115.3580   123.2770     2.1100 
  241.5000   -15.5950    62.2980    23.4880   161.6980   116.8680   124.8890     2.1230 
  241.6250   -15.5530    63.9620    23.4040   167.5950   116.3280   124.3120     2.1220 
  241.7500   -15.5290    68.0840    23.4200   154.4970   114.4740   122.3340     2.1220 
  241.8750   -15.5170    72.2780    23.5130   132.7950   112.2040   119.9120     2.1410 
  242.0000   -15.5110    75.1300    23.5880   115.1130   110.4350   118.0250     2.1860 
  242.1250   -15.5050    76.8520    23.5580   106.5420   109.7290   117.2710     2.2380 
  242.2500   -15.4990    77.5990    23.4130   103.0840   109.1260   116.6280     2.2710 
  242.3750   -15.4900    76.9940    23.2060    98.3500   107.1280   114.4960     2.2790 
  242.5000   -15.4760    75.6150    23.0610    94.9780   102.2550   109.2960     2.2690 
  242.6250   -15.4530    75.3330    23.0140    99.6750    92.9760    99.3960     2.2530 
  242.7500   -15.4290    76.2710    22.9810   106.1250    80.5060    86.0900     2.2420 
  242.8750   -15.4130    76.8180    22.9110   102.3730    66.6600    71.3160     2.2450 
  243.0000   -15.4160    75.8820    22.8150    82.1220    53.6700    57.4560     2.2640 
  243.1250   -15.4440    74.9480    22.8480    55.9160    43.8080    46.9330     2.2860 
  243.2500   -15.4930    76.2110    23.0400    38.5440    37.3630    40.0560     2.2910 
  243.3750   -15.5580    78.8570    23.3340    30.6080    34.2870    36.7740     2.2800 
  243.5000   -15.6330    80.2670    23.6220    27.3510    34.3030    36.7910     2.2660 
  243.6250   -15.7110    78.7490    23.8150    29.8120    37.4740    40.1740     2.2580 
  243.7500   -15.7870    76.0970    23.8940    40.7500    42.7610    45.8160     2.2530 
  243.8750   -15.8630    73.7730    23.9200    59.1570    49.2750    52.7660     2.2470 
  244.0000   -15.9420    72.5260    23.9150    76.6120    55.7640    59.6900     2.2430 
  244.1250   -16.0290    73.0840    23.8870    83.3220    60.4870    64.7300     2.2440 
  244.2500   -16.1200    74.9050    23.8480    82.0350    62.7900    67.1870     2.2400 
  244.3750   -16.2080    76.6580    23.8170    77.4180    62.7460    67.1400     2.2310 
  244.5000   -16.2800    77.5240    23.7710    72.6780    61.1810    65.4700     2.2250 
  244.6250   -16.3230    77.2550    23.7980    69.1020    59.5090    63.6860     2.2290 
  244.7500   -16.3360    76.1440    23.8550    66.0790    58.9940    63.1360     2.2330 
  244.8750   -16.3240    75.0460    23.9070    63.7590    60.2400    64.4660     2.2310 
  245.0000   -16.2970    75.5560    23.9340    64.6600    63.4430    67.8840     2.2270 
  245.1250   -16.2690    77.9500    23.9330    73.4460    68.7210    73.5150     2.2300 
  245.2500   -16.2560    79.9340    23.9250    88.3540    75.2670    80.4990     2.2330 
  245.3750   -16.2680    80.4410    23.9150   105.1730    82.4210    88.1330     2.2290 
  245.5000   -16.3060    79.9080    23.9180   119.6160    89.4420    95.6240     2.2220 
  245.6250   -16.3600    79.4830    23.9420   129.0460    95.4220   102.0060     2.2250 
  245.7500   -16.4100    79.4220    23.9730   137.4930   100.0560   106.9490     2.2330 
  245.8750   -16.4370    79.1330    23.9960   142.4330   103.2600   110.3680     2.2310 
  246.0000   -16.4330    78.0130    23.9880   140.8430   105.1520   112.3870     2.2170 
  246.1250   -16.3890    76.7480    23.9810   135.4360   105.7910   113.0690     2.2110 
  246.2500   -16.3220    76.5410    23.9580   129.0140   105.4880   112.7450     2.2310 
  246.3750   -16.2400    76.8230    23.8830   124.6750   104.2150   111.3880     2.2720 
  246.5000   -16.1520    76.4260    23.7830   126.2470   101.8600   108.8750     2.3170 
  246.6250   -16.0670    75.6990    23.7700   133.7230    98.2140   104.9850     2.3500 
  246.7500   -15.9880    75.7240    23.8100   133.5200    93.7530   100.2240     2.3650 
  246.8750   -15.9160    76.1100    23.8470   128.0870    89.2100    95.3770     2.3640 
  247.0000   -15.8460    76.3180    23.8350   128.7390    85.6440    91.5720     2.3600 
  247.1250   -15.7600    76.3180    23.7540   130.8430    84.6580    90.5200     2.3720 
  247.2500   -15.6450    76.3180    23.6690   120.7020    86.6980    92.6970     2.4030 
  247.3750   -15.4940    76.3180    23.6200    99.4150    91.2940    97.6010     2.4490 
  247.5000   -15.3130    76.3180    23.5700    85.4040    96.0840   102.7110     2.5030 
  247.6250   -15.1090    76.3180    23.5450   107.1800    96.0530   102.6790     2.5500 
  247.7500   -14.8970    76.3180    23.6310   162.4680    88.5020    94.6220     2.5920 
  247.8750   -14.6810    76.3180    23.8280   216.9390    74.0570    79.2090     2.6310 
  248.0000   -14.4660    76.3180    23.9620   224.4910    56.2110    60.1670     2.6510 
  248.1250   -14.2570    76.3180    23.9390   164.2200    39.6120    42.4560     2.6210 
  248.2500   -14.0620    76.3180    23.8790    92.1310    26.6540    28.6300     2.5480 
  248.3750   -13.8820    76.3180    23.8570    40.7640    17.6620    19.0350     2.4600 
  248.5000   -13.7160    76.3180    23.8780    16.4460    12.0760    13.0750     2.3820 
  248.6250   -13.5680    76.3180    23.8590     9.9630     9.2410    10.0500     2.3330 
  248.7500   -13.4410    76.3180    23.7830     8.2670     7.7410     8.4500     2.3130 
  248.8750   -13.3390    76.3180    23.6990     7.9190     6.9750     7.6320     2.3130 
  249.0000   -13.2660    76.3180    23.6430     7.6840     6.6060     7.2390     2.3130 
  249.1250   -13.2280    76.3180    23.6250     7.2680     6.4790     7.1030     2.3010 
