~V
VERS. 2.00: Ver 2.00
~W
STRT.M 55.0000:
STOP.M 271.0000:
STEP.M 0.1250:
NULL. -999.2500:
UWI. DF5009:
~C
DEPT.M :
GR.API :
CALI.CM :
RXO.OHMM :
RI. :
RML.OHMM :
DEN.GM/CC :
SP.MV :
~A
# ...
  257.5000   112.0540    25.3090    41.4310    25.9000    27.1120     2.4540    -6.2890 
  257.6250   115.1800    25.1810    40.3810    27.8920    28.7140     2.4780    -6.2370 
  257.7500   114.9760    24.9720    39.5140    29.1390    29.5870     2.4930    -6.0570 
  257.8750   113.2860    24.8180    38.6910    29.3440    29.4020     2.4890    -5.8540 
  258.0000   111.1070    24.8730    32.8230    28.0980    27.7460     2.4660    -5.8500 
  258.1250   108.3290    25.0990    23.6640    25.0320    24.3230     2.4340    -5.7540 
  258.2500   105.9080    25.2340    17.9210    21.0460    20.0750     2.4040    -5.5420 
  258.3750   103.5340    25.2050    14.9040    17.0370    15.9150     2.3830    -5.3440 
  258.5000   101.1680    25.1380    11.6220    13.6930    12.5480     2.3710    -5.1420 
  258.6250   101.0500    25.1500     8.6690    11.4500    10.4280     2.3650    -4.9670 
  258.7500   102.0950    25.1940     7.9190    10.0620     9.2240     2.3570    -5.0080 
  258.8750   102.7380    25.2190     9.0250     9.3180     8.6500     2.3450    -5.0770 
  259.0000   102.5170    25.2120     9.4620     8.9940     8.4200     2.3270    -4.9650 
  259.1250   102.3000    25.1980     9.1330     8.8760     8.2910     2.3090    -4.8690 
  259.2500   102.6470    25.1880     7.9690     8.7420     8.0930     2.3030    -4.8830 
  259.3750   102.7280    25.1830     7.4880     8.5260     7.8090     2.3110    -5.0250 
  259.5000   102.7040    25.1720     7.5670     8.2730     7.5250     2.3310    -5.2640 
  259.6250   103.2060    25.1300     7.5530     8.1140     7.3910     2.3520    -5.5360 
  259.7500   105.9590    25.0390     7.9990     8.1210     7.4600     2.3650    -5.7640 
  259.8750   111.4480    24.9320     9.3060     8.2970     7.7080     2.3640    -5.9430 
  260.0000   115.6710    24.8980    10.8550     8.5710     8.0350     2.3550    -6.1790 
  260.1250   112.2530    24.9820    11.0690     8.7980     8.2740     2.3430    -6.4220 
  260.2500   103.5580    25.0990    10.1210     8.8610     8.3270     2.3310    -6.6550 
  260.3750    96.5640    25.2140     8.9650     8.7360     8.1940     2.3210    -6.8660 
  260.5000    95.2100    25.3440     8.1280     8.4770     7.9490     2.3140    -7.0390 
  260.6250    98.0880    25.4620     7.9960     8.1950     7.7150     2.3140    -7.0760 
  260.7500   102.4220    25.4910     8.3390     8.0030     7.5960     2.3200    -7.0700 
  260.8750   108.6160    25.4730     8.7720     7.9640     7.6520     2.3280    -7.1420 
  261.0000   113.2900    25.4810     9.0890     8.1100     7.9110     2.3330    -7.2280 
  261.1250   112.4800    25.5240     9.9630     8.4750     8.3890     2.3290    -7.4530 
  261.2500   112.4800    25.5410    11.3490     8.9760     8.9690     2.3150    -7.7350 
  261.3750   112.4800    25.5050    12.1690     9.4960     9.4980     2.2980    -7.9480 
  261.5000   112.4800    25.4270    12.2920     9.8590     9.7830     2.2820    -8.0460 
  261.6250   112.4800    25.3360    11.8030     9.8250     9.6130     2.2710    -8.0950 
  261.7500   112.4800    25.2740    10.2580     9.4120     9.0760     2.2680    -8.1890 
  261.8750   112.4800    25.2500     8.4310     8.7480     8.3390     2.2700    -8.1970 
  262.0000   112.4800    25.2450     7.6750     8.0280     7.6130     2.2760    -8.2110 
  262.1250   112.4800    25.2430     7.6100     7.4500     7.1040     2.2810    -8.1330 
  262.2500   112.4800    25.2420     7.7490     7.0760     6.8370     2.2830    -7.9270 
  262.3750   112.4800    25.2430     7.9690     6.8980     6.7780     2.2800    -7.7210 
  262.5000   112.4800    25.2430     8.1440     6.8720     6.8510     2.2750    -7.6010 
  262.6250   112.4800    25.2430     8.1860     6.9300     6.9660     2.2740    -7.5870 
  262.7500   112.4800    25.2430     8.0280     6.9950     7.0520     2.2800    -7.5270 
  262.8750   112.4800    25.2450     7.6920     7.0430     7.1040     2.2910    -7.4130 
  263.0000   112.4800    25.2480     7.4730     7.0830     7.1500     2.3020    -7.2530 
  263.1250   112.4800    25.2510     7.8740     7.1520     7.2430     2.3100    -7.1550 
  263.2500   112.4800    25.2500     8.5220     7.2820     7.4120     2.3130    -7.1370 
  263.3750   112.4800    25.2510     9.2290     7.4870     7.6660     2.3100    -7.1420 
  263.5000   112.4800    25.2660     9.8750     7.7480     7.9790     2.3030    -7.1000 
  263.6250   112.4800    25.2910    10.6450     8.0140     8.2930     2.2970    -7.1260 
  263.7500   112.4800    25.3000    11.1720     8.2310     8.5490     2.2940    -7.1340 
  263.8750   112.4800    25.2860    11.2390     8.3810     8.7160     2.2950    -7.1640 
  264.0000   112.4800    25.2410    10.7170     8.4730     8.7940     2.2980    -7.2710 
  264.1250   112.4800    25.1640    10.3360     8.5270     8.8110     2.3010    -7.3150 
  264.2500   112.4800    25.1010    10.4830     8.5630     8.8130     2.3010    -7.3570 
  264.3750   112.4800    25.0910    10.4960     8.5830     8.8160     2.3000    -7.4340 
  264.5000   112.4800    25.1400    10.7810     8.5880     8.8230     2.2960    -7.5210 
  264.6250   112.4800    25.1940    11.7800     8.5830     8.8270     2.2910    -7.4860 
  264.7500   112.4800    25.1760    11.4070     8.5760     8.8230     2.2840    -7.4360 
  264.8750   112.4800    25.0720     9.6680     8.5710     8.8080     2.2750    -7.4450 
  265.0000   112.4800    24.9580     7.9940     8.5700     8.7890     2.2670    -7.4180 
  265.1250   112.4800    24.9470     7.3630     8.5720     8.7750     2.2650    -7.3170 
  265.2500   112.4800    24.9960     7.6090     8.5730     8.7690     2.2690    -7.1980 
  265.3750   112.4800    25.0260     7.7320     8.5690     8.7700     2.2780    -7.1110 
  265.5000   112.4800    25.0190     7.4310     8.5580     8.7760     2.2910    -7.1490 
  265.6250   112.4800    25.0110     7.1320     8.5430     8.7780     2.3030    -7.2390 
  265.7500   112.4800    25.0240     7.2480     8.5320     8.7750     2.3120    -7.3500 
  265.8750   112.4800    25.0400     7.5400     8.5310     8.7710     2.3180    -7.4250 
  266.0000   112.4800    25.0210     7.7570     8.5420     8.7730     2.3220    -7.5640 
  266.1250   112.4800    24.9610     7.8560     8.5640     8.7820     2.3220    -7.7810 
  266.2500   112.4800    24.9040     7.9090     8.5850     8.7940     2.3200    -7.9820 
  266.3750   112.4800    24.8530     7.3350     8.5960     8.8050     2.3150    -8.1050 
  266.5000   112.4800    24.7790     6.3860     8.5960     8.8100     2.3060    -8.0340 
  266.6250   112.4800    24.6920     5.9150     8.5860     8.8070     2.2930    -7.8690 
  266.7500   112.4800    24.6590     6.3380     8.5790     8.8010     2.2770    -7.8110 
  266.8750   112.4800    24.6970     6.7990     8.5770     8.7950     2.2650    -7.8260 
  267.0000   112.4800    24.7660     6.9240     8.5770     8.7930     2.2590    -7.7410 
  267.1250   112.4800    24.7980     6.6210     8.5770     8.7930     2.2620    -7.6630 
  267.2500   112.4800    24.7780     6.5770     8.5770     8.7930     2.2710    -7.6220 
  267.3750   112.4800    24.7310     6.6660     8.5770     8.7930     2.2820    -7.6130 
  267.5000   112.4800    24.6890     6.8130     8.5770     8.7930     2.2940    -7.6430 
  267.6250   112.4800    24.6550     7.2100     8.5770     8.7930     2.3030    -7.7520 
  267.7500   112.4800    24.6090     7.7010     8.5770     8.7930     2.2740    -7.7350 
  267.8750   112.4800    24.5410     8.1620     8.5770     8.7930     2.1590    -7.6220 
  268.0000   112.4800    24.4460     8.7000     8.5770     8.7930     1.9760    -7.5580 
  268.1250   112.4800    24.3350     9.8140     8.5770     8.7930     1.8120    -7.4950 
  268.2500   112.4800    24.2460    11.1450     8.5770     8.7930     1.7150    -7.4880 
  268.3750   112.4800    24.0890    10.9470     8.5770     8.7930     1.6870    -7.4890 
  268.5000   112.4800    23.6390     8.8290     8.5770     8.7930     1.6970    -7.5520 
  268.6250   112.4800    22.8550     6.8250     8.5770     8.7930     1.7150    -7.5560 
