~V
VERS. 2.00: Ver 2.00
~W
STRT.M 50.0000:
STOP.M 276.0000:
STEP.M 0.1250:
NULL. -999.2500:
UWI. DF5011:
~C
DEPT.M :
DEN.GM/CC :
GR.API :
CALI.CM :
RXO.OHMM :
RI. :
RML.OHMM :
SP.MV :
~A
# ...
   83.7500     2.5760    72.8230    24.4120    10.4190     9.0440     9.2790   -33.6510 
   83.8750     2.4910    81.0340    24.2830     6.0570     6.8680     6.7820   -33.1290 
   84.0000     2.3580    83.9970    24.1850     6.1140     5.8080     5.8470   -32.8180 
   84.1250     2.2480    81.4720    24.1470     6.7800     5.6620     6.0150   -32.5980 
   84.2500     2.2240    76.6140    24.1720     8.0850     6.2990     6.9390   -32.5530 
   84.3750     2.2610    71.8060    24.2380    11.7800     7.2360     7.9900   -32.4670 
   84.5000     2.3210    68.5910    24.3980    16.0200     7.9780     8.6170   -32.4460 
   84.6250     2.3780    70.3770    24.6550    14.8590     8.1030     8.4660   -32.4640 
   84.7500     2.4110    79.7000    24.8920     8.9800     7.5190     7.6140   -32.3590 
   84.8750     2.4070    90.5240    25.0050     5.9680     6.7280     6.6750   -32.3210 
   85.0000     2.3620    95.0060    25.0170     5.9650     6.0490     5.9760   -32.3150 
   85.1250     2.2990    91.5120    25.0100     6.1540     5.6310     5.6190   -32.3610 
   85.2500     2.2600    88.0060    25.0110     5.9900     5.5030     5.5750   -32.3190 
   85.3750     2.2610    88.5160    25.0110     5.7690     5.4970     5.6310   -32.2170 
   85.5000     2.2880    89.4480    25.0110     5.6050     5.4730     5.6430   -32.1240 
   85.6250     2.3140    88.9650    25.0110     5.3680     5.3540     5.5480   -32.1590 
   85.7500     2.3260    91.2670    25.0110     5.2370     5.1550     5.3800   -32.2670 
   85.8750     2.3260    96.8370    25.0130     5.1160     4.9570     5.2280   -32.4610 
   86.0000     2.3160   100.5320    25.0170     5.0570     4.8070     5.1370   -32.6090 
   86.1250     2.3000   100.0980    25.0190     5.0660     4.7260     5.1230   -32.8610 
   86.2500     2.2870    99.1830    25.0150     5.1810     4.7240     5.1900   -33.1950 
   86.3750     2.2780   100.4030    25.0090     5.3600     4.7920     5.3280   -33.6900 
   86.5000     2.2670    98.9420    24.9840     5.5950     4.9510     5.5680   -34.1770 
   86.6250     2.2480    93.0180    24.9160     5.9540     5.2360     5.9640   -34.7330 
   86.7500     2.2250    86.3890    24.8280     6.4970     5.7180     6.6210   -35.4100 
   86.8750     2.2150    81.5850    24.7750     8.1420     6.4090     7.5520   -35.9840 
   87.0000     2.2340    75.7440    24.7660    12.1010     7.2980     8.7220   -36.5660 
   87.1250     2.2830    68.8340    24.7710    15.6190     8.2780     9.9540   -37.1060 
   87.2500     2.3450    65.1360    24.7760    14.5760     9.0630    10.8650   -37.7210 
   87.3750     2.3820    62.6450    24.7690    13.9650     9.4190    11.2050   -38.1650 
   87.5000     2.3650    59.6160    24.6860    15.0330     9.2750    10.9350   -38.6400 
   87.6250     2.2990    58.8730    24.5000    14.0010     8.7580    10.2500   -39.0460 
   87.7500     2.2390    64.0950    24.2950     9.6360     8.1260     9.5010   -39.2860 
   87.8750     2.2320    69.6400    24.1850     8.4230     7.6020     8.9500   -39.5680 
   88.0000     2.2640    71.3040    24.1610     8.2020     7.2490     8.6400   -39.7990 
   88.1250     2.2820    70.2070    24.1500     8.1750     7.0590     8.5230   -40.0100 
   88.2500     2.2480    69.0530    24.1240     8.1940     6.9990     8.5160   -39.9790 
   88.3750     2.1900    66.4770    24.1050     8.1720     6.9780     8.4990   -39.9920 
   88.5000     2.1450    62.8350    24.1020     8.1120     6.9490     8.4280   -39.9530 
   88.6250     2.1270    61.0050    24.1030     8.0360     6.9090     8.3290   -39.8390 
   88.7500     2.1300    60.5580    24.0440     8.0130     6.8930     8.2670   -39.7700 
   88.8750     2.1350    59.2530    23.8900     7.8650     6.9180     8.2680   -39.5130 
   89.0000     2.1370    59.5530    23.6910     7.6230     6.9760     8.3220   -39.2410 
   89.1250     2.1400    63.5400    23.5490     7.4650     7.0400     8.3900   -38.8510 
   89.2500     2.1490    68.6180    23.5170     7.4140     7.0610     8.4060   -38.5400 
   89.3750     2.1590    70.2860    23.5230     7.3670     7.0090     8.3330   -38.1040 
   89.5000     2.1650    68.3310    23.5250     7.2370     6.8710     8.1620   -37.6260 
   89.6250     2.1640    65.6780    23.5250     6.9710     6.6590     7.9180   -37.1370 
   89.7500     2.1570    67.3170    23.5250     6.6710     6.4040     7.6440   -36.5040 
   89.8750     2.1460    72.1140    23.5250     6.4750     6.1500     7.3860   -36.0240 
   90.0000     2.1380    75.8040    23.5250     6.3650     5.9170     7.1530   -35.5290 
   90.1250     2.1400    76.5980    23.5250     6.2430     5.7090     6.9400   -35.1240 
   90.2500     2.1540    76.4890    23.5250     6.1260     5.5300     6.7460   -34.6050 
   90.3750     2.1680    77.9440    23.5250     6.0200     5.3880     6.5850   -34.2360 
   90.5000     2.1730    80.9180    23.5240     5.9240     5.3060     6.4910   -33.9720 
   90.6250     2.1700    82.5280    23.5200     5.8540     5.3100     6.5070   -33.7150 
   90.7500     2.1630    81.0610    23.5490     5.9780     5.4650     6.7300   -33.5730 
   90.8750     2.1570    77.0350    23.6730     6.4000     5.7830     7.1710   -33.3820 
   91.0000     2.1500    71.0970    23.8790     6.8920     6.2440     7.7800   -33.2240 
   91.1250     2.1480    64.9780    24.0770     7.3510     6.7500     8.4020   -32.9580 
   91.2500     2.1700    63.3080    24.1740     7.7870     7.0740     8.7160   -32.8160 
   91.3750     2.2150    67.1660    24.2050     8.3230     7.0460     8.5340   -32.5100 
   91.5000     2.2610    72.9570    24.2160     7.9960     6.6430     7.8710   -32.0890 
   91.6250     2.2780    76.9690    24.2170     6.7290     6.0140     6.9720   -31.6290 
   91.7500     2.2630    77.5840    24.2170     5.6810     5.4130     6.2090   -31.1790 
   91.8750     2.2400    76.6790    24.2180     5.4460     5.0050     5.7650   -30.7440 
   92.0000     2.2230    76.5380    24.2190     5.5390     4.8430     5.6680   -30.3190 
   92.1250     2.2130    78.1750    24.2190     5.8740     4.9040     5.8390   -29.9820 
   92.2500     2.2090    78.2870    24.2170     6.1470     5.0950     6.1020   -29.6990 
   92.3750     2.2130    76.6500    24.2170     6.0730     5.2350     6.2340   -29.6400 
   92.5000     2.2220    78.0460    24.2170     5.8470     5.2160     6.1290   -29.5530 
   92.6250     2.2310    84.3500    24.2170     5.4880     5.0130     5.7950   -29.5360 
   92.7500     2.2410    89.9890    24.2170     5.0140     4.6770     5.3330   -29.4690 
   92.8750     2.2610    91.2060    24.2170     4.6050     4.3350     4.9060   -29.4750 
   93.0000     2.2870    91.3050    24.2170     4.5050     4.0590     4.5970   -29.4490 
   93.1250     2.3090    92.8840    24.2170     4.5550     3.8850     4.4340   -29.4390 
   93.2500     2.3150    92.9510    24.2170     4.6640     3.8360     4.4250   -29.4250 
   93.3750     2.3140    91.7240    24.2170     4.7340     3.8740     4.5060   -29.4360 
   93.5000     2.3130    91.9240    24.2170     4.7720     3.9700     4.6410   -29.5880 
   93.6250     2.3080    93.2210    24.2170     4.9170     4.1010     4.8090   -29.6890 
   93.7500     2.2950    91.7460    24.2170     5.0960     4.2560     5.0050   -29.9160 
   93.8750     2.2840    87.1760    24.2160     5.2970     4.4170     5.2020   -30.0820 
   94.0000     2.2900    81.4910    24.2010     5.3560     4.5540     5.3600   -30.3080 
   94.1250     2.3140    79.5930    24.1480     5.3900     4.6390     5.4430   -30.5310 
   94.2500     2.3390    82.8500    24.0720     5.2740     4.6350     5.4160   -30.6600 
   94.3750     2.3470    86.3930    24.0020     5.1010     4.5580     5.3120   -30.8200 
   94.5000     2.3340    87.8040    23.9140     4.8360     4.4300     5.1650   -30.8930 
   94.6250     2.3090    88.7110    23.7930     4.8100     4.2700     4.9960   -31.0490 
   94.7500     2.2890    92.9470    23.6940     4.9590     4.0890     4.8100   -31.2270 
   94.8750     2.2800    98.2020    23.6580     5.0250     3.9130     4.6320   -31.5060 
