~V
VERS. 2.00: Ver 2.00
~W
STRT.M 60.0000:
STOP.M 273.0000:
STEP.M 0.1250:
NULL. -999.2500:
UWI. DF5003:
~C
DEPT.M :
GR.API :
CALI.CM :
RXO.OHMM :
RI. :
RML.OHMM :
DEN.GM/CC :
SP.MV :
~A
   60.0000    42.8540    25.6920     1.4210     0.5800     0.9590     2.0980     8.7110 
   60.1250    42.2080    25.6140     2.0370     0.5650     0.8750     2.1310     6.0410 
   60.2500    41.1880    25.4450     2.1610     0.5970     0.8600     2.1670     2.9400 
   60.3750    44.3970    25.0590     2.7310     0.6910     0.9070     2.1870    -0.7640 
   60.5000    51.2840    24.4570     4.4540     0.8770     1.0590     2.1870    -4.8980 
   60.6250    56.1670    23.9990     6.5500     1.2660     1.4580     2.1780    -9.3570 
   60.7500    57.9460    23.9930     7.5000     1.9340     2.1720     2.1650   -14.0270 
   60.8750    57.4200    24.2920     7.6060     2.8890     3.1310     2.1560   -18.7380 
   61.0000    56.0090    24.4830     7.2550     3.9620     4.0420     2.1580   -23.2470 
   61.1250    56.6170    24.3110     6.9570     4.8820     4.6430     2.1720   -27.5000 
   61.2500    60.3270    24.0050     7.3910     5.5960     5.0830     2.1920   -31.1890 
   61.3750    64.7560    23.8100    10.1510     6.1430     5.4890     2.2110   -34.2930 
   61.5000    66.6630    23.8740    12.8930     6.5400     5.8650     2.2200   -36.8810 
   61.6250    64.5100    24.1860    13.0210     6.7270     6.0980     2.2130   -38.7320 
   61.7500    60.1070    24.5150    10.2040     6.7380     6.1540     2.2000   -40.0950 
   61.8750    56.1170    24.7630     8.4460     6.6360     6.0790     2.1850   -41.2800 
   62.0000    55.8100    24.9510     7.6590     6.5010     5.9700     2.1700   -42.2360 
   62.1250    59.0540    25.0960     7.7400     6.4030     5.9170     2.1520   -42.9090 
   62.2500    61.2460    25.2060     8.0010     6.3520     5.9270     2.1320   -43.6150 
   62.3750    61.2190    25.3350     8.0080     6.3300     5.9740     2.1140   -44.2300 
   62.5000    59.4230    25.5170     7.9190     6.3100     6.0190     2.1030   -44.6830 
   62.6250    56.7430    25.7230     7.6930     6.2780     6.0410     2.1020   -45.1110 
   62.7500    54.8750    25.9880     7.3040     6.2440     6.0520     2.1050   -45.5970 
   62.8750    54.3710    26.3790     6.9390     6.2210     6.0720     2.1080   -45.8830 
   63.0000    54.7100    26.9400     6.9440     6.2150     6.1120     2.1090   -46.1340 
   63.1250    54.9230    27.5700     7.0540     6.2190     6.1670     2.1130   -46.3340 
   63.2500    55.2980    28.0450     7.1080     6.2160     6.2140     2.1170   -46.3390 
   63.3750    54.9990    28.2530     7.0830     6.1890     6.2280     2.1170   -46.3480 
   63.5000    54.2260    28.2990     7.0190     6.1330     6.2020     2.1040   -46.3230 
   63.6250    55.5350    28.4870     6.9100     6.0800     6.1780     2.0610   -46.3920 
   63.7500    57.2050    28.8500     6.9730     6.0930     6.2310     2.0040   -46.3840 
   63.8750    56.3600    29.2080     7.0550     6.2200     6.4180     1.9590   -46.3400 
   64.0000    54.3500    29.1030     7.1160     6.4730     6.7390     1.9450   -46.3300 
   64.1250    55.5320    27.9290     7.4100     6.8020     7.1170     1.9710   -46.4030 
   64.2500    59.1240    26.2030     7.7980     7.0760     7.3990     2.0210   -46.5220 
   64.3750    61.7100    24.7770     7.6800     7.1830     7.4670     2.0770   -46.5130 
   64.5000    60.7150    24.2240     7.1400     7.0720     7.3000     2.1180   -46.5490 
   64.6250    57.8620    24.7230     6.8080     6.7800     6.9780     2.1300   -46.5980 
   64.7500    57.7290    25.8860     6.7560     6.4520     6.6620     2.1230   -46.6470 
   64.8750    60.1630    27.2850     6.7860     6.1760     6.4260     2.0940   -46.6910 
   65.0000    61.3240    28.3930     6.7820     5.9950     6.2970     2.0420   -46.7750 
   65.1250    57.7750    29.1340     6.9800     5.9310     6.2760     1.9850   -46.8180 
   65.2500    53.5700    29.9340     7.1920     5.9440     6.3180     1.9460   -46.8360 
   65.3750    51.2670    30.7430     7.2570     6.0130     6.4090     1.9320   -46.8450 
   65.5000    51.3360    30.9140     7.1590     6.1230     6.5390     1.9440   -46.9330 
   65.6250    52.9320    29.8160     7.1590     6.2580     6.6860     1.9790   -46.9150 
   65.7500    55.2490    28.3160     7.2550     6.3880     6.8180     2.0190   -46.7780 
   65.8750    57.8800    27.3490     7.4270     6.4930     6.9160     2.0540   -46.7280 
   66.0000    59.8970    26.9710     7.5850     6.5610     6.9710     2.0800   -46.6220 
   66.1250    61.1610    26.4100     7.6330     6.5800     6.9840     2.1020   -46.5340 
   66.2500    62.5430    25.5710     7.8320     6.5620     6.9770     2.1190   -46.4090 
   66.3750    64.4300    24.9700     7.9420     6.5190     6.9680     2.1320   -46.3200 
   66.5000    66.6060    24.8100     7.7950     6.4660     6.9700     2.1380   -46.1710 
   66.6250    67.8070    24.8640     7.4180     6.4160     6.9830     2.1340   -46.0670 
   66.7500    66.6850    24.8920     7.4790     6.3690     6.9880     2.1260   -46.0580 
   66.8750    64.9820    24.8950     7.5140     6.3160     6.9660     2.1200   -45.9620 
   67.0000    65.7800    24.8960     7.4830     6.2500     6.9130     2.1220   -45.8840 
   67.1250    69.3740    24.8950     7.3230     6.1780     6.8490     2.1330   -45.8460 
   67.2500    72.3020    24.8620     6.9660     6.1200     6.8140     2.1490   -45.8600 
   67.3750    74.1160    24.8040     6.5600     6.0940     6.8300     2.1630   -45.7680 
   67.5000    76.4450    24.7710     6.3310     6.1100     6.9020     2.1720   -45.7440 
   67.6250    78.9170    24.7970     6.8130     6.1640     7.0110     2.1730   -45.6690 
   67.7500    78.9650    24.8360     7.4860     6.2290     7.1180     2.1720   -45.5520 
   67.8750    76.0700    24.8530     7.7960     6.2890     7.2070     2.1720   -45.5080 
   68.0000    72.8000    24.8550     7.7490     6.3340     7.2780     2.1730   -45.4690 
   68.1250    71.1430    24.8630     7.6100     6.3570     7.3330     2.1740   -45.3820 
   68.2500    71.4930    24.8620     7.6480     6.3590     7.3720     2.1680   -45.3750 
   68.3750    74.4140    24.8290     7.7350     6.3320     7.3760     2.1570   -45.5180 
   68.5000    78.6200    24.7740     7.7630     6.2700     7.3270     2.1440   -45.5550 
   68.6250    79.0370    24.7530     7.4950     6.1710     7.2220     2.1370   -45.6070 
   68.7500    74.7640    24.7100     7.0850     6.0670     7.1110     2.1360   -45.5760 
   68.8750    70.9700    24.4850     6.7070     5.9890     7.0410     2.1390   -45.4450 
   69.0000    71.8890    24.0540     6.5260     5.9570     7.0440     2.1410   -45.1950 
   69.1250    75.2220    23.6680     6.4050     5.9840     7.1310     2.1360   -44.8930 
   69.2500    76.3580    23.5340     6.5100     6.0470     7.2590     2.1280   -44.5640 
   69.3750    75.7310    23.6010     6.7010     6.1240     7.3870     2.1190   -44.2520 
   69.5000    76.4160    23.7240     6.9790     6.1990     7.4880     2.1100   -43.9870 
   69.6250    79.4730    23.8510     7.2400     6.2580     7.5480     2.1040   -43.6620 
   69.7500    81.9780    23.9630     7.4750     6.2980     7.5830     2.1000   -43.3740 
   69.8750    82.3470    23.9990     7.6090     6.3230     7.6040     2.0980   -43.1910 
   70.0000    80.6730    23.9260     7.6280     6.3360     7.6240     2.0970   -43.0780 
   70.1250    80.5020    23.8000     7.4300     6.3390     7.6430     2.0950   -42.9790 
   70.2500    81.9320    23.7290     7.3330     6.3350     7.6520     2.0920   -42.8800 
   70.3750    82.3050    23.8850     7.4030     6.3280     7.6440     2.0900   -42.7350 
   70.5000    80.3530    24.3670     7.5300     6.3230     7.6190     2.0900   -42.5480 
   70.6250    77.4860    24.9680     7.5740     6.3310     7.5900     2.0910   -42.3290 
   70.7500    76.6260    25.3180     7.4560     6.3580     7.5820     2.0930   -42.0350 
   70.8750    77.9470    25.3840     7.4400     6.4040     7.6090     2.0940   -41.6260 
   71.0000    79.2460    25.3690     7.4220     6.4650     7.6630     2.0920   -41.1990 
   71.1250    78.0120    25.3770     7.3960     6.5250     7.7110     2.0920   -40.6990 
