~V
VERS. 2.00: Ver 2.00
~W
STRT.M 55.0000:
STOP.M 253.0000:
STEP.M 0.1250:
NULL. -999.2500:
UWI. DF5051:
~C
DEPT.M :
SP.MV :
GR.API :
RML.OHMM :
RI. :
RXO.OHMM :
CALI.CM :
DEN.GM/CC :
~A
# ...
  133.7500   -13.3270    76.1860     9.2770     8.5240     9.0320    23.2860     2.2470 
  133.8750   -12.9710    75.8260     9.0050     8.2380     8.4390    23.3060     2.2590 
  134.0000   -12.5880    73.1120     8.7390     7.9500     7.8730    23.4460     2.2620 
  134.1250   -12.1690    73.1490     8.5040     7.6870     7.6340    23.7640     2.2610 
  134.2500   -11.7460    74.9310     8.2960     7.4500     7.6020    24.1750     2.2650 
  134.3750   -11.3090    78.4480     8.0990     7.2300     7.4510    24.4140     2.2770 
  134.5000   -10.8730    85.0320     7.8970     7.0140     7.3570    24.4560     2.2960 
  134.6250   -10.4720    90.2260     7.6820     6.7920     7.3880    24.4300     2.3170 
  134.7500   -10.1310    91.7650     7.4700     6.5710     7.3170    24.4330     2.3330 
  134.8750    -9.8320    90.4420     7.2870     6.3690     7.0820    24.4400     2.3430 
  135.0000    -9.5910    90.2010     7.1610     6.2050     6.6650    24.4440     2.3490 
  135.1250    -9.4510    92.7980     7.1190     6.1040     6.4660    24.4410     2.3530 
  135.2500    -9.3930    94.0010     7.1430     6.0550     6.3680    24.4230     2.3570 
  135.3750    -9.4220    94.1510     7.2010     6.0400     6.3930    24.3780     2.3610 
  135.5000    -9.4940    95.3700     7.2480     6.0300     6.4840    24.3070     2.3630 
  135.6250    -9.6420    97.6460     7.2290     5.9880     6.5860    24.2270     2.3600 
  135.7500    -9.8110    99.0070     7.1520     5.9150     6.7330    24.1830     2.3510 
  135.8750   -10.0490    98.7980     7.0650     5.8400     6.8410    24.1480     2.3340 
  136.0000   -10.3360    97.4210     7.0560     5.8250     6.8070    24.1080     2.3110 
  136.1250   -10.7010    94.0850     7.2780     5.9840     7.0120    24.0080     2.2950 
  136.2500   -11.1260    90.4070     7.7690     6.3560     7.5440    23.8270     2.2970 
  136.3750   -11.5980    87.0280     8.5080     6.9430     8.4790    23.6190     2.3230 
  136.5000   -12.1000    81.7150     9.3900     7.6840     9.6690    23.5320     2.3650 
  136.6250   -12.6020    76.7930    10.2180     8.4520    10.6770    23.6280     2.3980 
  136.7500   -13.1100    75.3810    10.8120     9.0890    11.2180    23.7930     2.3990 
  136.8750   -13.5910    74.7240    11.0890     9.5010    10.7770    23.9190     2.3630 
  137.0000   -14.0770    72.3880    11.0770     9.6750    10.0060    23.9640     2.3040 
  137.1250   -14.4650    69.7200    10.8770     9.6540    10.0120    23.9040     2.2440 
  137.2500   -14.7370    68.3980    10.6610     9.5710    10.2440    23.7250     2.1980 
  137.3750   -14.8710    66.8530    10.5030     9.4920    10.2680    23.4550     2.1680 
  137.5000   -14.8890    65.0030    10.4110     9.4360    10.1390    23.2220     2.1510 
  137.6250   -14.7590    66.0740    10.3080     9.3510    10.1100    23.3580     2.1460 
  137.7500   -14.4920    67.8860    10.0900     9.1600    10.0790    23.8530     2.1480 
  137.8750   -14.0840    67.8720     9.6840     8.8090     9.8300    24.3950     2.1570 
  138.0000   -13.5340    67.5160     9.0720     8.2820     9.2390    24.6360     2.1730 
  138.1250   -12.8950    74.4280     8.3060     7.6150     8.3070    24.5710     2.1970 
  138.2500   -12.2740    85.1070     7.5490     6.9380     7.4290    24.5180     2.2270 
  138.3750   -11.6800    90.9700     6.9240     6.3530     6.9300    24.5500     2.2600 
  138.5000   -11.1600    90.5950     6.5060     5.9270     6.6420    24.6070     2.2900 
  138.6250   -10.7080    91.3790     6.3460     5.7190     6.3970    24.6300     2.3130 
  138.7500   -10.3660    95.4400     6.3620     5.6760     6.1900    24.6350     2.3270 
  138.8750   -10.1440   100.0170     6.4850     5.7470     6.1390    24.6330     2.3290 
  139.0000   -10.0310   103.6860     6.6300     5.8650     6.2020    24.6270     2.3230 
  139.1250   -10.0370   104.7690     6.6900     5.9390     6.2950    24.6090     2.3120 
  139.2500   -10.0640   102.5110     6.6100     5.9100     6.3230    24.5880     2.3050 
  139.3750   -10.1600    99.5530     6.3830     5.7600     6.1500    24.5890     2.3060 
  139.5000   -10.2440    98.9690     6.0600     5.5200     5.8830    24.6160     2.3170 
  139.6250   -10.3790   101.2880     5.7590     5.2730     5.5500    24.6330     2.3360 
  139.7500   -10.5280   105.7530     5.5940     5.1150     5.3550    24.6360     2.3550 
  139.8750   -10.6910   109.6640     5.6300     5.1070     5.3320    24.6280     2.3680 
  140.0000   -10.8550   108.7540     5.8840     5.2750     5.5270    24.5970     2.3690 
  140.1250   -11.0420   100.5120     6.3350     5.6180     5.9660    24.4660     2.3540 
  140.2500   -11.2330    90.6960     6.8570     6.0460     6.5200    24.2520     2.3300 
  140.3750   -11.4060    84.7990     7.3540     6.4820     7.0010    24.0900     2.3050 
  140.5000   -11.5810    82.6120     7.7530     6.8560     7.3250    24.1030     2.2840 
  140.6250   -11.7410    81.3420     8.0090     7.1130     7.5650    24.3130     2.2700 
  140.7500   -11.8830    80.2660     8.1660     7.2830     7.8140    24.4990     2.2600 
  140.8750   -11.9880    80.3790     8.2810     7.4110     8.1200    24.5980     2.2540 
  141.0000   -12.0880    80.6530     8.4490     7.5540     8.5160    24.6280     2.2530 
  141.1250   -12.1180    78.0550     8.7760     7.7840     9.0580    24.6370     2.2580 
  141.2500   -12.1520    73.9070     9.4030     8.1510     9.7910    24.6470     2.2700 
  141.3750   -12.1580    70.7700    10.4030     8.7100    10.7250    24.6560     2.2890 
  141.5000   -12.1550    68.9470    11.7860     9.5060    11.9870    24.6590     2.3190 
  141.6250   -12.1210    66.0230    13.5120    10.5850    13.7140    24.5690     2.3630 
  141.7500   -12.0600    61.7620    15.0470    11.8470    15.6490    24.2460     2.4180 
  141.8750   -12.0130    57.9910    16.5780    13.1850    17.9470    23.6820     2.4770 
  142.0000   -11.9290    57.9980    17.9380    14.4660    20.3380    23.2490     2.5300 
  142.1250   -11.8910    59.7370    18.9840    15.5470    20.7060    23.3030     2.5670 
  142.2500   -11.8370    57.0180    19.8100    16.4380    20.1760    23.7890     2.5880 
  142.3750   -11.7930    49.8300    20.5350    17.2060    20.5300    24.2670     2.5990 
  142.5000   -11.8010    43.8780    21.2540    17.9300    21.0500    24.4780     2.6040 
  142.6250   -11.7990    43.9050    21.9700    18.6460    21.1360    24.4870     2.6080 
  142.7500   -11.8130    46.7910    22.5900    19.3100    21.3060    24.4650     2.6100 
  142.8750   -11.7950    49.0510    23.0170    19.8430    21.5260    24.4490     2.6080 
  143.0000   -11.8130    49.4520    23.2180    20.1900    22.1060    24.4650     2.6030 
  143.1250   -11.8210    48.4530    23.2270    20.3440    22.8800    24.5170     2.5940 
  143.2500   -11.8470    47.0650    23.1770    20.4070    23.3160    24.5550     2.5840 
  143.3750   -11.8730    46.6760    23.1430    20.4540    23.4660    24.5790     2.5780 
  143.5000   -11.8680    47.0270    23.1570    20.5290    23.5390    24.6020     2.5750 
  143.6250   -11.8830    46.6400    23.1930    20.6300    23.3290    24.5910     2.5780 
  143.7500   -11.9200    45.9920    23.1710    20.6970    23.1500    24.5590     2.5830 
  143.8750   -12.0020    47.2360    23.0200    20.6630    23.2160    24.5210     2.5850 
  144.0000   -12.0510    49.7090    22.7020    20.4840    22.9200    24.4940     2.5830 
  144.1250   -12.1120    49.9160    22.2240    20.1430    22.3270    24.4850     2.5730 
  144.2500   -12.1760    51.4900    21.6900    19.7200    21.7750    24.5130     2.5580 
  144.3750   -12.2770    55.9660    21.1700    19.2720    21.5360    24.5390     2.5420 
  144.5000   -12.3500    58.6260    20.7050    18.8410    21.3970    24.5400     2.5290 
  144.6250   -12.4160    56.1970    20.3090    18.4520    20.7880    24.5330     2.5220 
  144.7500   -12.4750    55.6330    19.9520    18.0970    19.7570    24.5370     2.5210 
  144.8750   -12.5210    58.5180    19.6170    17.7710    19.1140    24.5330     2.5230 
