~V
VERS. 2.00: Ver 2.00
~W
STRT.M 67.0000:
STOP.M 277.0000:
STEP.M 0.1250:
NULL. -999.2500:
UWI. DF5013:
~C
DEPT.M :
SP.MV :
GR.API :
RML.OHMM :
RI. :
RXO.OHMM :
CALI.CM :
DEN.GM/CC :
~A
# ...
  190.7500   -16.3450    56.3550   194.5000   181.1410   120.0900    24.4860     2.2260 
  190.8750   -16.3510    57.0580   228.4800   208.4160   122.2190    24.2950     2.2180 
  191.0000   -16.3090    55.7960   258.8910   234.8630   115.9880    24.0100     2.2140 
  191.1250   -16.2600    55.1520   282.6540   255.4440   122.9230    23.8550     2.2110 
  191.2500   -16.1790    55.8630   295.7710   267.1030   137.0180    23.8650     2.2110 
  191.3750   -16.0770    56.2920   297.1860   268.9360   149.1480    24.0490     2.2150 
  191.5000   -15.9490    54.5250   287.5180   261.0670   152.9950    24.3900     2.2220 
  191.6250   -15.8270    53.2070   272.8550   248.3930   156.8320    24.7200     2.2300 
  191.7500   -15.6910    53.3480   258.2140   235.1980   159.6830    24.9150     2.2360 
  191.8750   -15.5640    54.8540   247.8620   225.5190   158.8380    24.9730     2.2380 
  192.0000   -15.3900    57.2620   244.5140   222.4570   157.9720    24.9770     2.2350 
  192.1250   -15.2250    58.4530   245.1910   223.8740   160.0610    24.9910     2.2270 
  192.2500   -15.0700    58.7280   245.7410   226.2890   166.2070    25.0070     2.2190 
  192.3750   -14.9110    56.3580   241.3940   225.3150   174.5390    25.0150     2.2120 
  192.5000   -14.7510    52.1540   227.1650   215.8590   174.3250    25.0000     2.2100 
  192.6250   -14.6030    51.6120   204.9480   198.4390   161.3490    24.9560     2.2120 
  192.7500   -14.4730    55.9140   178.5810   175.6450   135.0000    24.8700     2.2170 
  192.8750   -14.3250    61.5110   152.7500   151.5480   104.4010    24.7380     2.2240 
  193.0000   -14.2280    66.5340   131.9290   130.7040    84.5670    24.6100     2.2340 
  193.1250   -14.1270    72.3740   117.0750   115.0200    74.6200    24.5310     2.2440 
  193.2500   -14.0400    75.8410   108.5750   105.3670    68.0140    24.5060     2.2550 
  193.3750   -13.9650    73.9460   106.6750   102.3090    62.0260    24.5030     2.2650 
  193.5000   -13.9590    69.8340   113.4420   108.1190    59.0420    24.5030     2.2680 
  193.6250   -13.9590    68.1680   129.1620   122.9250    64.6070    24.5030     2.2630 
  193.7500   -13.9910    66.7110   154.9970   147.4300    81.5440    24.4960     2.2510 
  193.8750   -14.0870    63.3330   190.5820   180.6000   105.4780    24.4780     2.2340 
  194.0000   -14.2600    58.9820   232.8440   218.5860   129.3340    24.4440     2.2200 
  194.1250   -14.4840    55.6790   273.1070   253.3690   147.3050    24.4200     2.2110 
  194.2500   -14.7310    54.5240   303.6710   278.5300   156.8590    24.4050     2.2090 
  194.3750   -14.9970    54.6160   319.9140   290.7920   161.3810    24.4380     2.2120 
  194.5000   -15.2390    55.6560   321.8750   290.6400   166.4250    24.5690     2.2150 
  194.6250   -15.4580    57.5390   318.3890   285.7410   173.1710    24.7130     2.2170 
  194.7500   -15.6530    59.4630   314.4730   280.6020   179.6470    24.7800     2.2160 
  194.8750   -15.7900    61.2160   312.2670   277.3770   184.2180    24.7750     2.2150 
  195.0000   -15.8420    63.9250   311.7730   276.3900   188.4020    24.7500     2.2160 
  195.1250   -15.8180    65.0810   311.4840   276.2430   188.6050    24.7110     2.2190 
  195.2500   -15.7570    61.9630   310.4670   276.0570   182.2030    24.6510     2.2230 
  195.3750   -15.6800    58.1250   308.2270   275.3310   171.9280    24.5930     2.2260 
  195.5000   -15.5570    58.1860   303.6960   273.3670   161.3480    24.5560     2.2260 
  195.6250   -15.4210    59.3760   295.5880   269.1860   152.6050    24.5100     2.2230 
  195.7500   -15.2530    56.3640   282.1720   261.0370   143.5560    24.4330     2.2160 
  195.8750   -15.0760    51.7640   261.7860   247.1510   129.9640    24.3380     2.2060 
  196.0000   -14.8490    51.7470   235.1260   226.1130   109.7940    24.2140     2.2000 
  196.1250   -14.6210    54.8380   206.5580   201.3350    89.4300    24.0790     2.2020 
  196.2500   -14.3800    58.9400   181.2790   176.8110    72.3940    23.8970     2.2120 
  196.3750   -14.1180    61.3570   162.6830   156.4550    59.7070    23.6880     2.2290 
  196.5000   -13.8510    61.1390   149.0180   143.5760    52.5720    23.5260     2.2460 
  196.6250   -13.5930    61.0150   141.3640   136.4840    49.8640    23.4330     2.2540 
  196.7500   -13.3630    61.2710   136.8060   132.7550    50.1360    23.4040     2.2520 
  196.8750   -13.1480    60.5190   132.2830   129.3920    52.0940    23.4060     2.2450 
  197.0000   -13.0210    58.2000   125.1650   123.4810    54.3270    23.4660     2.2400 
  197.1250   -12.9490    58.5010   115.8690   114.9660    55.9010    23.6210     2.2410 
  197.2500   -12.9640    61.3470   106.3530   105.5140    57.3120    23.8380     2.2490 
  197.3750   -13.0380    63.0830    99.1950    97.7590    58.5520    24.0290     2.2600 
  197.5000   -13.2070    64.1770    97.4100    95.2030    62.7670    24.1980     2.2690 
  197.6250   -13.4070    65.5590   102.0850    98.8860    72.5820    24.4180     2.2710 
  197.7500   -13.6070    65.8630   114.3300   109.5890    86.4460    24.6680     2.2670 
  197.8750   -13.7880    63.8190   134.3090   127.5910   101.1920    24.8880     2.2570 
  198.0000   -13.9370    60.1000   163.3030   153.6400   116.6200    24.9800     2.2460 
  198.1250   -14.0420    55.7530   197.1170   185.2540   133.6630    25.0050     2.2360 
  198.2500   -14.0830    51.5310   233.6890   220.4590   157.3470    25.0190     2.2310 
  198.3750   -14.0630    49.3420   271.0080   256.8740   191.8580    25.0530     2.2280 
  198.5000   -13.9670    50.9290   306.8310   291.5210   228.6680    25.0990     2.2230 
  198.6250   -13.8250    53.5780   347.1580   322.1770   260.4870    25.1120     2.2120 
  198.7500   -13.6470    55.4900   381.6000   346.9060   275.5260    25.0840     2.1890 
  198.8750   -13.4530    56.2860   407.4140   363.9000   276.7160    25.0310     2.1620 
  199.0000   -13.2150    55.0200   419.4030   369.7010   276.0960    24.9590     2.1490 
  199.1250   -13.0040    51.3420   417.0480   364.7920   271.3270    24.9230     2.1670 
  199.2500   -12.7890    46.5050   400.4060   349.6690   257.0960    24.8600     2.2210 
  199.3750   -12.6110    44.3090   372.5340   326.5570   238.7600    24.7090     2.2950 
  199.5000   -12.4290    46.7450   338.6090   298.8210   218.1690    24.6240     2.3490 
  199.6250   -12.2870    50.7540   304.8860   270.8570   203.2960    24.7510     2.3570 
  199.7500   -12.1410    53.9690   272.9580   244.1580   195.2530    24.9400     2.3230 
  199.8750   -11.9940    53.9160   241.2800   218.1180   189.0920    25.0420     2.2740 
  200.0000   -11.8510    51.2090   206.0450   190.1060   181.3710    25.0280     2.2450 
  200.1250   -11.6650    50.3740   166.4640   158.7030   166.5060    24.9460     2.2500 
  200.2500   -11.4240    53.5200   125.7740   124.9630   143.7290    24.8190     2.2910 
  200.3750   -11.1340    57.5710    89.8200    92.4470   118.6220    24.6790     2.3550 
  200.5000   -10.8220    58.1450    64.5520    66.6970    89.5230    24.5860     2.4200 
  200.6250   -10.4990    57.1830    48.8420    48.7680    58.8500    24.5270     2.4610 
  200.7500   -10.1940    56.7650    39.7150    37.8230    35.1600    24.5390     2.4700 
  200.8750    -9.9130    55.6810    35.1300    32.0350    26.7000    24.5930     2.4550 
  201.0000    -9.6490    52.8020    33.8580    29.9890    27.5640    24.6050     2.4380 
  201.1250    -9.3880    50.6290    34.2050    29.7670    29.6460    24.5580     2.4340 
  201.2500    -9.1550    51.3100    35.3550    30.5470    30.9070    24.4690     2.4460 
  201.3750    -8.9360    54.8810    36.6930    31.7280    31.4220    24.3810     2.4690 
  201.5000    -8.7170    59.4900    37.8450    32.8930    32.5190    24.2840     2.4960 
  201.6250    -8.4790    61.3280    38.8570    33.9220    33.7910    24.2360     2.5200 
  201.7500    -8.2130    59.0810    39.9200    34.8750    34.3640    24.1940     2.5400 
  201.8750    -7.9110    54.9800    41.1450    35.8000    35.4050    24.1400     2.5560 
