~V
VERS. 2.00: Ver 2.00
~W
STRT.M 67.0000:
STOP.M 277.0000:
STEP.M 0.1250:
NULL. -999.2500:
UWI. DF5013:
~C
DEPT.M :
SP.MV :
GR.API :
RML.OHMM :
RI. :
RXO.OHMM :
CALI.CM :
DEN.GM/CC :
~A
# ...
  258.2500    -7.3910    62.4040     7.2910     6.7220     6.8810    23.8520     2.3460 
  258.3750    -7.4330    61.8710     7.3300     6.7080     6.4140    23.8540     2.3500 
  258.5000    -7.5290    61.3530     7.4540     6.7740     6.3000    23.8310     2.3550 
  258.6250    -7.6440    60.8290     7.5990     6.8850     6.3230    23.7880     2.3620 
  258.7500    -7.8180    61.9730     7.7180     7.0070     6.3710    23.7360     2.3710 
  258.8750    -8.0070    64.6280     7.7890     7.1130     6.4090    23.6910     2.3810 
  259.0000    -8.2600    66.4350     7.8150     7.1800     6.5290    23.6630     2.3910 
  259.1250    -8.5170    65.7990     7.8410     7.2280     6.8220    23.6360     2.3990 
  259.2500    -8.7550    64.1140     7.9070     7.2850     7.2990    23.6120     2.4050 
  259.3750    -8.9410    64.2830     8.0410     7.3820     7.9450    23.6020     2.4080 
  259.5000    -9.0750    65.8230     8.2500     7.5340     8.7930    23.6020     2.4110 
  259.6250    -9.1820    66.5510     8.4820     7.7080     9.4520    23.6020     2.4120 
  259.7500    -9.2380    66.9740     8.6720     7.8540     9.8280    23.6020     2.4120 
  259.8750    -9.2770    67.3430     8.7610     7.9250    10.0570    23.6020     2.4080 
  260.0000    -9.2950    66.0810     8.7070     7.8820    10.3010    23.6020     2.4010 
  260.1250    -9.3320    64.4020     8.5670     7.7610    10.4160    23.6120     2.3930 
  260.2500    -9.3640    63.8510     8.4070     7.6060    10.3320    23.6500     2.3850 
  260.3750    -9.4290    63.7100     8.2900     7.4680     9.9850    23.7370     2.3800 
  260.5000    -9.4870    62.4180     8.2630     7.3910     9.4330    23.7830     2.3790 
  260.6250    -9.5730    61.3210     8.3040     7.3710     9.0170    23.8100     2.3810 
  260.7500    -9.6260    60.1510     8.3680     7.3830     9.1660    23.8360     2.3850 
  260.8750    -9.6670    58.7520     8.3990     7.3870    10.1210    23.8550     2.3890 
  261.0000    -9.6140    59.7950     8.3290     7.3330    11.7550    23.8610     2.3890 
  261.1250    -9.5330    62.5450     8.1600     7.2100    13.0250    23.8610     2.3870 
  261.2500    -9.4660    63.1010     7.9270     7.0370    12.8170    23.8600     2.3810 
  261.3750    -9.3620    61.4890     7.7010     6.8570    11.5570    23.8580     2.3740 
  261.5000    -9.2800    60.7940     7.5780     6.7450    10.4220    23.8600     2.3660 
  261.6250    -9.1640    61.0680     7.5900     6.7360    10.0420    23.8610     2.3600 
  261.7500    -9.0850    61.2620     7.7250     6.8320    10.4150    23.8630     2.3560 
  261.8750    -9.0020    61.7390     7.9260     6.9990    11.0040    23.8720     2.3550 
  262.0000    -9.0050    62.0880     8.0910     7.1630    11.2690    23.8930     2.3550 
  262.1250    -9.0110    60.3190     8.1420     7.2530    10.7720    23.9120     2.3560 
  262.2500    -8.9990    57.5750     8.0530     7.2330     9.5890    23.9190     2.3580 
  262.3750    -8.9900    56.8340     7.8500     7.1050     8.4590    23.9190     2.3600 
  262.5000    -8.9520    58.7570     7.5970     6.8990     7.9290    23.9190     2.3610 
  262.6250    -8.9110    60.7420     7.3670     6.6820     7.5220    23.9190     2.3600 
  262.7500    -8.8560    60.5890     7.2030     6.4980     7.0080    23.9190     2.3590 
  262.8750    -8.8190    59.4180     7.1240     6.3770     6.3710    23.9210     2.3600 
  263.0000    -8.7530    59.0290     7.1490     6.3480     5.9870    23.9340     2.3640 
  263.1250    -8.7090    60.0410     7.2460     6.3970     6.0290    23.9620     2.3720 
  263.2500    -8.6560    60.5400     7.3860     6.5030     6.4720    23.9960     2.3820 
  263.3750    -8.6420    58.3570     7.5300     6.6360     7.2280    24.0290     2.3900 
  263.5000    -8.6300    55.5480     7.6280     6.7530     8.0020    24.0410     2.3940 
  263.6250    -8.6640    55.8350     7.6580     6.8250     8.2230    24.0450     2.3930 
  263.7500    -8.7060    58.2670     7.6210     6.8400     7.8750    24.0450     2.3890 
  263.8750    -8.7640    58.7190     7.5340     6.8030     7.4740    24.0450     2.3840 
  264.0000    -8.8190    57.0250     7.4280     6.7330     7.0130    24.0450     2.3810 
  264.1250    -8.8530    56.0390     7.3410     6.6610     6.6000    24.0450     2.3780 
  264.2500    -8.9090    56.4040     7.2950     6.6080     6.4450    24.0450     2.3740 
  264.3750    -8.9410    57.7770     7.2910     6.5820     6.4320    24.0450     2.3670 
  264.5000    -9.0130    59.6410     7.3100     6.5790     6.4640    24.0530     2.3590 
  264.6250    -9.0450    61.9470     7.3170     6.5790     6.5450    24.0770     2.3540 
  264.7500    -9.0950    63.0990     7.2910     6.5660     6.6650    24.1160     2.3530 
  264.8750    -9.1240    63.0850     7.2240     6.5320     6.8230    24.1690     2.3560 
  265.0000    -9.1950    62.1430     7.1280     6.4740     6.8030    24.1840     2.3610 
  265.1250    -9.2890    59.5250     7.0330     6.4080     6.4760    24.1330     2.3640 
  265.2500    -9.3560    55.7890     6.9580     6.3500     6.0280    24.0670     2.3650 
  265.3750    -9.4480    53.7140     6.9150     6.3140     5.7230    24.0320     2.3640 
  265.5000    -9.4970    55.7450     6.9080     6.3100     5.6900    24.0160     2.3610 
  265.6250    -9.5580    58.3060     6.9210     6.3290     5.7630    24.0090     2.3590 
  265.7500    -9.5780    58.4430     6.9430     6.3580     5.8580    24.0500     2.3590 
  265.8750    -9.6130    57.0680     6.9610     6.3790     5.9220    24.1560     2.3610 
  266.0000    -9.5980    57.1530     6.9620     6.3790     5.8370    24.1950     2.3650 
  266.1250    -9.5790    58.5660     6.9480     6.3580     5.7190    24.1690     2.3690 
  266.2500    -9.5700    58.8230     6.9240     6.3260     5.6040    24.1260     2.3700 
  266.3750    -9.5820    57.3490     6.8990     6.2910     5.4860    24.1160     2.3700 
  266.5000    -9.6160    56.3180     6.8840     6.2690     5.3820    24.1410     2.3680 
  266.6250    -9.6400    57.2770     6.8850     6.2660     5.3920    24.1610     2.3650 
  266.7500    -9.7200    59.4530     6.9050     6.2860     5.5220    24.1690     2.3630 
  266.8750    -9.7900    59.9360     6.9460     6.3340     5.6860    24.1700     2.3630 
  267.0000    -9.9390    59.9360     7.0090     6.4150     5.7810    24.1700     2.3670 
  267.1250   -10.0800    59.9360     7.0910     6.5240     5.8170    24.1630     2.3770 
  267.2500   -10.2430    59.9360     7.1940     6.6610     5.8190    24.1360     2.3910 
  267.3750   -10.4060    59.9360     7.3290     6.8280     5.8560    24.0700     2.4050 
  267.5000   -10.5880    59.9360     7.5240     7.0380     6.0830    24.0070     2.4150 
  267.6250   -10.7910    59.9360     7.7780     7.2890     6.7430    23.9260     2.4180 
  267.7500   -10.9800    59.9360     8.0850     7.5750     7.8790    23.8440     2.4170 
  267.8750   -11.1570    59.9360     8.4170     7.8820     9.4470    23.7930     2.4150 
  268.0000   -11.2640    59.9360     8.7250     8.1740    10.9170    23.7630     2.4160 
  268.1250   -11.3920    59.9360     8.9600     8.4160    11.3320    23.7380     2.4180 
  268.2500   -11.4880    59.9360     9.0930     8.5780    10.8880    23.7180     2.4210 
  268.3750   -11.5290    59.9360     9.1230     8.6530    10.3760    23.7000     2.4230 
  268.5000   -11.5630    59.9360     9.0790     8.6550    10.1510    23.6710     2.4230 
  268.6250   -11.5720    59.9360     9.0370     8.6470    10.0170    23.6580     2.4230 
  268.7500   -11.5360    59.9360     9.0550     8.6780    10.1810    23.6540     2.4230 
  268.8750   -11.5360    59.9360     9.1560     8.7770    10.6430    23.6520     2.4240 
  269.0000   -11.5340    59.9360     9.3250     8.9480    11.5640    23.6520     2.4250 
  269.1250   -11.4650    59.9360     9.4880     9.1350    12.8590    23.6520     2.4250 
  269.2500   -11.3970    59.9360     9.5870     9.2900    14.3010    23.6520     2.4250 
  269.3750   -11.3530    59.9360     9.5880     9.3800    14.9400    23.6520     2.4250 
