~V
VERS. 2.00: Ver 2.00
~W
STRT.M 55.0000:
STOP.M 268.0000:
STEP.M 0.1250:
NULL. -999.2500:
UWI. DF5007:
~C
DEPT.M :
SP.MV :
GR.API :
RML.OHMM :
RI. :
RXO.OHMM :
CALI.CM :
DEN.GM/CC :
~A
# ...
  178.7500   -30.4670    58.8490   227.6450   182.3290    86.0740    23.7500     2.2010 
  178.8750   -30.2050    58.0490   243.1520   195.5180    87.9510    23.7440     2.2040 
  179.0000   -29.9180    57.6580   256.7080   208.3150    89.3720    23.7020     2.2060 
  179.1250   -29.6390    58.3650   263.4640   217.6380    89.2120    23.6610     2.2070 
  179.2500   -29.2530    59.8910   259.5730   220.2960    87.5450    23.6600     2.2060 
  179.3750   -28.8630    60.9990   241.8910   213.1380    86.0660    23.6440     2.2080 
  179.5000   -28.4480    59.9700   210.7470   194.7280    86.0890    23.6250     2.2120 
  179.6250   -27.9440    57.9360   171.0620   165.8210    86.3900    23.6480     2.2210 
  179.7500   -27.4990    57.6000   132.3700   133.2790    84.0880    23.6510     2.2340 
  179.8750   -26.9850    59.4960    99.3650   102.0090    76.7090    23.6190     2.2520 
  180.0000   -26.4770    64.0330    73.7910    75.5320    62.6640    23.6050     2.2740 
  180.1250   -26.0330    70.8840    56.6430    56.7280    44.8000    23.6210     2.2990 
  180.2500   -25.6410    75.5940    45.4280    44.2170    31.6230    23.5790     2.3220 
  180.3750   -25.4090    75.8580    38.9360    36.8730    23.4170    23.4360     2.3380 
  180.5000   -25.2140    74.0950    36.2860    33.5720    19.2110    23.2580     2.3450 
  180.6250   -25.1120    75.1490    37.5450    34.0760    15.4860    23.1240     2.3390 
  180.7500   -25.1500    76.7700    42.0910    37.7080    15.4920    23.0540     2.3240 
  180.8750   -25.2710    75.1520    49.9980    44.5710    19.7630    23.1040     2.3040 
  181.0000   -25.4400    70.7070    61.2120    54.5610    28.3390    23.3220     2.2820 
  181.1250   -25.6760    67.5930    75.5720    67.3290    40.3380    23.5970     2.2620 
  181.2500   -25.9260    67.0270    91.2040    80.9600    54.0990    23.7730     2.2480 
  181.3750   -26.0390    66.6600   106.1610    93.5970    62.3860    23.8140     2.2420 
  181.5000   -26.1860    66.3320   118.2640   103.3610    62.2170    23.7480     2.2430 
  181.6250   -26.3510    66.5510   124.9860   108.2910    53.6620    23.4780     2.2510 
  181.7500   -26.3690    65.3040   126.9610   109.1860    42.7810    23.0350     2.2640 
  181.8750   -26.4010    62.5030   125.2870   107.0790    34.2950    22.5430     2.2750 
  182.0000   -26.4490    60.6700   121.1670   103.0400    33.2560    22.1880     2.2820 
  182.1250   -26.4490    60.7800   115.0830    97.6170    38.9030    22.0400     2.2810 
  182.2500   -26.4120    61.0540   107.6760    91.3520    46.2950    22.0780     2.2730 
  182.3750   -26.4770    61.6850    99.3390    84.5180    50.5900    22.2470     2.2650 
  182.5000   -26.4860    64.2310    90.5220    77.3880    50.6810    22.3880     2.2610 
  182.6250   -26.4890    66.6420    81.8560    70.3310    46.6340    22.3980     2.2650 
  182.7500   -26.5990    68.2400    73.9070    63.7450    38.5940    22.3200     2.2730 
  182.8750   -26.6360    70.1150    67.0470    57.9650    34.8460    22.2220     2.2820 
  183.0000   -26.7370    71.8830    61.5310    53.2370    32.6250    22.1610     2.2910 
  183.1250   -26.7640    71.2440    57.8090    49.9450    31.9690    22.1230     2.2970 
  183.2500   -26.7950    69.9660    55.7240    48.0030    31.2120    22.0860     2.3020 
  183.3750   -26.8990    71.3130    55.2770    47.4490    30.9790    22.0640     2.3040 
  183.5000   -26.9630    74.6010    56.4370    48.2830    31.1380    22.0420     2.3020 
  183.6250   -27.0530    74.2620    59.3140    50.6480    31.6700    22.0020     2.2970 
  183.7500   -27.1650    69.7400    63.3610    54.0840    33.8410    21.9850     2.2930 
  183.8750   -27.2630    64.4310    68.2310    58.2560    39.6000    21.9740     2.2930 
  184.0000   -27.3540    62.8550    73.4860    62.7540    47.5760    21.9540     2.2970 
  184.1250   -27.4730    67.5130    78.4550    66.9850    52.2680    21.9140     2.3000 
  184.2500   -27.5380    72.0330    82.6450    70.4990    49.6690    21.8970     2.2980 
  184.3750   -27.5380    73.0060    85.9130    73.1420    45.2530    21.8990     2.2900 
  184.5000   -27.6110    71.2650    88.4200    75.0320    43.4320    21.9270     2.2780 
  184.6250   -27.6650    69.9320    90.4420    76.3760    43.3760    21.9910     2.2670 
  184.7500   -27.7030    68.8580    92.3600    77.5450    43.3410    22.0430     2.2610 
  184.8750   -27.7600    66.7360    94.2070    78.6510    43.3640    22.0620     2.2590 
  185.0000   -27.8070    64.5070    95.7970    79.6240    42.1780    22.0620     2.2600 
  185.1250   -27.9050    63.4600    96.8890    80.3170    41.8760    22.0770     2.2620 
  185.2500   -28.0510    64.4250    97.5660    80.7840    42.5070    22.1130     2.2640 
  185.3750   -28.2260    65.4230    98.0000    81.1590    44.2010    22.1430     2.2650 
  185.5000   -28.3140    65.2670    98.5680    81.7450    42.5790    22.1550     2.2640 
  185.6250   -28.4090    66.7250    99.9770    83.1480    36.9630    22.1950     2.2600 
  185.7500   -28.4880    69.9890   102.4760    85.5680    34.8570    22.3000     2.2520 
  185.8750   -28.5770    71.5690   106.0290    88.9540    36.2280    22.4350     2.2430 
  186.0000   -28.7360    69.4730   110.4250    93.0810    39.1880    22.5110     2.2380 
  186.1250   -28.7790    66.8900   115.2950    97.5990    41.0990    22.5140     2.2380 
  186.2500   -28.8670    67.6410   119.8890   101.8610    41.4050    22.4810     2.2430 
  186.3750   -28.9420    69.0840   123.5650   105.3200    39.9000    22.4540     2.2500 
  186.5000   -28.9870    68.3620   125.8630   107.5870    39.2630    22.4690     2.2550 
  186.6250   -29.1870    66.4640   126.5980   108.4530    43.0210    22.5790     2.2600 
  186.7500   -29.3690    66.4010   126.5490   108.5290    50.4420    22.7820     2.2630 
  186.8750   -29.5090    67.4210   126.3790   108.3720    59.8370    23.0920     2.2640 
  187.0000   -29.6530    66.0220   126.5980   108.4810    66.9760    23.4490     2.2610 
  187.1250   -29.8470    64.0820   127.7350   109.4020    68.6820    23.8030     2.2530 
  187.2500   -30.0470    64.3650   129.9060   111.2850    70.3600    24.0440     2.2450 
  187.3750   -30.2690    65.5230   132.9370   114.0200    77.2070    24.1440     2.2390 
  187.5000   -30.4950    64.8390   136.3670   117.2010    88.4720    24.1660     2.2390 
  187.6250   -30.5540    60.5700   139.5130   120.2600    96.7380    24.1670     2.2440 
  187.7500   -30.6180    56.4950   141.9080   122.7870   103.9360    24.1680     2.2480 
  187.8750   -30.6500    55.6360   143.3360   124.5660   107.8800    24.1640     2.2500 
  188.0000   -30.6120    57.9310   143.8870   125.5890   108.2540    24.1510     2.2510 
  188.1250   -30.5430    61.0070   144.0080   126.1440   102.3770    24.1190     2.2510 
  188.2500   -30.4050    62.7310   144.3040   126.7520    96.4300    24.0930     2.2510 
  188.3750   -30.2200    63.1730   144.9140   127.5750    95.7040    24.0810     2.2480 
  188.5000   -30.0140    61.5910   145.5700   128.4440    97.4720    24.0780     2.2440 
  188.6250   -29.8670    57.6550   145.6270   128.8150    98.1300    24.0760     2.2410 
  188.7500   -29.5720    55.1920   144.8720   128.4330    98.7370    24.0740     2.2410 
  188.8750   -29.3010    56.0330   143.5800   127.4710    99.6260    24.0750     2.2440 
  189.0000   -29.0570    59.6750   142.5210   126.5730    97.8140    24.0760     2.2490 
  189.1250   -28.7520    62.7350   143.2510   127.1110    92.0540    24.0730     2.2500 
  189.2500   -28.5660    62.9460   146.9780   130.2680    86.3450    24.0730     2.2440 
  189.3750   -28.3160    60.3050   154.8020   137.1280    83.2360    24.0710     2.2320 
  189.5000   -28.0990    57.4750   167.2300   148.1500    84.5770    24.0460     2.2210 
  189.6250   -27.9390    56.8110   184.2660   163.1470    93.6150    23.9650     2.2170 
  189.7500   -27.7970    57.3280   202.8770   179.4810   105.9730    23.8700     2.2260 
  189.8750   -27.7650    58.0540   219.3640   194.2980   110.8260    23.8040     2.2420 
