~V
VERS. 2.00: Ver 2.00
~W
STRT.M 50.0000:
STOP.M 245.0000:
STEP.M 0.1250:
NULL. -999.2500:
UWI. DF5062:
~C
DEPT.M :
DEN.GM/CC :
GR.API :
RML.OHMM :
RI. :
RXO.OHMM :
CALI.CM :
SP.MV :
~A
# ...
  162.5000     2.2440    66.5270   278.0210   229.2010   138.0900    24.7940   -30.4380 
  162.6250     2.2500    64.2820   266.8860   221.2350   148.4540    24.7880   -30.2900 
  162.7500     2.2570    60.9350   249.5380   208.3890   156.8730    24.7790   -30.1390 
  162.8750     2.2640    61.4400   227.1440   191.0990   157.1650    24.7680   -30.1240 
  163.0000     2.2710    64.6560   203.8250   172.0420   145.0540    24.7590   -30.0080 
  163.1250     2.2760    64.3970   186.7720   156.7330   118.5540    24.7400   -30.0290 
  163.2500     2.2790    62.2970   178.7630   148.3420    94.6520    24.7110   -29.9990 
  163.3750     2.2740    62.9060   178.6690   146.7810    87.3630    24.6810   -29.9540 
  163.5000     2.2600    65.3220   181.9640   148.8800    94.0930    24.6670   -29.9100 
  163.6250     2.2440    64.3240   181.1380   148.8040   117.0340    24.6780   -29.7560 
  163.7500     2.2340    60.3070   171.5560   142.3560   139.1090    24.7040   -29.6870 
  163.8750     2.2370    56.8240   152.9130   128.7330   146.8990    24.7040   -29.5420 
  164.0000     2.2530    57.6830   129.2100   110.4890   110.8450    24.6310   -29.4010 
  164.1250     2.2740    63.5700   107.0930    92.5800    67.6740    24.5400   -29.3140 
  164.2500     2.2920    71.2590    90.1900    78.5120    46.1830    24.4470   -29.2110 
  164.3750     2.3030    75.9070    78.7280    68.9610    40.5360    24.3770   -29.0540 
  164.5000     2.3070    75.1780    71.4960    63.1520    38.4670    24.3260   -28.9490 
  164.6250     2.3090    72.6010    67.3280    60.1190    37.6370    24.3500   -28.9120 
  164.7500     2.3110    72.5930    64.6660    58.3830    39.3950    24.4470   -28.8510 
  164.8750     2.3140    75.4880    63.0640    57.4600    43.9020    24.5850   -28.7860 
  165.0000     2.3190    79.0880    62.3470    57.1780    45.7720    24.6850   -28.7350 
  165.1250     2.3230    79.2320    62.2240    57.3530    44.5840    24.6920   -28.6760 
  165.2500     2.3260    76.2920    61.7310    57.2260    43.5460    24.6800   -28.6190 
  165.3750     2.3260    73.3530    59.8410    55.8780    46.0600    24.6740   -28.6650 
  165.5000     2.3250    73.4600    55.7990    52.5480    51.0660    24.6790   -28.6010 
  165.6250     2.3250    76.8940    49.3700    46.8700    51.3780    24.6930   -28.5410 
  165.7500     2.3290    79.8090    42.1180    40.2240    43.8250    24.6800   -28.4910 
  165.8750     2.3400    80.4330    35.6200    34.0500    32.4900    24.6690   -28.3550 
  166.0000     2.3550    80.6240    31.2260    29.6060    23.8570    24.6600   -28.3350 
  166.1250     2.3660    84.9880    30.2800    28.1410    22.2850    24.6660   -28.2240 
  166.2500     2.3680    90.0540    32.5830    29.6130    24.1940    24.6830   -28.1860 
  166.3750     2.3590    90.7970    38.0660    34.1430    29.6570    24.7020   -28.1130 
  166.5000     2.3440    86.5560    46.2910    41.5340    37.6940    24.6980   -28.0330 
  166.6250     2.3290    81.2270    56.2060    51.0290    44.4740    24.7190   -28.0460 
  166.7500     2.3180    77.1870    65.3550    60.2280    52.1010    24.7740   -27.9850 
  166.8750     2.3120    75.0360    71.3470    66.7280    57.1420    24.8540   -28.0620 
  167.0000     2.3080    77.2570    72.1640    68.4200    58.0450    24.9710   -28.0700 
  167.1250     2.3060    80.9200    66.2860    63.5830    57.0920    25.0830   -28.0550 
  167.2500     2.3040    81.8930    56.5580    54.7190    56.9650    25.1360   -28.1010 
  167.3750     2.3090    81.3400    46.1140    44.7020    56.1110    25.1580   -28.1720 
  167.5000     2.3210    81.7620    37.9280    36.3230    47.8820    25.1710   -28.2320 
  167.6250     2.3400    84.1660    34.9410    32.2210    33.0200    25.1840   -28.2910 
  167.7500     2.3570    85.4700    37.7500    32.9940    25.7510    25.1940   -28.4120 
  167.8750     2.3650    84.6100    47.0230    39.3630    29.7380    25.1980   -28.4640 
  168.0000     2.3600    80.7910    62.5500    51.4320    43.4160    25.1990   -28.6040 
  168.1250     2.3430    76.1260    82.7310    68.2870    60.0640    25.1990   -28.7490 
  168.2500     2.3220    74.6370   102.3930    85.5300    79.0500    25.1990   -28.8510 
  168.3750     2.3010    76.3960   116.9310    98.9910   109.3460    25.1990   -28.9600 
  168.5000     2.2850    78.2280   124.1190   105.9080   143.4060    25.1990   -29.1010 
  168.6250     2.2780    76.6500   125.0140   106.7360   142.2860    25.2010   -29.2300 
  168.7500     2.2760    73.1220   126.4210   107.2510   103.8840    25.2180   -29.3210 
  168.8750     2.2750    69.4330   131.7320   111.6080    81.7440    25.2570   -29.5290 
  169.0000     2.2720    66.9620   143.0830   121.6720    89.6350    25.2860   -29.6200 
  169.1250     2.2670    67.0050   156.7060   136.7670   124.4860    25.2940   -29.7580 
  169.2500     2.2620    69.4260   169.2730   152.0400   162.1410    25.2960   -29.9440 
  169.3750     2.2570    72.2070   179.8470   163.2160   178.9760    25.3140   -30.0660 
  169.5000     2.2530    74.2280   185.2170   167.5650   174.1050    25.3390   -30.2550 
  169.6250     2.2490    74.8030   182.2270   164.7720   162.4710    25.3440   -30.3760 
  169.7500     2.2470    71.8730   176.2670   159.4180   148.3110    25.3740   -30.5540 
  169.8750     2.2490    65.3850   170.6960   154.4300   134.6250    25.4640   -30.6940 
  170.0000     2.2530    58.7700   166.8610   151.0760   126.9680    25.5310   -30.8230 
  170.1250     2.2590    57.6300   165.0850   149.6810   124.2940    25.5480   -31.0150 
  170.2500     2.2630    61.3370   165.0280   149.8390   131.2410    25.5540   -31.1100 
  170.3750     2.2650    67.5870   166.9430   151.6970   132.0890    25.5580   -31.2510 
  170.5000     2.2640    72.7880   171.1220   155.5140   126.1780    25.5600   -31.4180 
  170.6250     2.2600    73.9220   177.6130   161.4780   134.0550    25.5600   -31.5430 
  170.7500     2.2550    71.3280   184.7230   168.2530   146.4910    25.5700   -31.6830 
  170.8750     2.2500    67.5900   190.4790   174.1600   152.4150    25.5960   -31.8570 
  171.0000     2.2470    66.3460   192.9050   177.3660   151.5480    25.6080   -31.9950 
  171.1250     2.2470    68.1130   190.2920   176.0540   151.0630    25.5950   -32.0950 
  171.2500     2.2490    69.8650   184.4990   171.5070   152.9350    25.5550   -32.2810 
  171.3750     2.2530    69.7170   178.2010   165.8940   151.0760    25.5350   -32.4340 
  171.5000     2.2550    70.0730   174.5220   162.0200   141.8530    25.5430   -32.5590 
  171.6250     2.2550    71.2620   176.8950   163.1800   132.1580    25.5600   -32.6710 
  171.7500     2.2530    70.0430   185.0050   169.5260   130.4970    25.5320   -32.7700 
  171.8750     2.2490    66.4580   197.2310   179.8730   141.7230    25.4150   -32.8050 
  172.0000     2.2470    62.9890   210.3980   191.5040   167.4340    25.2710   -32.8760 
  172.1250     2.2460    63.0910   219.9770   200.3210   209.5700    25.2090   -32.9390 
  172.2500     2.2470    65.8970   224.4700   204.5860   218.7220    25.1740   -32.8370 
  172.3750     2.2470    69.1740   225.4710   205.2990   197.0940    25.1010   -32.8310 
  172.5000     2.2460    70.2750   227.2700   205.9540   176.0880    24.9600   -32.7210 
  172.6250     2.2450    67.2350   236.6650   212.4270   173.7250    24.8650   -32.6980 
  172.7500     2.2440    61.3730   256.2960   227.4590   178.2570    24.8280   -32.6290 
  172.8750     2.2440    56.4650   286.0940   251.3390   191.4690    24.7950   -32.4870 
  173.0000     2.2430    55.3160   322.3930   281.2780   220.6040    24.7970   -32.4710 
  173.1250     2.2370    55.7110   356.7860   310.7180   228.9610    24.8880   -32.3300 
  173.2500     2.2290    56.1880   380.1120   332.1060   228.4940    25.0280   -32.3000 
  173.3750     2.2190    57.1240   386.7490   340.5940   235.2380    25.1590   -32.3130 
  173.5000     2.2100    58.7120   376.4550   335.2120   247.8150    25.2450   -32.2810 
  173.6250     2.2060    59.1670   353.6280   318.3040   271.0410    25.2690   -32.3040 
