~V
VERS. 2.00: Ver 2.00
~W
STRT.M 60.0000:
STOP.M 256.0000:
STEP.M 0.1250:
NULL. -999.2500:
UWI. DF5048:
~C
DEPT.M :
GR.API :
CALI.CM :
RXO.OHMM :
RI. :
RML.OHMM :
DEN.GM/CC :
SP.MV :
~A
# ...
  172.5000    56.2710    25.1170   275.5040   312.3780   352.3750     2.1330   -42.0170 
  172.6250    56.1370    25.1060   252.9950   312.4350   348.9230     2.1340   -42.0210 
  172.7500    56.1230    25.1070   243.3720   298.2670   329.9540     2.1390   -41.9800 
  172.8750    54.3770    25.0990   235.5400   278.2300   305.3360     2.1460   -41.8660 
  173.0000    53.2980    25.0660   232.9170   257.5890   280.5540     2.1510   -41.8030 
  173.1250    55.8100    25.0050   222.2530   238.9160   258.3810     2.1530   -41.5970 
  173.2500    59.1060    24.9430   178.7870   222.4840   239.0360     2.1570   -41.3460 
  173.3750    61.0810    24.9120   125.8610   208.0980   222.0780     2.1630   -41.0300 
  173.5000    60.5380    24.9260   103.3030   195.2650   206.7670     2.1700   -40.6500 
  173.6250    57.7100    24.9320   117.5850   183.7350   192.9850     2.1770   -40.3160 
  173.7500    55.9160    24.8800   114.9200   173.5640   181.1680     2.1830   -39.9400 
  173.8750    57.0940    24.7980    97.3840   165.8310   172.5860     2.1870   -39.6230 
  174.0000    59.8430    24.7430    91.8210   161.8520   168.4340     2.1900   -39.2290 
  174.1250    61.5180    24.7350   102.8400   163.1470   169.9830     2.1880   -38.9120 
  174.2500    61.7470    24.7350   113.8850   168.4370   175.5580     2.1820   -38.5890 
  174.3750    61.2900    24.7330   118.0220   175.6640   182.8150     2.1720   -38.2740 
  174.5000    60.9740    24.7300   121.2820   181.4010   188.0810     2.1640   -37.9480 
  174.6250    62.1800    24.7280   121.5390   181.0060   186.7090     2.1600   -37.6780 
  174.7500    65.1550    24.7270   117.9420   174.8700   179.7960     2.1610   -37.4630 
  174.8750    68.2060    24.7280   106.0090   166.1620   171.1530     2.1650   -37.2390 
  175.0000    67.7360    24.7280    98.6410   159.1120   165.1260     2.1700   -36.9840 
  175.1250    62.7840    24.7280   100.1480   157.6640   165.2780     2.1710   -36.7460 
  175.2500    58.1290    24.7280   111.5300   161.5670   170.7700     2.1660   -36.5020 
  175.3750    56.5180    24.7280   120.2410   169.5750   180.0400     2.1590   -36.2630 
  175.5000    56.3280    24.7280   130.1890   179.3600   190.4810     2.1520   -36.1060 
  175.6250    55.8810    24.7280   135.7000   186.8120   197.5680     2.1490   -35.9230 
  175.7500    57.5460    24.7280   135.5230   188.2790   197.7360     2.1510   -35.7400 
  175.8750    60.9370    24.7280   131.8210   181.8320   189.3480     2.1570   -35.5430 
  176.0000    62.8430    24.7280   128.3460   168.2670   173.8050     2.1670   -35.4110 
  176.1250    62.5140    24.7280   119.4270   150.9350   155.2910     2.1790   -35.2210 
  176.2500    62.0560    24.7280    99.7680   135.1340   139.2360     2.1890   -35.0630 
  176.3750    62.1300    24.7280    85.2240   124.0060   128.4620     2.1960   -34.9410 
  176.5000    62.8570    24.7280    80.1270   118.9270   123.8480     2.1960   -34.7940 
  176.6250    64.0130    24.7280    91.1170   120.6270   125.6700     2.1910   -34.7150 
  176.7500    65.0920    24.7290   103.1310   127.0520   131.7000     2.1860   -34.6270 
  176.8750    64.7060    24.7260   113.6110   136.9020   140.5010     2.1840   -34.5520 
  177.0000    62.3470    24.7160   113.9190   148.4040   150.2830     2.1860   -34.4160 
  177.1250    60.4850    24.6950   106.8510   158.8580   158.2310     2.1900   -34.3840 
  177.2500    62.7210    24.6090   120.2560   164.8830   160.8810     2.1960   -34.3490 
  177.3750    67.2170    24.4210   139.8160   161.5090   153.4400     2.2030   -34.3230 
  177.5000    68.9880    24.2080   140.4330   144.6410   133.0220     2.2140   -34.3370 
  177.6250    67.3480    24.1310   111.9960   115.5750   103.2250     2.2300   -34.3110 
  177.7500    68.2970    24.1530    83.7190    85.5530    75.0860     2.2500   -34.3060 
  177.8750    70.2480    24.1490    55.2140    61.5420    54.1560     2.2680   -34.3020 
  178.0000    68.5510    24.0850    31.3810    46.0480    41.6790     2.2780   -34.3610 
  178.1250    67.0500    24.0190    24.2260    39.4120    37.5080     2.2750   -34.4570 
  178.2500    70.9540    24.0250    28.7990    38.5540    38.9070     2.2640   -34.5720 
  178.3750    76.6000    24.1410    34.6930    42.7710    45.3560     2.2460   -34.6680 
  178.5000    77.8080    24.3300    48.0140    52.3480    56.8430     2.2260   -34.7520 
  178.6250    72.4440    24.4660    75.2980    68.3010    73.6700     2.2050   -34.7610 
  178.7500    66.8000    24.4950    96.2980    87.7440    93.0060     2.1880   -34.7760 
  178.8750    64.4790    24.4710   110.3150   106.6350   111.2990     2.1770   -34.7910 
  179.0000    66.3370    24.4500   118.4550   120.7090   124.8510     2.1770   -34.8610 
  179.1250    69.8750    24.4260   115.9730   127.4120   131.6190     2.1850   -34.8230 
  179.2500    71.7430    24.3910   111.7520   130.2120   135.1530     2.1950   -34.7640 
  179.3750    72.2210    24.3490   112.0980   131.8950   138.0200     2.2020   -34.7090 
  179.5000    73.0790    24.3100   124.8180   133.2960   140.5710     2.2040   -34.5750 
  179.6250    73.1760    24.2560   151.2310   132.7670   140.4790     2.2040   -34.4920 
  179.7500    71.9270    24.1710   164.7180   129.0270   136.3270     2.2030   -34.3670 
  179.8750    68.9590    24.0700   142.1010   122.1790   128.5110     2.2010   -34.2700 
  180.0000    66.0130    23.9860   102.1240   113.8120   119.1150     2.1980   -34.0810 
  180.1250    66.2200    23.9290    80.9000   106.0170   110.4160     2.1960   -33.9430 
  180.2500    68.3270    23.9510    76.6910    99.1020   102.4320     2.1940   -33.8460 
  180.3750    69.8060    24.1750    79.3860    91.8340    93.7500     2.1950   -33.7160 
  180.5000    70.0120    24.6090    84.2710    82.8210    83.1780     2.1990   -33.6170 
  180.6250    69.9300    24.9920    75.8920    71.8910    71.1890     2.2090   -33.5240 
  180.7500    68.6250    25.1130    60.5160    61.3210    60.3670     2.2220   -33.5100 
  180.8750    66.2160    25.0280    42.4970    53.1650    52.7270     2.2360   -33.5010 
  181.0000    66.2700    24.8960    29.5590    48.6460    49.2580     2.2450   -33.5560 
  181.1250    70.3410    24.8150    34.8720    48.7240    50.6140     2.2450   -33.5710 
  181.2500    72.7720    24.8020    45.3550    52.4180    55.4030     2.2380   -33.5900 
  181.3750    70.7530    24.8520    55.5730    59.0250    62.5570     2.2290   -33.6580 
  181.5000    66.5860    24.9230    62.8420    67.2010    70.4970     2.2210   -33.7940 
  181.6250    64.6900    24.9630    63.9650    74.4670    76.8060     2.2190   -33.9240 
  181.7500    65.4060    24.9750    64.9730    78.9120    80.2250     2.2200   -34.0750 
  181.8750    67.4750    24.9750    66.1280    80.2660    80.9350     2.2210   -34.1750 
  182.0000    70.0450    24.9740    64.2890    79.5750    80.1230     2.2200   -34.2880 
  182.1250    72.2320    24.9740    60.9670    78.1310    78.9150     2.2160   -34.3720 
  182.2500    72.1240    24.9740    58.6150    76.4920    77.4660     2.2120   -34.4650 
  182.3750    70.3730    24.9750    60.7090    74.1690    75.0990     2.2090   -34.5850 
  182.5000    69.4490    24.9710    66.0000    70.5490    71.2470     2.2090   -34.6790 
  182.6250    70.5220    24.9510    62.8780    65.6610    66.2400     2.2140   -34.8710 
  182.7500    73.4340    24.9040    52.2130    61.0210    61.8720     2.2290   -35.0200 
  182.8750    76.3700    24.8190    39.6040    58.1350    59.7600     2.2570   -35.1970 
  183.0000    75.2880    24.7150    30.8280    58.2060    60.9770     2.3030   -35.2950 
  183.1250    69.7800    24.6480    30.9160    62.3530    66.1490     2.3610   -35.4760 
  183.2500    66.7030    24.6660    45.5390    69.2230    73.3310     2.4090   -35.6480 
  183.3750    66.6270    24.7330    62.0000    76.6570    80.0640     2.4240   -35.7980 
  183.5000    64.8230    24.7360    62.6250    81.6640    83.5700     2.3960   -36.0140 
  183.6250    62.0200    24.6240    48.5620    81.3370    81.8010     2.3390   -36.1070 
