~V
VERS. 2.00: Ver 2.00
~W
STRT.M 50.0000:
STOP.M 258.0000:
STEP.M 0.1250:
NULL. -999.2500:
UWI. DF5038:
~C
DEPT.M :
GR.API :
CALI.CM :
RXO.OHMM :
RI. :
RML.OHMM :
DEN.GM/CC :
SP.MV :
~A
# ...
  117.5000    93.6010    25.6430     6.0070     5.0020     5.6610     2.2390   -30.2070 
  117.6250    93.3270    25.6560     5.6690     4.9200     5.5580     2.2330   -30.1830 
  117.7500    92.3240    25.6710     5.3830     4.8410     5.4770     2.2360   -30.0970 
  117.8750    93.4280    25.6810     5.3930     4.7770     5.4180     2.2570   -30.0350 
  118.0000    96.2130    25.6910     5.5490     4.7130     5.3530     2.2890   -29.8840 
  118.1250    94.8990    25.7160     6.0400     4.6190     5.2480     2.3090   -29.7820 
  118.2500    91.4450    25.7480     6.0610     4.5010     5.1210     2.3120   -29.7740 
  118.3750    90.2790    25.7750     5.4130     4.4000     5.0350     2.3110   -29.8170 
  118.5000    92.3780    25.7910     4.8040     4.3750     5.0650     2.3260   -29.8600 
  118.6250    92.3170    25.8180     5.1710     4.4750     5.2600     2.3570   -29.8930 
  118.7500    88.4540    25.8770     5.9140     4.6510     5.5290     2.3730   -29.9720 
  118.8750    83.9150    25.9480     6.7580     4.8330     5.7620     2.3540   -30.0880 
  119.0000    82.2880    25.9950     6.7030     4.9410     5.8530     2.3110   -30.3170 
  119.1250    84.1190    26.0030     6.2230     4.9130     5.7440     2.2740   -30.5690 
  119.2500    86.2290    26.0010     5.5040     4.8140     5.5640     2.2540   -30.8630 
  119.3750    88.2750    26.0000     5.2630     4.7390     5.4540     2.2450   -31.2300 
  119.5000    89.6360    26.0000     5.3830     4.7790     5.5250     2.2380   -31.6040 
  119.6250    87.3480    26.0000     5.8410     5.0090     5.8420     2.2310   -31.9610 
  119.7500    84.2200    26.0000     6.4490     5.3690     6.2900     2.2260   -32.3390 
  119.8750    83.1600    25.9980     7.5790     5.7520     6.7180     2.2260   -32.6620 
  120.0000    83.1610    25.9980     9.2550     6.0230     6.9620     2.2290   -32.7810 
  120.1250    80.9200    26.0320     9.4170     6.0380     6.8780     2.2340   -32.8100 
  120.2500    78.7780    26.1050     7.8100     5.8480     6.5710     2.2360   -32.6620 
  120.3750    80.1060    26.1800     6.2740     5.5460     6.1750     2.2300   -32.3770 
  120.5000    83.2620    26.2190     5.9680     5.2350     5.8150     2.2230   -32.0370 
  120.6250    86.0290    26.2300     6.0740     4.9930     5.5680     2.2220   -31.6510 
  120.7500    87.5970    26.2510     6.0200     4.8260     5.4050     2.2270   -31.2380 
  120.8750    87.0810    26.2780     5.6030     4.7200     5.2870     2.2340   -30.8200 
  121.0000    83.8510    26.2930     5.2300     4.6570     5.1920     2.2350   -30.5490 
  121.1250    80.6710    26.2940     5.3340     4.6600     5.1620     2.2360   -30.2930 
  121.2500    81.4880    26.2930     5.5080     4.7590     5.2480     2.2490   -30.1370 
  121.3750    84.2600    26.2930     5.6190     4.9690     5.4660     2.2810   -30.0460 
  121.5000    86.8910    26.2930     5.8850     5.2590     5.7650     2.3230   -29.9820 
  121.6250    88.3100    26.2930     6.5470     5.5200     5.9990     2.3490   -29.9540 
  121.7500    88.6190    26.2930     7.2740     5.6200     6.0280     2.3490   -29.9820 
  121.8750    88.3490    26.2930     7.1370     5.4890     5.8060     2.3270   -30.0000 
  122.0000    88.6230    26.2930     5.9680     5.1610     5.4000     2.2910   -30.0300 
  122.1250    90.3540    26.2930     4.9720     4.7490     4.9630     2.2550   -30.0680 
  122.2500    91.5540    26.2930     4.4720     4.3800     4.6200     2.2350   -30.1220 
  122.3750    91.4470    26.2930     4.5410     4.1040     4.4080     2.2360   -30.1840 
  122.5000    89.5310    26.2930     4.7500     3.9250     4.3050     2.2550   -30.3170 
  122.6250    85.5550    26.2930     4.7970     3.8210     4.2530     2.2760   -30.6170 
  122.7500    83.8430    26.2930     4.6010     3.7510     4.1990     2.2920   -30.9390 
  122.8750    85.4620    26.2930     4.6560     3.7320     4.1820     2.3100   -31.3300 
  123.0000    86.6410    26.2930     5.0630     3.8470     4.3450     2.3400   -31.7080 
  123.1250    84.2570    26.2930     5.7890     4.3180     5.0400     2.3890   -32.2220 
  123.2500    79.8610    26.2930     7.4530     5.3350     6.5420     2.4460   -32.7750 
  123.3750    75.1260    26.2930    11.5890     7.1480     9.1350     2.5020   -33.3470 
  123.5000    70.9870    26.2920    19.7750     9.9330    12.8730     2.5460   -33.9100 
  123.6250    68.9910    26.2990    29.9940    13.4280    17.0300     2.5560   -34.4070 
  123.7500    68.0800    26.2830    34.6070    16.0740    19.6310     2.5220   -34.8770 
  123.8750    67.0110    26.1690    27.8650    16.4140    19.2280     2.4490   -35.3560 
  124.0000    65.8640    25.9300    15.8820    14.5440    16.3160     2.3960   -35.8440 
  124.1250    67.1320    25.6710    10.1070    11.9680    12.9360     2.3440   -36.2860 
  124.2500    71.8480    25.5190     9.5260     9.9190    10.5080     2.2730   -36.6030 
  124.3750    77.2820    25.4760    10.6700     8.6140     9.1760     2.2280   -36.8700 
  124.5000    79.0610    25.4760    12.3770     7.9580     8.6800     2.2010   -37.0940 
  124.6250    74.8780    25.4790    13.9060     7.8130     8.7240     2.1830   -37.1980 
  124.7500    70.5200    25.4780    13.3590     7.8880     8.9200     2.1710   -37.2250 
  124.8750    68.6490    25.4780    11.3080     8.0240     9.0900     2.1690   -37.2300 
  125.0000    68.0710    25.4780     9.7040     8.1240     9.1560     2.1750   -37.2280 
  125.1250    67.3860    25.4780     9.5240     8.1440     9.1070     2.1840   -37.0700 
  125.2500    66.0590    25.4780     9.2310     8.1120     9.0070     2.1920   -36.9870 
  125.3750    64.9260    25.4780     8.7800     8.0470     8.8860     2.1960   -36.9100 
  125.5000    64.7330    25.4780     8.6320     7.9560     8.7590     2.1920   -36.8440 
  125.6250    65.9150    25.4780     8.7760     7.8640     8.6640     2.1870   -36.8870 
  125.7500    67.4490    25.4780     8.8170     7.8210     8.6550     2.2010   -36.9900 
  125.8750    68.0180    25.4800     8.6780     7.8660     8.7690     2.2570   -37.0800 
  126.0000    67.3030    25.4760     8.1270     8.0010     9.0000     2.3530   -37.1920 
  126.1250    65.0640    25.4460     7.7890     8.1830     9.2800     2.4400   -37.4040 
  126.2500    63.0400    25.3800     7.8850     8.3100     9.4730     2.4540   -37.5820 
  126.3750    63.1160    25.2840     8.2850     8.3020     9.4740     2.3860   -37.7510 
  126.5000    65.7390    25.1900     8.6050     8.1320     9.2580     2.2830   -37.9120 
  126.6250    68.0970    25.1400     8.6850     7.8430     8.9050     2.2100   -38.0320 
  126.7500    67.8070    25.1280     8.6030     7.5550     8.5780     2.1750   -38.0820 
  126.8750    67.4390    25.1300     8.5540     7.3420     8.3710     2.1600   -38.1420 
  127.0000    69.2550    25.1300     8.5680     7.2390     8.3140     2.1530   -38.1010 
  127.1250    68.9510    25.1300     8.5950     7.2480     8.3720     2.1530   -38.0760 
  127.2500    64.2730    25.1300     8.5630     7.3010     8.4500     2.1540   -38.0610 
  127.3750    59.2070    25.1300     8.4500     7.3610     8.5030     2.1530   -38.0140 
  127.5000    59.1200    25.1300     8.4210     7.4080     8.5180     2.1510   -37.9300 
  127.6250    63.1010    25.1300     8.4790     7.4200     8.4900     2.1510   -37.8890 
  127.7500    66.2690    25.1300     8.5180     7.3910     8.4250     2.1510   -37.8410 
  127.8750    67.9860    25.1300     8.5150     7.3250     8.3320     2.1460   -37.7900 
  128.0000    67.6830    25.1310     8.4760     7.2400     8.2310     2.1400   -37.7770 
  128.1250    64.1920    25.1300     8.3430     7.1660     8.1600     2.1420   -37.7180 
  128.2500    61.4610    25.1290     8.3260     7.1300     8.1470     2.1500   -37.6340 
  128.3750    62.1620    25.1390     8.3620     7.1430     8.2070     2.1560   -37.5780 
  128.5000    64.0930    25.2080     8.5440     7.1990     8.3270     2.1550   -37.5700 
  128.6250    63.1970    25.3750     8.9310     7.2610     8.4460     2.1480   -37.4390 
