~V
VERS. 2.00: Ver 2.00
~W
STRT.M 67.0000:
STOP.M 277.0000:
STEP.M 0.1250:
NULL. -999.2500:
UWI. DF5013:
~C
DEPT.M :
SP.MV :
GR.API :
RML.OHMM :
RI. :
RXO.OHMM :
CALI.CM :
DEN.GM/CC :
~A
# ...
  134.5000   -22.2430    76.2440     7.9990     7.5830     7.8710    23.6520     2.2670 
  134.6250   -22.2520    77.4600     7.7640     7.2540     7.6130    23.6570     2.2760 
  134.7500   -22.3350    76.4590     7.8740     7.2580     8.2780    23.6910     2.2660 
  134.8750   -22.4570    74.5780     8.2130     7.5170     9.4700    23.7810     2.2420 
  135.0000   -22.5500    72.0030     8.6820     7.9480    10.0980    23.8940     2.2120 
  135.1250   -22.5910    68.4910     9.1900     8.4410     9.6380    23.9160     2.1910 
  135.2500   -22.5770    65.8570     9.6950     8.9380     9.1760    23.8880     2.1860 
  135.3750   -22.4930    66.3530    10.1330     9.3810     9.8370    23.8780     2.2050 
  135.5000   -22.2920    69.2430    10.3350     9.6360    11.2580    23.9340     2.2510 
  135.6250   -22.0080    71.4350    10.1750     9.5990    12.3740    24.0650     2.3080 
  135.7500   -21.6560    73.7480     9.5890     9.1900    12.5810    24.2170     2.3540 
  135.8750   -21.3030    78.6690     8.6540     8.4400    11.1450    24.2980     2.3730 
  136.0000   -20.9750    84.4580     7.6090     7.5050     8.4310    24.2810     2.3600 
  136.1250   -20.6990    88.1690     6.7290     6.6440     6.8120    24.2700     2.3370 
  136.2500   -20.4640    89.6250     6.1330     5.9910     6.0410    24.3050     2.3170 
  136.3750   -20.3150    89.4880     5.8270     5.5900     5.8180    24.3440     2.3090 
  136.5000   -20.2050    88.3010     5.7710     5.4400     5.7290    24.2880     2.3100 
  136.6250   -20.1350    86.7330     5.8330     5.4350     5.8390    24.1800     2.3140 
  136.7500   -20.0780    85.2080     5.9460     5.5130     5.8750    24.0020     2.3160 
  136.8750   -20.0280    85.0940     6.0690     5.6300     5.7810    23.6830     2.3170 
  137.0000   -19.9970    87.6650     6.1820     5.7620     5.7330    23.3420     2.3160 
  137.1250   -19.9760    91.5170     6.2720     5.8930     5.7240    23.1850     2.3150 
  137.2500   -19.9410    94.1650     6.3210     6.0100     5.7770    23.1900     2.3170 
  137.3750   -19.8870    93.5210     6.3100     6.0880     5.8650    23.3260     2.3200 
  137.5000   -19.8260    93.9900     6.2090     6.0780     5.9140    23.5480     2.3220 
  137.6250   -19.7810    97.3650     6.0220     5.9550     5.9000    23.7620     2.3220 
  137.7500   -19.7670    99.9330     5.7490     5.7070     5.8560    23.9330     2.3210 
  137.8750   -19.8020    97.3330     5.4090     5.3510     5.7150    24.0840     2.3220 
  138.0000   -19.8780    92.5950     5.0620     4.9510     5.4650    24.1430     2.3260 
  138.1250   -20.0220    91.9240     4.8090     4.6200     5.2610    24.1500     2.3320 
  138.2500   -20.2520    93.9760     4.7660     4.4640     5.1520    24.1260     2.3360 
  138.3750   -20.5590    94.9400     5.0340     4.5770     5.1360    24.0850     2.3330 
  138.5000   -21.0060    93.0050     5.7360     5.0810     5.4450    23.9110     2.3190 
  138.6250   -21.5200    89.1340     6.7630     5.9050     6.1070    23.5420     2.2960 
  138.7500   -22.0710    86.2170     7.9640     6.9490     7.0790    23.1330     2.2680 
  138.8750   -22.6160    86.3060     9.1140     8.0400     8.0460    22.9120     2.2390 
  139.0000   -23.1670    86.8380     9.9120     8.9310     8.7260    22.8890     2.2170 
  139.1250   -23.6720    82.2590    10.3120     9.5150     9.1770    22.9330     2.2050 
  139.2500   -24.0940    75.3500    10.4220     9.8150     9.5050    22.9710     2.2040 
  139.3750   -24.4650    72.6480    10.4420     9.9490     9.9760    22.9730     2.2120 
  139.5000   -24.7500    75.6060    10.5560    10.0600    10.6280    22.9510     2.2220 
  139.6250   -24.9840    78.4580    10.7890    10.2230    11.0610    22.9670     2.2270 
  139.7500   -25.1580    79.3300    11.0940    10.4350    11.0270    23.0570     2.2240 
  139.8750   -25.2890    78.0010    11.3990    10.6590    10.6770    23.2450     2.2150 
  140.0000   -25.3560    74.8720    11.6280    10.8450    10.6230    23.4500     2.2030 
  140.1250   -25.4050    71.5350    11.7570    10.9710    10.7720    23.5830     2.1910 
  140.2500   -25.4630    68.1970    11.7840    11.0270    10.8580    23.6380     2.1800 
  140.3750   -25.4910    65.2680    11.7270    11.0180    10.7980    23.6510     2.1730 
  140.5000   -25.4770    63.8980    11.6230    10.9500    10.6780    23.6510     2.1710 
  140.6250   -25.4540    63.7480    11.5240    10.8590    10.5320    23.6570     2.1770 
  140.7500   -25.4450    63.4390    11.4650    10.7830    10.4320    23.6840     2.1890 
  140.8750   -25.4360    62.9590    11.4880    10.7800    10.4630    23.7170     2.2050 
  141.0000   -25.4140    64.0580    11.6640    10.9440    10.5850    23.7620     2.2210 
  141.1250   -25.3750    65.6150    11.9960    11.2740    10.7900    23.7960     2.2350 
  141.2500   -25.3210    66.0200    12.4390    11.7170    11.3320    23.8130     2.2440 
  141.3750   -25.2590    66.1920    12.8790    12.1550    12.4010    23.7810     2.2460 
  141.5000   -25.2080    68.4800    13.1020    12.3980    13.5650    23.6960     2.2420 
  141.6250   -25.1550    69.6450    13.0130    12.3620    14.3220    23.6250     2.2330 
  141.7500   -25.1110    67.0860    12.6400    12.0550    13.8050    23.5930     2.2190 
  141.8750   -25.0630    63.4870    12.1290    11.5800    11.6910    23.5510     2.2020 
  142.0000   -25.0730    63.6560    11.6630    11.0970    10.3440    23.5280     2.1860 
  142.1250   -25.1090    64.9000    11.3210    10.7150     9.9020    23.5190     2.1730 
  142.2500   -25.1600    63.1310    11.0930    10.4550     9.8700    23.5190     2.1640 
  142.3750   -25.2160    60.6270    10.9260    10.2800     9.9190    23.5190     2.1620 
  142.5000   -25.3020    62.7740    10.7580    10.1240     9.9000    23.5190     2.1670 
  142.6250   -25.3660    66.3830    10.5620     9.9410     9.8020    23.5190     2.1750 
  142.7500   -25.4020    68.0100    10.3420     9.7320     9.7030    23.5190     2.1850 
  142.8750   -25.4110    66.5540    10.1380     9.5430     9.6650    23.5190     2.1940 
  143.0000   -25.3890    64.9850    10.0820     9.4980     9.8020    23.5210     2.1970 
  143.1250   -25.3380    64.9950    10.3220     9.7220     9.9920    23.5360     2.1980 
  143.2500   -25.2740    64.1880    10.9830    10.3260    10.4080    23.5680     2.2080 
  143.3750   -25.2040    62.7170    12.0790    11.3330    12.1090    23.5900     2.2340 
  143.5000   -25.1200    64.0150    13.4370    12.6140    16.6830    23.6080     2.2850 
  143.6250   -25.0610    67.3350    14.6090    13.7710    22.6980    23.6490     2.3450 
  143.7500   -25.0380    65.4700    15.1890    14.4320    28.6740    23.6850     2.3900 
  143.8750   -25.0640    57.3690    14.9370    14.3490    31.4160    23.6300     2.4000 
  144.0000   -25.1290    54.5170    13.8990    13.4810    24.2950    23.4860     2.3620 
  144.1250   -25.2100    59.3120    12.6690    12.3290    15.5020    23.3930     2.3050 
  144.2500   -25.3090    63.7470    11.6480    11.2730    11.5320    23.3780     2.2530 
  144.3750   -25.4180    63.4910    11.0330    10.5490    10.5930    23.3860     2.2180 
  144.5000   -25.5240    62.6920    10.9040    10.2710    10.6210    23.3860     2.2030 
  144.6250   -25.6250    64.4500    11.0710    10.2880    10.6570    23.3860     2.1970 
  144.7500   -25.7260    65.9650    11.3760    10.4640    10.6610    23.3860     2.1960 
  144.8750   -25.8270    65.3090    11.6670    10.6710    10.7110    23.3860     2.1960 
  145.0000   -25.9210    62.8980    11.8140    10.7990    10.7520    23.3580     2.1990 
  145.1250   -26.0160    62.3810    11.8090    10.8250    10.7660    23.2630     2.2010 
  145.2500   -26.1060    63.2550    11.6890    10.7700    10.7130    23.1350     2.2020 
  145.3750   -26.1870    63.5680    11.5150    10.6690    10.6460    23.0930     2.2010 
  145.5000   -26.2690    63.1410    11.3450    10.5580    10.5770    23.2580     2.2040 
  145.6250   -26.3180    63.7330    11.2130    10.4580    10.6500    23.3760     2.2140 
