~V
VERS. 2.00: Ver 2.00
~W
STRT.M 59.0000:
STOP.M 260.0000:
STEP.M 0.1250:
NULL. -999.2500:
UWI. DF5044:
~C
DEPT.M :
GR.API :
CALI.CM :
RXO.OHMM :
RI. :
RML.OHMM :
DEN.GM/CC :
SP.MV :
~A
# ...
  216.5000    67.5640    24.1690    76.7800    70.9400    75.5040     2.1910   -30.1550 
  216.6250    68.0920    24.2350    71.1040    69.0370    73.4920     2.1970   -30.1620 
  216.7500    69.7180    24.2710    73.1650    67.7330    72.1120     2.2130   -30.0850 
  216.8750    71.9000    24.2270    76.1990    66.8410    71.1680     2.2340   -30.1350 
  217.0000    73.9910    24.1610    74.1970    66.3260    70.6230     2.2530   -30.1670 
  217.1250    75.5160    24.1210    68.0800    66.4520    70.7560     2.2640   -30.0590 
  217.2500    75.7960    24.1250    64.8520    67.3570    71.7140     2.2610   -30.0450 
  217.3750    73.9820    24.1620    65.7490    69.2440    73.7100     2.2450   -29.9960 
  217.5000    70.6390    24.2230    67.8780    72.1800    76.8160     2.2250   -29.7960 
  217.6250    68.3750    24.1790    69.0290    75.9810    80.8380     2.2110   -29.6860 
  217.7500    67.9400    24.0090    72.1420    79.6920    84.7640     2.2050   -29.6100 
  217.8750    67.9410    23.6760    81.0680    82.3140    87.5380     2.2100   -29.3740 
  218.0000    68.2060    23.3300    94.9920    82.9950    88.2590     2.2260   -29.1120 
  218.1250    70.5200    23.1720   104.4800    81.1200    86.2740     2.2470   -28.9240 
  218.2500    72.6510    23.2970   104.0540    77.6420    82.5950     2.2610   -28.5990 
  218.3750    71.5040    23.6040    95.7300    73.5840    78.3020     2.2660   -28.2400 
  218.5000    69.7310    23.8680    83.5510    70.0330    74.5450     2.2610   -27.9930 
  218.6250    75.4950    23.9560    70.6250    68.1340    72.5360     2.2510   -27.6560 
  218.7500    86.1390    24.0020    63.2420    67.9740    72.3670     2.2420   -27.2370 
  218.8750    92.3550    24.0550    65.0660    69.3120    73.7820     2.2380   -26.9450 
  219.0000    89.1170    24.0400    73.5290    71.5620    76.1620     2.2410   -26.7010 
  219.1250    80.3470    23.9600    83.9010    73.8070    78.5370     2.2460   -26.3510 
  219.2500    74.2570    24.0250    90.5900    75.2260    80.0390     2.2440   -26.1100 
  219.3750    72.5240    24.1920    91.4810    75.4050    80.2290     2.2340   -25.9570 
  219.5000    73.5500    24.2940    86.9330    74.3180    79.0790     2.2250   -25.6990 
  219.6250    75.3180    24.2560    79.9680    72.2380    76.8780     2.2190   -25.5150 
  219.7500    77.6940    24.1810    74.3000    69.9030    74.4080     2.2100   -25.4730 
  219.8750    80.0930    24.1370    71.1380    67.7320    72.1110     2.2000   -25.3570 
  220.0000    80.8200    24.1350    69.9910    65.9510    70.2270     2.1950   -25.1540 
  220.1250    78.6920    24.1320    69.6260    64.7090    68.9120     2.1990   -25.0970 
  220.2500    76.2300    24.1500    69.4340    63.9030    68.0590     2.2010   -25.0210 
  220.3750    75.2110    24.1860    69.4370    63.4700    67.6010     2.1980   -24.8310 
  220.5000    75.0530    24.2500    69.2490    63.3970    67.5240     2.1940   -24.7250 
  220.6250    73.9560    24.2350    68.3350    63.7910    67.9410     2.1960   -24.6510 
  220.7500    72.1550    24.1800    67.5060    64.6350    68.8340     2.2020   -24.4560 
  220.8750    71.0960    24.1210    68.0420    65.9350    70.2090     2.2050   -24.2860 
  221.0000    71.1140    24.0900    69.2770    67.6890    72.0650     2.2030   -24.2560 
  221.1250    70.8680    24.0820    70.6960    70.0420    74.5550     2.2090   -24.1250 
  221.2500    69.9480    24.0660    73.5450    73.0740    77.7620     2.2290   -23.9490 
  221.3750    69.6170    24.0580    77.4300    76.6280    81.5220     2.2510   -23.9070 
  221.5000    71.1210    24.0750    80.6890    79.5980    84.6650     2.2570   -23.8620 
  221.6250    73.3670    24.0950    82.6780    78.8900    83.9150     2.2450   -23.6860 
  221.7500    73.9680    24.1040    84.9200    72.8510    77.5270     2.2390   -23.5460 
  221.8750    72.3080    24.0990    89.7240    61.5790    65.5410     2.2600   -23.4840 
  222.0000    70.2010    24.0930   101.8420    47.3190    50.2390     2.3110   -23.3690 
  222.1250    70.9990    24.0450   120.7290    33.6230    35.2790     2.3730   -23.2390 
  222.2500    74.8180    23.9510   121.2190    22.7160    23.4470     2.4130   -23.1890 
  222.3750    79.3980    23.8210    91.0200    15.0490    15.2980     2.4250   -23.1920 
  222.5000    81.7350    23.7100    46.6470    10.2300    10.3150     2.4200   -23.2300 
  222.6250    80.4510    23.5850    18.9970     7.8130     7.8930     2.4100   -23.3630 
  222.7500    78.5250    23.4790     8.9900     6.6780     6.8340     2.3950   -23.5830 
  222.8750    78.3970    23.3540     7.7550     6.3410     6.6230     2.3860   -23.8560 
  223.0000    80.9960    23.2720     9.1500     6.5120     6.9040     2.4080   -24.2210 
  223.1250    86.3090    23.4290     9.9800     6.9880     7.4000     2.4670   -24.6730 
  223.2500    92.9520    23.5000     9.6890     7.4910     7.8380     2.5110   -25.0760 
  223.3750    99.3200    23.2410     8.8800     7.8550     8.0780     2.4980   -25.4000 
  223.5000   103.9390    22.9360     8.2980     7.9950     8.0820     2.4330   -25.7390 
  223.6250   106.5750    23.0130     7.9540     7.8990     7.8950     2.3740   -26.1620 
  223.7500   108.5860    23.3630     7.6750     7.7010     7.6720     2.3570   -26.5650 
  223.8750   110.4010    23.6650     7.5710     7.5160     7.5320     2.3740   -26.8370 
  224.0000   112.3410    23.8100     7.5980     7.4360     7.5650     2.4010   -26.9740 
  224.1250   115.4530    23.8380     7.7210     7.5590     7.8820     2.4110   -27.1010 
  224.2500   118.5090    23.8650     7.9290     7.9090     8.4920     2.4030   -27.3010 
  224.3750   118.5760    23.9230     8.3520     8.5140     9.4200     2.3860   -27.5570 
  224.5000   114.2420    23.9840     9.3190     9.3850    10.6510     2.3740   -27.8020 
  224.6250   107.8200    23.9540    11.3480    10.5400    12.1670     2.3720   -27.9590 
  224.7500   102.4950    23.8650    14.0390    11.8700    13.8310     2.3670   -28.0340 
  224.8750    99.7770    23.7980    16.5030    13.2810    15.5380     2.3510   -28.1090 
  225.0000   101.7700    23.7770    18.1720    14.6680    17.1680     2.3280   -28.2020 
  225.1250   107.4650    23.7670    19.2290    15.9020    18.5760     2.3100   -28.2720 
  225.2500   109.2940    23.7500    20.2820    16.9380    19.7250     2.3030   -28.3060 
  225.3750   103.9640    23.7410    21.5440    17.7680    20.6150     2.3020   -28.2590 
  225.5000    95.9020    23.7470    22.7780    18.4420    21.3180     2.3030   -28.1500 
  225.6250    91.8070    23.7410    23.1610    19.0460    21.9510     2.2990   -28.0530 
  225.7500    90.9590    23.6950    22.7960    19.6990    22.6540     2.2920   -28.0080 
  225.8750    91.5110    23.6150    22.2450    20.4850    23.5280     2.2880   -27.9630 
  226.0000    92.8070    23.5640    22.0610    21.4380    24.6180     2.2910   -27.9240 
  226.1250    93.9680    23.5400    22.6830    22.4610    25.8140     2.2990   -27.9080 
  226.2500    93.9780    23.5290    23.8340    23.2520    26.7570     2.3010   -27.8800 
  226.3750    93.9630    23.5130    25.3900    23.4480    27.0380     2.3000   -27.8530 
  226.5000    96.4690    23.4940    27.2520    22.7190    26.2760     2.3030   -27.8430 
  226.6250   101.5160    23.4770    28.9690    20.8420    24.1650     2.3120   -27.8440 
  226.7500   106.4100    23.4800    29.0910    18.3610    21.2620     2.3190   -27.8600 
  226.8750   111.4130    23.5240    26.1230    15.8470    18.2370     2.3220   -27.9020 
  227.0000   117.5800    23.6370    20.3250    13.8260    15.7870     2.3200   -27.9820 
  227.1250   121.7080    23.7480    14.6710    12.8240    14.6640     2.3200   -28.1270 
  227.2500   119.4340    23.8020    11.3670    12.9070    14.9480     2.3280   -28.3150 
  227.3750   111.0920    23.7900    11.2310    14.1830    16.6720     2.3430   -28.5470 
  227.5000   100.4270    23.7500    15.6500    16.7300    19.7650     2.3580   -28.8110 
  227.6250    91.5260    23.6640    27.6080    20.7170    24.1740     2.3700   -29.0860 
