~V
VERS. 2.00: Ver 2.00
~W
STRT.M 55.0000:
STOP.M 261.0000:
STEP.M 0.1250:
NULL. -999.2500:
UWI. DF5033:
~C
DEPT.M :
SP.MV :
GR.API :
CALI.CM :
RXO.OHMM :
RI. :
RML.OHMM :
DEN.GM/CC :
~A
# ...
  156.2500   -30.7290    65.5410    27.2160   178.5070   154.7760   192.0210     2.2160 
  156.3750   -30.6050    61.9940    27.1250   165.9370   151.9890   186.5980     2.2260 
  156.5000   -30.4450    62.9090    27.0290   144.2400   146.9830   178.3750     2.2330 
  156.6250   -30.2660    66.6430    26.9600   116.5220   139.1870   166.5330     2.2340 
  156.7500   -30.0710    68.0800    26.9110    95.2600   129.2310   152.2490     2.2330 
  156.8750   -29.8770    65.2840    26.8520    84.8830   118.0440   136.9960     2.2330 
  157.0000   -29.7580    62.0170    26.7470    81.1920   106.8610   122.3800     2.2360 
  157.1250   -29.7070    62.5790    26.5870    79.5390    97.2060   110.2030     2.2470 
  157.2500   -29.5950    64.9500    26.4500    78.7560    89.7390   100.9660     2.2610 
  157.3750   -29.3960    66.5860    26.4410    77.6090    84.8100    94.9120     2.2680 
  157.5000   -29.1850    67.0950    26.6270    74.5150    82.4680    91.9260     2.2640 
  157.6250   -28.9720    67.2430    26.9640    71.7290    82.4450    91.3520     2.2570 
  157.7500   -28.7540    67.8220    27.2300    73.2020    82.6720    90.5230     2.2570 
  157.8750   -28.5330    68.8100    27.2680    78.0670    81.0440    87.0030     2.2610 
  158.0000   -28.3270    70.3730    27.0420    79.2730    76.2420    79.7610     2.2630 
  158.1250   -28.1540    71.8110    26.6770    66.8740    68.3320    69.8060     2.2640 
  158.2500   -28.0330    72.9290    26.4000    48.8160    59.7590    60.1090     2.2720 
  158.3750   -27.9560    73.8150    26.3190    37.4050    52.4370    52.4920     2.2900 
  158.5000   -27.9300    74.5290    26.4250    37.9790    47.5370    47.7670     2.3100 
  158.6250   -27.9630    77.6690    26.6350    43.2570    45.6780    46.2990     2.3190 
  158.7500   -28.0330    81.7840    26.8370    43.8260    46.0700    47.1460     2.3110 
  158.8750   -28.1280    82.5680    26.9750    41.7570    48.2770    49.7500     2.2920 
  159.0000   -28.2250    77.8460    27.0220    43.8630    51.5310    53.1830     2.2740 
  159.1250   -28.3000    73.2200    26.9700    49.4570    54.3120    55.7480     2.2690 
  159.2500   -28.3530    72.0870    26.8720    53.3820    55.3800    56.3330     2.2740 
  159.3750   -28.3890    72.9300    26.7680    55.2620    54.5050    54.9640     2.2780 
  159.5000   -28.4130    75.7460    26.6840    53.6980    52.3410    52.5780     2.2790 
  159.6250   -28.4530    78.9230    26.6210    47.0530    50.1680    50.6920     2.2820 
  159.7500   -28.5430    77.8760    26.5650    42.6560    49.1920    50.4090     2.2890 
  159.8750   -28.6710    75.7930    26.5210    45.1280    49.8360    51.7550     2.2900 
  160.0000   -28.8440    74.7730    26.4870    49.6950    51.0110    53.5230     2.2800 
  160.1250   -29.0640    73.7970    26.4160    58.0990    53.9020    57.6630     2.2680 
  160.2500   -29.3140    76.6010    26.3370    61.0830    59.7530    65.1100     2.2700 
  160.3750   -29.5670    77.3480    26.2620    61.0170    68.0830    75.3260     2.2870 
  160.5000   -29.8090    75.8980    26.2030    71.0290    79.0500    88.4670     2.2990 
  160.6250   -30.0010    71.9020    26.1740   103.9270    92.5900   104.5140     2.2820 
  160.7500   -30.1290    66.8630    26.1750   145.2540   106.5890   121.1310     2.2480 
  160.8750   -30.2000    63.6340    26.2010   170.4040   118.2040   134.7890     2.2180 
  161.0000   -30.2320    63.2930    26.2410   168.2520   124.4650   141.5830     2.2070 
  161.1250   -30.2330    64.6950    26.2820   147.0410   123.6050   139.6880     2.2100 
  161.2500   -30.2170    65.5880    26.3140   123.2880   119.4660   134.5190     2.2070 
  161.3750   -30.2010    64.9270    26.3340   106.5560   115.5720   130.3050     2.2010 
  161.5000   -30.1970    63.1430    26.3430   103.3950   114.2460   129.2950     2.2040 
  161.6250   -30.2080    63.1990    26.3390   111.4730   116.6170   132.2830     2.2230 
  161.7500   -30.2270    63.2730    26.3290   120.3020   121.4480   137.6520     2.2420 
  161.8750   -30.2530    60.5180    26.3150   127.0450   127.4400   143.8180     2.2470 
  162.0000   -30.2530    57.1760    26.3000   132.9930   132.8250   148.7480     2.2400 
  162.1250   -30.2190    58.9360    26.2870   135.0120   134.7410   149.0360     2.2300 
  162.2500   -30.1420    62.4780    26.2740   128.9770   131.1820   142.3830     2.2270 
  162.3750   -30.0330    64.4270    26.2620   116.3560   120.4980   127.2790     2.2350 
  162.5000   -29.8730    64.9720    26.2480   101.2970   103.2460   105.6800     2.2490 
  162.6250   -29.6640    66.9620    26.2360    81.8280    83.5650    83.8290     2.2620 
  162.7500   -29.4420    70.8690    26.2260    57.7330    67.0340    67.0510     2.2720 
  162.8750   -29.2070    74.7550    26.2190    35.9310    56.0580    56.8870     2.2800 
  163.0000   -28.9890    76.2600    26.2130    24.7680    51.1960    53.2810     2.2820 
  163.1250   -28.8000    74.5260    26.2120    29.7920    53.2630    56.7700     2.2730 
  163.2500   -28.6300    72.3830    26.2140    50.7250    60.9230    65.8640     2.2600 
  163.3750   -28.4770    72.0920    26.2190    80.9250    73.3380    79.6640     2.2500 
  163.5000   -28.3490    73.2240    26.2240   102.4390    88.3440    95.9180     2.2500 
  163.6250   -28.2460    73.9860    26.2210   103.6260   101.3590   109.6390     2.2620 
  163.7500   -28.1390    73.4310    26.2060    98.0840   108.6000   116.7710     2.2740 
  163.8750   -28.0330    72.2120    26.1800    93.1680   108.9340   116.3140     2.2750 
  164.0000   -27.9220    72.0800    26.1560    90.4170   103.5080   109.8730     2.2680 
  164.1250   -27.8200    73.9990    26.1600    91.0380    94.3040    99.9440     2.2630 
  164.2500   -27.7510    76.9860    26.1930    87.9130    84.6040    90.1090     2.2650 
  164.3750   -27.7070    79.0910    26.2370    77.1780    76.6640    82.7760     2.2620 
  164.5000   -27.6780    78.3260    26.2450    65.5660    72.1760    79.5940     2.2510 
  164.6250   -27.6620    77.1160    26.1620    67.9480    72.7600    82.0790     2.2380 
  164.7500   -27.6380    79.1210    26.0000    83.7050    77.4950    89.0210     2.2330 
  164.8750   -27.5940    81.5080    25.8010    98.8370    85.3560    99.1320     2.2420 
  165.0000   -27.5330    79.7940    25.6220   100.4830    94.5280   110.0750     2.2640 
  165.1250   -27.4250    74.5790    25.5170    90.9510   101.4870   117.2460     2.2880 
  165.2500   -27.2770    71.9030    25.4780    83.8440   103.5670   117.8920     2.3010 
  165.3750   -27.0870    73.3070    25.4830    79.5350   100.5730   112.6810     2.3000 
  165.5000   -26.8710    76.2840    25.5080    71.7810    94.6770   104.9370     2.2920 
  165.6250   -26.6390    76.1820    25.5370    57.2110    88.6410    97.9860     2.2900 
  165.7500   -26.4080    73.9090    25.5610    45.2750    83.5750    92.4550     2.2950 
  165.8750   -26.1990    73.2330    25.5820    44.9340    78.8460    87.1990     2.3000 
  166.0000   -25.9960    75.4880    25.5990    58.5050    73.1090    80.5260     2.3000 
  166.1250   -25.8160    75.8540    25.6120    72.1710    65.4000    71.5160     2.2950 
  166.2500   -25.6520    73.9060    25.6220    67.3930    57.1200    62.0480     2.2930 
  166.3750   -25.5160    73.0080    25.6310    48.7570    49.9380    54.1030     2.2970 
  166.5000   -25.4060    73.7510    25.6430    34.2640    45.0570    49.0510     2.3080 
  166.6250   -25.3100    74.5300    25.6620    32.9800    43.5240    48.0420     2.3210 
  166.7500   -25.2440    74.2470    25.6850    38.5540    44.8180    50.2650     2.3270 
  166.8750   -25.1970    72.8640    25.7110    44.2780    48.4400    54.9320     2.3260 
  167.0000   -25.1760    71.3090    25.7400    46.6190    53.4660    60.7940     2.3180 
  167.1250   -25.1810    71.0970    25.7770    48.7160    58.4460    66.0790     2.3010 
  167.2500   -25.1870    71.6310    25.8210    53.2710    62.1800    69.7000     2.2830 
  167.3750   -25.1950    70.7240    25.8610    57.4900    64.4360    71.6810     2.2710 
