~V
VERS. 2.00: Ver 2.00
~W
STRT.M 60.0000:
STOP.M 259.0000:
STEP.M 0.1250:
NULL. -999.2500:
UWI. DF5006:
~C
DEPT.M :
SP.MV :
GR.API :
RML.OHMM :
RI. :
RXO.OHMM :
CALI.CM :
DEN.GM/CC :
~A
# ...
  127.5000   -20.9780    62.2430    13.7310    11.3430    12.3830    23.0810     2.2070 
  127.6250   -21.0200    63.9760    13.8040    11.3210    12.3820    23.0780     2.2030 
  127.7500   -21.0940    63.3800    13.9760    11.3940    12.4560    23.0900     2.1960 
  127.8750   -21.1970    60.6370    14.2660    11.5900    12.9180    23.1220     2.1910 
  128.0000   -21.3420    59.5620    14.6800    11.9180    14.6770    23.1500     2.1890 
  128.1250   -21.5510    63.0780    15.1700    12.3360    18.2330    23.1170     2.1890 
  128.2500   -21.8340    66.3040    15.5840    12.7260    23.1670    23.0210     2.1900 
  128.3750   -22.0890    65.8240    15.7590    12.9590    27.8140    23.0000     2.1900 
  128.5000   -22.3390    65.1340    15.6060    12.9680    29.0890    23.0890     2.1920 
  128.6250   -22.5590    66.5390    15.1710    12.7680    23.8820    23.1480     2.1960 
  128.7500   -22.7800    67.6430    14.6310    12.4590    16.7110    23.1240     2.2000 
  128.8750   -22.9610    66.8050    14.2070    12.1840    13.5080    23.0910     2.2030 
  129.0000   -23.1060    64.9620    13.9840    12.0030    12.5750    23.0740     2.2000 
  129.1250   -23.1690    61.8270    13.9400    11.9160    12.4040    23.0700     2.1940 
  129.2500   -23.1630    58.2140    13.9820    11.8830    12.2720    23.0700     2.1880 
  129.3750   -23.1230    57.1980    14.0020    11.8540    12.1300    23.0700     2.1840 
  129.5000   -23.0610    59.2380    13.9760    11.8200    12.0320    23.0700     2.1830 
  129.6250   -22.9430    61.3770    13.9340    11.7950    12.0140    23.0700     2.1850 
  129.7500   -22.7430    60.0050    13.9120    11.7920    12.1020    23.0710     2.1900 
  129.8750   -22.4490    57.9870    13.8850    11.7870    12.2800    23.0810     2.1990 
  130.0000   -22.0810    58.2150    13.7800    11.7320    12.4390    23.1080     2.2130 
  130.1250   -21.6370    60.2550    13.5060    11.5740    12.5260    23.1490     2.2280 
  130.2500   -21.1490    61.0910    12.9670    11.2640    12.4810    23.1930     2.2400 
  130.3750   -20.6020    63.9300    12.2540    10.8500    12.3050    23.2120     2.2430 
  130.5000   -19.9870    70.5550    11.5370    10.4060    11.9000    23.1990     2.2370 
  130.6250   -19.3480    76.3460    11.0530    10.0410    11.2380    23.1670     2.2210 
  130.7500   -18.7060    74.7130    11.1110     9.9370    10.5800    23.1170     2.2020 
  130.8750   -18.0540    69.6620    11.6840    10.1460    10.0820    23.0670     2.1930 
  131.0000   -17.4120    67.9210    12.5750    10.6100    10.0940    23.0480     2.2080 
  131.1250   -16.7720    69.7880    13.3990    11.1180    10.7880    23.1690     2.2540 
  131.2500   -16.1450    70.6470    13.5750    11.2690    12.2320    23.4190     2.3280 
  131.3750   -15.5910    70.1420    12.9280    10.8450    13.9570    23.6770     2.3970 
  131.5000   -15.1340    71.8230    11.5920     9.8650    14.8660    23.8880     2.4350 
  131.6250   -14.8010    77.8840    10.0190     8.6210    12.4100    24.0480     2.4320 
  131.7500   -14.5890    84.1990     8.8820     7.6100     8.5420    24.1280     2.3990 
  131.8750   -14.5870    87.8210     8.4870     7.1240     7.5980    24.0990     2.3600 
  132.0000   -14.7370    88.5270     8.8550     7.2460     8.1290    23.9730     2.3260 
  132.1250   -15.0700    84.9930     9.7940     7.9040     9.2300    23.7560     2.2960 
  132.2500   -15.4200    78.3970    10.9170     8.8820    10.5390    23.5080     2.2670 
  132.3750   -15.7260    73.9800    11.7220     9.7480    11.4290    23.3500     2.2410 
  132.5000   -15.9260    73.0770    11.9010    10.1770    11.3450    23.2890     2.2230 
  132.6250   -15.9850    73.6910    11.3880    10.0100    10.5550    23.3050     2.2160 
  132.7500   -15.8900    75.9200    10.3360     9.2720     9.4970    23.3840     2.2250 
  132.8750   -15.6590    79.5750     9.1950     8.3330     8.4920    23.5130     2.2420 
  133.0000   -15.3260    82.6000     8.2370     7.4500     7.5680    23.6620     2.2620 
  133.1250   -14.9050    84.8650     7.6050     6.7850     6.9400    23.7930     2.2800 
  133.2500   -14.5080    87.6970     7.3640     6.4340     6.6540    23.8870     2.2920 
  133.3750   -14.1940    87.7400     7.3630     6.3130     6.6250    23.9530     2.3020 
  133.5000   -13.9530    84.4690     7.4780     6.3470     6.7630    23.9340     2.3100 
  133.6250   -13.8000    82.7490     7.5950     6.4570     6.9920    23.8420     2.3140 
  133.7500   -13.7500    86.0190     7.6470     6.5830     7.0460    23.7530     2.3110 
  133.8750   -13.7600    89.8190     7.6760     6.7010     6.9070    23.6900     2.3010 
  134.0000   -13.8030    91.0440     7.7470     6.8200     6.8170    23.5730     2.2900 
  134.1250   -13.8610    89.1600     7.8990     6.9430     6.9040    23.4400     2.2820 
  134.2500   -13.9220    85.7350     8.0990     7.0290     6.9800    23.3330     2.2810 
  134.3750   -13.9190    84.0190     8.2250     7.0130     6.9850    23.2380     2.2830 
  134.5000   -13.9020    84.6760     8.1530     6.8280     6.8620    23.2170     2.2850 
  134.6250   -13.8610    86.7280     7.8040     6.4410     6.5780    23.3320     2.2850 
  134.7500   -13.8580    90.5260     7.1680     5.8740     6.1750    23.5460     2.2890 
  134.8750   -13.8550    95.5300     6.4670     5.2850     5.9230    23.7470     2.3000 
  135.0000   -13.9160    98.6930     5.9510     4.8340     5.7670    23.8890     2.3200 
  135.1250   -14.0320    98.4330     5.8760     4.6840     5.8980    23.9210     2.3460 
  135.2500   -14.3160    94.5920     6.5400     5.0570     6.8660    23.8670     2.3670 
  135.3750   -14.7740    88.3240     7.8550     5.9520     8.6580    23.8310     2.3720 
  135.5000   -15.3960    81.1340     9.6510     7.3180    10.9780    23.8050     2.3540 
  135.6250   -16.1440    77.1890    11.5970     8.9710    13.2490    23.6920     2.3190 
  135.7500   -16.9390    76.8340    13.1690    10.5470    13.9250    23.5220     2.2810 
  135.8750   -17.7490    74.6550    14.0860    11.7150    13.2100    23.3330     2.2530 
  136.0000   -18.4810    70.5020    14.3420    12.3500    13.0610    23.2100     2.2390 
  136.1250   -19.1100    68.4170    14.1700    12.5470    14.0710    23.1320     2.2360 
  136.2500   -19.5820    71.2000    13.8860    12.4870    16.1090    23.1130     2.2340 
  136.3750   -19.9580    74.5380    13.6820    12.3510    18.2930    23.1620     2.2250 
  136.5000   -20.2440    74.8010    13.5380    12.1640    19.8460    23.2650     2.2090 
  136.6250   -20.4410    71.8500    13.3920    11.9210    18.9350    23.3000     2.1910 
  136.7500   -20.5890    68.4740    13.2500    11.6590    14.4800    23.2870     2.1790 
  136.8750   -20.7150    68.4340    13.1900    11.4560    12.6030    23.3040     2.1780 
  137.0000   -20.8600    71.7520    13.2810    11.3750    12.1900    23.3490     2.1880 
  137.1250   -21.0690    74.4470    13.5350    11.4340    12.2000    23.3700     2.2020 
  137.2500   -21.2490    73.2580    13.8990    11.6190    12.1310    23.3460     2.2140 
  137.3750   -21.4080    70.3440    14.2460    11.8480    12.0810    23.3050     2.2180 
  137.5000   -21.5030    66.2590    14.5050    12.0590    12.0780    23.2980     2.2110 
  137.6250   -21.5760    63.3720    14.6470    12.2090    12.1890    23.3440     2.1980 
  137.7500   -21.6090    65.4690    14.6470    12.2520    12.2500    23.3540     2.1840 
  137.8750   -21.6090    70.7390    14.5260    12.1910    12.2920    23.3220     2.1750 
  138.0000   -21.6190    73.8450    14.3080    12.0400    12.2310    23.2940     2.1730 
  138.1250   -21.5940    72.4540    14.0440    11.8340    11.8130    23.3170     2.1780 
  138.2500   -21.6350    71.7690    13.8120    11.6260    11.6720    23.3610     2.1870 
  138.3750   -21.6490    72.4740    13.6650    11.4620    11.7700    23.3770     2.1970 
  138.5000   -21.6810    70.0490    13.6190    11.3640    11.9840    23.3730     2.2050 
  138.6250   -21.7220    64.8700    13.6540    11.3340    12.1590    23.3600     2.2100 
