~V
VERS. 2.00: Ver 2.00
~W
STRT.M 64.0000:
STOP.M 243.0000:
STEP.M 0.1250:
NULL. -999.2500:
UWI. DF5061:
~C
DEPT.M :
GR.API :
RML.OHMM :
RI. :
RXO.OHMM :
CALI.CM :
DEN.GM/CC :
SP.MV :
~A
# ...
  120.2500    67.4430    10.6730     9.1990    10.5530    23.7930     2.2750   -22.5910 
  120.3750    66.0950    10.3490     9.0370    10.5090    23.5210     2.2740   -22.7000 
  120.5000    67.5150    10.1680     8.8960    10.3090    23.3130     2.2700   -22.7900 
  120.6250    70.7920    10.0790     8.7850    10.0230    23.3290     2.2620   -22.8650 
  120.7500    69.9950     9.9430     8.7040     9.7890    23.5660     2.2480   -22.9230 
  120.8750    64.3170     9.7460     8.6430     9.7150    23.8850     2.2310   -22.9730 
  121.0000    61.6980     9.5690     8.5810     9.6430    24.1140     2.2150   -23.0230 
  121.1250    63.0690     9.4480     8.5020     9.4620    24.1790     2.2030   -23.0720 
  121.2500    62.3510     9.3520     8.3940     9.2860    24.1630     2.2000   -23.1310 
  121.3750    58.7550     9.2290     8.2520     9.2580    24.1700     2.2080   -23.1870 
  121.5000    57.7200     9.0620     8.1000     9.2540    24.1660     2.2190   -23.2450 
  121.6250    60.7880     8.9050     7.9670     9.1580    24.1070     2.2310   -23.3110 
  121.7500    65.0840     8.8410     7.8840     8.9990    24.0490     2.2370   -23.4030 
  121.8750    66.1350     8.9010     7.8950     8.9880    24.1090     2.2340   -23.5250 
  122.0000    64.5030     9.0360     7.9940     9.2950    24.2410     2.2270   -23.6920 
  122.1250    62.3160     9.1750     8.1670     9.9030    24.3600     2.2190   -23.8960 
  122.2500    61.2630     9.2780     8.3800    10.5710    24.4100     2.2160   -24.1050 
  122.3750    61.1300     9.3980     8.5810    10.9430    24.3790     2.2210   -24.2980 
  122.5000    60.6500     9.4940     8.7300    11.1150    24.3500     2.2290   -24.4790 
  122.6250    60.4670     9.5440     8.8110    11.2050    24.3400     2.2350   -24.6430 
  122.7500    60.2260     9.5460     8.8350    11.2580    24.3410     2.2370   -24.7770 
  122.8750    59.2940     9.5670     8.8320    11.3010    24.3440     2.2370   -24.8640 
  123.0000    58.2940     9.6250     8.8420    11.3850    24.3480     2.2400   -24.8900 
  123.1250    58.0650     9.7090     8.8830    11.4950    24.3510     2.2460   -24.8650 
  123.2500    58.4820     9.7840     8.9560    11.5920    24.3440     2.2520   -24.8090 
  123.3750    58.4280     9.8080     9.0450    11.6890    24.3000     2.2490   -24.7180 
  123.5000    57.9260     9.7780     9.1200    11.7480    24.2570     2.2360   -24.5810 
  123.6250    58.3170     9.7140     9.1500    11.7040    24.2770     2.2150   -24.3890 
  123.7500    58.0880     9.6360     9.1110    11.5680    24.3370     2.1980   -24.1380 
  123.8750    54.6410     9.5540     8.9800    11.2620    24.3230     2.1940   -23.8300 
  124.0000    52.7970     9.4570     8.7870    10.8380    24.2710     2.2030   -23.4980 
  124.1250    56.3570     9.3320     8.5590    10.3200    24.2220     2.2190   -23.1520 
  124.2500    64.2290     9.1770     8.3300     9.8050    24.1890     2.2350   -22.8090 
  124.3750    68.5780     9.0110     8.1280     9.5250    24.1530     2.2460   -22.5100 
  124.5000    68.2000     8.8810     7.9690     9.5730    24.1130     2.2510   -22.2540 
  124.6250    67.2770     8.8280     7.8720     9.6970    24.0860     2.2530   -22.0450 
  124.7500    67.5300     8.8900     7.8710     9.7780    24.0750     2.2530   -21.8730 
  124.8750    66.1780     9.1240     8.0270     9.8790    24.0710     2.2510   -21.7400 
  125.0000    62.6490     9.5060     8.3310    10.2120    24.0610     2.2450   -21.6500 
  125.1250    61.3530     9.9900     8.7450    10.8220    24.0470     2.2350   -21.5930 
  125.2500    64.6810    10.4870     9.1790    11.5310    24.0490     2.2240   -21.5520 
  125.3750    68.0750    10.8230     9.4700    11.9500    24.0800     2.2140   -21.4920 
  125.5000    67.7900    10.8790     9.5110    11.9470    24.1330     2.2110   -21.4010 
  125.6250    64.7440    10.6060     9.2650    11.5030    24.1960     2.2180   -21.2690 
  125.7500    62.1380    10.0670     8.7800    10.7400    24.2540     2.2330   -21.1020 
  125.8750    62.0120     9.4070     8.1710     9.8960    24.2980     2.2520   -20.9190 
  126.0000    62.0310     8.8220     7.6190     9.2590    24.2950     2.2660   -20.7360 
  126.1250    61.2600     8.5310     7.2790     9.0510    24.2550     2.2690   -20.5630 
  126.2500    59.5180     8.7350     7.3430     9.3570    24.1960     2.2640   -20.4150 
  126.3750    55.8820     9.9630     8.1460    10.4710    24.1440     2.2710   -20.3000 
  126.5000    52.2130    12.0740     9.6950    12.9040    24.1000     2.3080   -20.2130 
  126.6250    51.4410    14.8460    11.8270    17.5630    24.0940     2.3800   -20.1640 
  126.7500    52.1980    17.6020    14.0610    23.9440    24.1760     2.4700   -20.1540 
  126.8750    51.3920    18.5630    15.4550    30.3000    24.3500     2.5280   -20.1790 
  127.0000    50.9220    17.8150    15.4490    33.2420    24.4950     2.5190   -20.2250 
  127.1250    52.8900    15.6350    14.0600    27.8080    24.5170     2.4460   -20.2970 
  127.2500    53.7060    12.9670    11.9570    17.9800    24.4260     2.3440   -20.3920 
  127.3750    53.2810    10.9500    10.0670    12.1370    24.2840     2.2580   -20.5190 
  127.5000    55.6820     9.8690     8.7860    10.3450    24.2100     2.2070   -20.6770 
  127.6250    59.3810     9.5550     8.0980    10.0860    24.1800     2.1950   -20.8490 
  127.7500    59.5510     9.6540     7.8350    10.1650    24.1680     2.2100   -21.0140 
  127.8750    56.6720     9.7690     7.7970    10.1090    24.2160     2.2330   -21.1210 
  128.0000    57.5780     9.6830     7.7780     9.9220    24.2950     2.2410   -21.1350 
  128.1250    63.8340     9.4590     7.7480     9.7680    24.3640     2.2280   -21.0090 
  128.2500    70.2420     9.3480     7.8020     9.7670    24.4090     2.2020   -20.7320 
  128.3750    69.3540     9.7480     8.1710     9.9550    24.4210     2.1870   -20.2790 
  128.5000    63.7900    10.6950     8.9170    10.5370    24.3460     2.2050   -19.7070 
  128.6250    60.0190    11.9620     9.9330    12.0650    24.2650     2.2650   -19.0480 
  128.7500    61.0260    13.0640    10.9080    14.5080    24.3120     2.3530   -18.3200 
  128.8750    64.4500    13.2320    11.2680    17.0440    24.5020     2.4330   -17.5300 
  129.0000    67.1450    12.2750    10.7540    18.6560    24.6530     2.4700   -16.7280 
  129.1250    69.8430    10.4410     9.4450    17.0140    24.7230     2.4620   -15.9700 
  129.2500    75.5350     8.3800     7.7790    11.2700    24.7410     2.4280   -15.3000 
  129.3750    82.6500     6.8830     6.3620     7.2610    24.7620     2.3880   -14.7710 
  129.5000    87.3190     6.1670     5.4650     6.1790    24.8330     2.3540   -14.3740 
  129.6250    88.2870     6.1690     5.1290     6.0030    24.9460     2.3240   -14.1080 
  129.7500    86.1270     6.6890     5.2800     6.4800    24.9530     2.2990   -13.9870 
  129.8750    81.2870     7.4570     5.7900     7.1640    24.7710     2.2790   -14.0540 
  130.0000    75.7020     8.1240     6.3700     7.6950    24.5210     2.2650   -14.2170 
  130.1250    72.8040     8.4830     6.8100     7.8650    24.3320     2.2600   -14.4150 
  130.2500    74.2800     8.4440     6.9680     7.7270    24.3260     2.2640   -14.5810 
  130.3750    81.2870     8.0160     6.7720     7.3500    24.5010     2.2750   -14.6390 
  130.5000    89.5530     7.4260     6.3830     6.7120    24.7090     2.2890   -14.5770 
  130.6250    93.1910     6.8420     5.9410     6.1320    24.8280     2.2990   -14.4010 
  130.7500    90.5630     6.4010     5.5610     6.0270    24.8720     2.3030   -14.1420 
  130.8750    86.3500     6.2810     5.3670     6.2150    24.8700     2.3040   -13.8310 
  131.0000    86.8880     6.5350     5.4010     6.2780    24.8510     2.3130   -13.5240 
  131.1250    90.1980     7.1590     5.6960     6.4890    24.8230     2.3330   -13.2570 
  131.2500    91.1760     8.0170     6.2180     7.3180    24.7870     2.3640   -13.0560 
  131.3750    86.1510     8.8180     6.8390     8.7220    24.7260     2.3910   -12.9370 
