~V
VERS. 2.00: Ver 2.00
~W
STRT.M 60.0000:
STOP.M 257.0000:
STEP.M 0.1250:
NULL. -999.2500:
UWI. DF5064:
~C
DEPT.M :
SP.MV :
GR.API :
RML.OHMM :
RI. :
RXO.OHMM :
CALI.CM :
DEN.GM/CC :
~A
# ...
   71.2500   -13.8650    89.6760     6.3650     6.3770     6.9310    26.2170     2.2530 
   71.3750   -13.5090    88.4390     6.4130     6.4740     7.5960    26.2010     2.2630 
   71.5000   -13.2520    88.4830     6.6880     6.6730     8.2070    26.1940     2.2790 
   71.6250   -13.1000    88.1650     7.0910     6.9380     8.0540    26.1740     2.2890 
   71.7500   -13.0360    86.9710     7.4460     7.1940     8.5920    26.1880     2.2880 
   71.8750   -13.0320    84.6370     7.6380     7.3740     9.4810    26.2600     2.2820 
   72.0000   -13.0870    81.5390     7.5990     7.4160    10.6350    26.3580     2.2770 
   72.1250   -13.0800    80.1340     7.2820     7.2430    10.1130    26.4010     2.2790 
   72.2500   -13.0000    82.0650     6.7860     6.8900     9.4350    26.4140     2.2760 
   72.3750   -12.7530    85.5170     6.2070     6.4060     9.4490    26.4540     2.2600 
   72.5000   -12.3270    89.2380     5.6440     5.8670     8.7210    26.6930     2.2300 
   72.6250   -11.7510    93.9900     5.2120     5.3800     6.5440    27.5750     2.1980 
   72.7500   -11.1460   100.3380     4.9550     5.0250     4.6650    28.8890     2.1810 
   72.8750   -10.5540   106.2670     4.8920     4.8590     3.9840    29.7540     2.1860 
   73.0000    -9.9770   109.4190     4.9950     4.9060     3.8870    29.7130     2.2080 
   73.1250    -9.5370   109.5320     5.2010     5.1590     4.0670    29.0460     2.2390 
   73.2500    -9.2190   108.3860     5.3770     5.4770     4.5220    28.4290     2.2680 
   73.3750    -9.0370   106.8620     5.4360     5.7260     5.3200    27.6930     2.2900 
   73.5000    -9.0120   103.9300     5.3630     5.8020     6.0720    27.2470     2.2990 
   73.6250    -9.1200   100.2770     5.2280     5.6770     5.7210    27.3120     2.2920 
   73.7500    -9.3720    99.7460     5.1570     5.5010     5.1760    27.8200     2.2760 
   73.8750    -9.7780   101.9550     5.2350     5.4140     4.6490    28.4740     2.2600 
   74.0000   -10.3630   103.2810     5.5020     5.5010     4.6310    28.4760     2.2490 
   74.1250   -11.1310    98.6980     5.9580     5.7760     5.5860    27.4810     2.2390 
   74.2500   -11.9980    90.2180     6.4870     6.1140     7.8210    26.7750     2.2220 
   74.3750   -12.9500    81.6740     6.9980     6.4180    10.8890    26.4880     2.1940 
   74.5000   -13.9220    74.9840     7.4420     6.6460    12.3610    26.4300     2.1580 
   74.6250   -14.8580    70.0200     7.9220     6.8950    12.2430    26.4300     2.1300 
   74.7500   -15.6420    64.6790     8.8110     7.4360    12.1700    26.4250     2.1290 
   74.8750   -16.2170    61.8430    10.7280     8.6920    12.4220    26.4030     2.1660 
   75.0000   -16.5500    64.0150    14.3390    11.1570    14.7450    26.3490     2.2450 
   75.1250   -16.5900    66.8000    20.2100    15.3610    24.2220    26.2880     2.3570 
   75.2500   -16.5190    65.7410    27.1410    20.5960    42.5200    26.2510     2.4790 
   75.3750   -16.4390    63.2550    33.2350    25.6020    59.1740    26.2380     2.5910 
   75.5000   -16.4190    63.8000    36.0820    28.6280    66.2780    26.2250     2.6710 
   75.6250   -16.4720    64.9630    33.1940    27.6430    72.8400    26.1910     2.6880 
   75.7500   -16.6490    62.3710    26.7350    23.6700    81.5610    26.1470     2.6380 
   75.8750   -17.0010    59.0430    19.8210    18.6400    71.1500    26.0680     2.5330 
   76.0000   -17.5320    59.3810    14.6490    14.2980    41.7890    25.9060     2.4030 
   76.1250   -18.2700    62.9370    12.0180    11.5540    21.9990    25.7930     2.2980 
   76.2500   -19.1210    65.0540    11.0650    10.0240    15.3730    25.7490     2.2420 
   76.3750   -20.0410    64.7830    11.1950     9.3720    14.3680    25.7410     2.2350 
   76.5000   -21.0290    64.0530    11.8020     9.2550    16.3240    25.7330     2.2610 
   76.6250   -22.1210    64.4960    12.2330     9.3380    19.1780    25.7030     2.2960 
   76.7500   -23.2960    64.7830    12.1230     9.3050    18.1750    25.6350     2.3180 
   76.8750   -24.5140    63.8780    11.4540     9.0510    14.7160    25.5780     2.3130 
   77.0000   -25.7110    61.2560    10.4550     8.6160    12.8290    25.6410     2.2810 
   77.1250   -26.7900    59.2510     9.4560     8.1460    12.1230    25.9230     2.2310 
   77.2500   -27.6920    59.0880     8.6530     7.7770    11.7330    26.2060     2.1860 
   77.3750   -28.4250    60.9960     8.0870     7.5610    11.6730    26.3490     2.1580 
   77.5000   -29.0040    64.1040     7.7460     7.4920    11.8970    26.3650     2.1500 
   77.6250   -29.4110    66.5420     7.6380     7.5370    12.1700    26.2790     2.1560 
   77.7500   -29.6560    66.5730     7.6930     7.6180    12.2080    26.1740     2.1640 
   77.8750   -29.7360    64.1820     7.8630     7.6950    12.2530    26.0210     2.1680 
   78.0000   -29.6850    62.4920     8.1050     7.7550    12.4120    25.8080     2.1650 
   78.1250   -29.5060    64.7630     8.3740     7.8120    12.4250    25.5560     2.1570 
   78.2500   -29.2900    68.0810     8.6140     7.8770    12.3500    25.2340     2.1520 
   78.3750   -29.0580    69.7110     8.7850     7.9460    12.2240    24.9690     2.1530 
   78.5000   -28.8390    70.8250     8.8800     8.0050    12.4220    24.9150     2.1630 
   78.6250   -28.6900    72.4990     8.9160     8.0350    12.5140    25.0860     2.1780 
   78.7500   -28.5920    72.7150     8.9310     8.0310    12.6110    25.3110     2.1890 
   78.8750   -28.5710    70.1390     8.9080     7.9880    12.7060    25.4200     2.1930 
   79.0000   -28.6230    65.2760     8.7950     7.9000    12.8000    25.4360     2.1880 
   79.1250   -28.7820    60.5770     8.5520     7.7670    12.9190    25.3900     2.1760 
   79.2500   -28.9720    58.7830     8.2540     7.6280    13.1270    25.2950     2.1650 
   79.3750   -29.1120    61.2730     8.0060     7.5260    13.1360    25.1610     2.1600 
   79.5000   -29.1400    64.1640     7.8930     7.4870    12.8330    25.0450     2.1650 
   79.6250   -28.9850    63.8650     7.9480     7.5110    12.2690    24.9540     2.1750 
   79.7500   -28.7200    64.4830     8.0670     7.5420    12.2290    24.8670     2.1810 
   79.8750   -28.3520    68.3890     8.1530     7.5360    12.9320    24.8030     2.1790 
   80.0000   -27.8740    72.5470     8.1450     7.4830    13.3740    24.7680     2.1690 
   80.1250   -27.2770    72.4130     8.0590     7.4240    13.5020    24.8080     2.1530 
   80.2500   -26.6590    70.5880     8.0330     7.4410    13.2880    24.9340     2.1430 
   80.3750   -26.1140    70.1600     8.1980     7.5920    12.8420    25.1120     2.1540 
   80.5000   -25.6770    70.5570     8.6140     7.8970    12.3880    25.2860     2.1990 
   80.6250   -25.3940    69.4170     9.2260     8.3240    12.8990    25.4160     2.2770 
   80.7500   -25.2400    69.7710     9.7920     8.7400    16.4990    25.4990     2.3570 
   80.8750   -25.2320    72.5940    10.0920     9.0150    25.3570    25.5010     2.4040 
   81.0000   -25.3710    73.7160     9.9990     9.0390    32.0680    25.3940     2.3990 
   81.1250   -25.6260    69.3330     9.4990     8.7260    26.7800    25.2350     2.3400 
   81.2500   -25.8450    65.4130     8.8250     8.1910    18.3040    25.2170     2.2660 
   81.3750   -25.9360    64.8500     8.1250     7.5560    14.4970    25.3100     2.2060 
   81.5000   -25.8480    64.9820     7.4870     6.9420    13.1410    25.3550     2.1770 
   81.6250   -25.5110    65.1830     6.9460     6.4570    12.5470    25.3280     2.1790 
   81.7500   -25.0590    68.9040     6.5050     6.1220    11.2320    25.3600     2.1970 
   81.8750   -24.5680    75.0000     6.2240     5.9430     9.1600    25.4530     2.2150 
   82.0000   -24.0880    79.3310     6.1890     5.9190     8.3370    25.5160     2.2250 
   82.1250   -23.7130    79.5380     6.4840     6.0600     9.1870    25.5040     2.2210 
   82.2500   -23.5460    77.5960     6.9720     6.3060     9.4170    25.4600     2.2070 
   82.3750   -23.6170    75.3520     7.4820     6.6030     9.1950    25.3570     2.1900 
