~V
VERS. 2.00: Ver 2.00
~W
STRT.M 55.0000:
STOP.M 268.0000:
STEP.M 0.1250:
NULL. -999.2500:
UWI. DF5007:
~C
DEPT.M :
SP.MV :
GR.API :
RML.OHMM :
RI. :
RXO.OHMM :
CALI.CM :
DEN.GM/CC :
~A
# ...
  246.2500   -18.9050    70.4670    81.7270    73.4720    71.8840    24.3550     2.4710 
  246.3750   -18.8930    71.4160    77.6210    70.0390    56.2500    24.3790     2.4190 
  246.5000   -18.8070    71.3770    73.5820    66.2050    52.0570    24.4080     2.3780 
  246.6250   -18.7740    70.8390    70.9560    63.0790    57.0190    24.4070     2.3570 
  246.7500   -18.7190    69.4510    69.8830    61.2090    58.6570    24.3290     2.3480 
  246.8750   -18.6190    68.4200    70.6550    60.9690    53.8490    24.1990     2.3460 
  247.0000   -18.4300    69.3660    73.7760    62.7060    54.8150    24.1370     2.3450 
  247.1250   -18.2310    70.6300    80.3600    67.0470    56.8420    24.1800     2.3490 
  247.2500   -17.9870    69.7090    89.5930    73.3790    61.0920    24.2120     2.3640 
  247.3750   -17.6470    69.0330    99.8750    80.6800    69.0060    24.2050     2.3920 
  247.5000   -17.3740    71.4320   108.2670    87.0280    85.3880    24.1930     2.4330 
  247.6250   -16.9930    72.5260   109.5640    88.9120   116.5830    24.2400     2.4850 
  247.7500   -16.6300    68.0900   101.4260    84.5870   173.2370    24.3320     2.5390 
  247.8750   -16.2810    61.2900    84.8400    73.8440   246.7400    24.3930     2.5890 
  248.0000   -16.0320    55.6810    64.0290    58.8560   241.1060    24.4190     2.6250 
  248.1250   -15.7130    50.1830    45.3290    43.4440   151.0310    24.4080     2.6290 
  248.2500   -15.3700    45.3030    31.1310    30.5780    90.0790    24.3460     2.6010 
  248.3750   -15.0450    43.5990    21.5100    21.1190    49.4150    24.2830     2.5460 
  248.5000   -14.6720    46.3250    16.1160    14.8340    21.4610    24.2080     2.4810 
  248.6250   -14.4430    51.7530    13.1890    11.2600     9.9010    24.1560     2.4280 
  248.7500   -14.2140    56.6770    10.2850     9.1830     6.8550    24.1810     2.3930 
  248.8750   -14.0310    60.5450     9.0320     8.0640     6.1810    24.3030     2.3740 
  249.0000   -13.7990    63.0140     8.4520     7.5460     6.1250    24.4440     2.3650 
  249.1250   -13.6910    63.7690     8.3360     7.4430     6.1380    24.4980     2.3580 
  249.2500   -13.6170    62.7100     8.4110     7.5100     6.1650    24.5150     2.3490 
  249.3750   -13.6520    59.2340     8.5450     7.6290     6.2100    24.5470     2.3380 
  249.5000   -13.7510    54.9850     8.6600     7.7320     6.2840    24.5520     2.3270 
  249.6250   -13.8670    53.7140     8.7170     7.7830     6.4390    24.5230     2.3220 
  249.7500   -13.9960    55.1060     8.7320     7.7970     6.7990    24.5060     2.3240 
  249.8750   -14.1420    57.0580     8.7050     7.7730     7.3660    24.4240     2.3350 
  250.0000   -14.3010    59.1280     8.6380     7.7130     7.9670    24.2260     2.3510 
  250.1250   -14.4660    61.0740     8.5420     7.6270     8.1740    24.1050     2.3690 
  250.2500   -14.5820    61.7820     8.4350     7.5310     7.9410    24.0940     2.3820 
  250.3750   -14.6340    60.8650     8.3280     7.4350     7.5140    24.1010     2.3880 
  250.5000   -14.7040    59.9950     8.2260     7.3450     7.0820    24.0700     2.3860 
  250.6250   -14.7050    59.3700     8.1330     7.2620     6.7740    24.0680     2.3790 
  250.7500   -14.7170    58.7170     8.0530     7.1900     6.6710    24.1250     2.3700 
  250.8750   -14.7020    59.6470     7.9800     7.1250     6.7640    24.2300     2.3650 
  251.0000   -14.7660    60.7770     7.9150     7.0670     6.9900    24.3600     2.3650 
  251.1250   -14.7450    59.1560     7.8440     7.0040     7.3380    24.4380     2.3740 
  251.2500   -14.8060    57.3740     7.7820     6.9480     7.8260    24.3960     2.3860 
  251.3750   -14.9170    57.1680     7.7460     6.9160     8.2680    24.2610     2.3980 
  251.5000   -15.0720    57.6250     7.7420     6.9120     8.1590    24.1620     2.4050 
  251.6250   -15.1940    56.7490     7.7730     6.9400     7.8090    24.1560     2.4050 
  251.7500   -15.3100    56.7590     7.8240     6.9860     7.7670    24.1740     2.4010 
  251.8750   -15.4350    59.3160     7.8860     7.0410     8.0320    24.1450     2.3950 
  252.0000   -15.5480    61.4790     7.9490     7.0970     8.4350    24.1150     2.3910 
  252.1250   -15.7090    60.0660     8.0070     7.1490     8.8180    24.1040     2.3920 
  252.2500   -15.8480    58.6070     8.0600     7.1970     8.9470    24.0970     2.3950 
  252.3750   -15.9230    58.7790     8.1060     7.2370     8.8570    24.0730     2.3990 
  252.5000   -15.9580    57.6010     8.1460     7.2730     8.9020    24.0820     2.4030 
  252.6250   -16.0400    52.9070     8.1910     7.3140     9.1830    24.0960     2.4090 
  252.7500   -16.1570    49.6490     8.2400     7.3570     9.5050    24.0770     2.4140 
  252.8750   -16.2960    51.0780     8.2880     7.4000     9.4390    24.0640     2.4180 
  253.0000   -16.3740    55.3390     8.3220     7.4300     9.3770    24.0900     2.4160 
  253.1250   -16.3800    58.3830     8.3400     7.4470     9.5030    24.0930     2.4110 
  253.2500   -16.3830    57.9870     8.3550     7.4600     9.7570    24.0730     2.4060 
  253.3750   -16.4640    55.9730     8.3810     7.4830     9.4450    24.0820     2.4050 
  253.5000   -16.5510    55.9980     8.4240     7.5220     9.1470    24.0980     2.4100 
  253.6250   -16.6410    58.1400     8.4860     7.5770     9.1040    24.0750     2.4180 
  253.7500   -16.6980    59.8280     8.5520     7.6360     9.1440    24.0520     2.4250 
  253.8750   -16.7220    60.4790     8.6090     7.6870     9.0860    24.0710     2.4290 
  254.0000   -16.7900    60.5040     8.6480     7.7210     9.0100    24.0960     2.4310 
  254.1250   -16.9410    59.7720     8.6500     7.7240     9.0370    24.0730     2.4320 
  254.2500   -17.0520    59.0290     8.6250     7.7010     9.1840    24.0470     2.4340 
  254.3750   -17.1270    58.7450     8.5790     7.6600     9.3400    24.0610     2.4350 
  254.5000   -17.1260    58.7270     8.5290     7.6150     9.4020    24.0890     2.4340 
  254.6250   -17.0960    57.5160     8.4930     7.5830     9.2910    24.0810     2.4290 
  254.7500   -17.0680    56.8370     8.4830     7.5740     9.0030    24.0730     2.4250 
  254.8750   -17.0270    55.9020     8.5120     7.6000     8.8840    24.0740     2.4250 
  255.0000   -16.9310    54.2270     8.5830     7.6630     9.0770    24.0870     2.4360 
  255.1250   -16.8200    54.2570     8.6860     7.7550     9.2460    24.1160     2.4600 
  255.2500   -16.6870    55.6970     8.8050     7.8620     9.1750    24.1400     2.4870 
  255.3750   -16.6050    56.0420     8.9340     7.9770     8.9510    24.1500     2.5090 
  255.5000   -16.5840    53.9410     9.0790     8.1060     9.0490    24.1430     2.5150 
  255.6250   -16.5570    52.9320     9.2310     8.2420     9.2800    24.1320     2.5030 
  255.7500   -16.5570    54.5240     9.3700     8.3660     9.2340    24.1480     2.4820 
  255.8750   -16.5660    56.4410     9.4920     8.4750     9.0600    24.1610     2.4590 
  256.0000   -16.6820    58.3570     9.6010     8.5720     9.0190    24.1530     2.4410 
  256.1250   -16.8260    59.8560     9.6900     8.6520     9.0730    24.0880     2.4320 
  256.2500   -17.0360    59.2560     9.7690     8.7230     9.2980    23.9480     2.4300 
  256.3750   -17.1970    56.8540     9.8400     8.7860     9.6240    23.7790     2.4330 
  256.5000   -17.2930    55.1010     9.8870     8.8270     9.8170    23.6550     2.4380 
  256.6250   -17.3560    54.4160     9.9050     8.8430     9.6490    23.6060     2.4420 
  256.7500   -17.3390    53.7670     9.9110     8.8490     9.4890    23.5890     2.4460 
  256.8750   -17.3040    52.9840     9.9080     8.8460     9.4350    23.6150     2.4500 
  257.0000   -17.0980    52.9320     9.8980     8.8380     9.4720    23.6880     2.4550 
  257.1250   -16.8770    54.1340     9.8900     8.8300     9.4580    23.8070     2.4560 
  257.2500   -16.5800    54.9950     9.8870     8.8280     9.3050    23.9050     2.4540 
  257.3750   -16.1860    54.9950     9.8920     8.8320     9.1460    23.9560     2.4490 
