~V
VERS. 2.00: Ver 2.00
~W
STRT.M 57.0000:
STOP.M 276.0000:
STEP.M 0.1250:
NULL. -999.2500:
UWI. DF5005:
~C
DEPT.M :
GR.API :
RML.OHMM :
RI. :
RXO.OHMM :
CALI.CM :
DEN.GM/CC :
SP.MV :
~A
# ...
  135.7500    75.0880     9.0240     8.0780     9.2250    23.7350     2.2090   -20.8670 
  135.8750    71.7520    10.1010     9.0750    10.0680    23.5620     2.2000   -21.4980 
  136.0000    70.0660    10.9540     9.8650    10.4150    23.5330     2.1900   -22.0930 
  136.1250    68.9250    11.4130    10.2900    10.3030    23.5950     2.1810   -22.6290 
  136.2500    65.9430    11.4420    10.3170    10.0280    23.6610     2.1740   -22.9720 
  136.3750    63.9920    11.0880     9.9890     9.6190    23.6720     2.1720   -22.9850 
  136.5000    63.9440    10.5570     9.4970     9.2140    23.6370     2.1740   -22.7970 
  136.6250    66.4740     9.9560     8.9410     8.8570    23.5970     2.1820   -22.4490 
  136.7500    70.4700     9.3590     8.3880     8.4710    23.6410     2.1970   -21.9140 
  136.8750    75.3110     8.8280     7.8960     7.9250    23.7670     2.2180   -21.2460 
  137.0000    79.7140     8.3910     7.4900     7.2930    23.8870     2.2420   -20.5770 
  137.1250    82.1100     8.0660     7.1880     6.8270    23.8650     2.2620   -19.9540 
  137.2500    81.5450     7.8470     6.9890     6.7400    23.7210     2.2760   -19.4110 
  137.3750    80.6010     7.7290     6.8910     6.7680    23.6640     2.2800   -18.9440 
  137.5000    82.2540     7.6590     6.8500     6.7750    23.7500     2.2810   -18.5340 
  137.6250    84.1410     7.6140     6.8450     6.7850    23.8680     2.2810   -18.2260 
  137.7500    83.3700     7.5980     6.8530     6.7690    23.9260     2.2830   -18.0360 
  137.8750    81.6680     7.5780     6.8450     6.6790    23.8570     2.2850   -17.9740 
  138.0000    80.9940     7.5200     6.7820     6.5580    23.7130     2.2880   -17.9870 
  138.1250    80.6500     7.3900     6.6230     6.5540    23.7070     2.2930   -18.0280 
  138.2500    81.6980     7.1310     6.3340     6.5020    23.9060     2.3020   -18.0540 
  138.3750    84.7010     6.6830     5.9100     6.1700    24.1760     2.3150   -18.1020 
  138.5000    88.5870     6.1980     5.4610     5.7920    24.3130     2.3210   -18.2270 
  138.6250    91.0300     5.8340     5.1240     5.5050    24.3340     2.3130   -18.4390 
  138.7500    91.6450     5.7510     5.0480     5.4120    24.2900     2.2930   -18.7050 
  138.8750    91.4580     6.1400     5.4080     5.9040    24.2400     2.2740   -19.0390 
  139.0000    89.0710     6.9490     6.1570     6.9680    24.1740     2.2730   -19.4310 
  139.1250    83.3510     8.0790     7.2020     8.4800    24.0230     2.2910   -19.8000 
  139.2500    75.8120     9.3450     8.3750    10.0760    23.8210     2.3150   -20.1450 
  139.3750    72.4420    10.5130     9.4570    11.0330    23.6770     2.3250   -20.4860 
  139.5000    70.9000    11.4820    10.3540    11.5910    23.6280     2.3190   -20.7970 
  139.6250    69.3110    12.2920    11.1040    13.2650    23.6210     2.3110   -20.9980 
  139.7500    70.7010    13.0240    11.7830    16.4190    23.6460     2.3160   -21.1200 
  139.8750    75.8920    13.6710    12.3810    20.5060    23.7340     2.3350   -21.2420 
  140.0000    78.2970    14.1240    12.7970    23.7760    23.8600     2.3470   -21.3820 
  140.1250    76.3730    14.2380    12.8980    23.3480    23.9240     2.3350   -21.5630 
  140.2500    74.4290    13.9570    12.6390    18.3920    23.9040     2.2980   -21.7780 
  140.3750    74.2830    13.3590    12.1100    13.8200    23.8430     2.2550   -22.0140 
  140.5000    73.8880    12.7350    11.5750    12.1840    23.7700     2.2250   -22.2690 
  140.6250    73.6910    12.2560    11.1810    11.7080    23.7110     2.2160   -22.5600 
  140.7500    74.6120    11.9740    10.9800    11.5390    23.6690     2.2220   -22.8510 
  140.8750    74.0920    12.0030    10.9570    11.4330    23.6370     2.2320   -23.0490 
  141.0000    72.0140    12.1390    11.0080    11.3720    23.6240     2.2360   -23.1830 
  141.1250    70.0530    12.2680    11.0820    11.3450    23.6200     2.2360   -23.2940 
  141.2500    71.1990    12.3630    11.1640    11.2710    23.6200     2.2350   -23.3990 
  141.3750    73.6090    12.4710    11.2590    11.1970    23.6200     2.2330   -23.4840 
  141.5000    74.3960    12.5730    11.3580    11.2380    23.6200     2.2310   -23.5510 
  141.6250    73.9510    12.6360    11.4460    11.3580    23.6200     2.2280   -23.6000 
  141.7500    73.4970    12.6210    11.5030    11.4840    23.6200     2.2240   -23.6000 
  141.8750    74.5100    12.5150    11.5060    11.5210    23.6190     2.2200   -23.5900 
  142.0000    75.4240    12.3650    11.4620    11.4330    23.6160     2.2160   -23.5590 
  142.1250    75.4370    12.2580    11.3860    11.3400    23.6150     2.2120   -23.4600 
  142.2500    73.6220    12.2220    11.3100    11.3070    23.6180     2.2060   -23.3180 
  142.3750    68.8100    12.2290    11.2750    11.3350    23.6210     2.1980   -23.2410 
  142.5000    64.4000    12.2950    11.3000    11.4210    23.6250     2.1890   -23.1740 
  142.6250    63.0440    12.4300    11.3840    11.5420    23.6280     2.1820   -23.0470 
  142.7500    65.8440    12.6240    11.5000    11.6750    23.6290     2.1780   -22.9560 
  142.8750    69.3350    12.8340    11.6050    11.8400    23.6280     2.1770   -22.9320 
  143.0000    68.8360    12.9000    11.6660    11.9040    23.6190     2.1790   -22.8980 
  143.1250    65.1450    12.9110    11.6770    11.8910    23.5860     2.1820   -22.8410 
  143.2500    63.4820    12.8820    11.6510    11.8240    23.5170     2.1860   -22.7660 
  143.3750    66.6570    12.8430    11.6150    11.7750    23.4680     2.1880   -22.6560 
  143.5000    70.3540    12.8270    11.5940    11.7450    23.4340     2.1900   -22.5520 
  143.6250    72.0600    12.8310    11.5920    11.7790    23.4220     2.1910   -22.4750 
  143.7500    72.0080    12.8370    11.5970    11.8830    23.4170     2.1900   -22.4110 
  143.8750    69.3000    12.7800    11.5800    11.9780    23.4150     2.1870   -22.3570 
  144.0000    65.0080    12.6470    11.5190    11.9990    23.4110     2.1840   -22.3130 
  144.1250    63.6680    12.4350    11.4080    11.9060    23.3940     2.1830   -22.2950 
  144.2500    65.9070    12.1850    11.2580    11.7290    23.3500     2.1840   -22.3430 
  144.3750    66.2600    12.0720    11.1100    11.4660    23.3020     2.1890   -22.4860 
  144.5000    63.6750    12.0760    11.0110    11.2670    23.2700     2.1950   -22.6590 
  144.6250    61.9450    12.1330    10.9910    11.2100    23.2410     2.2000   -22.8510 
  144.7500    64.1610    12.2430    11.0580    11.2860    23.2430     2.2020   -23.0860 
  144.8750    68.2320    12.3910    11.1950    11.5310    23.3080     2.2010   -23.3650 
  145.0000    69.9390    12.5550    11.3470    11.8520    23.4110     2.1990   -23.6350 
  145.1250    69.1050    12.6940    11.4760    12.0720    23.4690     2.1980   -23.9180 
  145.2500    67.4800    12.7870    11.5620    12.0190    23.4830     2.1990   -24.2200 
  145.3750    67.6260    12.8260    11.5990    11.7940    23.4830     2.2010   -24.4010 
  145.5000    67.1650    12.8240    11.5960    11.6070    23.4930     2.2030   -24.4820 
  145.6250    64.8070    12.7640    11.5410    11.5680    23.5340     2.2030   -24.5490 
  145.7500    62.8080    12.6200    11.4070    11.6240    23.6330     2.2010   -24.5910 
  145.8750    63.1190    12.3510    11.1580    11.5810    23.6980     2.1980   -24.5010 
  146.0000    65.0660    12.0010    10.8350    11.4630    23.7370     2.1950   -24.3190 
  146.1250    67.5780    11.6420    10.5020    11.2240    23.7480     2.1910   -24.1230 
  146.2500    69.5200    11.3580    10.2390    10.8810    23.7490     2.1860   -23.9430 
  146.3750    70.3080    11.2380    10.1280    10.6700    23.7490     2.1790   -23.8100 
  146.5000    70.2310    11.2530    10.1410    10.7120    23.7480     2.1720   -23.6890 
  146.6250    70.3950    11.3400    10.2230    10.9180    23.7390     2.1670   -23.5320 
  146.7500    70.3510    11.4340    10.3090    11.0670    23.7180     2.1670   -23.3250 
  146.8750    67.8270    11.5170    10.3860    11.0990    23.6930     2.1730   -23.1050 
