~V
VERS. 2.00: Ver 2.00
~W
STRT.M 62.0000:
STOP.M 250.0000:
STEP.M 0.1250:
NULL. -999.2500:
UWI. DF5059:
~C
DEPT.M :
SP.MV :
GR.API :
RML.OHMM :
RI. :
RXO.OHMM :
CALI.CM :
DEN.GM/CC :
~A
   62.0000   -20.7790    39.6890     7.9330     0.1380  2972.1700    25.1960     2.3760 
   62.1250   -21.8320    38.6010     3.1660     0.1050   404.2710    25.1330     2.5120 
   62.2500   -23.2260    40.4870     0.8430     0.0770    67.5970    25.0850     2.6170 
   62.3750   -24.8760    46.2690     0.4330     0.0620     0.4570    24.9720     2.6510 
   62.5000   -26.7770    55.7420     0.5170     0.0940     1.3150    24.5640     2.5960 
   62.6250   -28.7270    66.4220     1.1110     0.2580     3.0380    23.5120     2.4790 
   62.7500   -30.6030    74.5650     1.9450     0.6070     5.1850    22.4660     2.3550 
   62.8750   -32.4430    78.0440     2.6510     1.1700     6.5530    21.8900     2.2510 
   63.0000   -34.1420    78.3790     3.1750     1.9110     7.3790    21.7370     2.1810 
   63.1250   -35.3930    82.0740     3.5910     2.7070     7.5630    21.7450     2.1480 
   63.2500   -36.2500    86.7020     3.8300     3.3960     7.4980    21.7260     2.1350 
   63.3750   -36.8050    86.8590     3.9400     3.9170     7.3190    21.6560     2.1300 
   63.5000   -37.0700    79.7520     4.0370     4.3020     7.2220    21.5190     2.1260 
   63.6250   -37.2320    73.2840     4.2170     4.6190     7.2560    21.4470     2.1210 
   63.7500   -37.3430    73.6110     4.4650     4.9220     7.3300    21.4180     2.1150 
   63.8750   -37.3210    77.1730     4.7420     5.2100     7.4280    21.4230     2.1120 
   64.0000   -37.2510    78.5720     5.0070     5.4710     7.5540    21.4940     2.1140 
   64.1250   -37.2210    78.0910     5.2220     5.6780     7.7160    21.7690     2.1230 
   64.2500   -37.1520    79.8530     5.3870     5.8290     7.9200    22.0830     2.1370 
   64.3750   -37.0420    80.5820     5.5180     5.9350     8.1270    22.2930     2.1490 
   64.5000   -36.9740    75.2840     5.6370     6.0180     8.2630    22.4140     2.1580 
   64.6250   -36.8850    67.3010     5.7610     6.1010     8.3700    22.5090     2.1610 
   64.7500   -36.7810    64.6630     5.8860     6.1900     8.4760    22.5800     2.1610 
   64.8750   -36.7590    67.5050     5.9980     6.2730     8.5700    22.6090     2.1590 
   65.0000   -36.7710    71.6980     6.0780     6.3290     8.6360    22.6270     2.1570 
   65.1250   -36.7500    75.6280     6.1150     6.3430     8.6440    22.7140     2.1550 
   65.2500   -36.7790    78.5660     6.1270     6.3280     8.6020    22.8710     2.1550 
   65.3750   -36.8390    76.4070     6.1280     6.3020     8.6310    22.9010     2.1550 
   65.5000   -36.8360    70.0870     6.1230     6.2720     8.9000    22.6150     2.1560 
   65.6250   -36.8030    66.9550     6.0930     6.2260     9.2360    22.1380     2.1550 
   65.7500   -36.8130    66.2250     6.0240     6.1450     9.4930    21.8660     2.1510 
   65.8750   -36.8050    66.1050     5.9090     6.0180     9.4220    21.7400     2.1460 
   66.0000   -36.7610    67.9060     5.7630     5.8550     8.6800    21.6300     2.1410 
   66.1250   -36.7720    73.3450     5.6200     5.6850     7.9320    21.4540     2.1380 
   66.2500   -36.7630    76.6030     5.5160     5.5470     7.5710    21.3690     2.1400 
   66.3750   -36.7350    78.4940     5.4660     5.4620     7.5540    21.4420     2.1480 
   66.5000   -36.7830    83.1960     5.4700     5.4350     7.6440    21.6790     2.1650 
   66.6250   -36.9350    88.7790     5.5240     5.4610     7.5960    21.8990     2.1860 
   66.7500   -37.0930    90.3710     5.6010     5.5110     7.5110    21.9530     2.2050 
   66.8750   -37.2470    88.8670     5.6790     5.5650     7.5170    21.9540     2.2140 
   67.0000   -37.4160    87.2900     5.7380     5.6030     7.7250    22.0050     2.2100 
   67.1250   -37.5270    84.1180     5.7520     5.6050     8.0480    22.1490     2.1970 
   67.2500   -37.5550    76.5880     5.7290     5.5740     8.1920    22.2960     2.1850 
   67.3750   -37.5200    67.7310     5.6960     5.5280     8.1730    22.3740     2.1760 
   67.5000   -37.3890    65.4010     5.6950     5.5000     8.0840    22.3940     2.1690 
   67.6250   -37.0360    68.4380     5.7720     5.5340     8.0180    22.4270     2.1590 
   67.7500   -36.4850    69.2630     5.9110     5.6300     8.1770    22.5900     2.1440 
   67.8750   -35.7920    67.0960     6.0580     5.7590     8.6260    22.9320     2.1290 
   68.0000   -34.9280    65.2370     6.1360     5.8610     9.1800    23.1210     2.1210 
   68.1250   -33.8810    64.9530     6.0540     5.8460     9.5940    22.7480     2.1270 
   68.2500   -32.8820    68.0450     5.8340     5.7000     9.4550    22.1760     2.1420 
   68.3750   -31.9890    80.3250     5.5430     5.4520     8.3450    22.0900     2.1620 
   68.5000   -31.1840   100.1070     5.2790     5.1730     6.6620    22.3640     2.1790 
   68.6250   -30.6220   112.5730     5.1430     4.9590     5.6640    22.3080     2.1850 
   68.7500   -30.2950   111.7450     5.1350     4.8440     5.3060    21.8980     2.1820 
   68.8750   -30.1280   104.4540     5.2140     4.8190     5.4020    21.4710     2.1760 
   69.0000   -30.1690   100.3150     5.3130     4.8410     5.5370    21.3120     2.1720 
   69.1250   -30.4430    98.8650     5.3640     4.8540     5.5400    21.2930     2.1720 
   69.2500   -30.7080    96.5740     5.3700     4.8320     5.5870    21.1920     2.1720 
   69.3750   -30.9090    96.2280     5.4020     4.8090     5.7390    20.9220     2.1690 
   69.5000   -30.9730    98.0110     5.5880     4.8680     6.0590    20.5250     2.1640 
   69.6250   -30.7250    95.2640     6.1180     5.1670     6.6940    20.2310     2.1690 
   69.7500   -30.2940    87.9510     6.9920     5.7510     7.7050    20.2850     2.1970 
   69.8750   -29.7810    83.5220     8.0970     6.5840     9.3340    20.5670     2.2570 
   70.0000   -29.1890    85.6600     9.1740     7.5020    11.3350    20.7670     2.3410 
   70.1250   -28.5490    90.8560     9.7520     8.1610    13.4380    20.7610     2.4250 
   70.2500   -28.0010    97.1440     9.6040     8.3030    14.5830    20.7560     2.4770 
   70.3750   -27.5670   103.4560     8.7560     7.8480    13.3350    20.9310     2.4810 
   70.5000   -27.2640   106.8580     7.5190     6.9520    10.4880    21.2850     2.4450 
   70.6250   -27.1950   106.4690     6.3630     5.9490     8.1210    21.6520     2.3920 
   70.7500   -27.2970   107.6480     5.5530     5.1400     6.4680    21.7050     2.3450 
   70.8750   -27.4670   110.5170     5.1220     4.6290     5.7510    21.5290     2.3070 
   71.0000   -27.6220   111.2450     5.0010     4.4150     5.5690    21.4180     2.2760 
   71.1250   -27.7360   110.7370     5.1250     4.4860     5.5910    21.6560     2.2450 
   71.2500   -27.7310   107.9650     5.3700     4.7320     5.8560    22.0360     2.2160 
   71.3750   -27.5470   101.9170     5.6670     5.0860     6.3830    22.2490     2.1930 
   71.5000   -27.2970    92.8170     5.9370     5.4650     6.9920    22.1860     2.1840 
   71.6250   -26.9240    87.0060     6.0720     5.7510     7.1880    21.8550     2.1900 
   71.7500   -26.3680    88.0770     6.0340     5.8690     7.0740    21.5650     2.2060 
   71.8750   -25.7340    94.9350     5.8250     5.7880     6.7230    21.4950     2.2260 
   72.0000   -25.1400   103.7800     5.5020     5.5340     6.2330    21.8370     2.2460 
   72.1250   -24.5720   109.2110     5.1620     5.1820     5.6000    22.5530     2.2600 
   72.2500   -24.0440   114.9840     4.8910     4.8440     4.8920    23.1510     2.2670 
   72.3750   -23.6340   123.0820     4.7240     4.5810     4.2870    23.5100     2.2650 
   72.5000   -23.2770   130.1080     4.6620     4.4140     3.9960    23.6490     2.2590 
   72.6250   -23.0140   133.3040     4.6840     4.3390     3.9170    23.6660     2.2560 
   72.7500   -22.9250   132.0870     4.7280     4.3000     3.8820    23.6430     2.2620 
   72.8750   -22.9230   127.7450     4.7440     4.2520     3.8790    23.6270     2.2730 
   73.0000   -22.9270   122.4010     4.6870     4.1550     3.9080    23.6320     2.2800 
   73.1250   -23.0000   119.8840     4.5310     3.9820     3.9140    23.6530     2.2720 
