~V
VERS. 2.00: Ver 2.00
~W
STRT.M 55.0000:
STOP.M 263.0000:
STEP.M 0.1250:
NULL. -999.2500:
UWI. DF5056:
~C
DEPT.M :
GR.API :
CALI.CM :
RXO.OHMM :
RI. :
RML.OHMM :
DEN.GM/CC :
SP.MV :
~A
# ...
  145.0000    47.8990    28.7610    19.4200    17.6710    20.1710     2.5270   -24.7420 
  145.1250    50.0740    28.7990    19.2260    17.1580    19.4740     2.5230   -24.8440 
  145.2500    53.6440    28.8330    17.4040    16.5850    18.7640     2.5140   -24.9860 
  145.3750    54.9050    28.8640    15.5660    16.1150    18.2580     2.5010   -25.0950 
  145.5000    55.6440    28.9100    14.5510    15.8950    18.1190     2.4880   -25.3030 
  145.6250    57.9320    28.9700    14.7450    16.0510    18.4480     2.4790   -25.4220 
  145.7500    59.0450    29.0260    16.4400    16.4870    19.0600     2.4710   -25.5710 
  145.8750    58.6140    29.0850    19.0350    17.0710    19.7550     2.4640   -25.6790 
  146.0000    59.2050    29.1500    19.9470    17.6240    20.3150     2.4570   -25.7600 
  146.1250    62.9460    29.1910    19.2730    17.9410    20.5220     2.4500   -25.8330 
  146.2500    64.9210    29.2100    18.4660    17.9820    20.4030     2.4440   -25.8670 
  146.3750    63.2600    29.2400    17.7850    17.7930    20.0520     2.4410   -25.8960 
  146.5000    60.2690    29.2900    17.2940    17.4770    19.6140     2.4390   -25.8400 
  146.6250    59.9340    29.3240    17.1050    17.1440    19.2240     2.4390   -25.8210 
  146.7500    61.2160    29.3340    16.6890    16.8550    18.9230     2.4400   -25.7730 
  146.8750    59.7830    29.3440    15.9890    16.6110    18.6850     2.4420   -25.7370 
  147.0000    55.6080    29.3650    15.9630    16.3790    18.4470     2.4410   -25.6930 
  147.1250    53.8360    29.3800    15.9180    16.1080    18.1360     2.4380   -25.6150 
  147.2500    56.7920    29.3840    15.7550    15.7840    17.7490     2.4340   -25.5530 
  147.3750    61.6310    29.3830    15.7010    15.4250    17.3280     2.4350   -25.4860 
  147.5000    63.9340    29.3830    15.5350    15.0700    16.9410     2.4430   -25.4370 
  147.6250    63.3610    29.3820    14.8640    14.7940    16.6920     2.4570   -25.3610 
  147.7500    62.2460    29.3830    14.9510    14.6390    16.6140     2.4700   -25.3420 
  147.8750    61.5840    29.4040    15.7840    14.6250    16.7110     2.4760   -25.3060 
  148.0000    61.0020    29.4640    16.4160    14.7430    16.9590     2.4720   -25.2970 
  148.1250    61.1500    29.5700    16.5180    14.9730    17.3120     2.4590   -25.2950 
  148.2500    62.0390    29.6730    16.5160    15.2320    17.6730     2.4440   -25.2720 
  148.3750    62.3400    29.7300    16.5920    15.4590    17.9670     2.4300   -25.2360 
  148.5000    62.2390    29.7280    16.9830    15.6060    18.1440     2.4200   -25.2050 
  148.6250    62.4530    29.6820    17.3290    15.6460    18.1800     2.4170   -25.1700 
  148.7500    63.2590    29.6460    17.3000    15.6250    18.1540     2.4210   -25.1110 
  148.8750    64.1670    29.6490    16.7350    15.5980    18.1490     2.4320   -25.0650 
  149.0000    64.1990    29.6880    16.2800    15.6200    18.2400     2.4470   -25.0280 
  149.1250    61.9640    29.7270    15.9930    15.7460    18.4990     2.4630   -24.9960 
  149.2500    58.8120    29.7450    16.2570    15.9780    18.8990     2.4740   -25.0010 
  149.3750    57.5370    29.7460    17.0380    16.3010    19.3790     2.4780   -25.0150 
  149.5000    58.5890    29.7440    17.7530    16.6590    19.8510     2.4760   -25.0040 
  149.6250    59.6040    29.7460    18.2730    16.9700    20.2060     2.4730   -25.0050 
  149.7500    60.2670    29.7740    19.1470    17.1830    20.4180     2.4730   -25.0040 
  149.8750    60.8410    29.8370    19.9230    17.2770    20.4890     2.4750   -25.0120 
  150.0000    60.8200    29.9150    19.9960    17.2700    20.4600     2.4750   -25.0100 
  150.1250    60.8070    29.9530    19.4250    17.2100    20.3880     2.4730   -25.0070 
  150.2500    61.1660    29.9500    19.8700    17.1490    20.3240     2.4670   -24.9370 
  150.3750    61.6050    29.9210    20.3760    17.1020    20.2820     2.4590   -24.8710 
  150.5000    61.1050    29.8780    19.7610    17.0760    20.2630     2.4500   -24.8030 
  150.6250    60.8940    29.8360    19.0330    17.0460    20.2110     2.4450   -24.7130 
  150.7500    61.9410    29.8100    18.5610    16.9260    20.0170     2.4450   -24.5830 
  150.8750    62.4450    29.8050    18.1200    16.6280    19.5940     2.4510   -24.4850 
  151.0000    61.0950    29.8070    18.0390    16.1260    18.9340     2.4620   -24.3630 
  151.1250    58.2400    29.8070    17.5860    15.4660    18.1230     2.4740   -24.2510 
  151.2500    56.0880    29.8070    15.7940    14.7990    17.3610     2.4830   -24.1770 
  151.3750    54.7570    29.8070    13.5200    14.2480    16.7970     2.4890   -24.0680 
  151.5000    53.8700    29.8070    12.5090    13.8840    16.5030     2.4960   -23.9910 
  151.6250    52.7800    29.8080    13.2880    13.7300    16.4660     2.5060   -23.9100 
  151.7500    50.0490    29.8020    14.2670    13.6930    16.5390     2.5180   -23.9060 
  151.8750    47.1850    29.7840    14.7680    13.7130    16.6380     2.5310   -23.8830 
  152.0000    46.4000    29.7670    14.8470    13.7480    16.7190     2.5420   -23.8750 
  152.1250    48.4610    29.7820    14.7280    13.7830    16.7910     2.5490   -23.8810 
  152.2500    51.0490    29.8190    14.7440    13.8300    16.8800     2.5510   -23.8750 
  152.3750    52.9210    29.8480    15.1250    13.8900    16.9780     2.5490   -23.9060 
  152.5000    54.3780    29.8490    15.6870    13.9460    17.0570     2.5430   -23.8690 
  152.6250    54.2430    29.8290    15.3100    13.9870    17.1160     2.5340   -23.8860 
  152.7500    53.3060    29.8090    14.9170    14.0490    17.2170     2.5250   -23.8600 
  152.8750    51.7600    29.7980    15.2210    14.1690    17.4090     2.5180   -23.8390 
  153.0000    48.3930    29.7910    16.2180    14.3570    17.6880     2.5150   -23.8330 
  153.1250    46.2170    29.7710    17.3020    14.5680    17.9530     2.5140   -23.8510 
  153.2500    49.3110    29.7330    19.0440    14.6920    18.0530     2.5110   -23.8910 
  153.3750    54.8440    29.6840    19.0580    14.6460    17.8970     2.5010   -23.9030 
  153.5000    56.2120    29.6430    16.8490    14.4150    17.5080     2.4870   -23.9790 
  153.6250    51.2150    29.6150    15.7470    14.0740    17.0280     2.4720   -24.0110 
  153.7500    46.4790    29.5900    14.7560    13.7750    16.6650     2.4610   -24.0550 
  153.8750    45.7340    29.5620    14.3620    13.6170    16.5290     2.4560   -24.0810 
  154.0000    47.5010    29.5280    14.8520    13.6340    16.6290     2.4590   -24.0950 
  154.1250    49.8620    29.4890    16.1840    13.8050    16.8860     2.4710   -24.0870 
  154.2500    51.5090    29.4560    16.5810    14.0120    17.1310     2.4870   -24.0860 
  154.3750    51.8110    29.4460    16.2940    14.1740    17.2710     2.5000   -24.1390 
  154.5000    51.4080    29.4690    16.3630    14.2450    17.2770     2.5060   -24.1440 
  154.6250    49.8000    29.5150    16.4270    14.2280    17.1930     2.5030   -24.1800 
  154.7500    48.9030    29.5620    16.7360    14.1910    17.1170     2.4970   -24.2140 
  154.8750    49.8540    29.5970    16.8180    14.1710    17.0780     2.4930   -24.3120 
  155.0000    51.2520    29.6170    16.6660    14.1640    17.0340     2.4930   -24.4430 
  155.1250    50.1330    29.6230    16.1370    14.1040    16.8660     2.5000   -24.5980 
  155.2500    47.0170    29.6220    15.8420    13.9300    16.5160     2.5090   -24.7900 
  155.3750    44.9180    29.6220    15.2440    13.6190    15.9960     2.5180   -24.9410 
  155.5000    44.7980    29.6210    14.3530    13.2150    15.3990     2.5230   -25.1690 
  155.6250    45.5300    29.6190    13.2520    12.8220    14.8760     2.5240   -25.3740 
  155.7500    46.9840    29.6170    12.5450    12.5260    14.5030     2.5220   -25.6260 
  155.8750    47.8910    29.6070    12.4980    12.3540    14.2910     2.5210   -25.8550 
  156.0000    46.5550    29.5890    12.7660    12.2990    14.2130     2.5210   -26.0710 
  156.1250    44.1150    29.6200    13.2050    12.3400    14.2320     2.5240   -26.3180 
