~V
VERS. 2.00: Ver 2.00
~W
STRT.M 55.0000:
STOP.M 271.0000:
STEP.M 0.1250:
NULL. -999.2500:
UWI. DF5016:
~C
DEPT.M :
SP.MV :
GR.API :
CALI.CM :
RXO.OHMM :
RI. :
RML.OHMM :
DEN.GM/CC :
~A
# ...
  111.2500   -24.6450    72.1420    22.3200    10.3490     7.5750     8.2320     2.1420 
  111.3750   -24.2750    71.1900    22.3810    10.3640     7.4570     8.1070     2.1430 
  111.5000   -23.8330    71.0250    22.4060    10.2510     7.3250     7.9680     2.1520 
  111.6250   -23.2960    74.1010    22.3950    10.1630     7.1700     7.8040     2.1590 
  111.7500   -22.6900    78.1450    22.3720    10.0620     7.0040     7.6290     2.1600 
  111.8750   -22.0390    80.3310    22.3830     9.7750     6.8590     7.4760     2.1540 
  112.0000   -21.3620    79.7920    22.4100     9.2040     6.7680     7.3800     2.1490 
  112.1250   -20.6620    77.9460    22.4290     8.6010     6.7680     7.3800     2.1500 
  112.2500   -19.9460    76.7150    22.4460     8.3050     6.8460     7.4630     2.1560 
  112.3750   -19.2230    76.5740    22.4610     8.2610     6.9820     7.6060     2.1650 
  112.5000   -18.5080    77.1540    22.5020     8.2900     7.1470     7.7800     2.1750 
  112.6250   -17.8070    78.0010    22.5050     8.3350     7.2660     7.9060     2.1820 
  112.7500   -17.1050    79.1690    22.4100     8.4410     7.2600     7.8990     2.1830 
  112.8750   -16.3930    81.2620    22.2000     8.5490     7.0670     7.6960     2.1860 
  113.0000   -15.6770    84.7570    22.0200     8.4340     6.6810     7.2880     2.2030 
  113.1250   -14.9830    89.8390    22.1160     7.8940     6.1410     6.7190     2.2470 
  113.2500   -14.3320    96.2290    22.4430     7.1410     5.5700     6.1170     2.3030 
  113.3750   -13.7420   102.7230    22.8640     6.3100     5.0560     5.5740     2.3450 
  113.5000   -13.2290   106.8260    23.2500     5.4930     4.6560     5.1520     2.3570 
  113.6250   -12.8310   105.8570    23.6240     4.9430     4.4170     4.8990     2.3330 
  113.7500   -12.5500   102.2770    23.9240     4.7980     4.3200     4.7980     2.2920 
  113.8750   -12.3840    99.1030    24.1140     4.9480     4.3530     4.8320     2.2530 
  114.0000   -12.3100    97.4640    24.1620     5.2510     4.4770     4.9630     2.2270 
  114.1250   -12.3100    96.3390    24.1210     5.5570     4.6460     5.1410     2.2200 
  114.2500   -12.3500    96.0210    24.0920     5.6520     4.7880     5.2910     2.2230 
  114.3750   -12.4160    98.9950    24.1540     5.4630     4.8740     5.3820     2.2280 
  114.5000   -12.4900   105.9490    24.1800     5.1100     4.8980     5.4070     2.2340 
  114.6250   -12.5460   112.0130    24.0620     4.8640     4.8850     5.3940     2.2460 
  114.7500   -12.5740   113.0010    23.8480     4.8140     4.8680     5.3760     2.2620 
  114.8750   -12.5830   110.0620    23.6520     4.9310     4.8570     5.3640     2.2700 
  115.0000   -12.5930   106.9110    23.5130     5.1210     4.8420     5.3480     2.2640 
  115.1250   -12.6270   105.9540    23.5730     5.1900     4.8300     5.3360     2.2570 
  115.2500   -12.6840   106.1990    23.7590     5.0190     4.8130     5.3170     2.2590 
  115.3750   -12.7620   105.8600    23.8750     4.7700     4.7860     5.2890     2.2640 
  115.5000   -12.8660   103.6630    23.7160     4.7670     4.7380     5.2390     2.2550 
  115.6250   -13.0080    99.8150    23.4990     4.9940     4.6650     5.1620     2.2390 
  115.7500   -13.1840    96.6670    23.5040     5.0620     4.6140     5.1080     2.2390 
  115.8750   -13.3780    95.3710    23.7730     4.9610     4.6290     5.1240     2.2550 
  116.0000   -13.5710    95.2600    24.0930     4.8910     4.7420     5.2420     2.2640 
  116.1250   -13.7490    94.1100    24.2360     5.0060     4.9640     5.4770     2.2530 
  116.2500   -13.9150    91.6630    24.1640     5.2730     5.2460     5.7750     2.2380 
  116.3750   -14.0660    89.9240    23.9580     5.7540     5.5400     6.0840     2.2300 
  116.5000   -14.1970    90.9520    23.8110     6.4970     5.7840     6.3420     2.2220 
  116.6250   -14.2950    94.4800    23.5230     7.2720     5.8820     6.4450     2.2130 
  116.7500   -14.3720    98.0210    23.1180     7.4800     5.8310     6.3920     2.2110 
  116.8750   -14.4450   101.5370    22.9750     6.8530     5.6740     6.2260     2.2270 
  117.0000   -14.5270   105.6680    23.2640     5.8130     5.5020     6.0450     2.2540 
  117.1250   -14.6230   108.9740    23.7690     5.1270     5.4070     5.9450     2.2760 
  117.2500   -14.7290   108.9260    24.0520     4.9570     5.4090     5.9460     2.2810 
  117.3750   -14.8490   105.1340    24.0900     5.1950     5.4870     6.0290     2.2700 
  117.5000   -14.9850    99.4710    23.8880     5.6860     5.5870     6.1340     2.2470 
  117.6250   -15.1300    95.3870    23.5150     6.2210     5.6230     6.1730     2.2120 
  117.7500   -15.2600    95.4130    23.1140     6.5980     5.5330     6.0770     2.1770 
  117.8750   -15.3540    99.8070    22.8830     6.6160     5.3010     5.8330     2.1660 
  118.0000   -15.4080   105.2720    22.9220     6.1730     4.9770     5.4910     2.1900 
  118.1250   -15.4320   106.4220    23.2820     5.4270     4.6880     5.1860     2.2350 
  118.2500   -15.4490   104.3430    23.7190     4.8790     4.5530     5.0430     2.2690 
  118.3750   -15.4660   103.2220    23.8980     4.7830     4.6410     5.1360     2.2820 
  118.5000   -15.4890   104.0530    23.7300     5.1390     4.9710     5.4840     2.2810 
  118.6250   -15.5300   102.0980    23.4460     6.1010     5.5260     6.0700     2.2860 
  118.7500   -15.5960    95.5630    23.3330     8.1240     6.1550     6.7340     2.3130 
  118.8750   -15.6870    87.8890    23.3050    11.4400     6.7080     7.3170     2.3500 
  119.0000   -15.7820    82.8750    23.1710    14.4210     7.0330     7.6590     2.3640 
  119.1250   -15.8380    81.6010    22.9500    14.3570     6.9820     7.6060     2.3280 
  119.2500   -15.8300    82.4670    22.9060    11.6490     6.6570     7.2630     2.2720 
  119.3750   -15.7530    85.7390    23.0340     8.7460     6.1820     6.7620     2.2310 
  119.5000   -15.6180    91.9150    23.2370     6.9200     5.6950     6.2480     2.2250 
  119.6250   -15.4410    99.3750    23.4020     6.0730     5.3120     5.8440     2.2440 
  119.7500   -15.2570   104.2350    23.5470     5.5950     5.0520     5.5700     2.2650 
  119.8750   -15.0960   104.4720    23.6310     5.3090     4.9100     5.4200     2.2750 
  120.0000   -14.9880   101.6380    23.7760     5.1660     4.8640     5.3720     2.2690 
  120.1250   -14.9690   100.2700    23.9870     5.1320     4.8810     5.3900     2.2630 
  120.2500   -15.0350   101.3880    24.1440     5.1160     4.9230     5.4340     2.2730 
  120.3750   -15.1780   102.8950    24.1720     5.0670     4.9710     5.4840     2.2940 
  120.5000   -15.3850   103.3870    24.0530     5.1400     5.0080     5.5230     2.3050 
  120.6250   -15.6420   103.9240    23.8200     5.6220     5.0170     5.5330     2.2930 
  120.7500   -15.9210   104.4130    23.5790     6.3770     4.9970     5.5120     2.2770 
  120.8750   -16.2160   103.7850    23.4110     6.9170     4.9550     5.4680     2.2750 
  121.0000   -16.5360   103.6610    23.3390     6.8520     4.9120     5.4220     2.2900 
  121.1250   -16.9060   106.1660    23.3480     6.3340     4.9170     5.4270     2.3070 
  121.2500   -17.3290   107.9820    23.3570     5.9770     4.9970     5.5120     2.3090 
  121.3750   -17.7950   104.6550    23.3530     6.0430     5.1750     5.7000     2.2920 
  121.5000   -18.2830    95.6590    23.3130     6.4270     5.4540     5.9940     2.2620 
  121.6250   -18.7720    85.7130    23.2350     6.8990     5.8220     6.3820     2.2300 
  121.7500   -19.2560    79.9600    23.1400     7.3640     6.2160     6.7980     2.2020 
  121.8750   -19.7280    78.9610    23.0880     7.8230     6.6080     7.2110     2.1820 
  122.0000   -20.1720    79.7480    23.0690     8.2010     6.9860     7.6100     2.1750 
  122.1250   -20.5480    78.8750    23.0470     8.4190     7.3820     8.0290     2.1880 
  122.2500   -20.8440    76.7250    23.0160     8.5400     7.8540     8.5260     2.2050 
  122.3750   -21.0680    74.5660    23.0020     8.6700     8.4570     9.1620     2.2130 
