~V
VERS. 2.00: Ver 2.00
~W
STRT.M 50.0000:
STOP.M 276.0000:
STEP.M 0.1250:
NULL. -999.2500:
UWI. DF5011:
~C
DEPT.M :
DEN.GM/CC :
GR.API :
CALI.CM :
RXO.OHMM :
RI. :
RML.OHMM :
SP.MV :
~A
# ...
  106.2500     2.1560    68.3870    23.6440     7.2810     6.0560     7.0010   -40.9040 
  106.3750     2.1620    68.3030    23.6440     7.5380     6.0910     7.1020   -40.7880 
  106.5000     2.1660    64.6340    23.6440     7.8840     6.2270     7.3160   -40.6170 
  106.6250     2.1730    60.4330    23.6440     7.9900     6.4190     7.5720   -40.5220 
  106.7500     2.1800    61.3190    23.6440     7.9260     6.6000     7.7750   -40.4290 
  106.8750     2.1810    63.8490    23.6440     7.8230     6.7230     7.8810   -40.4830 
  107.0000     2.1750    65.1160    23.6440     7.7660     6.7830     7.9030   -40.4580 
  107.1250     2.1660    65.8740    23.6440     7.8230     6.8040     7.8890   -40.5100 
  107.2500     2.1570    67.4430    23.6440     7.9960     6.8300     7.9040   -40.5100 
  107.3750     2.1510    67.3100    23.6440     8.1380     6.8860     7.9670   -40.3880 
  107.5000     2.1500    64.1570    23.6440     8.2850     6.9770     8.0720   -40.3160 
  107.6250     2.1560    61.3140    23.6440     8.3070     7.0950     8.1950   -40.1750 
  107.7500     2.1680    60.1860    23.6440     8.3070     7.2110     8.2940   -40.1140 
  107.8750     2.1770    59.0760    23.6440     8.4110     7.2960     8.3420   -39.9860 
  108.0000     2.1800    58.3340    23.6440     8.5180     7.3330     8.3270   -39.7980 
  108.1250     2.1770    59.3300    23.6440     8.3210     7.3190     8.2570   -39.5830 
  108.2500     2.1740    60.4330    23.6440     7.8730     7.2540     8.1390   -39.2540 
  108.3750     2.1730    59.6680    23.6440     7.5400     7.1460     7.9770   -38.9880 
  108.5000     2.1710    58.6560    23.6440     7.5070     6.9810     7.7520   -38.6310 
  108.6250     2.1660    58.3240    23.6410     7.4550     6.7530     7.4530   -38.3140 
  108.7500     2.1620    58.9140    23.6380     7.1270     6.4770     7.1080   -37.9220 
  108.8750     2.1630    62.1120    23.6410     6.6830     6.2160     6.7980   -37.4660 
  109.0000     2.1690    67.3210    23.6480     6.0710     6.0240     6.5960   -37.0010 
  109.1250     2.1750    70.3060    23.6530     5.6370     5.9290     6.5300   -36.4840 
  109.2500     2.1810    67.9290    23.6530     5.8440     5.9060     6.5440   -36.1470 
  109.3750     2.1910    64.8160    23.6530     6.2770     5.8490     6.4850   -35.7310 
  109.5000     2.2100    64.5860    23.6480     6.3700     5.6790     6.2560   -35.4010 
  109.6250     2.2340    67.5300    23.6440     6.1730     5.3870     5.8710   -35.1180 
  109.7500     2.2570    72.1170    23.7030     5.5180     5.0550     5.4690   -34.8430 
  109.8750     2.2750    76.1410    23.8270     4.7920     4.8110     5.2280   -34.6790 
  110.0000     2.2840    79.3910    23.9500     4.7900     4.7350     5.2370   -34.5690 
  110.1250     2.2780    82.1550    24.0140     5.6460     4.8530     5.4890   -34.6970 
  110.2500     2.2540    81.2320    24.0320     6.2820     5.1390     5.9020   -34.8200 
  110.3750     2.2270    75.3780    24.0640     6.3050     5.4770     6.3120   -35.0600 
  110.5000     2.2130    68.4750    24.0990     6.2730     5.7900     6.6340   -35.4460 
  110.6250     2.2160    65.8650    24.1220     6.4850     6.0560     6.8830   -35.8860 
  110.7500     2.2260    67.8950    24.1430     6.8430     6.3440     7.1920   -36.3760 
  110.8750     2.2370    67.9600    24.1690     7.3800     6.7430     7.6810   -36.7770 
  111.0000     2.2550    65.5810    24.1960     7.8450     7.2920     8.3760   -37.2740 
  111.1250     2.2900    63.8700    24.1830     8.0510     7.9520     9.1920   -37.6000 
  111.2500     2.3420    63.5870    24.0630     7.9150     8.5730     9.9000   -37.9470 
  111.3750     2.3820    63.5080    23.8840     7.9990     8.9710    10.2880   -38.2680 
  111.5000     2.3800    62.8540    23.6990     8.4710     9.0420    10.2580   -38.5120 
  111.6250     2.3350    61.3590    23.5220     9.1530     8.7990     9.8660   -38.7720 
  111.7500     2.2710    59.8980    23.3620     9.2830     8.3550     9.2810   -38.9870 
  111.8750     2.2240    60.0190    23.2590     9.0770     7.9020     8.7350   -39.2500 
  112.0000     2.1990    61.5910    23.2310     8.6980     7.5370     8.3340   -39.4000 
  112.1250     2.1870    61.3060    23.2300     8.3840     7.2970     8.1030   -39.6560 
  112.2500     2.1840    59.6460    23.2260     8.4720     7.1850     8.0210   -39.7460 
  112.3750     2.1870    59.9240    23.2530     8.8270     7.1370     8.0010   -39.8360 
  112.5000     2.1910    61.5040    23.3810     8.7690     7.1080     7.9830   -39.8620 
  112.6250     2.1880    61.4730    23.6800     8.3720     7.0690     7.9350   -39.8150 
  112.7500     2.1810    59.9350    24.1070     8.1610     7.0120     7.8580   -39.8240 
  112.8750     2.1830    59.2780    24.4440     8.2650     6.9570     7.7830   -39.7140 
  113.0000     2.1960    59.2790    24.5680     8.3250     6.9210     7.7270   -39.6820 
  113.1250     2.2060    60.5970    24.5200     8.3280     6.9060     7.6940   -39.5460 
  113.2500     2.2070    63.0400    24.4420     8.4020     6.9030     7.6760   -39.4590 
  113.3750     2.2040    64.1740    24.4060     8.5440     6.8960     7.6580   -39.3630 
  113.5000     2.1990    62.2640    24.4050     8.5320     6.8850     7.6430   -39.2990 
  113.6250     2.1900    59.6240    24.4090     8.3590     6.8810     7.6460   -39.3020 
  113.7500     2.1760    60.3640    24.3720     8.1670     6.9040     7.6950   -39.1070 
  113.8750     2.1610    62.2880    24.2850     8.0940     6.9600     7.7920   -38.9550 
  114.0000     2.1500    62.1070    24.1890     8.3400     7.0420     7.9260   -38.7880 
  114.1250     2.1490    59.2320    24.1300     8.9490     7.1270     8.0630   -38.6250 
  114.2500     2.1630    57.3990    24.1270     9.3110     7.1600     8.1230   -38.5120 
  114.3750     2.1800    58.0920    24.1610     9.1830     7.1080     8.0630   -38.3810 
  114.5000     2.1930    59.2810    24.2540     8.8690     6.9640     7.8820   -38.3320 
  114.6250     2.2030    59.5830    24.4040     8.6570     6.7600     7.6330   -38.1370 
  114.7500     2.2130    60.5570    24.5400     8.2660     6.5690     7.4190   -37.9470 
  114.8750     2.2190    62.8190    24.6040     7.6720     6.4570     7.3210   -37.8140 
  115.0000     2.2160    64.4010    24.6130     7.5830     6.4570     7.3690   -37.7180 
  115.1250     2.2040    64.1730    24.6110     8.2680     6.5700     7.5500   -37.7290 
  115.2500     2.1910    63.1290    24.6080     8.9360     6.7800     7.8240   -37.6370 
  115.3750     2.1820    62.7290    24.5790     9.2880     7.0290     8.1190   -37.6430 
  115.5000     2.1760    62.5050    24.5280     9.3290     7.2790     8.3980   -37.5530 
  115.6250     2.1720    63.1320    24.4840     9.3720     7.4970     8.6370   -37.4480 
  115.7500     2.1750    64.1840    24.4580     9.4970     7.6330     8.7830   -37.3430 
  115.8750     2.1820    62.6700    24.4350     9.5990     7.6550     8.7920   -37.1550 
  116.0000     2.1900    59.2680    24.4030     9.4760     7.5400     8.6290   -36.9540 
  116.1250     2.1940    58.6200    24.3720     9.2150     7.3000     8.3070   -36.5760 
  116.2500     2.1950    62.5410    24.3350     8.7010     6.9800     7.9000   -36.2690 
  116.3750     2.1940    65.2890    24.2560     8.0450     6.6790     7.5400   -35.8530 
  116.5000     2.1900    65.9430    24.1120     7.6760     6.4660     7.3110   -35.3310 
  116.6250     2.1860    65.0500    23.9370     7.6080     6.3830     7.2470   -34.8190 
  116.7500     2.1850    62.9840    23.8200     7.6790     6.4480     7.3580   -34.3450 
  116.8750     2.1850    61.7220    23.7770     7.6340     6.6080     7.5700   -34.0110 
  117.0000     2.1780    62.2740    23.7770     7.6350     6.8140     7.8270   -33.6030 
  117.1250     2.1670    63.2550    23.8480     7.6940     7.0040     8.0490   -33.2020 
  117.2500     2.1600    62.2690    24.0840     7.7070     7.0750     8.1050   -32.6810 
  117.3750     2.1600    62.5540    24.3920     7.6670     6.9670     7.9230   -32.1410 
