~V
VERS. 2.00: Ver 2.00
~W
STRT.M 64.0000:
STOP.M 243.0000:
STEP.M 0.1250:
NULL. -999.2500:
UWI. DF5061:
~C
DEPT.M :
GR.API :
RML.OHMM :
RI. :
RXO.OHMM :
CALI.CM :
DEN.GM/CC :
SP.MV :
~A
# ...
  176.5000    69.1200    71.7580    65.4140    65.3690    25.0980     2.2670   -13.1310 
  176.6250    69.4770    77.8730    71.0910    72.6680    25.0820     2.2650   -13.2170 
  176.7500    68.4920    83.8400    76.6810    81.6500    25.0440     2.2650   -13.3040 
  176.8750    68.3880    88.4480    81.0580    89.0100    25.0030     2.2650   -13.3430 
  177.0000    68.6960    91.2680    83.8050    92.1290    24.9630     2.2670   -13.3480 
  177.1250    70.0960    92.4440    84.9980    88.9460    24.9420     2.2700   -13.3210 
  177.2500    71.3600    92.6520    85.1980    81.6010    24.9390     2.2750   -13.2650 
  177.3750    70.5640    92.6730    85.1360    73.2870    24.9470     2.2820   -13.1870 
  177.5000    66.7390    92.7570    85.1980    67.3270    24.9640     2.2890   -13.1170 
  177.6250    62.0700    92.4770    85.1390    65.1050    24.9900     2.2940   -13.0800 
  177.7500    60.4200    91.2010    84.4180    66.2340    25.0090     2.2950   -13.0970 
  177.8750    61.4470    88.3440    82.3610    63.2770    24.9990     2.2920   -13.1810 
  178.0000    63.2470    84.4850    79.2290    58.5370    24.9890     2.2890   -13.3080 
  178.1250    64.2480    80.4430    75.6250    58.1040    24.9770     2.2890   -13.4700 
  178.2500    64.6100    77.1070    72.3910    60.4370    24.9610     2.2920   -13.6420 
  178.3750    66.4120    75.4560    70.5990    61.2180    24.9360     2.2960   -13.7660 
  178.5000    68.3750    75.7070    70.6630    59.6920    24.9170     2.2940   -13.8390 
  178.6250    68.2090    78.2330    73.0180    59.5400    24.9240     2.2850   -13.8750 
  178.7500    62.9000    83.5780    78.1680    62.4210    24.9580     2.2720   -13.8580 
  178.8750    55.9800    93.1550    87.3780    69.3630    24.9670     2.2580   -13.7590 
  179.0000    52.5880   106.8860   100.4710    80.6710    24.8970     2.2470   -13.5570 
  179.1250    51.6770   124.2060   116.8780    94.0500    24.8010     2.2420   -13.2480 
  179.2500    51.6090   142.9880   134.6180   113.4570    24.7840     2.2410   -12.8490 
  179.3750    52.6340   158.4650   149.2840   135.5210    24.8590     2.2430   -12.4360 
  179.5000    53.9350   166.4840   157.0890   148.4740    24.9470     2.2470   -12.0480 
  179.6250    53.4370   164.9900   156.1610   145.0890    25.0070     2.2530   -11.6620 
  179.7500    51.7560   155.4050   147.6250   132.1090    25.0260     2.2600   -11.2870 
  179.8750    51.9380   142.5480   135.4050   117.7590    25.0140     2.2660   -10.9570 
  180.0000    53.9960   132.3970   124.9590   104.8450    24.9960     2.2700   -10.7240 
  180.1250    56.8770   127.5640   118.9720    98.4680    24.9880     2.2700   -10.5970 
  180.2500    59.8300   128.5520   118.2650   100.0200    24.9810     2.2670   -10.5680 
  180.3750    61.9440   134.9810   122.7420   106.7100    24.9700     2.2620   -10.6120 
  180.5000    62.6320   143.8440   129.6930   115.3630    24.9610     2.2550   -10.6910 
  180.6250    61.1240   152.7530   136.9350   123.8630    24.9610     2.2490   -10.8040 
  180.7500    58.0650   159.6540   142.6030   129.8980    24.9600     2.2450   -10.9300 
  180.8750    55.4280   163.5390   145.8010   130.2910    24.9690     2.2420   -11.0390 
  181.0000    54.5830   166.8950   148.5870   126.9950    24.9830     2.2370   -11.1180 
  181.1250    55.0480   173.1340   153.7880   124.8720    24.9910     2.2300   -11.1760 
  181.2500    55.1580   185.0730   163.8150   127.2730    24.9910     2.2180   -11.2310 
  181.3750    53.2700   203.2530   179.4200   137.2970    24.9890     2.2030   -11.3170 
  181.5000    49.2440   221.6140   195.8490   157.5130    24.9810     2.1940   -11.4360 
  181.6250    44.9330   232.6350   207.0720   183.5760    24.9600     2.1990   -11.6000 
  181.7500    42.2820   229.4180   207.3110   206.2780    24.9200     2.2230   -11.8430 
  181.8750    43.5990   207.9820   192.2850   202.0910    24.8370     2.2630   -12.1780 
  182.0000    47.4560   177.9910   168.3520   167.0650    24.7420     2.3020   -12.5660 
  182.1250    50.3550   148.1530   142.1680   123.5690    24.6850     2.3240   -12.9800 
  182.2500    51.1000   123.6640   119.0100    97.0300    24.7040     2.3240   -13.4000 
  182.3750    52.7120   106.1860   101.7280    86.5130    24.7840     2.3060   -13.7750 
  182.5000    56.5760    93.0120    88.6630    78.8150    24.8430     2.2850   -14.0710 
  182.6250    60.1160    82.5310    78.4020    71.9880    24.8660     2.2710   -14.2500 
  182.7500    60.5820    73.7040    69.8800    66.1480    24.8660     2.2660   -14.2850 
  182.8750    59.1790    66.4230    62.9060    60.3310    24.8370     2.2680   -14.1810 
  183.0000    58.8210    60.7770    57.4950    54.3210    24.7840     2.2740   -14.0080 
  183.1250    58.4030    57.2140    54.0410    49.6800    24.7470     2.2780   -13.7980 
  183.2500    57.5950    55.9570    52.7530    46.8920    24.7380     2.2820   -13.5560 
  183.3750    58.1750    57.0040    53.6760    48.6110    24.7470     2.2910   -13.2720 
  183.5000    58.5360    59.1380    55.7000    54.5490    24.7540     2.3100   -12.9730 
  183.6250    57.6970    61.4460    57.9330    62.6900    24.7420     2.3380   -12.6730 
  183.7500    54.7270    63.3190    59.6790    69.0560    24.6920     2.3640   -12.3860 
  183.8750    50.8250    64.5200    60.4820    66.5590    24.6080     2.3710   -12.1060 
  184.0000    49.4900    65.0440    60.3310    58.7370    24.5630     2.3650   -11.8010 
  184.1250    52.6930    64.1420    58.7090    50.5150    24.5970     2.3660   -11.4320 
  184.2500    56.9770    60.4540    54.6550    53.0910    24.6490     2.3960   -10.9710 
  184.3750    56.1670    52.2540    46.8780    61.3600    24.6150     2.4690   -10.4130 
  184.5000    51.5400    41.0480    36.6890    68.0750    24.5120     2.5550    -9.7810 
  184.6250    45.3510    29.3230    26.1910    62.9380    24.4250     2.6160    -9.0910 
  184.7500    40.7990    19.5480    17.4530    35.2290    24.3760     2.6280    -8.3710 
  184.8750    42.4720    13.2070    11.7190    15.6470    24.3620     2.5970    -7.6470 
  185.0000    47.6150     9.3190     8.1130     8.7900    24.3520     2.5530    -6.9560 
  185.1250    51.1780     7.0840     5.9990     6.4770    24.3400     2.5120    -6.3380 
  185.2500    52.0770     5.8920     4.9020     5.5370    24.3290     2.4790    -5.8280 
  185.3750    51.9940     5.5850     4.6210     5.2610    24.3380     2.4530    -5.4300 
  185.5000    52.1910     5.8050     4.8220     5.7520    24.3550     2.4350    -5.1310 
  185.6250    53.5590     6.3620     5.3320     6.5470    24.3700     2.4290    -4.9210 
  185.7500    57.4930     7.0490     5.9630     7.4750    24.3810     2.4320    -4.7660 
  185.8750    64.6140     7.6190     6.4830     8.1760    24.3770     2.4380    -4.6640 
  186.0000    71.7230     7.9210     6.7560     8.3670    24.3470     2.4350    -4.5970 
  186.1250    75.0430     7.9280     6.7590     7.9870    24.3040     2.4190    -4.5520 
  186.2500    71.9990     7.7240     6.5800     7.2630    24.2650     2.3920    -4.5330 
  186.3750    62.2130     7.4480     6.3580     6.6370    24.2650     2.3640    -4.5610 
  186.5000    51.3640     7.2230     6.2060     6.5350    24.2820     2.3450    -4.6110 
  186.6250    44.6190     7.0800     6.1500     6.6780    24.2810     2.3400    -4.6810 
  186.7500    45.1990     7.0500     6.1770     6.8330    24.2370     2.3480    -4.7700 
  186.8750    48.2430     7.1230     6.2510     6.9540    24.1800     2.3660    -4.8710 
  187.0000    47.9200     7.1990     6.3280     6.9860    24.1370     2.3860    -4.9720 
  187.1250    45.5810     7.2440     6.3920     6.9430    24.1160     2.4010    -5.0490 
  187.2500    43.9750     7.2700     6.4400     6.9430    24.1080     2.4110    -5.0920 
  187.3750    42.5710     7.3210     6.4790     7.0150    24.1040     2.4170    -5.1270 
  187.5000    40.5880     7.4190     6.5210     7.1570    24.0970     2.4240    -5.1790 
  187.6250    41.0790     7.5670     6.5840     7.3070    24.0890     2.4330    -5.2680 
