~V
VERS. 2.00: Ver 2.00
~W
STRT.M 50.0000:
STOP.M 300.0000:
STEP.M 0.1250:
NULL. -999.2500:
UWI. F10041:
~C
DEPT.M :
DEN.GM/CC :
GR.API :
RML.OHMM :
RI. :
RXO.OHMM :
CALI.CM :
SP.MV :
~A
# ...
  286.2500     2.3660    30.3240     4.5290     4.1010     4.0600    24.2810    -5.6620 
  286.3750     2.3580    31.2170     4.4680     4.0450     4.2640    24.3430    -5.5330 
  286.5000     2.3570    30.8680     4.4250     4.0050     4.1020    24.3660    -5.4170 
  286.6250     2.3550    29.6420     4.4250     4.0050     3.9630    24.3510    -5.3510 
  286.7500     2.3450    29.1700     4.4570     4.0340     3.9260    24.2840    -5.3230 
  286.8750     2.3250    29.4280     4.5040     4.0780     3.9410    24.1690    -5.3510 
  287.0000     2.3020    30.4190     4.5510     4.1220     3.9940    24.1200    -5.4300 
  287.1250     2.2890    32.7500     4.5830     4.1510     3.9860    24.2370    -5.5550 
  287.2500     2.2890    34.2730     4.5890     4.1570     4.0320    24.4140    -5.6750 
  287.3750     2.2990    33.4580     4.5670     4.1360     3.9170    24.6390    -5.7850 
  287.5000     2.3130    31.3680     4.5200     4.0920     3.8000    25.0840    -5.8450 
  287.6250     2.3260    31.0380     4.4590     4.0360     3.8260    25.6330    -5.8600 
  287.7500     2.3360    31.0570     4.3990     3.9810     3.8360    26.1310    -5.9360 
  287.8750     2.3440    30.2820     4.3480     3.9340     3.8730    26.4310    -6.0960 
  288.0000     2.3520    29.2130     4.3120     3.9000     3.9750    26.6670    -6.2970 
  288.1250     2.3630    28.3670     4.3010     3.8900     4.1200    26.5870    -6.4870 
  288.2500     2.3750    27.5070     4.3210     3.9080     4.2550    26.2720    -6.6370 
  288.3750     2.3870    27.1940     4.3700     3.9540     4.1940    26.0680    -6.7620 
  288.5000     2.3950    27.7060     4.4400     4.0180     4.1520    25.8970    -6.9380 
  288.6250     2.3950    27.8630     4.5190     4.0910     4.1530    25.6940    -7.1130 
  288.7500     2.3910    27.3520     4.5990     4.1660     4.2280    25.4360    -7.1990 
  288.8750     2.3850    27.7320     4.6790     4.2400     4.2280    25.0800    -7.1960 
  289.0000     2.3800    28.7220     4.7510     4.3070     4.3240    25.1460    -7.1460 
  289.1250     2.3780    28.7940     4.7930     4.3460     4.4690    25.5470    -7.0860 
  289.2500     2.3770    28.6380     4.7870     4.3400     4.4270    25.7930    -7.0450 
  289.3750     2.3770    28.4770     4.7200     4.2780     4.2400    25.9580    -7.0090 
  289.5000     2.3770    28.4230     4.5970     4.1640     4.0470    26.0210    -6.9380 
  289.6250     2.3720    28.4230     4.4290     4.0090     3.9480    25.7500    -6.8470 
  289.7500     2.3600    28.4230     4.2530     3.8460     3.9040    25.4320    -6.7720 
  289.8750     2.3430    28.4230     4.0940     3.6980     3.8820    25.2150    -6.6960 
  290.0000     2.3260    28.4230     3.9760     3.5890     4.0030    25.1830    -6.5860 
  290.1250     2.3220    28.4230     3.9430     3.5580     4.1570    25.0420    -6.4590 
  290.2500     2.3370    28.4230     4.0350     3.6420     4.1900    24.7360    -6.3760 
  290.3750     2.3700    28.4230     4.3180     3.9010     4.3300    24.4660    -6.3210 
  290.5000     2.4120    28.4230     4.8320     4.3990     5.1830    24.3730    -6.2660 
  290.6250     2.4500    28.4230     5.6140     5.2110     7.2580    24.3870    -6.2280 
  290.7500     2.4710    28.4230     6.5480     6.1920     9.8310    24.3990    -6.2120 
  290.8750     2.4680    28.4230     7.4210     7.0960    12.7980    24.3890    -6.2480 
  291.0000     2.4410    28.4230     7.8960     7.6110    15.0290    24.3720    -6.3220 
  291.1250     2.3990    28.4230     7.5750     7.4280    14.5260    24.4770    -6.3880 
  291.2500     2.3600    28.4230     6.6270     6.7400    11.0450    24.5930    -6.4420 
  291.3750     2.3350    28.4230     5.4940     5.8230     7.7700    24.7350    -6.5470 
  291.5000     2.3320    28.4230     4.6660     4.9510     5.3520    24.8550    -6.6930 
  291.6250     2.3460    28.4230     4.3350     4.3300     4.5880    24.9730    -6.8470 
  291.7500     2.3580    28.4230     4.1760     3.9530     4.2230    25.1360    -7.0140 
  291.8750     2.3570    28.4230     4.0420     3.7750     3.9700    25.4380    -7.1660 
  292.0000     2.3390    28.4230     3.9770     3.7310     3.8820    25.7450    -7.3280 
  292.1250     2.3100    28.4230     4.0120     3.7620     3.8440    25.7370    -7.4960 
  292.2500     2.2810    28.4230     4.0600     3.8080     3.7920    25.7340    -7.6140 
  292.3750     2.2600    28.4230     4.1010     3.8470     3.7820    25.8960    -7.6520 
  292.5000     2.2490    28.4230     4.1330     3.8780     3.8300    25.8820    -7.6930 
  292.6250     2.2510    28.4230     4.1680     3.9110     3.8960    25.7310    -7.7570 
  292.7500     2.2640    28.4230     4.2220     3.9630     3.9420    25.6930    -7.7710 
  292.8750     2.2860    28.4230     4.3030     4.0410     4.0180    25.5740    -7.7100 
  293.0000     2.3160    28.4230     4.4060     4.1400     4.1930    25.3440    -7.6110 
  293.1250     2.3500    28.4230     4.5050     4.2350     4.3420    25.1000    -7.5530 
  293.2500     2.3790    28.4230     4.5610     4.2900     4.4180    24.9440    -7.5580 
  293.3750     2.3980    28.4230     4.5500     4.2790     4.3230    24.9030    -7.5620 
  293.5000     2.4040    28.4230     4.4710     4.2030     4.1580    24.8800    -7.5290 
  293.6250     2.3940    28.4230     4.3480     4.0840     4.1190    25.0530    -7.5070 
  293.7500     2.3800    28.4230     4.2350     3.9760     4.1510    25.3830    -7.5450 
  293.8750     2.3680    28.4230     4.1680     3.9120     4.2050    25.5310    -7.6160 
  294.0000     2.3640    28.4230     4.1590     3.9030     4.2820    25.3720    -7.6740 
  294.1250     2.3670    28.4230     4.2030     3.9450     4.3370    25.3240    -7.6770 
  294.2500     2.3740    28.4230     4.2690     4.0090     4.2760    25.4670    -7.6270 
  294.3750     2.3810    28.4230     4.3400     4.0770     4.2560    25.5390    -7.5810 
  294.5000     2.3820    28.4230     4.4080     4.1430     4.3620    25.4740    -7.5170 
  294.6250     2.3770    28.4230     4.4690     4.2010     4.2760    25.4620    -7.3890 
  294.7500     2.3670    28.4230     4.5160     4.2460     4.1390    25.5960    -7.2150 
  294.8750     2.3540    28.4230     4.5410     4.2700     4.0190    25.6660    -7.0740 
  295.0000     2.3420    28.4230     4.5390     4.2680     4.0160    25.4840    -7.0080 
  295.1250     2.3340    28.4230     4.5140     4.2450     4.1710    25.2640    -6.9820 
  295.2500     2.3340    28.4230     4.4860     4.2180     4.2250    25.0420    -6.9860 
  295.3750     2.3400    28.4230     4.4670     4.1990     4.0920    24.9520    -6.9790 
  295.5000     2.3480    28.4230     4.4580     4.1910     3.9240    25.0050    -6.9320 
  295.6250     2.3480    28.4230     4.4580     4.1900     3.8210    25.0730    -6.8900 
  295.7500     2.3380    28.4230     4.4580     4.1900     3.8100    25.0520    -6.9130 
  295.8750     2.3250    28.4230     4.4580     4.1910     3.8760    25.0140    -6.9420 
  296.0000     2.3140    28.4230     4.4580     4.1910     4.1110    25.1500    -6.9130 
  296.1250     2.3100    28.4230     4.4580     4.1910     4.3350    25.5000    -6.8580 
  296.2500     2.3050    28.4230     4.4580     4.1910     4.4360    25.6480    -6.8380 
  296.3750     2.2980    28.4230     4.4580     4.1910     4.3320    25.6130    -6.8360 
  296.5000     2.2920    28.4230     4.4580     4.1910     4.2510    25.7830    -6.9070 
  296.6250     2.2920    28.4230     4.4580     4.1910     4.3540    25.9850    -7.0010 
  296.7500     2.2970    28.4230     4.4580     4.1910     4.3010    25.9930    -7.0110 
  296.8750     2.3030    28.4230     4.4580     4.1910     4.4000    25.8040    -6.9780 
  297.0000     2.3040    28.4230     4.4580     4.1910     4.6250    25.5900    -6.9510 
  297.1250     2.3050    28.4230     4.4580     4.1910     4.5000    25.5970    -6.9900 
  297.2500     2.3110    28.4230     4.4580     4.1910     4.0890    25.4160    -7.0610 
  297.3750     2.3210    28.4230     4.4580     4.1910     3.8820    25.0850    -7.1460 
