~V
VERS. 2.00: Ver 2.00
~W
STRT.M 56.0000:
STOP.M 261.0000:
STEP.M 0.1250:
NULL. -999.2500:
UWI. F10028:
~C
DEPT.M :
GR.API :
RML.OHMM :
RI. :
RXO.OHMM :
CALI.CM :
DEN.GM/CC :
SP.MV :
~A
# ...
   67.2500    57.8670     9.5400     7.6470     8.3150    24.4880     2.1110   -24.2360 
   67.3750    59.7390     9.4380     7.5350     8.1800    24.4850     2.1050   -24.0110 
   67.5000    59.7730     9.3610     7.4250     8.1990    24.5190     2.0990   -23.8060 
   67.6250    59.9340     9.3070     7.3270     8.0040    24.6220     2.0920   -23.7200 
   67.7500    62.4220     9.2640     7.2420     8.0840    24.7640     2.0900   -23.6600 
   67.8750    65.9400     9.2290     7.1710     8.1480    24.8640     2.0960   -23.6330 
   68.0000    67.3550     9.2060     7.1210     8.2970    24.9700     2.1100   -23.6430 
   68.1250    65.7050     9.2050     7.0910     8.2590    25.1960     2.1290   -23.7810 
   68.2500    64.2350     9.2100     7.0670     8.3620    25.3270     2.1430   -24.0330 
   68.3750    64.4620     9.1860     7.0290     8.5040    25.2110     2.1480   -24.3070 
   68.5000    65.9780     9.0730     6.9510     8.5110    24.9580     2.1430   -24.5420 
   68.6250    67.5820     8.8300     6.8190     8.1800    24.7900     2.1270   -24.7300 
   68.7500    70.4330     8.5990     6.7030     7.8530    24.7240     2.1080   -24.9740 
   68.8750    74.8080     8.6030     6.7240     7.7630    24.7300     2.0990   -25.1850 
   69.0000    77.4680     9.0230     6.9890     7.7680    24.7470     2.1140   -25.3500 
   69.1250    74.7610     9.9430     7.5810     7.8990    24.7470     2.1710   -25.4860 
   69.2500    71.1330    11.0350     8.3410     9.1170    24.7310     2.2520   -25.6090 
   69.3750    69.5290    11.8530     9.0180    12.1330    24.7080     2.3240   -25.7480 
   69.5000    67.7400    11.9310     9.2940    15.1250    24.6700     2.3570   -25.9010 
   69.6250    64.3530    11.0520     8.9350    12.4570    24.7380     2.3290   -26.1000 
   69.7500    63.7250     9.8240     8.2530     9.3600    24.8280     2.2710   -26.2990 
   69.8750    65.3230     8.7590     7.5570     8.2910    24.8880     2.2090   -26.4690 
   70.0000    66.1480     8.1610     7.0710     8.3220    24.9140     2.1650   -26.6190 
   70.1250    67.3890     8.1750     6.9450     8.3670    24.9000     2.1440   -26.7250 
   70.2500    71.5010     8.5330     7.0760     8.4660    24.8580     2.1340   -26.7290 
   70.3750    76.9890     8.9450     7.3070     8.7210    24.8150     2.1290   -26.5860 
   70.5000    80.4470     9.1250     7.4460     8.9430    24.7880     2.1330   -26.3100 
   70.6250    81.3820     8.8360     7.3000     8.9740    24.8170     2.1530   -25.7920 
   70.7500    83.4590     8.1830     6.8920     8.5240    24.8720     2.1870   -24.9210 
   70.8750    89.3030     7.3420     6.3180     7.3790    24.8940     2.2320   -23.7960 
   71.0000    97.6040     6.5250     5.7130     5.7090    24.8600     2.2790   -22.5150 
   71.1250   102.8560     5.9370     5.2190     5.0560    24.8280     2.3160   -21.1420 
   71.2500   103.4550     5.6010     4.8780     4.7750    24.8150     2.3420   -19.8330 
   71.3750   102.8060     5.4850     4.6920     4.6740    24.8340     2.3560   -18.7060 
   71.5000   101.9360     5.5140     4.6210     4.7000    24.8810     2.3630   -17.7470 
   71.6250   100.1890     5.5820     4.6090     4.7260    24.9310     2.3650   -17.0210 
   71.7500    97.7070     5.6070     4.5910     4.7760    24.9330     2.3670   -16.6270 
   71.8750    97.3090     5.5660     4.5450     4.8680    24.8530     2.3700   -16.5610 
   72.0000    99.8410     5.4500     4.4680     4.8720    24.7110     2.3720   -16.7370 
   72.1250   100.0440     5.2870     4.3790     4.8230    24.6520     2.3650   -17.1270 
   72.2500    95.5820     5.2310     4.3620     4.9180    24.6370     2.3480   -17.6490 
   72.3750    88.8530     5.4760     4.5260     5.2350    24.5780     2.3260   -18.2680 
   72.5000    84.0040     6.1690     4.9670     5.7940    24.4140     2.3130   -18.9600 
   72.6250    81.7280     7.4040     5.7760     6.3640    24.2020     2.3180   -19.7810 
   72.7500    77.2220     8.8770     6.8070     8.5730    24.0560     2.3330   -20.6980 
   72.8750    70.6090    10.1090     7.7740    14.3990    23.9510     2.3440   -21.6440 
   73.0000    66.7370    10.5320     8.2550    15.4050    23.8490     2.3400   -22.5990 
   73.1250    68.4380     9.8000     7.9120     9.7210    23.7890     2.3150   -23.3550 
   73.2500    71.3300     8.5540     7.1300     6.9200    23.8670     2.2800   -23.8760 
   73.3750    73.1250     7.3590     6.2900     6.2250    24.1280     2.2420   -24.2450 
   73.5000    74.7260     6.5860     5.6640     6.2910    24.5250     2.2050   -24.5590 
   73.6250    75.5920     6.4610     5.4410     6.4740    24.8280     2.1730   -24.7550 
   73.7500    74.5220     6.8520     5.5860     6.6730    24.9380     2.1520   -24.8250 
   73.8750    71.8770     7.7090     6.0870     6.9560    24.8700     2.1490   -24.6760 
   74.0000    68.0510     9.0270     6.9540     7.6580    24.7030     2.1720   -24.1320 
   74.1250    64.9440    10.8170     8.2480     8.9210    24.5710     2.2150   -23.0970 
   74.2500    63.6400    12.7460     9.7810    10.2350    24.5550     2.2550   -21.8520 
   74.3750    63.4380    14.3840    11.2600    11.3390    24.6100     2.2690   -20.5140 
   74.5000    64.5110    15.2990    12.3070    11.9490    24.6670     2.2510   -19.0950 
   74.6250    67.9060    15.2070    12.5710    11.9880    24.6810     2.2210   -17.6410 
   74.7500    72.8300    14.5870    12.3070    11.2700    24.6700     2.2120   -16.1270 
   74.8750    76.4180    13.8990    11.8250    10.6160    24.6360     2.2400   -14.5930 
   75.0000    75.1340    13.4370    11.3680    10.6150    24.5840     2.2970   -13.2550 
   75.1250    70.3120    13.2550    11.0450    10.8730    24.5040     2.3540   -12.4770 
   75.2500    65.5340    13.1340    10.7810    11.0090    24.4340     2.3880   -12.0900 
   75.3750    63.4430    12.9060    10.4900    11.1260    24.3490     2.3940   -11.8460 
   75.5000    65.3110    12.5190    10.1200    11.2390    24.2450     2.3810   -11.6270 
   75.6250    71.3810    12.0960     9.7120    11.0720    24.1540     2.3640   -11.4540 
   75.7500    77.5460    11.8270     9.3830    10.7930    24.1240     2.3460   -11.4080 
   75.8750    79.2350    11.7790     9.2020    10.6710    24.1790     2.3230   -11.5550 
   76.0000    77.7190    11.8890     9.1620    10.7790    24.3440     2.2860   -11.8460 
   76.1250    78.3680    11.9610     9.1720    10.6640    24.5450     2.2300   -12.1360 
   76.2500    79.9270    11.7890     9.0850    10.6300    24.5600     2.1680   -12.3990 
   76.3750    79.9300    11.3040     8.8230    10.4860    24.5630     2.1150   -12.6190 
   76.5000    78.2370    10.6070     8.4080    10.1300    24.5960     2.0860   -12.7720 
   76.6250    75.2770     9.9370     7.9580     9.5530    24.4480     2.0900   -12.8070 
   76.7500    71.1110     9.4830     7.6000     9.3050    24.2440     2.1110   -12.7920 
   76.8750    67.1970     9.3020     7.3870     9.1580    24.1220     2.1330   -12.8140 
   77.0000    65.4520     9.3450     7.3150     9.4250    24.2200     2.1430   -12.8840 
   77.1250    64.8750     9.4870     7.3370     9.8020    24.6020     2.1400   -12.9480 
   77.2500    63.5040     9.5790     7.3660     9.9290    25.0040     2.1360   -12.9410 
   77.3750    63.4310     9.5730     7.3580     9.7630    25.1560     2.1370   -12.9460 
   77.5000    65.5500     9.4770     7.3000     9.4910    25.1320     2.1440   -13.0360 
   77.6250    65.7350     9.3480     7.2100     9.2390    25.0470     2.1550   -13.2120 
   77.7500    63.5200     9.2560     7.1280     9.0660    24.9340     2.1640   -13.3950 
   77.8750    62.8350     9.2270     7.0790     8.9900    24.7730     2.1710   -13.4870 
   78.0000    65.7120     9.2450     7.0710     8.8850    24.5310     2.1750   -13.5080 
   78.1250    66.6810     9.2870     7.1050     8.7680    24.1950     2.1710   -13.5720 
   78.2500    64.1180     9.3370     7.1610     8.7760    23.9100     2.1570   -13.6710 
   78.3750    62.9790     9.3980     7.2280     8.8480    23.8490     2.1370   -13.7440 
