~V
VERS. 2.00: Ver 2.00
~W
STRT.M 57.0000:
STOP.M 208.0000:
STEP.M 0.1250:
NULL. -999.2500:
UWI. F10012:
~C
DEPT.M :
DEN.GM/CC :
SP.MV :
GR.API :
CALI.CM :
RXO.OHMM :
RI. :
RML.OHMM :
~A
   57.0000     1.9900    57.9810    74.7620    24.9360     2.7640    -0.8390    -0.0600 
   57.1250     2.1010    56.4100    83.5160    24.8650     4.5180    -0.6970     0.0790 
   57.2500     2.1120    53.5150    91.6980    24.9810     8.0830    -0.2620     0.4500 
   57.3750     2.0850    49.4860    95.2370    25.0100    12.6080     0.8370     1.3560 
   57.5000     2.0760    44.4630    94.5330    24.8300    15.9370     3.1600     3.3240 
   57.6250     2.0850    38.2320    92.2960    24.5220    16.6410     7.0090     6.4380 
   57.7500     2.1020    31.2840    90.9630    24.3400    15.9650    10.8300     8.7900 
   57.8750     2.1180    24.3090    92.4380    24.3270    15.2730    13.5060     9.7520 
   58.0000     2.1280    18.1720    95.7320    24.3810    15.1170    15.1470    10.2020 
   58.1250     2.1310    13.4550    98.6260    24.4240    15.5490    16.2700    10.8960 
   58.2500     2.1300     9.7840   100.8910    24.3840    16.0780    17.1950    11.8970 
   58.3750     2.1250     6.9830   101.5700    24.3020    16.4120    17.9220    12.9840 
   58.5000     2.1120     4.7520    98.2460    24.3140    16.4680    18.4410    13.9080 
   58.6250     2.0970     3.0450    91.4480    24.4710    16.3300    18.8140    14.7080 
   58.7500     2.0880     1.6410    85.3650    24.7240    16.1290    19.2280    15.6710 
   58.8750     2.0880     0.4830    84.9750    24.9550    16.3520    19.8100    16.8540 
   59.0000     2.0910    -0.4390    86.1420    25.0980    17.2510    20.6120    18.0440 
   59.1250     2.0930    -1.1970    85.2320    25.1320    18.4520    21.6130    18.9580 
   59.2500     2.0910    -1.8480    82.1440    25.1560    19.4660    22.6400    19.7040 
   59.3750     2.0860    -2.4490    79.8530    25.1810    20.2560    23.5400    20.3810 
   59.5000     2.0790    -2.9950    80.0990    25.2020    20.8750    24.1960    21.0400 
   59.6250     2.0730    -3.4620    81.3200    25.1980    21.3380    24.5160    21.5820 
   59.7500     2.0740    -3.9100    83.7670    25.1420    21.3520    24.5790    21.8160 
   59.8750     2.0810    -4.3720    86.5320    25.0070    20.8900    24.4550    21.7230 
   60.0000     2.0860    -4.8430    85.7870    24.8830    20.3930    24.2560    21.5350 
   60.1250     2.0860    -5.2540    80.3020    24.8770    20.1980    24.1680    21.6090 
   60.2500     2.0980    -5.6330    75.4450    25.0080    20.2620    24.3800    22.0890 
   60.3750     2.1430    -6.0040    76.2830    25.0520    20.3130    25.0570    23.0270 
   60.5000     2.2100    -6.3620    77.9050    25.0720    20.4020    26.2880    24.5070 
   60.6250     2.2690    -6.7450    77.7910    25.1010    20.7930    28.0140    26.5470 
   60.7500     2.2810    -7.1520    78.1440    25.1430    21.4010    29.7240    28.6320 
   60.8750     2.2270    -7.5090    80.0470    25.1560    21.7810    30.8380    30.0320 
   61.0000     2.1500    -7.8450    81.1340    25.1600    21.6510    30.8840    30.0960 
   61.1250     2.0940    -8.2270    81.5850    25.1590    21.0430    29.6960    28.5960 
   61.2500     2.0730    -8.6220    83.6120    25.1300    20.3620    27.9760    26.5260 
   61.3750     2.0730    -8.9530    84.7900    25.0490    19.7950    26.2750    24.7370 
   61.5000     2.0720    -9.2410    81.9270    25.0060    19.4440    24.9820    23.7090 
   61.6250     2.0680    -9.5100    76.6730    25.1150    19.8150    24.3810    23.5820 
   61.7500     2.0660    -9.7170    73.5450    25.2850    20.7130    24.3620    23.9610 
   61.8750     2.0690    -9.9380    73.4380    25.4080    21.8180    24.7930    24.5400 
   62.0000     2.0720   -10.1690    73.4780    25.4780    22.7720    25.4720    25.0830 
   62.1250     2.0710   -10.3700    73.2070    25.5340    23.3520    26.1160    25.4080 
   62.2500     2.0660   -10.5320    72.4800    25.5260    23.8380    26.4860    25.5000 
   62.3750     2.0600   -10.7530    73.0400    25.4120    24.1230    26.4600    25.3800 
   62.5000     2.0580   -11.0290    75.4700    25.2380    23.9240    26.0280    25.0640 
   62.6250     2.0670   -11.3220    77.4650    25.0130    22.9890    25.2540    24.5370 
   62.7500     2.0860   -11.6420    77.7360    24.8660    21.5740    24.3640    23.8560 
   62.8750     2.1090   -11.9120    79.1250    25.0030    20.3880    23.4810    23.0460 
   63.0000     2.1230   -12.1880    82.9520    25.0810    19.7930    22.6580    22.1490 
   63.1250     2.1230   -12.4090    84.6410    25.0300    19.4730    21.8760    21.2780 
   63.2500     2.1070   -12.6610    82.7880    24.8490    19.1660    21.0890    20.5170 
   63.3750     2.0870   -12.9350    81.5650    24.8170    18.5010    20.3110    19.9050 
   63.5000     2.0760   -13.1390    81.9560    24.9150    17.4300    19.6280    19.4640 
   63.6250     2.0750   -13.2800    81.3460    24.9900    16.6000    19.2210    19.2970 
   63.7500     2.0750   -13.3770    79.5310    25.0950    16.4890    19.1580    19.4590 
   63.8750     2.0690   -13.4890    79.7460    25.2190    16.9780    19.4580    19.9900 
   64.0000     2.0630   -13.5660    82.9940    25.2720    17.7360    20.0650    20.8700 
   64.1250     2.0570   -13.6640    85.5800    25.2290    18.6440    20.8660    21.9680 
   64.2500     2.0530   -13.7520    82.8340    25.2160    19.4460    21.6590    22.9610 
   64.3750     2.0580   -13.7590    75.9980    25.3620    20.0620    22.3190    23.6400 
   64.5000     2.0710   -13.8160    73.0110    25.6330    20.5540    22.7820    23.9770 
   64.6250     2.0800   -13.9290    75.5140    25.8350    20.9020    23.0300    24.0980 
   64.7500     2.0670   -14.0420    78.5570    25.7180    21.1170    23.1620    24.2910 
   64.8750     2.0360   -14.2050    78.1420    25.2980    21.0860    23.2430    24.7260 
   65.0000     2.0200   -14.4570    76.7040    25.0030    20.9840    23.3200    25.4190 
   65.1250     2.0340   -14.7440    75.4390    24.8020    20.9620    23.4260    26.2210 
   65.2500     2.0630   -15.0400    75.3810    24.6220    20.9990    23.5640    26.9020 
   65.3750     2.0770   -15.3860    77.8850    24.4760    21.1300    23.7230    27.3610 
   65.5000     2.0730   -15.6650    79.2940    24.4080    21.4770    23.8780    27.6190 
   65.6250     2.0640   -15.9270    76.4680    24.4070    21.8680    23.9670    27.7240 
   65.7500     2.0640   -16.2410    71.9000    24.4070    22.0410    23.9490    27.7120 
   65.8750     2.0710   -16.5600    72.9800    24.3650    21.9720    23.8100    27.5410 
   66.0000     2.0740   -16.8300    77.3130    24.3140    21.6980    23.5880    27.2140 
   66.1250     2.0700   -17.1210    79.0080    24.2700    21.0490    23.3910    26.8190 
   66.2500     2.0620   -17.4460    76.7330    24.2520    20.0310    23.3350    26.5450 
   66.3750     2.0580   -17.7980    74.8950    24.2210    19.2680    23.4840    26.5350 
   66.5000     2.0600   -18.2150    75.0790    24.2140    19.6360    23.8060    26.7960 
   66.6250     2.0690   -18.6070    75.8660    24.2020    21.0010    24.0520    27.0370 
   66.7500     2.0850   -19.0050    76.6870    24.1220    22.0840    23.8470    26.7590 
   66.8750     2.1060   -19.4670    78.8750    23.9760    22.1230    22.9320    25.6450 
   67.0000     2.1260   -19.9530    83.3970    23.8520    20.7940    21.3440    23.7890 
   67.1250     2.1430   -20.4120    89.6680    23.7710    18.1920    19.3600    21.6010 
   67.2500     2.1590   -20.8830    94.8680    23.6680    15.3800    17.3510    19.5250 
   67.3750     2.1890   -21.3230    95.6230    23.5140    13.7150    15.4370    17.6370 
   67.5000     2.2320   -21.7100    94.9230    23.3670    13.5420    13.6250    15.8220 
   67.6250     2.2690   -22.0450    97.1310    23.2850    13.8900    11.9500    14.0170 
   67.7500     2.2720   -22.2590   100.5080    23.2180    12.3110    10.5290    12.4550 
   67.8750     2.2310   -22.3170   102.2210    23.1690     9.6610     9.5720    11.5230 
   68.0000     2.1770   -22.3200   102.9050    23.1700     8.0350     9.2620    11.5270 
   68.1250     2.1340   -22.2440   103.5450    23.2470     8.3520     9.8160    12.6720 
