~V
VERS. 2.00: Ver 2.00
~W
STRT.M 50.0000:
STOP.M 307.0000:
STEP.M 0.1250:
NULL. -999.2500:
UWI. F10044:
~C
DEPT.M :
GR.API :
RML.OHMM :
RI. :
RXO.OHMM :
CALI.CM :
DEN.GM/CC :
SP.MV :
~A
# ...
  196.2500    46.3240    20.7580    19.7560    22.6470    23.8460     2.5500    -4.5680 
  196.3750    46.7160    20.5970    19.7460    22.7060    23.7830     2.5460    -4.5760 
  196.5000    48.3000    20.2370    19.5410    22.7810    23.6960     2.5480    -4.5780 
  196.6250    53.0780    19.7500    19.1730    22.2110    23.5980     2.5560    -4.5990 
  196.7500    56.2380    19.3070    18.7940    21.0360    23.5250     2.5670    -4.6600 
  196.8750    55.6540    19.0480    18.5380    19.4780    23.4890     2.5770    -4.7490 
  197.0000    53.1460    19.0740    18.5100    18.4540    23.4810     2.5820    -4.8340 
  197.1250    51.2610    19.4330    18.7810    19.4360    23.4820     2.5830    -4.9390 
  197.2500    49.8720    19.9650    19.2360    21.1890    23.4810     2.5800    -5.0840 
  197.3750    48.3780    20.5140    19.7500    22.8490    23.4810     2.5760    -5.2610 
  197.5000    47.8560    20.9310    20.1870    23.7710    23.4790     2.5700    -5.4320 
  197.6250    47.8330    21.0670    20.3950    23.8660    23.4810     2.5640    -5.5980 
  197.7500    47.5200    20.9320    20.3560    24.2320    23.4910     2.5580    -5.8010 
  197.8750    47.3560    20.5690    20.0920    24.4860    23.5070     2.5530    -6.0320 
  198.0000    48.3850    20.0760    19.6810    24.0150    23.5350     2.5500    -6.2440 
  198.1250    49.8410    19.6250    19.2640    22.4100    23.5410     2.5500    -6.3950 
  198.2500    49.0590    19.3920    19.0040    20.4470    23.4850     2.5520    -6.5520 
  198.3750    46.4500    19.4910    19.0150    18.9170    23.3670     2.5550    -6.7550 
  198.5000    43.5270    19.9370    19.3370    18.7180    23.2310     2.5560    -6.9640 
  198.6250    41.1960    20.6230    19.9210    20.3190    23.1200     2.5540    -7.0790 
  198.7500    41.4360    21.2590    20.5220    22.5260    23.0240     2.5520    -7.1140 
  198.8750    44.8430    21.6210    20.9280    23.6330    22.9090     2.5500    -7.1350 
  199.0000    49.4180    21.5830    20.9880    22.9720    22.7810     2.5470    -7.1960 
  199.1250    50.8410    21.1400    20.6400    21.2820    22.7260     2.5410    -7.2280 
  199.2500    49.7170    20.5610    20.1060    19.9590    22.7980     2.5340    -7.1780 
  199.3750    48.4990    20.0620    19.5880    19.1180    23.0030     2.5300    -7.0720 
  199.5000    49.3190    19.7850    19.2370    18.7890    23.3110     2.5310    -6.9950 
  199.6250    52.0550    19.7750    19.1330    18.6820    23.6270     2.5390    -6.9660 
  199.7500    54.0720    19.8960    19.1800    18.2640    23.8320     2.5500    -6.9460 
  199.8750    53.4420    20.0280    19.2820    17.9140    23.8820     2.5590    -6.9310 
  200.0000    51.1890    20.0650    19.3410    17.7260    23.8290     2.5610    -6.9460 
  200.1250    49.4740    19.8930    19.2450    17.8520    23.7410     2.5580    -7.0420 
  200.2500    48.3930    19.5220    18.9720    18.0360    23.6300     2.5520    -7.1530 
  200.3750    46.5660    18.9960    18.5380    18.5200    23.4900     2.5480    -7.2560 
  200.5000    44.5010    18.4050    18.0000    19.1610    23.3320     2.5470    -7.3550 
  200.6250    45.5800    17.8880    17.4700    18.6980    23.1990     2.5470    -7.4770 
  200.7500    50.1050    17.5420    17.0590    17.2470    23.1170     2.5470    -7.5900 
  200.8750    55.1390    17.3830    16.8080    15.9760    23.0830     2.5460    -7.6610 
  201.0000    56.7460    17.3260    16.6740    15.7680    23.0730     2.5430    -7.6660 
  201.1250    54.4080    17.1570    16.4870    16.6700    23.0700     2.5370    -7.6400 
  201.2500    52.1480    16.6900    16.0680    18.0820    23.0690     2.5270    -7.6420 
  201.3750    51.9960    15.8590    15.3250    19.3640    23.0640     2.5140    -7.6390 
  201.5000    53.3950    14.7490    14.3040    19.4160    23.0410     2.5000    -7.5740 
  201.6250    54.6060    13.6180    13.2040    17.5930    22.9830     2.4900    -7.4740 
  201.7500    54.9300    12.7530    12.2900    14.8540    22.8930     2.4860    -7.4130 
  201.8750    53.6210    12.3000    11.7150    12.5290    22.7800     2.4890    -7.3790 
  202.0000    50.5060    12.2760    11.5320    11.6480    22.6590     2.4950    -7.3180 
  202.1250    49.1500    12.6160    11.7360    11.9390    22.5820     2.5020    -7.1950 
  202.2500    52.1890    13.0790    12.1260    12.5600    22.5680     2.5060    -7.0740 
  202.3750    57.7200    13.4940    12.5360    13.1040    22.5980     2.5080    -6.9900 
  202.5000    61.4630    13.7280    12.8200    13.4110    22.6640     2.5080    -6.9270 
  202.6250    61.0110    13.6730    12.8540    13.4540    22.7880     2.5060    -6.8310 
  202.7500    58.4160    13.4140    12.6960    13.4590    22.9810     2.5050    -6.7230 
  202.8750    54.1710    13.0750    12.4500    13.3140    23.2280     2.5050    -6.6510 
  203.0000    50.2660    12.8260    12.2550    13.0800    23.4780     2.5060    -6.6280 
  203.1250    50.6890    12.8840    12.2800    13.0720    23.6350     2.5090    -6.6210 
  203.2500    54.6580    13.2740    12.5650    13.4190    23.6600     2.5140    -6.6220 
  203.3750    59.7870    13.9180    13.0660    14.2230    23.5690     2.5190    -6.6560 
  203.5000    63.2510    14.6030    13.6330    15.2840    23.4060     2.5200    -6.7080 
  203.6250    63.2240    14.9570    13.9650    15.8190    23.2470     2.5130    -6.7580 
  203.7500    61.5980    14.7790    13.8580    15.8110    23.1600     2.4970    -6.7840 
  203.8750    60.6620    14.0490    13.2550    15.1710    23.1660     2.4770    -6.7780 
  204.0000    60.3490    12.9510    12.2900    13.8290    23.2320     2.4570    -6.7440 
  204.1250    57.6040    11.8350    11.2470    11.8220    23.3080     2.4450    -6.7120 
  204.2500    54.3260    11.0140    10.4160    10.3270    23.3540     2.4430    -6.6590 
  204.3750    53.4660    10.6070     9.9230     9.8120    23.3370     2.4490    -6.5780 
  204.5000    54.2670    10.5970     9.7860     9.8470    23.2610     2.4580    -6.5430 
  204.6250    53.7270    10.9020     9.9810    10.0770    23.1630     2.4660    -6.5830 
  204.7500    52.4000    11.3130    10.3380    10.3570    23.0770     2.4710    -6.6160 
  204.8750    50.0870    11.7010    10.7380    10.7240    23.0000     2.4730    -6.6090 
  205.0000    47.6400    11.9850    11.0880    11.1520    22.9330     2.4740    -6.6100 
  205.1250    47.4980    12.1240    11.3200    11.5470    22.8830     2.4760    -6.6480 
  205.2500    49.3870    12.1830    11.4600    11.8630    22.8420     2.4800    -6.6710 
  205.3750    51.4440    12.2290    11.5440    12.1340    22.8120     2.4870    -6.6210 
  205.5000    54.2450    12.3230    11.6210    12.2010    22.7980     2.4930    -6.4880 
  205.6250    57.3540    12.5130    11.7290    12.0980    22.7970     2.4980    -6.3340 
  205.7500    57.4050    12.7550    11.8620    12.1200    22.8040     2.5010    -6.2130 
  205.8750    54.1180    12.9790    11.9830    12.2760    22.8180     2.5020    -6.0970 
  206.0000    52.2620    13.1070    12.0490    12.5050    22.8400     2.5030    -5.9330 
  206.1250    55.0240    13.0760    12.0140    12.6730    22.8680     2.5020    -5.7420 
  206.2500    57.7540    12.9490    11.9090    12.5830    22.8940     2.4990    -5.6060 
  206.3750    58.1730    12.8190    11.7960    12.3340    22.9130     2.4950    -5.5340 
  206.5000    56.5730    12.7960    11.7500    12.2610    22.9170     2.4890    -5.4750 
  206.6250    55.5620    12.9900    11.8680    12.5860    22.9080     2.4830    -5.4110 
  206.7500    55.9670    13.3570    12.1400    13.0890    22.8910     2.4790    -5.3800 
  206.8750    55.9920    13.8110    12.5200    13.4720    22.8740     2.4810    -5.4050 
  207.0000    55.1880    14.2550    12.9340    13.7800    22.8640     2.4890    -5.4630 
  207.1250    55.3680    14.6330    13.3260    13.8460    22.8620     2.5010    -5.4920 
  207.2500    56.5000    15.0050    13.7140    13.8410    22.8620     2.5140    -5.5210 
  207.3750    56.1590    15.4600    14.1550    13.7210    22.8640     2.5240    -5.5680 
