~V
VERS. 2.00: Ver 2.00
~W
STRT.M 63.0000:
STOP.M 195.0000:
STEP.M 0.1250:
NULL. -999.2500:
UWI. F10020:
~C
DEPT.M :
GR.API :
CALI.CM :
RXO.OHMM :
RI. :
RML.OHMM :
DEN.GM/CC :
SP.MV :
~A
# ...
  141.7500    72.5170    24.3700    82.1800    78.6480    82.7990     2.1840   -28.9930 
  141.8750    74.7010    24.3500    91.0350    79.6730    84.0860     2.1880   -28.9770 
  142.0000    71.8370    24.3600    96.0830    79.9070    84.9200     2.1940   -28.9260 
  142.1250    69.0950    24.4170    94.0340    78.6610    84.5280     2.1870   -28.8930 
  142.2500    70.0380    24.4440    88.5130    76.4450    83.0770     2.1700   -28.9320 
  142.3750    72.7960    24.4460    81.1930    73.9910    81.1310     2.1530   -28.9440 
  142.5000    73.9740    24.4430    76.1380    71.9870    79.4210     2.1440   -28.9870 
  142.6250    71.7260    24.4410    77.4690    70.8590    78.5250     2.1410   -29.0160 
  142.7500    68.8820    24.4420    81.2620    70.2690    78.1860     2.1420   -29.0660 
  142.8750    66.8070    24.4430    84.1010    69.7390    77.8910     2.1470   -29.1580 
  143.0000    66.6860    24.4460    83.5720    68.7260    77.0290     2.1480   -29.3040 
  143.1250    68.8870    24.4470    78.7920    66.8220    75.0910     2.1350   -29.4570 
  143.2500    71.3380    24.4480    72.6010    64.4220    72.4900     2.1170   -29.5700 
  143.3750    71.6570    24.4510    65.4050    62.0390    69.8110     2.1150   -29.7280 
  143.5000    69.5490    24.4260    57.4850    60.1790    67.6430     2.1380   -29.9020 
  143.6250    68.3530    24.3360    52.9190    59.3520    66.5810     2.1820   -30.0870 
  143.7500    68.4680    24.1990    57.4130    59.4590    66.5490     2.2220   -30.2530 
  143.8750    69.5170    24.1370    65.8440    60.2820    67.3360     2.2430   -30.3830 
  144.0000    71.6210    24.1830    71.6810    61.4750    68.6520     2.2380   -30.5120 
  144.1250    73.3890    24.2800    73.3340    62.5070    70.1390     2.2130   -30.6240 
  144.2500    72.5460    24.3250    74.6520    62.8830    71.2770     2.1870   -30.7320 
  144.3750    69.6670    24.3470    75.4850    62.4340    71.7150     2.1700   -30.8030 
  144.5000    67.8580    24.4000    76.7120    61.4030    71.3940     2.1640   -30.8660 
  144.6250    66.3930    24.4300    75.2280    60.3070    70.4670     2.1610   -30.9060 
  144.7500    64.9050    24.4410    69.2210    59.6260    69.4490     2.1590   -30.9300 
  144.8750    66.0850    24.4400    65.4150    59.6030    68.8200     2.1630   -30.9410 
  145.0000    69.6650    24.4420    67.8930    60.2430    68.9170     2.1740   -30.9330 
  145.1250    72.5070    24.4440    73.7570    61.3000    69.7410     2.1760   -30.8920 
  145.2500    72.4620    24.4470    78.2950    62.3000    70.7540     2.1600   -30.8390 
  145.3750    70.9530    24.4460    81.9130    62.9480    71.5250     2.1380   -30.7760 
  145.5000    69.5310    24.4430    83.8870    63.1340    71.7740     2.1290   -30.7010 
  145.6250    69.5430    24.4440    81.6900    63.1180    71.6230     2.1390   -30.6220 
  145.7500    71.7500    24.4470    78.6050    63.4740    71.7620     2.1530   -30.5430 
  145.8750    74.5680    24.4610    77.5890    64.4960    72.6480     2.1600   -30.4680 
  146.0000    75.5460    24.4850    79.5480    66.1110    74.3190     2.1560   -30.3960 
  146.1250    74.6130    24.4920    81.7040    67.8610    76.3870     2.1450   -30.3440 
  146.2500    72.3770    24.4690    83.3880    68.9680    77.9700     2.1330   -30.3080 
  146.3750    69.4530    24.4240    82.5140    68.7500    78.2340     2.1230   -30.2990 
  146.5000    67.6230    24.3440    79.4350    66.9760    76.7620     2.1250   -30.3050 
  146.6250    67.1710    24.2310    74.1650    64.0600    73.7600     2.1490   -30.3320 
  146.7500    65.6300    24.0700    66.0210    61.1270    70.4430     2.1900   -30.4020 
  146.8750    63.7770    23.8820    57.6370    58.8860    67.6830     2.2290   -30.5140 
  147.0000    65.5900    23.7690    55.2560    57.7490    66.0530     2.2460   -30.6770 
  147.1250    71.8880    23.9590    61.3240    57.8960    65.8130     2.2330   -30.8190 
  147.2500    75.1240    24.1710    68.3240    58.7310    66.3080     2.2070   -30.9760 
  147.3750    74.5550    24.2690    72.6460    59.7320    66.9900     2.1830   -31.1330 
  147.5000    74.0990    24.3280    74.1450    60.4250    67.3830     2.1700   -31.2990 
  147.6250    74.1900    24.3480    72.7050    60.4560    67.1150     2.1680   -31.4730 
  147.7500    72.6710    24.3310    70.4430    60.1420    66.4570     2.1640   -31.6280 
  147.8750    71.7540    24.3030    69.3910    60.0010    65.8730     2.1540   -31.7570 
  148.0000    72.0480    24.2760    70.1080    60.5150    65.8250     2.1440   -31.8050 
  148.1250    70.4970    24.1960    71.7840    62.0990    66.7790     2.1390   -31.8660 
  148.2500    67.0860    23.9700    75.6110    64.6960    68.8150     2.1330   -31.8790 
  148.3750    66.6060    23.6140    80.3420    68.3380    72.0350     2.1270   -31.8360 
  148.5000    69.7380    23.3800    84.0800    72.8830    76.2990     2.1250   -31.7380 
  148.6250    73.5500    23.4720    88.6300    77.7640    81.0220     2.1360   -31.5720 
  148.7500    76.0970    23.7650    97.2780    81.7790    84.9850     2.1530   -31.3600 
  148.8750    75.9090    24.0590   105.9250    83.4810    86.9010     2.1670   -31.1160 
  149.0000    72.0930    24.2070   105.5530    81.5510    85.6330     2.1740   -30.9270 
  149.1250    67.8090    24.2260    92.2950    75.1980    80.1610     2.1780   -30.7590 
  149.2500    67.7100    24.2230    79.1750    66.6370    71.9980     2.1850   -30.6680 
  149.3750    70.7720    24.2190    69.9260    57.9180    62.8570     2.1940   -30.6360 
  149.5000    71.8910    24.2220    59.4860    50.6070    54.5380     2.2050   -30.6710 
  149.6250    71.4370    24.2210    47.6510    45.7850    48.6790     2.2120   -30.8100 
  149.7500    73.8870    24.2220    41.9830    42.9790    45.1720     2.2150   -31.0120 
  149.8750    77.4800    24.2180    42.0250    41.6770    43.5510     2.2140   -31.2840 
  150.0000    76.7800    24.2120    43.9400    41.2310    43.0970     2.2130   -31.5550 
  150.1250    73.1600    24.2020    45.3120    40.9120    42.9790     2.2160   -31.8570 
  150.2500    74.7350    24.1910    44.1650    40.1050    42.4200     2.2250   -32.1230 
  150.3750    80.7850    24.2000    41.2350    38.6230    41.1110     2.2370   -32.3970 
  150.5000    84.7210    24.2110    37.5630    36.6590    39.1550     2.2460   -32.6590 
  150.6250    82.8180    24.2080    35.3790    34.7150    36.9910     2.2510   -32.8680 
  150.7500    79.4630    24.1840    34.8090    33.2360    35.1280     2.2560   -33.0380 
  150.8750    77.9350    24.1620    34.6860    32.4670    33.8340     2.2610   -33.1340 
  151.0000    78.8390    24.1560    34.7510    32.5140    33.2500     2.2620   -33.1720 
  151.1250    79.8550    24.1680    35.4160    33.4490    33.5460     2.2570   -33.0860 
  151.2500    79.2590    24.1590    36.8860    34.9590    34.5670     2.2500   -32.9670 
  151.3750    78.4350    24.1180    40.0560    36.8310    36.2420     2.2440   -32.7800 
  151.5000    78.1420    24.0870    43.4610    38.8450    38.4850     2.2350   -32.5560 
  151.6250    77.5420    24.0780    45.3090    41.0290    41.3280     2.2220   -32.3330 
  151.7500    76.4840    24.0760    47.5550    43.7250    44.7750     2.2200   -32.1230 
  151.8750    75.7080    24.0740    53.3510    47.4130    49.0660     2.2510   -31.9580 
  152.0000    75.2730    24.0740    63.9580    52.3910    54.3920     2.3220   -31.8120 
  152.1250    74.4420    24.0740    78.2260    58.1440    60.1950     2.4160   -31.7260 
  152.2500    73.1350    24.0760    91.4600    61.8140    64.0380     2.4980   -31.6410 
  152.3750    70.7210    24.0750    99.1870    59.3080    62.4670     2.5540   -31.5510 
  152.5000    68.0500    24.0760    95.7690    48.9360    53.2520     2.5860   -31.4330 
  152.6250    66.2880    24.0730    72.8080    34.8150    38.5780     2.6020   -31.2000 
  152.7500    66.3870    24.0480    42.0270    22.9580    25.1580     2.6120   -30.8290 
  152.8750    70.6330    23.9780    19.2040    14.7500    15.6490     2.6080   -30.3350 
