~V
VERS. 2.00: Ver 2.00
~W
STRT.M 57.0000:
STOP.M 307.0000:
STEP.M 0.1250:
NULL. -999.2500:
UWI. F10042:
~C
DEPT.M :
GR.API :
RML.OHMM :
RI. :
RXO.OHMM :
CALI.CM :
DEN.GM/CC :
SP.MV :
~A
# ...
  293.2500    33.2640     4.3750     3.4220     3.9020    26.2890     2.2930   -15.0880 
  293.3750    36.2790     4.4230     3.4670     3.9570    26.2790     2.2870   -15.0840 
  293.5000    39.2430     4.4660     3.4980     4.0550    26.1530     2.2840   -15.0780 
  293.6250    39.7240     4.4960     3.5160     4.0050    25.9970     2.2860   -15.0110 
  293.7500    38.1600     4.5210     3.5390     3.9340    25.8770     2.2940   -14.9150 
  293.8750    37.1750     4.5540     3.5830     3.8450    25.8110     2.3110   -14.8530 
  294.0000    37.9270     4.6050     3.6490     3.9580    25.7160     2.3340   -14.8320 
  294.1250    40.4140     4.6730     3.7200     4.3190    25.5590     2.3530   -14.7720 
  294.2500    42.8320     4.7350     3.7620     4.4630    25.3710     2.3630   -14.6520 
  294.3750    43.7560     4.7630     3.7470     4.0480    25.2000     2.3600   -14.5020 
  294.5000    42.4060     4.7340     3.6680     3.5760    25.1170     2.3500   -14.3530 
  294.6250    40.1550     4.6380     3.5370     3.3980    25.1520     2.3390   -14.2080 
  294.7500    38.8590     4.5050     3.3960     3.4000    25.2270     2.3300   -14.0860 
  294.8750    37.3810     4.3650     3.2730     3.3580    25.3540     2.3260   -13.9600 
  295.0000    34.8450     4.2430     3.1850     3.2440    25.5310     2.3270   -13.8200 
  295.1250    32.7560     4.1620     3.1400     3.1980    25.6160     2.3300   -13.7060 
  295.2500    31.8550     4.1160     3.1230     3.2290    25.5840     2.3340   -13.6040 
  295.3750    31.4160     4.0990     3.1240     3.3350    25.5600     2.3380   -13.5230 
  295.5000    30.6210     4.0990     3.1330     3.4610    25.5740     2.3420   -13.4610 
  295.6250    29.9280     4.1080     3.1440     3.5330    25.5380     2.3500   -13.4000 
  295.7500    29.8390     4.1210     3.1580     3.5410    25.5230     2.3580   -13.3350 
  295.8750    30.7250     4.1380     3.1770     3.5150    25.4730     2.3600   -13.3050 
  296.0000    31.6920     4.1600     3.2020     3.4410    25.3420     2.3520   -13.2950 
  296.1250    31.9480     4.1830     3.2210     3.4940    25.2900     2.3350   -13.2500 
  296.2500    31.9770     4.1940     3.2180     3.5410    25.4670     2.3210   -13.2580 
  296.3750    32.6560     4.1830     3.1830     3.4240    25.6300     2.3140   -13.3160 
  296.5000    34.0170     4.1400     3.1160     3.2530    25.6660     2.3140   -13.3410 
  296.6250    34.0170     4.0660     3.0310     3.1780    25.6580     2.3130   -13.4430 
  296.7500    34.0170     3.9810     2.9510     3.1760    25.6960     2.3050   -13.5940 
  296.8750    34.0170     3.9050     2.8950     3.1990    25.8320     2.2960   -13.6560 
  297.0000    34.0170     3.8520     2.8710     3.2350    25.8640     2.2920   -13.7010 
  297.1250    34.0170     3.8340     2.8760     3.2560    25.6750     2.2960   -13.8300 
  297.2500    34.0170     3.8390     2.8950     3.3260    25.4520     2.3020   -13.9330 
  297.3750    34.0170     3.8560     2.9160     3.4270    25.3290     2.3030   -14.0320 
  297.5000    34.0170     3.8790     2.9370     3.4960    25.2370     2.3010   -14.1460 
  297.6250    34.0170     3.9030     2.9610     3.4430    25.2070     2.2990   -14.2560 
  297.7500    34.0170     3.9330     2.9970     3.4530    25.2260     2.2980   -14.3660 
  297.8750    34.0170     3.9760     3.0510     3.5920    25.2150     2.2980   -14.5750 
  298.0000    34.0170     4.0380     3.1250     3.7800    25.2160     2.2950   -14.7850 
  298.1250    34.0170     4.1200     3.2130     3.9590    25.3000     2.2880   -14.9430 
  298.2500    34.0170     4.2120     3.3050     4.1490    25.3430     2.2830   -15.0940 
  298.3750    34.0170     4.3060     3.3890     4.2360    25.3190     2.2830   -15.2410 
  298.5000    34.0170     4.3900     3.4560     4.2530    25.2880     2.2870   -15.3700 
  298.6250    34.0170     4.4550     3.5010     4.2810    25.2290     2.2950   -15.4000 
  298.7500    34.0170     4.5020     3.5300     4.2710    25.1540     2.3020   -15.4100 
  298.8750    34.0170     4.5310     3.5460     4.1720    25.1530     2.3070   -15.3800 
  299.0000    34.0170     4.5460     3.5480     3.9620    25.1730     2.3100   -15.3570 
  299.1250    34.0170     4.5400     3.5290     3.9800    25.1180     2.3100   -15.3820 
  299.2500    34.0170     4.5140     3.4870     4.1290    25.0980     2.3080   -15.4470 
  299.3750    34.0170     4.4650     3.4210     4.0110    25.1070     2.3070   -15.4970 
  299.5000    34.0170     4.3940     3.3380     3.8330    25.0920     2.3070   -15.5300 
  299.6250    34.0170     4.3030     3.2450     3.7370    25.1320     2.3130   -15.5970 
  299.7500    34.0170     4.2080     3.1570     3.6760    25.1590     2.3240   -15.6500 
  299.8750    34.0170     4.1180     3.0810     3.5650    25.1470     2.3390   -15.6930 
  300.0000    34.0170     4.0420     3.0250     3.4820    25.1680     2.3520   -15.7430 
  300.1250    34.0170     3.9900     2.9950     3.5280    25.1660     2.3560   -15.7310 
  300.2500    34.0170     3.9600     2.9840     3.6460    25.1190     2.3500   -15.7160 
  300.3750    34.0170     3.9520     2.9930     3.7140    25.1150     2.3370   -15.7060 
  300.5000    34.0170     3.9640     3.0180     3.7190    25.1170     2.3220   -15.6760 
  300.6250    34.0170     3.9980     3.0650     3.7750    25.0800     2.3110   -15.6980 
  300.7500    34.0170     4.0520     3.1310     3.9910    25.0970     2.3030   -15.7360 
  300.8750    34.0170     4.1230     3.2100     4.2600    25.1300     2.2990   -15.7550 
  301.0000    34.0170     4.2030     3.2860     4.3350    25.1020     2.2980   -15.7960 
  301.1250    34.0170     4.2750     3.3390     4.3780    25.1160     2.2990   -15.8790 
  301.2500    34.0170     4.3240     3.3620     4.2690    25.1610     2.3030   -15.9190 
  301.3750    34.0170     4.3420     3.3530     3.9660    25.1420     2.3100   -15.9740 
  301.5000    34.0170     4.3320     3.3240     3.8500    25.1080     2.3200   -16.0960 
  301.6250    34.0170     4.3030     3.2900     3.8950    25.1330     2.3330   -16.1900 
  301.7500    34.0170     4.2710     3.2650     3.9560    25.1470     2.3450   -16.3120 
  301.8750    34.0170     4.2470     3.2520     3.8650    25.1160     2.3530   -16.4480 
  302.0000    34.0170     4.2350     3.2510     3.7410    25.1260     2.3550   -16.5210 
  302.1250    34.0170     4.2350     3.2580     3.6780    25.1170     2.3530   -16.5410 
  302.2500    34.0170     4.2410     3.2650     3.6610    25.0690     2.3490   -16.5780 
  302.3750    34.0170     4.2470     3.2700     3.6450    25.0820     2.3450   -16.6200 
  302.5000    34.0170     4.2520     3.2710     3.6820    25.1330     2.3410   -16.6340 
  302.6250    34.0170     4.2530     3.2710     4.1150    25.0890     2.3370   -16.6260 
  302.7500    34.0170     4.2540     3.2710     4.5050    25.0310     2.3330   -16.5410 
  302.8750    34.0170     4.2540     3.2710     4.3630    25.0370     2.3310   -16.4420 
  303.0000    34.0170     4.2540     3.2710     3.7350    25.0230     2.3320   -16.3550 
  303.1250    34.0170     4.2540     3.2710     3.3780    25.0000     2.3340   -16.3320 
  303.2500    34.0170     4.2540     3.2710     3.3490    25.0210     2.3350   -16.3250 
  303.3750    34.0170     4.2540     3.2710     3.3240    25.0480     2.3330   -16.3130 
  303.5000    34.0170     4.2540     3.2710     3.3120    25.0480     2.3320   -16.2820 
  303.6250    34.0170     4.2540     3.2710     3.4040    25.0760     2.3350   -16.2850 
  303.7500    34.0170     4.2540     3.2710     3.5450    25.1480     2.3470   -16.3520 
  303.8750    34.0170     4.2540     3.2710     3.6190    25.1550     2.3650   -16.4430 
  304.0000    34.0170     4.2540     3.2710     3.8320    25.1140     2.3830   -16.5280 
  304.1250    34.0170     4.2540     3.2710     4.4370    25.1510     2.3870   -16.5960 
  304.2500    34.0170     4.2540     3.2710     5.3620    25.1560     2.3760   -16.6710 
  304.3750    34.0170     4.2540     3.2710     6.4460    25.0510     2.3530   -16.7610 
