~V
VERS. 2.00: Ver 2.00
~W
STRT.M 50.0000:
STOP.M 279.0000:
STEP.M 0.1250:
NULL. -999.2500:
UWI. F10075:
~C
DEPT.M :
GR.API :
RML.OHMM :
RI. :
RXO.OHMM :
CALI.CM :
DEN.GM/CC :
SP.MV :
~A
# ...
  151.2500    69.7200    12.4620    10.5510    11.8950    23.4600     2.1100   -11.8240 
  151.3750    69.9100    12.1010    10.2620    11.9430    23.5470     2.1010   -11.8950 
  151.5000    72.3550    11.6510     9.9150    11.5880    23.8270     2.1020   -11.8310 
  151.6250    76.2580    11.1060     9.5180    10.8720    24.2740     2.1130   -11.5980 
  151.7500    79.4820    10.5220     9.0900     9.8820    24.5680     2.1270   -11.2540 
  151.8750    79.9230     9.9380     8.6380     9.0380    24.5690     2.1410   -10.7690 
  152.0000    78.5050     9.3720     8.1740     8.5290    24.4780     2.1570   -10.1730 
  152.1250    78.2070     8.8570     7.7340     8.2240    24.5360     2.1780    -9.4530 
  152.2500    80.7230     8.4620     7.3770     7.8960    24.7040     2.2060    -8.6650 
  152.3750    84.7190     8.2510     7.1560     7.8240    24.8160     2.2350    -7.9140 
  152.5000    87.1640     8.2380     7.0840     7.8280    24.7510     2.2570    -7.2930 
  152.6250    86.6740     8.3690     7.1340     7.9620    24.5030     2.2650    -6.8190 
  152.7500    86.4180     8.4740     7.1830     9.0010    24.3560     2.2630    -6.4100 
  152.8750    87.9190     8.4030     7.1210    10.1700    24.4740     2.2560    -6.0300 
  153.0000    89.6170     8.0730     6.8800     8.6430    24.6750     2.2510    -5.7420 
  153.1250    90.4880     7.5240     6.4760     7.2090    24.6840     2.2480    -5.6960 
  153.2500    90.7280     6.9860     6.0730     6.4810    24.5820     2.2440    -5.7890 
  153.3750    90.7340     6.6810     5.8410     6.4160    24.4400     2.2390    -5.9160 
  153.5000    90.1900     6.8210     5.9450     6.4150    24.3110     2.2380    -6.0770 
  153.6250    88.7590     7.6420     6.5880     6.6580    24.1870     2.2640    -6.1900 
  153.7500    85.5260     8.9950     7.6880     7.4900    24.0400     2.3210    -6.2720 
  153.8750    79.8160    10.5640     9.0400     9.6810    23.8470     2.3930    -6.4700 
  154.0000    74.8980    11.7570    10.1810    14.9110    23.5870     2.4500    -6.7620 
  154.1250    75.9890    11.7330    10.3550    16.0030    23.3360     2.4530    -6.9380 
  154.2500    80.6180    10.6250     9.5890    11.3210    23.1910     2.4090    -6.9970 
  154.3750    84.2450     9.0140     8.3460     7.6240    23.1540     2.3450    -6.9950 
  154.5000    86.5290     7.5370     7.1310     6.3180    23.1640     2.2920    -6.8760 
  154.6250    90.0000     6.6390     6.2930     6.2940    23.1870     2.2690    -6.7020 
  154.7500    91.0860     6.2450     5.8390     6.2910    23.1920     2.2660    -6.5640 
  154.8750    87.8240     6.2140     5.7150     6.2460    23.1300     2.2690    -6.3860 
  155.0000    83.2470     6.3930     5.8300     6.0370    22.9750     2.2700    -6.1580 
  155.1250    81.6030     6.6820     6.0970     6.2790    22.9220     2.2640    -5.9090 
  155.2500    80.9710     6.9750     6.4070     6.4690    23.0990     2.2540    -5.6710 
  155.3750    80.8400     7.1930     6.6850     6.5410    23.5420     2.2430    -5.4180 
  155.5000    82.0090     7.2550     6.8590     6.5060    24.0130     2.2380    -5.1910 
  155.6250    84.3940     7.0690     6.8320     6.4690    24.2030     2.2440    -4.9930 
  155.7500    88.0260     6.6870     6.6180     6.3820    24.1800     2.2600    -4.7680 
  155.8750    92.4040     6.1960     6.2640     6.2200    24.0230     2.2850    -4.5180 
  156.0000    97.0010     5.7110     5.8510     5.9290    23.8060     2.3130    -4.2510 
  156.1250   100.8170     5.3550     5.4670     5.5380    23.6920     2.3380    -4.0430 
  156.2500   103.6660     5.1650     5.1740     5.2910    23.5990     2.3570    -3.8920 
  156.3750   104.6310     5.1460     4.9990     5.2050    23.5070     2.3690    -3.7960 
  156.5000   103.6830     5.2560     4.9370     5.2660    23.4550     2.3770    -3.7270 
  156.6250   104.1830     5.4080     4.9600     5.4310    23.5060     2.3820    -3.6850 
  156.7500   106.4720     5.4870     4.9880     5.7210    23.5260     2.3840    -3.6740 
  156.8750   108.2370     5.4390     4.9720     6.0000    23.4770     2.3840    -3.6570 
  157.0000   108.3140     5.3000     4.9150     6.2030    23.3970     2.3860    -3.6800 
  157.1250   104.6380     5.2550     4.9220     6.1170    23.3050     2.3950    -3.7740 
  157.2500    98.5780     5.5400     5.1460     6.1500    23.2320     2.4100    -3.8650 
  157.3750    92.1040     6.3890     5.7520     6.6520    23.1860     2.4190    -3.9260 
  157.5000    86.4790     8.0280     6.9390     8.2760    23.1850     2.4060    -4.0030 
  157.6250    80.7130    11.0110     9.0830    12.4150    23.2610     2.3590    -4.1520 
  157.7500    73.8610    14.6980    12.1350    18.9200    23.3960     2.2910    -4.3520 
  157.8750    68.4090    18.6120    15.7230    23.5050    23.4930     2.2240    -4.6070 
  158.0000    65.8910    21.6580    18.9170    25.2360    23.5110     2.1740    -4.8620 
  158.1250    64.9770    22.6720    20.4660    25.3660    23.4680     2.1520    -5.1090 
  158.2500    64.5980    22.3400    20.6680    24.4220    23.4330     2.1440    -5.3720 
  158.3750    65.4750    21.7350    20.3460    22.1830    23.4380     2.1400    -5.6410 
  158.5000    67.4650    21.7430    20.2800    20.7440    23.4790     2.1350    -5.9300 
  158.6250    67.7950    22.8810    20.9930    21.5170    23.5200     2.1280    -6.1960 
  158.7500    65.7720    24.7420    22.3030    26.5900    23.5360     2.1230    -6.4200 
  158.8750    65.9570    26.6930    23.7730    29.3610    23.5400     2.1200    -6.6480 
  159.0000    69.6360    27.9160    24.7630    29.3080    23.5420     2.1210    -6.8900 
  159.1250    71.2690    27.5490    24.5250    27.2220    23.5440     2.1240    -7.1100 
  159.2500    69.3880    26.0050    23.2900    24.3280    23.5340     2.1280    -7.2860 
  159.3750    67.7570    24.0600    21.6240    20.9840    23.5070     2.1330    -7.4370 
  159.5000    68.7890    22.4760    20.1480    19.4560    23.5070     2.1390    -7.5680 
  159.6250    70.2290    21.8550    19.3980    19.8640    23.6260     2.1470    -7.7040 
  159.7500    71.3010    22.2240    19.4660    21.9490    23.9560     2.1550    -7.8870 
  159.8750    70.5340    23.5900    20.4080    25.4360    24.4540     2.1630    -8.0600 
  160.0000    66.1880    25.7870    22.1560    28.9640    24.8940     2.1690    -8.1520 
  160.1250    62.7640    28.3840    24.4630    31.1740    25.0470     2.1700    -8.1590 
  160.2500    63.2540    30.6320    26.6890    32.9350    25.0630     2.1670    -8.1820 
  160.3750    65.1000    32.0040    28.3130    34.8080    25.0480     2.1600    -8.2660 
  160.5000    63.8480    32.3350    29.0410    35.4400    24.9930     2.1510    -8.3260 
  160.6250    61.5010    31.9350    28.9370    34.1150    24.9260     2.1380    -8.2580 
  160.7500    61.4970    31.5560    28.6250    31.9560    24.8910     2.1240    -8.0910 
  160.8750    62.3670    31.4160    28.3770    30.5660    24.8900     2.1220    -7.8900 
  161.0000    62.8780    31.1330    28.0030    30.0850    24.8550     2.1490    -7.7090 
  161.1250    62.2460    29.5450    26.6020    29.3340    24.7940     2.2180    -7.4860 
  161.2500    62.9080    26.1420    23.6820    27.9190    24.7400     2.3050    -7.1950 
  161.3750    67.9050    21.3390    19.5360    25.0490    24.6040     2.3810    -6.8750 
  161.5000    76.7210    16.3260    15.1680    18.7150    24.4510     2.4200    -6.5740 
  161.6250    84.0160    12.4470    11.7230    12.5570    24.2830     2.4110    -6.3360 
  161.7500    87.2130     9.9320     9.3920     8.3940    24.0710     2.3780    -6.1280 
  161.8750    88.6990     8.6070     8.0420     6.9910    23.8820     2.3400    -5.9500 
  162.0000    88.7090     8.1450     7.4350     6.6640    23.8030     2.3080    -5.8150 
  162.1250    85.7990     8.2160     7.3700     6.9890    23.8270     2.2890    -5.7790 
  162.2500    83.7230     8.3780     7.5010     7.8880    23.9420     2.2840    -5.7820 
  162.3750    86.3630     8.4340     7.6510     8.6940    24.1170     2.2920    -5.7150 
