~V
VERS. 2.00: Ver 2.00
~W
STRT.M 50.0000:
STOP.M 293.0000:
STEP.M 0.1250:
NULL. -999.2500:
UWI. F10045:
~C
DEPT.M :
DEN.GM/CC :
SP.MV :
GR.API :
CALI.CM :
RXO.OHMM :
RI. :
RML.OHMM :
~A
# ...
  196.2500     2.4930   -13.4080   102.5620    23.5360    12.7320    13.2260     9.7830 
  196.3750     2.4810   -13.4220    99.9640    23.5230    12.7660    12.8430     9.3680 
  196.5000     2.4660   -13.4140    94.5720    23.5430    12.7450    12.7350     9.2880 
  196.6250     2.4680   -13.5110    89.9300    23.5840    12.5050    13.0370     9.6620 
  196.7500     2.4840   -13.6700    91.5350    23.6010    12.4910    13.6710    10.3400 
  196.8750     2.4990   -13.8610    96.5900    23.6040    13.1480    14.5070    11.1280 
  197.0000     2.4970   -14.0790    96.2140    23.5960    14.8340    15.3350    11.7840 
  197.1250     2.4760   -14.2340    89.2060    23.5750    17.0540    15.9120    12.0640 
  197.2500     2.4580   -14.3290    85.7300    23.5500    18.4820    16.2240    12.0630 
  197.3750     2.4560   -14.4330    88.7650    23.5400    18.4400    16.3710    11.9830 
  197.5000     2.4700   -14.5670    90.6300    23.5380    17.6610    16.4850    12.0220 
  197.6250     2.4820   -14.5970    87.6950    23.5520    16.9910    16.6630    12.2550 
  197.7500     2.4820   -14.5760    84.3720    23.5840    16.8150    16.8870    12.5220 
  197.8750     2.4770   -14.4810    82.9490    23.6110    16.9960    17.0820    12.6760 
  198.0000     2.4770   -14.3290    81.8760    23.5910    17.3980    17.1550    12.6390 
  198.1250     2.4830   -14.1900    82.8640    23.5620    17.3950    17.0110    12.4270 
  198.2500     2.4890   -14.1220    85.8280    23.5720    17.0160    16.6940    12.1820 
  198.3750     2.4860   -14.0530    87.5480    23.6230    16.5660    16.2650    11.9680 
  198.5000     2.4700   -13.9450    85.6040    23.6680    15.9190    15.8050    11.7980 
  198.6250     2.4510   -13.8870    82.0710    23.6990    14.9750    15.4350    11.7250 
  198.7500     2.4500   -13.8500    81.1340    23.7190    14.2560    15.2280    11.8020 
  198.8750     2.4700   -13.8820    83.1330    23.7260    14.4280    15.1940    12.0090 
  199.0000     2.4950   -13.9990    87.6560    23.7160    14.9690    15.2630    12.2280 
  199.1250     2.5040   -14.1170    94.7610    23.6620    15.3120    15.2890    12.2630 
  199.2500     2.4930   -14.2590   100.2040    23.5640    15.4250    15.1690    12.0520 
  199.3750     2.4690   -14.4190   102.3930    23.4700    15.1810    14.9240    11.6780 
  199.5000     2.4510   -14.6030   102.4160    23.3920    14.4640    14.7050    11.3590 
  199.6250     2.4520   -14.8350   100.6450    23.3660    13.8620    14.7620    11.3650 
  199.7500     2.4620   -15.0550    95.9220    23.3500    13.9200    15.1630    11.6720 
  199.8750     2.4700   -15.2700    91.8310    23.3260    14.6310    15.8480    12.1540 
  200.0000     2.4740   -15.4270    94.8060    23.2810    15.9840    16.6030    12.6140 
  200.1250     2.4730   -15.6300   100.9340    23.2570    17.7140    17.0140    12.7760 
  200.2500     2.4650   -15.7930   102.6730    23.2390    18.5810    16.8630    12.5580 
  200.3750     2.4570   -15.9290   100.6450    23.2300    18.0470    16.2190    12.0620 
  200.5000     2.4600   -16.1100    99.2580    23.2260    16.7050    15.3950    11.5190 
  200.6250     2.4710   -16.3130    97.7720    23.2600    15.7290    14.7920    11.1870 
  200.7500     2.4720   -16.5160    93.5620    23.3760    15.5810    14.5810    11.1420 
  200.8750     2.4560   -16.7000    88.5710    23.5420    16.4010    14.7730    11.3790 
  201.0000     2.4350   -16.9270    86.7860    23.5570    17.6150    15.2730    11.8290 
  201.1250     2.4250   -17.0780    91.4840    23.4290    18.6460    15.8940    12.3560 
  201.2500     2.4180   -17.2450    96.4790    23.4310    18.9340    16.3890    12.7590 
  201.3750     2.4130   -17.4110    99.3270    23.6140    18.9770    16.6300    12.9250 
  201.5000     2.4160   -17.5010    99.4600    23.7590    19.2250    16.6060    12.8450 
  201.6250     2.4310   -17.5500    98.8800    23.7920    19.2060    16.3890    12.5910 
  201.7500     2.4430   -17.5860    98.5790    23.7900    18.4960    16.1500    12.3460 
  201.8750     2.4440   -17.6230    97.7730    23.7430    17.9950    15.9920    12.2330 
  202.0000     2.4440   -17.6530    95.5200    23.6130    18.2590    15.9580    12.2850 
  202.1250     2.4520   -17.7400    91.4800    23.4040    18.9570    16.0130    12.4220 
  202.2500     2.4540   -17.8360    89.2560    23.3130    19.0480    16.0420    12.5040 
  202.3750     2.4430   -17.9370    90.9670    23.2920    18.6510    15.9530    12.4540 
  202.5000     2.4290   -18.0440    95.0150    23.2920    17.6630    15.6900    12.2530 
  202.6250     2.4300   -18.1540    98.6140    23.2920    16.4180    15.2840    11.9600 
  202.7500     2.4390   -18.3270   100.4800    23.2880    15.7790    14.8900    11.7240 
  202.8750     2.4440   -18.5240   100.5750    23.2750    15.8580    14.6310    11.6270 
  203.0000     2.4390   -18.6840   100.6250    23.2460    16.2410    14.5680    11.6880 
  203.1250     2.4250   -18.8370   104.9240    23.2320    16.4150    14.7070    11.8980 
  203.2500     2.4110   -18.9400   109.5930    23.2390    16.4610    14.9110    12.1520 
  203.3750     2.4000   -19.0400   108.6030    23.2650    16.8320    15.0390    12.3280 
  203.5000     2.3960   -19.1910   101.3560    23.2850    17.2800    14.9710    12.3140 
  203.6250     2.3980   -19.3540    96.7990    23.2920    16.8330    14.6420    12.0570 
  203.7500     2.4010   -19.4440    97.7540    23.2920    15.7560    14.1790    11.6850 
  203.8750     2.4030   -19.5290    98.9240    23.2920    14.8080    13.7090    11.3110 
  204.0000     2.4050   -19.7090    98.1630    23.2920    14.1600    13.3300    11.0280 
  204.1250     2.4080   -19.8800    99.0910    23.2920    13.7710    13.1040    10.9030 
  204.2500     2.4070   -20.1030   101.5660    23.2920    13.6110    12.9760    10.8830 
  204.3750     2.4030   -20.4120   100.3420    23.2920    13.5460    12.8790    10.9040 
  204.5000     2.3990   -20.7340    95.0850    23.2920    13.4190    12.7420    10.8910 
  204.6250     2.3910   -21.0360    92.7260    23.2900    13.4620    12.5230    10.7630 
  204.7500     2.3720   -21.4230    95.2160    23.2750    13.4550    12.2650    10.5250 
  204.8750     2.3490   -21.8520    98.6740    23.2470    13.3260    12.0190    10.2430 
  205.0000     2.3310   -22.2590   104.2170    23.2370    13.0300    11.8290    10.0270 
  205.1250     2.3260   -22.7260   113.7800    23.3140    12.8450    11.7340     9.9820 
  205.2500     2.3240   -23.2010   120.1100    23.3940    12.9980    11.7130    10.0720 
  205.3750     2.3210   -23.7090   119.1850    23.4400    13.2550    11.7400    10.2160 
  205.5000     2.3170   -24.2720   115.6390    23.4310    13.3180    11.7790    10.3110 
  205.6250     2.3080   -24.9320   115.6370    23.3780    13.2710    11.7930    10.2690 
  205.7500     2.2870   -25.6320   114.1920    23.3490    13.3660    11.7580    10.1040 
  205.8750     2.2610   -26.3230   109.4200    23.3100    13.5550    11.6640     9.8710 
  206.0000     2.2410   -26.9990   101.3510    23.2390    13.6260    11.5170     9.6440 
  206.1250     2.2290   -27.6530    91.5640    23.1880    13.4200    11.3320     9.5040 
  206.2500     2.2150   -28.2610    81.9170    23.2230    13.1030    11.1430     9.4750 
  206.3750     2.1980   -28.7650    75.1520    23.2830    12.9280    10.9720     9.5410 
  206.5000     2.1850   -29.1880    72.9020    23.3470    12.9970    10.8270     9.6350 
  206.6250     2.1820   -29.5300    74.3270    23.4380    13.1000    10.6840     9.6440 
  206.7500     2.1840   -29.7740    74.9920    23.5010    12.9490    10.5030     9.5140 
  206.8750     2.1860   -29.9490    73.1970    23.5410    12.6000    10.2810     9.2610 
  207.0000     2.1850   -30.0910    71.3750    23.5720    12.1750    10.0550     8.9530 
  207.1250     2.1800   -30.1390    75.3590    23.5700    11.8180     9.9030     8.7010 
  207.2500     2.1740   -30.1830    83.5700    23.5500    11.7120     9.8720     8.5820 
  207.3750     2.1690   -30.2450    87.4160    23.5340    11.9670     9.9700     8.6160 
