~V
VERS. 2.00: Ver 2.00
~W
STRT.M 51.0000:
STOP.M 262.0000:
STEP.M 0.1250:
NULL. -999.2500:
UWI. F10019:
~C
DEPT.M :
DEN.GM/CC :
SP.MV :
GR.API :
CALI.CM :
RXO.OHMM :
RI. :
RML.OHMM :
~A
# ...
   96.0000     2.2150    -7.2880    82.4300    24.4900     9.6680     7.8410    10.0550 
   96.1250     2.2470    -7.3350    79.6760    24.5130     9.6850     8.0450    10.2880 
   96.2500     2.2670    -7.3780    79.4540    24.5200     9.7940     8.0790    10.2070 
   96.3750     2.2580    -7.4360    82.0410    24.5210     9.7260     7.9630     9.8390 
   96.5000     2.2300    -7.5080    84.7610    24.5080     9.3950     7.7570     9.3700 
   96.6250     2.2080    -7.5760    84.7600    24.4880     9.0940     7.5510     9.0030 
   96.7500     2.2010    -7.6360    83.8530    24.4640     8.9860     7.3940     8.8000 
   96.8750     2.2030    -7.7110    85.2090    24.4560     9.6320     7.3140     8.7490 
   97.0000     2.2010    -7.8020    87.4210    24.4790    11.1310     7.3440     8.8290 
   97.1250     2.1920    -7.9150    86.5870    24.4840    11.6670     7.4700     9.0100 
   97.2500     2.1830    -8.0190    84.2450    24.4570    10.8740     7.6850     9.2860 
   97.3750     2.1800    -8.1070    82.5550    24.3950    10.0190     7.9720     9.6330 
   97.5000     2.1810    -8.1990    81.6610    24.3600     9.6340     8.2940     9.9990 
   97.6250     2.1710    -8.2470    80.8560    24.3090     9.7220     8.5900    10.3160 
   97.7500     2.1480    -8.2870    80.8700    24.2510    10.1570     8.8110    10.5630 
   97.8750     2.1290    -8.2960    81.0800    24.2690    10.6400     8.9250    10.7250 
   98.0000     2.1290    -8.3220    79.8680    24.3050    10.6570     8.9290    10.7850 
   98.1250     2.1390    -8.3180    77.8190    24.3070    10.4310     8.9400    10.8700 
   98.2500     2.1510    -8.2950    76.3780    24.3240    10.2300     9.1260    11.1930 
   98.3750     2.1710    -8.2530    76.8750    24.3920    10.5870     9.6860    12.0090 
   98.5000     2.2170    -8.2140    79.6750    24.4590    25.8590    10.9600    13.7070 
   98.6250     2.2780    -8.2260    81.4190    24.4540    42.0810    13.0820    16.3840 
   98.7500     2.3380    -8.2790    80.0320    24.3770    49.2530    16.1860    20.1530 
   98.8750     2.3930    -8.3570    77.9790    24.2770    47.8770    20.1460    24.8160 
   99.0000     2.4530    -8.4520    80.1110    24.2150    44.3840    24.1800    29.2820 
   99.1250     2.5160    -8.5800    82.3390    24.1770    41.1690    26.8920    31.8080 
   99.2500     2.5640    -8.7260    79.6720    24.1510    37.6180    27.3140    31.3290 
   99.3750     2.5830    -8.9060    73.6280    24.1380    30.8530    25.4700    28.2050 
   99.5000     2.5690    -9.0790    72.6720    24.1210    22.4990    22.1800    23.8040 
   99.6250     2.5290    -9.2420    77.4910    24.0670    16.0560    18.7090    19.6380 
   99.7500     2.4620    -9.3870    81.0100    23.9630    12.2680    15.5940    16.2090 
   99.8750     2.3710    -9.5160    79.9600    23.8240    10.2440    13.0690    13.5910 
  100.0000     2.2760    -9.6280    76.9050    23.6170     9.3910    11.2800    11.8230 
  100.1250     2.2070    -9.7330    75.6490    23.4630     8.8210    10.0440    10.6810 
  100.2500     2.1710    -9.8560    78.3260    23.3740     8.3280     9.2580    10.0520 
  100.3750     2.1620    -9.9680    84.9670    23.3070     8.0370     8.8130     9.7780 
  100.5000     2.1610   -10.0530    91.3170    23.1800     7.9230     8.6300     9.7160 
  100.6250     2.1530   -10.1290    91.7470    23.0420     7.9200     8.5810     9.7130 
  100.7500     2.1430   -10.2100    87.2490    22.9550     7.9690     8.6250     9.7390 
  100.8750     2.1390   -10.3270    82.4340    22.9190     8.0670     8.7440     9.8270 
  101.0000     2.1440   -10.4400    79.3260    22.8450     8.1870     8.9260    10.0310 
  101.1250     2.1510   -10.5620    77.2220    22.8100     8.3440     9.1380    10.3080 
  101.2500     2.1520   -10.6890    75.7140    22.9270     8.5090     9.3520    10.5990 
  101.3750     2.1460   -10.8280    74.8200    23.1700     8.7350     9.5400    10.8680 
  101.5000     2.1360   -10.9940    75.5670    23.4420     9.0900     9.6800    11.0990 
  101.6250     2.1270   -11.1750    76.0250    23.6220     9.5300     9.7880    11.2980 
  101.7500     2.1150   -11.3480    74.4570    23.7050     9.9060     9.8790    11.5100 
  101.8750     2.1040   -11.4990    73.0780    23.7010    10.1480     9.9590    11.7900 
  102.0000     2.0990   -11.6010    76.1650    23.7500    10.2750    10.0170    12.1050 
  102.1250     2.1010   -11.6360    79.3000    23.8570    10.2950    10.0460    12.3320 
  102.2500     2.1020   -11.6160    78.4250    23.9450    10.2100    10.0470    12.3750 
  102.3750     2.0980   -11.5600    74.0120    23.9730    10.0620    10.0300    12.2190 
  102.5000     2.0970   -11.4970    69.7100    23.9570     9.9390    10.0050    11.9320 
  102.6250     2.1060   -11.3920    68.0140    23.9330     9.8810     9.9840    11.6780 
  102.7500     2.1180   -11.2590    69.7740    23.9230     9.8050     9.9840    11.5700 
  102.8750     2.1230   -11.1080    71.3080    23.9370     9.6610    10.0320    11.6550 
  103.0000     2.1220   -10.9710    67.6110    23.9800     9.5470    10.1750    11.9500 
  103.1250     2.1200   -10.8580    62.7420    24.0300     9.5130    10.3890    12.3410 
  103.2500     2.1190   -10.7640    61.6260    24.0290     9.5400    10.5780    12.6450 
  103.3750     2.1180   -10.6510    64.2170    23.9790     9.5900    10.5830    12.6260 
  103.5000     2.1210   -10.5230    66.3830    23.9350     9.6200    10.1980    12.0390 
  103.6250     2.1320   -10.3920    67.3510    23.9150     9.5840     9.4940    11.0900 
  103.7500     2.1510   -10.2920    70.8150    23.8560     9.2330     8.6420    10.0890 
  103.8750     2.1740   -10.2240    77.8110    23.6840     8.4830     7.8640     9.3550 
  104.0000     2.1920   -10.2180    85.6430    23.4000     7.9930     7.3960     9.1480 
  104.1250     2.2000   -10.2600    89.5190    23.3810     8.3620     7.2760     9.3650 
  104.2500     2.1960   -10.3490    88.7060    23.7010     9.3560     7.4990     9.8700 
  104.3750     2.1820   -10.5170    85.2180    24.1760    10.2630     7.9920    10.4770 
  104.5000     2.1610   -10.7060    81.3280    24.4410    10.5050     8.6080    10.9690 
  104.6250     2.1390   -10.9530    80.6650    24.4920    10.3150     9.1450    11.2650 
  104.7500     2.1180   -11.2230    81.5850    24.4100    10.1070     9.5190    11.4010 
  104.8750     2.1020   -11.5290    80.1260    24.2810     9.9270     9.7620    11.4850 
  105.0000     2.0920   -11.8110    77.6050    24.1590     9.7040     9.9830    11.6410 
  105.1250     2.0840   -12.0540    77.0720    24.0200     9.5570    10.2740    11.9060 
  105.2500     2.0790   -12.2000    76.9480    23.8500     9.5420    10.6140    12.2150 
  105.3750     2.0790   -12.2430    73.7870    23.6420     9.4830    10.8820    12.4010 
  105.5000     2.0870   -12.1590    70.7350    23.5940     9.2450    10.8360    12.1840 
  105.6250     2.0990   -11.9710    70.8390    23.7010     8.9080    10.4080    11.5320 
  105.7500     2.1170   -11.6790    73.4680    23.8810     8.4090     9.6630    10.5710 
  105.8750     2.1430   -11.2850    78.2550    23.9760     7.8470     8.7770     9.5460 
  106.0000     2.1720   -10.8410    85.1910    23.9700     7.3330     7.9730     8.7360 
  106.1250     2.1980   -10.3920    91.6120    23.9920     6.9980     7.3570     8.2170 
  106.2500     2.2170    -9.9690    94.7670    24.0350     6.8290     6.9360     7.9310 
  106.3750     2.2300    -9.6020    95.2730    24.0780     6.8060     6.6560     7.7330 
  106.5000     2.2330    -9.3360    95.0160    24.0860     6.7340     6.4360     7.4720 
  106.6250     2.2310    -9.1260    94.2050    24.0800     6.4570     6.2000     7.1390 
  106.7500     2.2270    -8.9610    94.8890    24.1120     6.0490     5.9570     6.8240 
  106.8750     2.2290    -8.8210    99.6590    24.2140     5.9040     5.7670     6.6480 
  107.0000     2.2380    -8.7170   105.6940    24.3510     6.5910     5.7350     6.7530 
  107.1250     2.2390    -8.6230   105.3840    24.4260     7.5560     5.8840     7.0930 
