~V
VERS. 2.00: Ver 2.00
~W
STRT.M 62.0000:
STOP.M 254.0000:
STEP.M 0.1250:
NULL. -999.2500:
UWI. F10030:
~C
DEPT.M :
DEN.GM/CC :
GR.API :
RML.OHMM :
RI. :
RXO.OHMM :
CALI.CM :
SP.MV :
~A
# ...
  129.5000     2.2950    93.9280     7.4040     6.3700     7.3390    23.4590   -17.7230 
  129.6250     2.2930    94.7370     7.5610     6.3040     7.1090    23.4480   -17.6580 
  129.7500     2.2900    93.7820     7.6850     6.2320     7.0010    23.4150   -17.6770 
  129.8750     2.2860    92.3770     7.7420     6.1720     7.0730    23.3580   -17.7340 
  130.0000     2.2800    92.9930     7.7400     6.1430     7.1710    23.2850   -17.8150 
  130.1250     2.2690    96.3040     7.7280     6.1710     7.1150    23.2110   -17.9490 
  130.2500     2.2550    98.8200     7.7710     6.2660     6.9310    23.0750   -18.0870 
  130.3750     2.2410    98.3410     7.8980     6.4380     7.0310    22.8280   -18.2240 
  130.5000     2.2310    94.9350     8.0880     6.6740     7.4010    22.5140   -18.3640 
  130.6250     2.2260    92.4320     8.2600     6.9200     7.5980    22.1910   -18.4820 
  130.7500     2.2260    92.0960     8.3240     7.1020     8.0220    21.8890   -18.5570 
  130.8750     2.2300    91.6430     8.2570     7.1790     8.3440    21.6100   -18.6230 
  131.0000     2.2380    90.8170     8.1190     7.1600     7.9870    21.3910   -18.6760 
  131.1250     2.2500    91.7260     8.0780     7.1140     7.5590    21.2800   -18.6930 
  131.2500     2.2630    93.0970     8.2550     7.1300     7.3950    21.2410   -18.7400 
  131.3750     2.2700    91.2480     8.6800     7.2470     7.7100    21.2380   -18.7740 
  131.5000     2.2660    84.8460     9.2690     7.4610     8.4000    21.2460   -18.8290 
  131.6250     2.2460    79.6680     9.8090     7.7100     9.2980    21.2400   -18.9100 
  131.7500     2.2200    80.5230    10.0920     7.8940     9.4470    21.2250   -18.9780 
  131.8750     2.1970    85.0160    10.0310     7.9500     9.1390    21.2720   -19.0520 
  132.0000     2.1900    88.1520     9.6670     7.8770     9.0810    21.4610   -19.0790 
  132.1250     2.2010    88.5660     9.1500     7.7360     9.0360    21.7780   -19.1430 
  132.2500     2.2200    88.3980     8.7080     7.6390     8.6820    22.1210   -19.1800 
  132.3750     2.2370    87.1350     8.4770     7.6620     8.2820    22.4550   -19.1800 
  132.5000     2.2470    84.9590     8.5190     7.8500     8.3620    22.7740   -19.1770 
  132.6250     2.2460    84.8900     8.8380     8.2200     8.5810    23.0230   -19.1270 
  132.7500     2.2400    85.4340     9.2710     8.6760     9.1880    23.2130   -19.0770 
  132.8750     2.2300    83.5980     9.6710     9.1030     9.9460    23.3900   -19.0170 
  133.0000     2.2200    79.7280     9.9000     9.3740    10.6680    23.5720   -18.9330 
  133.1250     2.2140    78.8440     9.8370     9.3400    10.5590    23.6920   -18.8130 
  133.2500     2.2160    81.1580     9.5370     9.0310     9.6140    23.7280   -18.6890 
  133.3750     2.2270    84.4060     9.0620     8.5130     9.0370    23.7150   -18.5570 
  133.5000     2.2430    87.8200     8.4860     7.8890     9.1960    23.7050   -18.4330 
  133.6250     2.2620    91.5510     7.8830     7.2720     8.9150    23.7430   -18.3960 
  133.7500     2.2830    94.9240     7.3470     6.7510     8.3430    23.7990   -18.4030 
  133.8750     2.3040    98.8560     6.9860     6.3970     7.5960    23.8000   -18.4910 
  134.0000     2.3240   101.9410     6.9290     6.2810     7.0420    23.6890   -18.6650 
  134.1250     2.3340    99.8200     7.3690     6.5410     7.1200    23.4560   -18.8970 
  134.2500     2.3310    92.7620     8.2560     7.1810     7.5900    23.1780   -19.1630 
  134.3750     2.3100    83.5790     9.4540     8.1760     8.7390    22.9110   -19.4420 
  134.5000     2.2730    76.6820    10.6620     9.3580    10.7190    22.6960   -19.7330 
  134.6250     2.2320    73.6900    11.5800    10.3530    12.3200    22.5780   -19.9960 
  134.7500     2.2030    72.2770    12.1030    10.8770    12.0410    22.5380   -20.2550 
  134.8750     2.1920    72.1680    12.1220    10.9170    11.4260    22.5620   -20.4780 
  135.0000     2.1980    73.7770    11.8100    10.7250    11.2270    22.6610   -20.6610 
  135.1250     2.2110    76.5260    11.9100    10.7690    11.3430    22.8660   -20.8350 
  135.2500     2.2170    76.2000    12.9880    11.4150    12.3390    23.1340   -20.9970 
  135.3750     2.2120    72.8010    15.2290    12.9170    15.5700    23.4000   -21.1770 
  135.5000     2.1950    67.1210    18.5570    15.3820    21.6840    23.6060   -21.3640 
  135.6250     2.1670    60.9950    22.4360    18.6370    25.9990    23.6700   -21.5760 
  135.7500     2.1320    57.7550    25.6240    21.6980    29.0920    23.5660   -21.7540 
  135.8750     2.0990    59.1920    27.0640    23.5510    34.0060    23.3210   -21.9240 
  136.0000     2.0800    63.9030    26.3850    23.6350    39.8070    23.0380   -22.0960 
  136.1250     2.0900    67.4360    24.1680    22.1890    39.3660    22.9010   -22.2310 
  136.2500     2.1230    68.1240    21.9770    20.5090    27.6060    22.9310   -22.3650 
  136.3750     2.1630    65.7140    20.7040    19.3860    18.7840    23.0370   -22.4720 
  136.5000     2.1940    62.6830    20.7250    19.2260    17.0500    23.1560   -22.5600 
  136.6250     2.2030    63.0460    22.1590    20.2790    21.6080    23.2520   -22.6170 
  136.7500     2.1960    64.8860    24.3710    22.1560    26.6170    23.2830   -22.6820 
  136.8750     2.1830    65.1270    26.7930    24.4310    29.7900    23.2250   -22.7390 
  137.0000     2.1710    63.6060    28.8360    26.5520    31.5970    23.1450   -22.7740 
  137.1250     2.1650    62.9630    29.9580    27.9120    31.1150    23.1050   -22.8110 
  137.2500     2.1610    63.9260    30.3250    28.5210    31.1850    23.0900   -22.7930 
  137.3750     2.1550    64.4850    30.3060    28.6580    31.5430    23.0880   -22.7830 
  137.5000     2.1500    63.9310    30.3980    28.7620    30.9950    23.1040   -22.7560 
  137.6250     2.1580    61.8680    31.2400    29.4150    30.1980    23.1400   -22.6780 
  137.7500     2.1910    59.8220    33.0450    30.8850    30.8120    23.1900   -22.5970 
  137.8750     2.2480    59.1520    35.7080    33.1750    35.1070    23.2700   -22.4710 
  138.0000     2.3080    59.2980    38.6100    35.8400    42.0670    23.3830   -22.3600 
  138.1250     2.3350    58.4040    40.3540    37.7080    48.6710    23.4590   -22.2310 
  138.2500     2.3190    57.4230    40.0370    37.8340    45.0840    23.4390   -22.1190 
  138.3750     2.2720    58.6620    37.6160    35.9980    38.8550    23.3440   -22.0380 
  138.5000     2.2200    61.0750    33.9780    32.8370    29.8230    23.2490   -21.9390 
  138.6250     2.1880    62.0730    30.5610    29.5440    23.3390    23.2090   -21.8900 
  138.7500     2.1750    61.8020    28.2920    27.0610    20.8540    23.2030   -21.8410 
  138.8750     2.1700    60.4910    27.3800    25.7010    21.2030    23.2110   -21.8200 
  139.0000     2.1670    60.1340    27.6230    25.4300    23.6580    23.2330   -21.8290 
  139.1250     2.1640    61.9240    28.6200    26.0740    25.8730    23.2790   -21.8140 
  139.2500     2.1600    62.5650    29.6930    27.0580    27.1590    23.3280   -21.7800 
  139.3750     2.1580    59.6440    30.4620    27.9930    27.0210    23.3460   -21.7380 
  139.5000     2.1560    55.0870    30.7670    28.6180    26.1110    23.3170   -21.6640 
  139.6250     2.1530    54.8510    30.6020    28.7840    25.4210    23.2550   -21.5150 
  139.7500     2.1510    57.3320    30.1850    28.6200    25.4960    23.2030   -21.3590 
  139.8750     2.1490    59.3730    29.6220    28.2080    25.6810    23.1870   -21.1440 
  140.0000     2.1480    60.5320    28.9680    27.6080    25.7490    23.2160   -20.8830 
  140.1250     2.1490    60.9660    28.2380    26.8310    25.2080    23.2890   -20.6560 
  140.2500     2.1490    61.1590    27.4740    25.9430    24.4000    23.3740   -20.4140 
  140.3750     2.1470    61.3970    26.7340    25.0170    23.9280    23.4290   -20.1620 
  140.5000     2.1450    62.9870    26.1140    24.1670    23.5370    23.4270   -19.9310 
  140.6250     2.1440    64.3310    25.7780    23.5870    22.8870    23.3790   -19.7420 
