~V
VERS. 2.00: Ver 2.00
~W
STRT.M 59.0000:
STOP.M 275.0000:
STEP.M 0.1250:
NULL. -999.2500:
UWI. F10021:
~C
DEPT.M :
GR.API :
RML.OHMM :
RI. :
RXO.OHMM :
CALI.CM :
DEN.GM/CC :
SP.MV :
~A
# ...
   81.5000    53.1130     7.4170     6.0880     7.2200    23.6800     2.2220   -27.4000 
   81.6250    54.6680     7.4210     6.0890     7.3180    23.8580     2.2390   -27.5150 
   81.7500    55.5730     7.4720     6.1310     7.3490    24.0800     2.2530   -27.5930 
   81.8750    54.8270     7.5630     6.2120     7.4590    24.3840     2.2580   -27.6550 
   82.0000    53.3100     7.6770     6.3250     7.6460    24.7480     2.2470   -27.6590 
   82.1250    53.1380     7.7870     6.4540     7.9020    25.0050     2.2100   -27.5700 
   82.2500    53.4470     7.8700     6.5720     7.9570    24.9230     2.1580   -27.3860 
   82.3750    52.6930     7.9090     6.6610     7.8790    24.4320     2.1100   -27.0780 
   82.5000    51.1630     7.8970     6.7010     7.7450    23.6370     2.0850   -26.6660 
   82.6250    50.3090     7.8200     6.6730     7.5690    22.8800     2.0990   -26.0950 
   82.7500    52.0980     7.6970     6.5880     7.3500    22.4630     2.1400   -25.4190 
   82.8750    54.9140     7.5360     6.4530     7.0190    22.3460     2.1870   -24.6180 
   83.0000    55.7580     7.3450     6.2790     6.6620    22.3520     2.2220   -23.7200 
   83.1250    56.9630     7.1170     6.0670     6.3130    22.3810     2.2380   -22.7500 
   83.2500    61.5320     6.8530     5.8290     6.1000    22.4340     2.2470   -21.7910 
   83.3750    66.7090     6.5490     5.5660     6.0400    22.4740     2.2580   -20.8740 
   83.5000    67.5080     6.2110     5.2840     5.9080    22.4830     2.2740   -20.0070 
   83.6250    65.1990     5.8670     5.0040     5.5490    22.4960     2.2930   -19.2180 
   83.7500    65.9610     5.5680     4.7560     5.0970    22.5110     2.3070   -18.5380 
   83.8750    68.0550     5.3590     4.5730     4.7660    22.5270     2.3150   -17.9760 
   84.0000    68.8630     5.2700     4.4770     4.5780    22.5900     2.3210   -17.5430 
   84.1250    69.9000     5.3100     4.4860     4.6010    22.7650     2.3290   -17.2450 
   84.2500    73.1680     5.4090     4.5550     4.8650    23.0270     2.3400   -17.0040 
   84.3750    75.1360     5.4980     4.6370     5.2370    23.3520     2.3500   -16.7930 
   84.5000    74.4960     5.5100     4.6820     5.4760    23.7420     2.3550   -16.6260 
   84.6250    72.8550     5.3850     4.6410     5.3560    24.0750     2.3550   -16.5120 
   84.7500    73.1010     5.1620     4.5270     4.9950    24.2440     2.3530   -16.4330 
   84.8750    75.4850     4.9150     4.3850     4.6380    24.1980     2.3560   -16.4010 
   85.0000    78.5010     4.7500     4.2820     4.4260    23.9800     2.3640   -16.4020 
   85.1250    79.5750     4.8090     4.3230     4.5130    23.6100     2.3760   -16.4860 
   85.2500    78.5250     5.1090     4.5330     5.0950    23.1840     2.3890   -16.6080 
   85.3750    77.6430     5.6130     4.9030     6.1860    22.8200     2.4000   -16.8070 
   85.5000    78.0590     6.2120     5.3710     7.5870    22.6030     2.4030   -17.0180 
   85.6250    77.2640     6.7100     5.8020     8.8500    22.5130     2.3940   -17.2260 
   85.7500    75.2220     6.9480     6.0540     8.8130    22.3830     2.3710   -17.3810 
   85.8750    72.3090     6.8570     6.0410     7.2230    22.1910     2.3410   -17.4550 
   86.0000    70.0230     6.4680     5.7570     6.1440    22.0170     2.3160   -17.4590 
   86.1250    70.6750     5.8900     5.2590     5.5620    21.9700     2.3070   -17.3640 
   86.2500    72.8730     5.2980     4.7070     4.9560    22.0520     2.3130   -17.2530 
   86.3750    74.8010     4.7740     4.1970     4.4000    22.2430     2.3280   -17.1240 
   86.5000    75.0490     4.3630     3.7880     4.0230    22.5130     2.3390   -17.0530 
   86.6250    73.9930     4.1430     3.5540     3.8630    22.7470     2.3370   -17.0850 
   86.7500    72.4770     4.2000     3.5360     3.9680    22.8520     2.3260   -17.2650 
   86.8750    70.7160     4.6720     3.8260     4.3330    22.8060     2.3130   -17.6010 
   87.0000    70.4440     5.6670     4.5150     5.0180    22.6650     2.3060   -18.1050 
   87.1250    71.8970     7.2080     5.6880     6.4210    22.5130     2.3170   -18.7650 
   87.2500    71.0010     8.9100     7.1200     8.6790    22.3860     2.3460   -19.5240 
   87.3750    65.0130    10.3380     8.5030    11.1350    22.2890     2.3870   -20.3510 
   87.5000    57.1180    11.0710     9.4600    13.1540    22.2130     2.4220   -21.2030 
   87.6250    52.7860    10.7880     9.5870    13.2680    22.2110     2.4230   -21.9970 
   87.7500    51.7940     9.9020     9.0830    10.8820    22.3480     2.3880   -22.7040 
   87.8750    53.2220     8.8830     8.2930     8.8710    22.6120     2.3330   -23.2890 
   88.0000    54.7110     8.1150     7.5660     8.1250    22.9730     2.2820   -23.7140 
   88.1250    54.7210     7.8140     7.1340     8.0100    23.3930     2.2570   -23.9910 
   88.2500    54.1990     7.8300     6.9550     8.0120    23.7820     2.2530   -24.1400 
   88.3750    54.4340     8.0090     6.9430     7.9810    24.0800     2.2600   -24.1760 
   88.5000    54.9800     8.2040     7.0020     7.9030    24.2480     2.2660   -24.0820 
   88.6250    53.5820     8.3130     7.0570     7.7750    24.2630     2.2640   -23.8950 
   88.7500    52.9420     8.3440     7.0870     7.6200    24.1090     2.2550   -23.5620 
   88.8750    53.7960     8.3390     7.1030     7.4130    23.8260     2.2440   -23.1320 
   89.0000    54.2230     8.3400     7.1160     7.2020    23.4670     2.2330   -22.6270 
   89.1250    53.9320     8.3690     7.1220     7.0350    23.0730     2.2260   -22.0030 
   89.2500    53.3920     8.3830     7.0910     6.8780    22.7490     2.2230   -21.2820 
   89.3750    54.0470     8.3060     6.9770     6.7260    22.5400     2.2270   -20.4820 
   89.5000    56.3170     8.0640     6.7400     6.6020    22.4680     2.2360   -19.6560 
   89.6250    61.8570     7.6080     6.3550     6.4650    22.5560     2.2520   -18.7990 
   89.7500    69.8960     7.0580     5.9060     6.1800    22.7590     2.2740   -18.0270 
   89.8750    78.7340     6.5590     5.4870     5.7370    23.0200     2.3000   -17.3620 
   90.0000    87.5100     6.2520     5.1920     5.2230    23.2300     2.3270   -16.8540 
   90.1250    93.4380     6.2460     5.1030     5.0900    23.3240     2.3430   -16.5440 
   90.2500    91.9480     6.4320     5.1680     5.3810    23.2580     2.3370   -16.3970 
   90.3750    83.0080     6.6760     5.3180     5.8970    23.0670     2.3090   -16.3530 
   90.5000    74.0320     6.8430     5.4680     6.3060    22.8680     2.2680   -16.3500 
   90.6250    72.8860     6.8360     5.5410     6.3500    22.8880     2.2340   -16.3730 
   90.7500    75.6550     6.7220     5.5370     6.1180    23.1160     2.2190   -16.3960 
   90.8750    77.1740     6.5980     5.4950     5.8450    23.4730     2.2240   -16.3920 
   91.0000    77.8070     6.5480     5.4640     5.7400    23.7760     2.2450   -16.3180 
   91.1250    79.9430     6.6000     5.4780     5.9360    23.8060     2.2690   -16.1510 
   91.2500    81.7390     6.6810     5.5180     6.0070    23.7030     2.2860   -15.9370 
   91.3750    79.7710     6.7270     5.5560     5.9800    23.5640     2.2910   -15.7080 
   91.5000    75.6590     6.7110     5.5680     5.9470    23.4830     2.2880   -15.4910 
   91.6250    76.6860     6.6490     5.5460     5.9700    23.5990     2.2860   -15.3080 
   91.7500    83.8290     6.6000     5.5110     6.0020    23.8650     2.2890   -15.1380 
   91.8750    90.7830     6.5930     5.4810     5.9970    24.1570     2.2970   -15.0130 
   92.0000    90.5130     6.6230     5.4660     6.0170    24.3560     2.3050   -14.9060 
   92.1250    82.7910     6.6550     5.4570     6.0510    24.4180     2.3060   -14.8570 
   92.2500    76.0870     6.6570     5.4420     6.0420    24.4100     2.3020   -14.8220 
   92.3750    74.1730     6.6210     5.4080     5.9540    24.3810     2.2980   -14.8230 
   92.5000    76.3800     6.5550     5.3550     5.8700    24.3480     2.2990   -14.8490 
   92.6250    78.2130     6.4800     5.2880     5.7940    24.3260     2.3060   -14.9320 
