~V
VERS. 2.00: Ver 2.00
~W
STRT.M 51.0000:
STOP.M 313.0000:
STEP.M 0.1250:
NULL. -999.2500:
UWI. F10047:
~C
DEPT.M :
SP.MV :
GR.API :
RML.OHMM :
RI. :
RXO.OHMM :
CALI.CM :
DEN.GM/CC :
~A
# ...
  118.5000   -11.3930    59.9080    10.2520     8.2770     9.0590    24.0630     2.1300 
  118.6250   -11.0470    57.7500    10.0260     8.2600     8.7700    24.1210     2.1190 
  118.7500   -10.6540    56.8410     9.5510     8.0680     8.1970    24.0280     2.1100 
  118.8750   -10.2200    57.5090     9.0500     7.8190     7.8430    23.8390     2.1050 
  119.0000    -9.7180    58.2780     8.7240     7.6360     7.6160    23.7200     2.1010 
  119.1250    -9.1810    59.6290     8.6700     7.5970     7.4510    23.6930     2.0990 
  119.2500    -8.6050    62.2280     8.7040     7.6150     7.4050    23.7100     2.1010 
  119.3750    -7.8610    65.7930     8.5950     7.5500     7.5600    23.7720     2.1130 
  119.5000    -6.8670    69.7690     8.1610     7.2620     7.6950    23.9300     2.1420 
  119.6250    -5.6950    77.6830     7.3610     6.6860     7.1120    24.2610     2.1880 
  119.7500    -4.4740    90.2640     6.4520     5.9890     5.8220    24.6650     2.2340 
  119.8750    -3.2700   100.6100     5.6560     5.3290     4.6990    24.9190     2.2670 
  120.0000    -2.0930   103.6140     5.1140     4.8210     4.2250    25.0000     2.2770 
  120.1250    -0.9660   102.8340     4.9070     4.5440     4.1240    24.9970     2.2670 
  120.2500    -0.0190   104.0390     4.9250     4.4450     4.0950    24.9700     2.2540 
  120.3750     0.6750   103.9880     5.0660     4.4650     4.1590    24.9110     2.2480 
  120.5000     1.0820    99.8470     5.2110     4.5230     4.2420    24.8670     2.2530 
  120.6250     1.2220    96.3950     5.2200     4.5220     4.2360    24.8530     2.2640 
  120.7500     1.2360    97.4430     5.0410     4.4070     4.2180    24.8530     2.2690 
  120.8750     1.1630    99.3420     4.6890     4.1800     4.1910    24.8530     2.2670 
  121.0000     0.9280    99.5620     4.2880     3.9190     4.1230    24.8530     2.2600 
  121.1250     0.4870   101.3540     4.1200     3.7970     4.0700    24.7820     2.2630 
  121.2500    -0.0550   103.1950     4.3860     3.9420     4.0790    24.6010     2.2850 
  121.3750    -0.7540   102.5500     5.2120     4.4480     4.2730    24.3910     2.3230 
  121.5000    -1.6210    96.9810     6.5740     5.3480     5.4600    24.2580     2.3610 
  121.6250    -2.6490    85.9960     8.1440     6.5230     9.4160    24.1210     2.3720 
  121.7500    -3.7740    76.1700     9.2140     7.4810    13.4520    23.8060     2.3510 
  121.8750    -4.9030    72.8460     9.3260     7.8140    10.9730    23.2880     2.3070 
  122.0000    -5.9050    75.3560     8.6080     7.5110     8.0350    22.7000     2.2590 
  122.1250    -6.7130    78.0280     7.6900     6.9430     7.1780    22.2690     2.2230 
  122.2500    -7.4190    77.4690     7.1180     6.5190     7.0140    22.0050     2.2000 
  122.3750    -7.9890    75.8870     7.0020     6.3560     7.1300    21.8580     2.1830 
  122.5000    -8.4160    74.9330     7.2260     6.4290     7.4570    21.7990     2.1670 
  122.6250    -8.6850    74.7390     7.5900     6.6390     7.8070    21.7870     2.1530 
  122.7500    -8.8250    74.5480     7.9100     6.8530     7.8090    21.7770     2.1430 
  122.8750    -8.9400    74.2850     8.1240     7.0110     7.6020    21.7440     2.1400 
  123.0000    -9.0360    75.9710     8.2170     7.0910     7.3630    21.6640     2.1430 
  123.1250    -9.0470    78.4260     8.1890     7.0790     7.3230    21.5010     2.1490 
  123.2500    -8.9540    78.4680     8.0870     7.0040     7.4040    21.1860     2.1520 
  123.3750    -8.7870    76.5450     7.9350     6.8810     7.4640    20.8190     2.1510 
  123.5000    -8.5640    76.1660     7.7540     6.7240     7.5610    20.6080     2.1480 
  123.6250    -8.2100    78.4850     7.5680     6.5450     7.3540    20.5580     2.1490 
  123.7500    -7.7980    81.7520     7.3980     6.3630     6.8000    20.5580     2.1570 
  123.8750    -7.3320    85.3850     7.2530     6.1900     6.3550    20.5580     2.1720 
  124.0000    -6.8890    86.6360     7.1350     6.0360     6.1440    20.5580     2.1880 
  124.1250    -6.6370    83.7000     7.0480     5.9150     5.8460    20.5580     2.2000 
  124.2500    -6.5540    82.7690     6.9970     5.8340     5.5850    20.5580     2.2040 
  124.3750    -6.5890    86.9440     6.9900     5.7980     5.5150    20.5580     2.2000 
  124.5000    -6.7460    89.9200     7.0250     5.8080     5.6430    20.5580     2.1920 
  124.6250    -7.0710    84.4850     7.0950     5.8580     5.9020    20.5580     2.1840 
  124.7500    -7.4900    78.5450     7.1740     5.9290     6.2140    20.5580     2.1790 
  124.8750    -7.9870    78.8210     7.2480     6.0050     6.4310    20.5580     2.1730 
  125.0000    -8.4650    82.0600     7.3180     6.0820     6.4830    20.5580     2.1690 
  125.1250    -8.7520    82.2190     7.4050     6.1670     6.4670    20.5580     2.1680 
  125.2500    -8.8960    80.5800     7.5200     6.2640     6.4330    20.5580     2.1760 
  125.3750    -8.9910    79.8380     7.6550     6.3690     6.4230    20.5580     2.1930 
  125.5000    -9.0470    79.7400     7.7820     6.4670     6.4970    20.5580     2.2100 
  125.6250    -9.0210    78.8840     7.8490     6.5270     6.5810    20.5580     2.2130 
  125.7500    -8.9650    78.7040     7.8380     6.5330     6.6080    20.5580     2.1990 
  125.8750    -8.8760    79.2480     7.7630     6.4880     6.5960    20.5580     2.1750 
  126.0000    -8.7950    79.7730     7.6620     6.4120     6.4910    20.5580     2.1520 
  126.1250    -8.7450    80.6730     7.5770     6.3350     6.4010    20.5580     2.1420 
  126.2500    -8.7320    81.2420     7.5220     6.2730     6.3820    20.5580     2.1390 
  126.3750    -8.7010    81.7670     7.4840     6.2290     6.3860    20.5580     2.1390 
  126.5000    -8.6030    83.1060     7.4440     6.1960     6.2810    20.5580     2.1380 
  126.6250    -8.4840    84.2880     7.3930     6.1640     6.1410    20.5580     2.1360 
  126.7500    -8.3110    82.7260     7.3490     6.1390     6.2090    20.5750     2.1350 
  126.8750    -8.1100    79.8300     7.3400     6.1370     6.4630    20.6560     2.1360 
  127.0000    -7.9650    78.5350     7.3950     6.1780     6.7390    20.9130     2.1380 
  127.1250    -7.9530    78.3780     7.5490     6.2900     6.8380    21.3710     2.1420 
  127.2500    -7.9680    77.6140     7.7800     6.4640     6.9740    21.9500     2.1460 
  127.3750    -8.0080    76.7010     8.0470     6.6780     7.0980    22.4610     2.1490 
  127.5000    -8.1410    74.8550     8.2910     6.8960     7.2380    22.8610     2.1470 
  127.6250    -8.3580    71.9340     8.4390     7.0650     7.5320    23.0890     2.1380 
  127.7500    -8.6410    69.2160     8.4880     7.1670     7.7970    23.1660     2.1250 
  127.8750    -8.9490    68.0760     8.4550     7.2040     7.9580    23.1790     2.1110 
  128.0000    -9.1680    68.1390     8.3740     7.1890     7.9840    23.1790     2.1000 
  128.1250    -9.2230    68.1440     8.2720     7.1370     8.0630    23.1790     2.0960 
  128.2500    -9.1600    67.6140     8.1520     7.0630     8.1750    23.1790     2.0990 
  128.3750    -8.9940    68.6320     7.9970     6.9570     8.1330    23.1790     2.1130 
  128.5000    -8.7010    75.5080     7.7860     6.8090     7.9790    23.1790     2.1380 
  128.6250    -8.2610    86.2080     7.5190     6.6160     7.9490    23.1750     2.1720 
  128.7500    -7.7430    91.0870     7.2650     6.4260     7.7180    23.1680     2.2050 
  128.8750    -7.2170    88.2580     7.1030     6.2980     7.0840    23.1670     2.2300 
  129.0000    -6.7730    83.6200     7.1010     6.2810     6.5300    23.1720     2.2440 
  129.1250    -6.4270    83.6420     7.2810     6.4030     6.3530    23.1760     2.2490 
  129.2500    -6.1030    84.8850     7.5260     6.5910     6.4640    23.1770     2.2510 
  129.3750    -5.8160    84.0180     7.7030     6.7550     6.5720    23.1700     2.2510 
  129.5000    -5.6310    82.8240     7.6930     6.8010     6.5710    23.1490     2.2530 
  129.6250    -5.5690    82.6320     7.4250     6.6540     6.6180    23.1060     2.2550 
