~V
VERS. 2.00: Ver 2.00
~W
STRT.M 50.0000:
STOP.M 300.0000:
STEP.M 0.1250:
NULL. -999.2500:
UWI. F10041:
~C
DEPT.M :
DEN.GM/CC :
GR.API :
RML.OHMM :
RI. :
RXO.OHMM :
CALI.CM :
SP.MV :
~A
# ...
  117.5000     2.1570    61.5510     7.2340     6.8310     7.2840    25.1010   -22.4850 
  117.6250     2.1390    58.3100     7.2420     6.8610     7.1740    25.2730   -22.4510 
  117.7500     2.1270    58.4260     7.2180     6.8450     6.9470    25.1390   -22.4130 
  117.8750     2.1280    61.5550     7.1550     6.7830     6.5170    24.8170   -22.3890 
  118.0000     2.1380    66.0170     7.0690     6.7010     6.6500    24.3850   -22.3030 
  118.1250     2.1500    69.2250     7.0200     6.6540     6.8510    24.0790   -22.1910 
  118.2500     2.1540    69.0740     7.0410     6.6740     7.5140    24.0470   -22.0070 
  118.3750     2.1510    67.1030     7.1340     6.7640     7.8240    24.1520   -21.8050 
  118.5000     2.1460    65.0790     7.2820     6.9060     8.0560    24.3200   -21.7370 
  118.6250     2.1460    62.9230     7.4490     7.0670     8.1620    24.4300   -21.8000 
  118.7500     2.1500    59.7630     7.5900     7.2020     8.3480    24.4750   -21.9410 
  118.8750     2.1500    58.0660     7.6730     7.2820     8.4370    24.4320   -22.0830 
  119.0000     2.1410    59.4650     7.6820     7.2900     8.1740    24.2970   -22.1960 
  119.1250     2.1210    60.9150     7.6080     7.2190     8.1710    24.0800   -22.3090 
  119.2500     2.1030    60.6100     7.4850     7.1010     8.4710    23.6710   -22.4760 
  119.3750     2.0980    59.8140     7.3430     6.9650     8.4220    23.2040   -22.5900 
  119.5000     2.1120    60.0480     7.2200     6.8460     8.3820    23.0150   -22.5480 
  119.6250     2.1430    61.2580     7.1690     6.7980     8.4840    23.1080   -22.4070 
  119.7500     2.1750    64.0590     7.2000     6.8270     8.4540    23.2590   -22.1170 
  119.8750     2.1950    67.5370     7.2900     6.9130     8.4390    23.4120   -21.7720 
  120.0000     2.1960    69.8600     7.3900     7.0100     8.4530    23.5150   -21.4980 
  120.1250     2.1750    70.4240     7.4500     7.0670     8.4280    23.5470   -21.2310 
  120.2500     2.1470    69.9120     7.4680     7.0850     8.2630    23.5090   -20.9420 
  120.3750     2.1240    68.9040     7.4680     7.0850     8.1680    23.4600   -20.7000 
  120.5000     2.1120    67.1800     7.4700     7.0870     8.1580    23.3680   -20.4550 
  120.6250     2.1120    64.3530     7.4680     7.0840     8.3690    23.1690   -20.1830 
  120.7500     2.1160    63.0590     7.4490     7.0660     8.5280    22.8680   -20.0210 
  120.8750     2.1260    64.9650     7.4340     7.0520     8.3120    22.5830   -19.8640 
  121.0000     2.1540    68.5650     7.4860     7.1020     7.9730    22.6400   -19.5560 
  121.1250     2.2140    70.0620     7.7210     7.3280     8.0310    23.1100   -19.1420 
  121.2500     2.2960    69.4460     8.1460     7.7360     8.8120    23.5440   -18.6280 
  121.3750     2.3730    69.4750     8.6730     8.2430    11.0910    23.6600   -18.0200 
  121.5000     2.4140    72.6070     9.1090     8.6630    17.2540    23.7910   -17.3990 
  121.6250     2.3950    77.4720     9.1600     8.7120    18.1530    23.9570   -16.7970 
  121.7500     2.3370    77.6260     8.7970     8.3630    12.7970    24.0320   -16.3460 
  121.8750     2.2680    71.9880     8.1590     7.7490     7.8190    23.9240   -16.1690 
  122.0000     2.2100    66.5790     7.4890     7.1040     6.7840    23.5830   -16.4000 
  122.1250     2.1750    65.9680     7.0360     6.6690     6.9720    23.1320   -17.0580 
  122.2500     2.1580    66.6970     6.8260     6.4670     7.0910    22.9340   -17.9370 
  122.3750     2.1530    66.6690     6.7860     6.4290     7.0560    22.8230   -18.9380 
  122.5000     2.1560    67.5420     6.8050     6.4470     6.8310    22.7330   -19.9200 
  122.6250     2.1610    69.2520     6.7930     6.4350     6.4000    22.6560   -20.8050 
  122.7500     2.1610    68.8240     6.7520     6.3970     6.2640    22.5800   -21.4480 
  122.8750     2.1540    65.2740     6.7310     6.3760     6.5700    22.5600   -21.8080 
  123.0000     2.1420    60.3980     6.7710     6.4150     6.9500    22.6560   -21.9630 
  123.1250     2.1290    58.2800     6.8950     6.5330     7.3270    22.9770   -21.9570 
  123.2500     2.1220    59.7050     7.0640     6.6960     7.6840    23.3700   -21.8060 
  123.3750     2.1210    62.5740     7.2410     6.8660     7.8940    23.5120   -21.5330 
  123.5000     2.1260    64.4410     7.3840     7.0030     7.9940    23.3560   -21.2470 
  123.6250     2.1330    63.7360     7.4550     7.0720     7.9670    23.2020   -20.9210 
  123.7500     2.1390    62.7550     7.4640     7.0810     7.7080    23.1630   -20.5740 
  123.8750     2.1460    62.8890     7.4300     7.0480     7.5310    23.1990   -20.2930 
  124.0000     2.1530    64.6200     7.3820     7.0020     7.5410    23.2870   -19.9200 
  124.1250     2.1580    66.3010     7.3610     6.9820     7.4540    23.4290   -19.3120 
  124.2500     2.1560    66.3330     7.3950     7.0140     7.2190    23.5450   -18.7130 
  124.3750     2.1480    66.3730     7.4890     7.1050     6.9680    23.4010   -18.1290 
  124.5000     2.1390    68.7540     7.6210     7.2320     7.1170    23.1440   -17.5060 
  124.6250     2.1410    72.7330     7.7090     7.3160     8.6220    23.2270   -16.9330 
  124.7500     2.1620    78.0360     7.6610     7.2710    10.1800    23.6490   -16.2770 
  124.8750     2.1950    85.7240     7.4240     7.0420     8.6370    24.0140   -15.3620 
  125.0000     2.2290    93.6240     7.0190     6.6420     6.1890    23.9970   -14.2750 
  125.1250     2.2510    95.4170     6.5070     6.1520     5.0200    23.6920   -13.0760 
  125.2500     2.2590    92.8350     5.9860     5.7100     4.8970    23.3520   -11.8330 
  125.3750     2.2610    90.3010     5.5510     5.3900     5.5600    23.0530   -10.6320 
  125.5000     2.2620    90.1230     5.2840     5.2140     6.2490    22.7440    -9.5350 
  125.6250     2.2680    91.9510     5.2160     5.1660     6.1570    22.2830    -8.6230 
  125.7500     2.2720    94.1700     5.2320     5.1750     5.7850    21.5140    -7.8750 
  125.8750     2.2680    95.3690     5.2570     5.2170     5.4680    20.4590    -7.3720 
  126.0000     2.2540    94.8410     5.2830     5.2920     5.4940    19.3780    -7.0830 
  126.1250     2.2370    92.0540     5.3700     5.4160     5.8000    18.7370    -6.9570 
  126.2500     2.2280    87.5750     5.5230     5.5660     6.0440    18.5860    -6.9570 
  126.3750     2.2330    84.0400     5.6910     5.6980     6.3170    18.7920    -7.0370 
  126.5000     2.2460    83.5080     5.8110     5.7680     6.6010    19.2280    -7.1520 
  126.6250     2.2550    84.5200     5.8250     5.7370     6.3450    19.9050    -7.2350 
  126.7500     2.2550    83.3370     5.7340     5.6280     5.8270    20.7730    -7.2900 
  126.8750     2.2460    80.5840     5.5760     5.4740     5.4680    21.7960    -7.2610 
  127.0000     2.2340    80.1070     5.4420     5.3140     5.3360    22.7970    -7.2020 
  127.1250     2.2230    81.9040     5.4090     5.2000     5.4350    23.4010    -7.2570 
  127.2500     2.2170    81.3170     5.4440     5.1570     5.5970    23.6290    -7.2430 
  127.3750     2.2140    78.3600     5.5000     5.1940     5.6760    23.6750    -7.1910 
  127.5000     2.2170    76.8090     5.5430     5.2860     5.5560    23.6800    -7.1710 
  127.6250     2.2260    77.1280     5.5520     5.3630     5.8720    23.7210    -7.1290 
  127.7500     2.2340    78.9750     5.5290     5.3600     6.1020    23.8690    -7.0830 
  127.8750     2.2350    82.7820     5.4910     5.2600     6.0420    24.1590    -7.0850 
  128.0000     2.2300    87.4440     5.4750     5.1140     5.5970    24.4440    -7.0260 
  128.1250     2.2340    87.5040     5.5550     5.0560     5.3660    24.5990    -6.8030 
  128.2500     2.2620    82.4670     5.7610     5.1850     5.2900    24.5500    -6.6020 
  128.3750     2.3130    75.4720     6.0800     5.5210     5.8680    24.3950    -6.3870 
  128.5000     2.3690    70.1330     6.4440     5.9740     7.9460    24.2460    -6.1900 
  128.6250     2.4010    71.4690     6.6960     6.3120     9.9550    24.1940    -5.9640 
