~V
VERS. 2.00: Ver 2.00
~W
STRT.M 51.0000:
STOP.M 242.0000:
STEP.M 0.1250:
NULL. -999.2500:
UWI. F10056:
~C
DEPT.M :
GR.API :
RML.OHMM :
RI. :
RXO.OHMM :
CALI.CM :
SP.MV :
DEN.GM/CC :
~A
# ...
  219.7500    64.1110    10.1460     8.8810     8.9220    25.1420   -10.4420     2.3330 
  219.8750    65.1760    10.2450     8.9880     8.1780    25.1710   -10.4290     2.3120 
  220.0000    65.8290    10.4390     9.1570     7.0140    25.3500   -10.4050     2.3020 
  220.1250    61.4880    10.8510     9.4700     7.3950    25.6000   -10.3760     2.3260 
  220.2500    56.3950    11.4120     9.8860     9.7770    25.5860   -10.3140     2.3750 
  220.3750    54.3880    11.9440    10.2850    13.4600    25.2560   -10.2050     2.4310 
  220.5000    53.8430    12.1960    10.4780    16.3790    24.9480   -10.0730     2.4690 
  220.6250    53.3790    11.9030    10.2320    15.6150    24.8070    -9.9530     2.4730 
  220.7500    54.8070    11.2020     9.6330    13.5460    24.7160    -9.8700     2.4570 
  220.8750    57.6720    10.3360     8.8590    11.1590    24.6510    -9.8380     2.4340 
  221.0000    59.6700     9.5710     8.1190     8.5180    24.5790    -9.8630     2.4170 
  221.1250    60.6620     9.1420     7.6050     7.8240    24.4880    -9.8680     2.4080 
  221.2500    61.5990     9.0380     7.3430     7.5230    24.4040    -9.8730     2.3980 
  221.3750    61.3240     9.2060     7.3180     7.4170    24.3290    -9.8990     2.3770 
  221.5000    59.3420     9.5680     7.4900     7.4590    24.3010    -9.9710     2.3470 
  221.6250    59.2500    10.0790     7.8370     7.6970    24.3470   -10.0610     2.3170 
  221.7500    61.8690    10.6780     8.2950     7.6330    24.3640   -10.1140     2.3040 
  221.8750    63.8990    11.3360     8.8330     7.8410    24.3260   -10.1660     2.3170 
  222.0000    63.9870    12.0090     9.4060     9.0180    24.2760   -10.2220     2.3580 
  222.1250    65.1550    12.5960     9.9310    11.6610    24.2020   -10.3190     2.4170 
  222.2500    68.4450    13.0140    10.3320    13.9800    24.0990   -10.4360     2.4700 
  222.3750    70.7290    13.2190    10.5590    13.9050    23.9800   -10.5780     2.4980 
  222.5000    68.6100    13.2230    10.6110    13.7250    23.8790   -10.6760     2.4900 
  222.6250    65.1180    13.0860    10.5260    13.2140    23.8540   -10.7420     2.4460 
  222.7500    64.6920    12.9300    10.4000    10.6460    23.9490   -10.8490     2.3920 
  222.8750    66.2290    12.8220    10.2900     8.1910    24.2140   -11.0060     2.3490 
  223.0000    65.7780    12.7820    10.2200     7.4430    24.5160   -11.1640     2.3260 
  223.1250    62.7900    12.7840    10.1870     7.8630    24.6460   -11.2940     2.3240 
  223.2500    62.5780    12.7700    10.1550     8.3510    24.6760   -11.3570     2.3330 
  223.3750    64.3930    12.7010    10.1000     8.2900    24.6490   -11.3890     2.3500 
  223.5000    65.0670    12.5610    10.0050     8.0410    24.5840   -11.3670     2.3770 
  223.6250    65.2690    12.3440     9.8540     7.9290    24.4800   -11.3160     2.4100 
  223.7500    65.7610    12.0780     9.6650     8.3090    24.3870   -11.2420     2.4350 
  223.8750    64.5130    11.7820     9.4470     8.5830    24.2130   -11.1110     2.4410 
  224.0000    60.7340    11.4700     9.2110     8.5020    24.0530   -10.9670     2.4230 
  224.1250    58.6400    11.1650     8.9720     8.2670    24.0700   -10.8620     2.3910 
  224.2500    59.3500    10.8980     8.7620     8.1070    24.2170   -10.8390     2.3680 
  224.3750    60.8640    10.7160     8.6210     8.3030    24.3520   -10.9010     2.3620 
  224.5000    62.1280    10.6710     8.5960     9.1360    24.4650   -11.1160     2.3740 
  224.6250    63.5370    10.8450     8.7560     9.9360    24.5110   -11.4300     2.3950 
  224.7500    64.9970    11.2090     9.0760    10.1810    24.5140   -11.8480     2.4130 
  224.8750    66.3870    11.7100     9.5190    10.0930    24.4940   -12.4290     2.4250 
  225.0000    67.8420    12.2460    10.0100    10.2660    24.5230   -13.1290     2.4300 
  225.1250    68.7940    12.6320    10.4100    10.8700    24.5820   -13.9110     2.4250 
  225.2500    68.2530    12.7410    10.6030    10.4050    24.6210   -14.7610     2.4100 
  225.3750    67.6050    12.5240    10.5300     9.7900    24.6600   -15.6470     2.3870 
  225.5000    67.7550    12.0260    10.2060     9.2920    24.7610   -16.5700     2.3630 
  225.6250    66.9470    11.3600     9.7060     8.1520    24.8310   -17.6300     2.3490 
  225.7500    64.2820    10.7130     9.1830     7.3260    24.9010   -18.7180     2.3480 
  225.8750    61.3490    10.1980     8.7360     6.9240    24.9140   -19.7390     2.3590 
  226.0000    59.2230     9.8840     8.4280     6.8130    24.9030   -20.6420     2.3750 
  226.1250    57.7130     9.8120     8.3100     6.9090    24.9350   -21.4550     2.3930 
  226.2500    57.5170     9.8960     8.3340     7.1190    25.0080   -22.1120     2.4110 
  226.3750    58.2720    10.0500     8.4440     7.2800    25.0190   -22.5660     2.4340 
  226.5000    58.1760    10.1730     8.5640     7.0900    24.8940   -22.7220     2.4610 
  226.6250    56.1230    10.1680     8.6090     6.9100    24.6570   -22.4490     2.4900 
  226.7500    53.6800    10.0480     8.5650     7.0430    24.5900   -21.7970     2.5110 
  226.8750    52.7440     9.8640     8.4560     7.3590    24.6640   -20.9520     2.5160 
  227.0000    53.6520     9.6980     8.3380     7.6790    24.7850   -20.0120     2.5030 
  227.1250    55.7020     9.6640     8.2950     7.9420    24.8410   -18.8990     2.4760 
  227.2500    57.7340     9.7960     8.3700     7.8850    24.8560   -17.7190     2.4520 
  227.3750    60.3660    10.0850     8.5700     8.0180    24.8620   -16.5130     2.4380 
  227.5000    63.5530    10.4730     8.8640     8.0820    24.8380   -15.3850     2.4340 
  227.6250    66.2170    10.8760     9.1960     8.1830    24.7610   -14.4500     2.4310 
  227.7500    68.2640    11.2240     9.5070     8.4110    24.6860   -13.7320     2.4250 
  227.8750    69.3680    11.5130     9.7810     9.5050    24.7320   -13.1300     2.4190 
  228.0000    68.5580    11.7940    10.0440    11.2270    24.8120   -12.6270     2.4240 
  228.1250    66.4610    12.1570    10.3550    12.5010    24.8510   -12.2700     2.4480 
  228.2500    65.9280    12.6210    10.7360    12.8610    24.8550   -12.0450     2.4800 
  228.3750    67.4290    13.1350    11.1640    12.9660    24.8530   -11.9010     2.5060 
  228.5000    69.3070    13.5870    11.5660    14.6400    24.8500   -11.7870     2.5130 
  228.6250    70.2130    13.8200    11.8270    15.5990    24.8160   -11.6670     2.4910 
  228.7500    70.6980    13.8400    11.9280    16.9250    24.7260   -11.5330     2.4540 
  228.8750    71.1310    13.7440    11.9250    16.1320    24.6550   -11.3790     2.4180 
  229.0000    71.4840    13.6630    11.9040    14.2440    24.7310   -11.1710     2.3950 
  229.1250    71.8490    13.6980    11.9460    14.4470    24.8460   -10.9960     2.3940 
  229.2500    70.3610    13.8110    12.0410    16.3030    24.7990   -10.8250     2.4060 
  229.3750    66.7470    13.9180    12.1440    18.0690    24.6810   -10.6490     2.4210 
  229.5000    64.5900    13.9200    12.1860    17.0640    24.5760   -10.5680     2.4320 
  229.6250    65.7350    13.7500    12.1070    13.7870    24.3710   -10.5830     2.4350 
  229.7500    66.3440    13.4800    11.9450    12.5880    24.0980   -10.6420     2.4340 
  229.8750    64.7230    13.1890    11.7530    12.1770    23.9220   -10.6960     2.4320 
  230.0000    64.2550    12.9460    11.5850    12.1310    23.9920   -10.7300     2.4300 
  230.1250    67.4950    12.8050    11.4920    12.5880    24.1550   -10.7350     2.4280 
  230.2500    69.6100    12.7430    11.4660    11.8380    24.2550   -10.7200     2.4220 
  230.3750    68.5680    12.7470    11.4950    10.0860    24.3190   -10.8120     2.4100 
  230.5000    66.5300    12.8160    11.5760    10.1330    24.3430   -10.8730     2.3960 
  230.6250    66.0250    12.9610    11.7170    10.6600    24.3370   -10.8350     2.3890 
  230.7500    66.2000    13.1370    11.8860    11.8300    24.3790   -10.7810     2.3930 
  230.8750    66.1910    13.2880    12.0440    12.1770    24.3670   -10.7730     2.4030 
