~V
VERS. 2.00: Ver 2.00
~W
STRT.M 56.0000:
STOP.M 235.0000:
STEP.M 0.1250:
NULL. -999.2500:
UWI. F10014:
~C
DEPT.M :
GR.API :
RML.OHMM :
RI. :
RXO.OHMM :
CALI.CM :
DEN.GM/CC :
SP.MV :
~A
# ...
  157.2500    52.5720    16.3120    15.6170    16.0500    25.2380     2.4720    -8.5000 
  157.3750    55.0420    16.1460    15.3880    15.7520    25.2110     2.4850    -8.6050 
  157.5000    56.8190    15.9700    15.2180    15.6830    25.1790     2.5010    -8.6880 
  157.6250    57.4060    15.7300    15.0170    15.8940    25.1670     2.5100    -8.7400 
  157.7500    57.8790    15.5320    14.8400    15.8440    25.1880     2.5060    -8.7840 
  157.8750    57.5410    15.4630    14.7600    14.5210    25.2320     2.4890    -8.8620 
  158.0000    56.3720    15.5560    14.8160    13.9780    25.2410     2.4650    -9.0000 
  158.1250    56.6440    15.8100    15.0210    14.6480    25.1620     2.4420    -9.1640 
  158.2500    58.1020    16.1560    15.3150    15.9270    25.0420     2.4310    -9.2860 
  158.3750    58.5200    16.5540    15.6620    16.7210    24.8980     2.4320    -9.3620 
  158.5000    58.0640    16.9670    16.0230    15.8850    24.7490     2.4410    -9.4310 
  158.6250    57.3100    17.3230    16.3320    16.3060    24.6740     2.4550    -9.5350 
  158.7500    55.2670    17.5680    16.5390    17.7760    24.6470     2.4690    -9.6530 
  158.8750    53.3500    17.6840    16.6290    18.4170    24.6500     2.4830    -9.7410 
  159.0000    53.8910    17.7080    16.6300    17.2540    24.6800     2.4970    -9.7600 
  159.1250    55.6370    17.7480    16.6240    15.6210    24.7700     2.5080    -9.7290 
  159.2500    57.8320    17.9050    16.6990    14.9880    24.8800     2.5150    -9.6950 
  159.3750    60.3830    18.2000    16.8880    15.5290    24.9170     2.5190    -9.6780 
  159.5000    61.5630    18.5720    17.1630    15.3980    24.7990     2.5220    -9.6240 
  159.6250    60.9540    18.8990    17.4470    16.1840    24.6030     2.5290    -9.4920 
  159.7500    60.2340    19.1140    17.6700    16.6650    24.4580     2.5380    -9.3490 
  159.8750    57.7320    19.2490    17.8310    16.5250    24.3990     2.5470    -9.2180 
  160.0000    52.0890    19.4030    17.9860    16.4970    24.3910     2.5510    -9.0850 
  160.1250    47.7770    19.6350    18.1810    17.3740    24.4520     2.5460    -8.9600 
  160.2500    46.8890    19.8230    18.3410    18.3630    24.5580     2.5330    -8.8410 
  160.3750    46.9420    19.7950    18.3340    18.6280    24.7520     2.5180    -8.7130 
  160.5000    48.7790    19.4360    18.0550    18.7000    24.9500     2.5060    -8.6250 
  160.6250    52.4430    18.7280    17.4660    17.5290    25.0200     2.5060    -8.5830 
  160.7500    53.9530    17.9180    16.7540    16.0080    25.0220     2.5170    -8.5060 
  160.8750    52.7020    17.2160    16.0970    15.2290    25.0600     2.5310    -8.4590 
  161.0000    51.1660    16.7480    15.6220    16.1170    25.1490     2.5420    -8.5000 
  161.1250    50.7730    16.5710    15.4080    15.7800    25.2300     2.5440    -8.6050 
  161.2500    50.5520    16.6150    15.4130    16.0270    25.2140     2.5400    -8.6900 
  161.3750    51.1870    16.8590    15.6210    17.2040    25.1280     2.5350    -8.7500 
  161.5000    52.4600    17.2770    16.0070    17.2670    25.0900     2.5330    -8.8120 
  161.6250    52.4260    17.8430    16.5480    17.5300    25.1050     2.5380    -8.8910 
  161.7500    50.2300    18.4500    17.1490    18.5300    25.0750     2.5490    -8.9910 
  161.8750    47.2920    18.9520    17.6840    20.3620    25.0030     2.5620    -9.0410 
  162.0000    45.6850    19.1780    17.9900    20.1750    24.9530     2.5740    -8.9940 
  162.1250    45.6260    18.9590    17.8810    18.9690    24.9610     2.5760    -8.8880 
  162.2500    47.5230    18.4080    17.4370    17.8800    24.9680     2.5680    -8.8300 
  162.3750    51.9030    17.6750    16.7850    17.0740    24.9650     2.5550    -8.8050 
  162.5000    56.6170    16.9450    16.0900    16.2130    24.9330     2.5420    -8.7780 
  162.6250    57.2920    16.4000    15.5270    15.4810    24.8650     2.5330    -8.7400 
  162.7500    55.5560    16.0890    15.1660    14.6820    24.8080     2.5260    -8.6850 
  162.8750    53.8410    16.0170    15.0300    13.7410    24.8020     2.5190    -8.6250 
  163.0000    51.8480    16.1620    15.1050    13.2480    24.7980     2.5140    -8.5910 
  163.1250    50.6320    16.5060    15.3830    13.5660    24.7410     2.5120    -8.5870 
  163.2500    52.0740    16.9590    15.7740    14.5130    24.6620     2.5150    -8.6190 
  163.3750    53.8860    17.4650    16.2180    15.8110    24.6190     2.5200    -8.7290 
  163.5000    53.9030    17.9790    16.6620    17.7850    24.5960     2.5240    -8.8470 
  163.6250    53.1190    18.4570    17.0550    19.3390    24.6020     2.5270    -8.8990 
  163.7500    52.3980    18.8690    17.3730    20.3270    24.6210     2.5310    -8.9520 
  163.8750    50.8990    19.1740    17.5920    20.0940    24.6270     2.5390    -9.0680 
  164.0000    50.4510    19.3260    17.6820    19.9540    24.6040     2.5490    -9.2500 
  164.1250    53.4180    19.2720    17.5960    19.4430    24.5570     2.5610    -9.4330 
  164.2500    56.3410    19.0890    17.3880    19.3960    24.5260     2.5710    -9.5500 
  164.3750    56.1970    18.8850    17.1440    18.9060    24.5160     2.5780    -9.5920 
  164.5000    54.5180    18.7970    16.9780    18.1280    24.5090     2.5820    -9.6470 
  164.6250    53.6760    18.9820    17.0320    18.1880    24.4910     2.5830    -9.7790 
  164.7500    53.7770    19.4330    17.3160    19.5030    24.4550     2.5810    -9.9020 
  164.8750    54.7690    20.0810    17.7950    20.8370    24.4220     2.5760    -9.9360 
  165.0000    56.4100    20.7900    18.3710    21.7270    24.4120     2.5690    -9.8970 
  165.1250    57.3220    21.3570    18.8860    22.3330    24.4380     2.5620    -9.8460 
  165.2500    55.9630    21.6720    19.2160    22.4810    24.4610     2.5570    -9.8290 
  165.3750    53.6550    21.7140    19.3110    22.8350    24.4650     2.5550    -9.8200 
  165.5000    52.5690    21.5480    19.1980    23.2270    24.4580     2.5560    -9.7600 
  165.6250    53.3880    21.2610    18.9320    21.2860    24.4510     2.5610    -9.6360 
  165.7500    56.0560    20.9200    18.5840    20.6080    24.4510     2.5680    -9.5080 
  165.8750    59.3330    20.4960    18.1410    20.5640    24.4600     2.5730    -9.4230 
  166.0000    61.6190    19.9600    17.5880    20.3390    24.5310     2.5720    -9.3570 
  166.1250    61.9630    19.3480    16.9640    19.5220    24.7480     2.5570    -9.2720 
  166.2500    61.8880    18.7970    16.3860    18.1510    25.0170     2.5310    -9.1470 
  166.3750    62.5050    18.4350    15.9550    17.0920    25.1720     2.5010    -8.9930 
  166.5000    62.9420    18.3380    15.7330    16.2200    25.2000     2.4730    -8.8240 
  166.6250    61.6230    18.5100    15.7380    16.7690    25.1890     2.4540    -8.6560 
  166.7500    59.3040    18.7570    15.8380    18.2130    25.1520     2.4470    -8.5140 
  166.8750    57.0950    18.9210    15.9210    19.2940    25.0940     2.4510    -8.3980 
  167.0000    55.3670    18.9210    15.9180    18.1990    25.0030     2.4660    -8.2560 
  167.1250    52.6700    18.7910    15.8360    17.2610    24.8820     2.4860    -8.1280 
  167.2500    49.0470    18.6810    15.7660    16.5500    24.8230     2.5060    -8.0320 
  167.3750    46.6300    18.6630    15.7640    16.6570    24.8730     2.5190    -7.9610 
  167.5000    46.4610    18.7060    15.8250    17.3750    24.9360     2.5260    -7.9500 
  167.6250    47.8720    18.6690    15.8690    18.6460    24.9840     2.5280    -8.0210 
  167.7500    49.8170    18.4650    15.8190    19.1960    25.0610     2.5280    -8.1060 
  167.8750    52.1910    18.1470    15.6770    18.4730    25.1380     2.5260    -8.1530 
  168.0000    54.9710    17.8930    15.5350    17.2880    25.1930     2.5220    -8.2220 
  168.1250    57.1280    17.8870    15.5070    16.3040    25.1950     2.5190    -8.3360 
  168.2500    56.7400    17.9440    15.4840    15.7230    25.1790     2.5250    -8.4440 
  168.3750    54.3440    17.6560    15.1740    15.4370    25.1510     2.5420    -8.5220 
