~V
VERS. 2.00: Ver 2.00
~W
STRT.M 50.0000:
STOP.M 265.0000:
STEP.M 0.1250:
NULL. -999.2500:
UWI. F10025:
~C
DEPT.M :
SP.MV :
DEN.GM/CC :
GR.API :
CALI.CM :
RXO.OHMM :
RI. :
RML.OHMM :
~A
# ...
   72.5000   -19.1460     2.2400    99.6200    23.8900     9.1970     4.8660     8.2500 
   72.6250   -19.5210     2.2090    90.9450    23.6380    10.2520     5.3580     9.1670 
   72.7500   -19.9600     2.1670    81.1090    23.2800    10.4130     6.1890    10.5250 
   72.8750   -20.3720     2.1320    75.7320    23.1980    10.8580     7.3660    12.3010 
   73.0000   -20.6770     2.1170    74.4370    23.4170    12.9700     8.6410    14.0480 
   73.1250   -20.8260     2.1450    73.9970    23.7780    16.7570     9.6560    15.1470 
   73.2500   -20.8720     2.2170    74.3110    23.9660    18.5560     9.9880    14.9670 
   73.3750   -20.8310     2.3120    76.7370    23.9000    15.3300     9.3640    13.4070 
   73.5000   -20.7380     2.3790    79.4110    23.7860    11.4110     8.2870    11.6150 
   73.6250   -20.6310     2.3520    81.5340    23.6010     9.4420     7.1700    10.2480 
   73.7500   -20.4940     2.2590    83.0940    23.3310     8.7680     6.2540     9.4450 
   73.8750   -20.3470     2.1580    84.0060    23.0080     8.3710     5.6780     9.1330 
   74.0000   -20.2130     2.0990    84.9240    22.6420     7.8430     5.3770     9.0370 
   74.1250   -20.1990     2.0930    86.6300    22.5540     7.4630     5.3030     9.0320 
   74.2500   -20.2130     2.1090    87.7750    22.9720     7.3910     5.4230     9.1250 
   74.3750   -20.2180     2.1250    86.1050    23.6870     7.9530     5.7370     9.4710 
   74.5000   -20.2920     2.1340    83.9860    24.2500     9.0990     6.1730    10.0300 
   74.6250   -20.4680     2.1400    81.9750    24.2810    10.6820     6.6400    10.6130 
   74.7500   -20.6430     2.1510    80.1980    24.1260    11.8540     7.0070    11.0100 
   74.8750   -20.7320     2.1640    79.6210    23.8710    11.6240     7.1460    11.0330 
   75.0000   -20.8170     2.1680    80.3350    23.5250    10.5660     7.1250    10.8130 
   75.1250   -20.7700     2.1560    80.6750    22.8720     9.6720     7.0520    10.5400 
   75.2500   -20.5180     2.1330    80.1300    22.2290     9.4420     7.0030    10.2980 
   75.3750   -19.9920     2.1050    79.5830    22.1860     9.7040     6.9600     9.9800 
   75.5000   -19.1330     2.0820    80.1840    22.8980     9.9120     6.8200     9.4410 
   75.6250   -18.0190     2.0730    85.3920    23.7630     9.4670     6.4900     8.6570 
   75.7500   -16.7790     2.0850    97.4440    24.2240     7.8430     5.9550     7.7560 
   75.8750   -15.5390     2.1250   112.6860    24.3780     5.9550     5.3100     6.9890 
   76.0000   -14.3450     2.1900   124.7580    24.3890     4.8100     4.7210     6.5060 
   76.1250   -13.2510     2.2530   130.8910    24.3230     4.4950     4.2680     6.2930 
   76.2500   -12.3810     2.2860   130.7180    24.2870     4.4450     3.9690     6.2450 
   76.3750   -11.7750     2.2890   127.1700    24.2970     4.5160     3.8380     6.2820 
   76.5000   -11.4900     2.2860   123.9770    24.3180     4.7990     3.8620     6.4010 
   76.6250   -11.4810     2.2930   120.9510    24.3140     5.2960     4.0940     6.7030 
   76.7500   -11.7040     2.2980   116.0360    24.2890     6.1660     4.6110     7.3610 
   76.8750   -12.1000     2.2940   108.8220    24.2650     9.9780     5.5650     8.6380 
   77.0000   -12.6060     2.2890   101.5210    24.2530    17.2430     6.8930    10.4320 
   77.1250   -13.2530     2.3080    93.9730    24.2430    21.4790     8.3720    12.3550 
   77.2500   -13.9330     2.3380    85.9950    24.2080    18.4860     9.5380    13.6380 
   77.3750   -14.6590     2.3490    80.4150    24.1520    12.5020     9.8000    13.4600 
   77.5000   -15.4370     2.3180    80.6850    24.1170     9.5910     9.3610    12.3980 
   77.6250   -16.2540     2.2560    86.0500    24.0360     8.6450     8.6520    11.2650 
   77.7500   -17.0650     2.2000    90.8490    23.8190     8.6860     8.0660    10.6190 
   77.8750   -17.8580     2.1670    89.0840    23.4980     9.2300     7.8390    10.6500 
   78.0000   -18.6450     2.1550    84.2330    23.2630     9.8600     7.8880    11.0400 
   78.1250   -19.3320     2.1610    79.3520    23.2010    10.9860     8.0820    11.5230 
   78.2500   -19.9630     2.1700    76.8080    23.1940    12.1530     8.2580    11.8710 
   78.3750   -20.5940     2.1760    77.2430    23.1940    12.4710     8.2440    11.8760 
   78.5000   -21.1400     2.1760    77.0240    23.1890    11.6490     8.0470    11.5630 
   78.6250   -21.5370     2.1700    75.1320    23.1400    10.7890     7.7480    11.0420 
   78.7500   -21.8630     2.1580    72.0180    23.0410    10.2370     7.4540    10.4970 
   78.8750   -22.1530     2.1360    71.0530    22.9470    10.1620     7.2650    10.1300 
   79.0000   -22.3480     2.1120    72.4550    22.9270    10.2820     7.1840    10.0170 
   79.1250   -22.4530     2.0980    73.2900    23.0540    10.3930     7.1730    10.1840 
   79.2500   -22.4850     2.0930    73.0390    23.3600    10.4190     7.1750    10.5500 
   79.3750   -22.4580     2.0930    73.2380    23.7840    10.3470     7.1540    10.9070 
   79.5000   -22.4330     2.0970    75.0600    24.0930    10.1560     7.1200    11.1120 
   79.6250   -22.3830     2.1040    77.3880    24.2220     9.9970     7.0890    11.1270 
   79.7500   -22.3110     2.1090    78.9000    24.2520     9.9360     7.0730    10.9680 
   79.8750   -22.2080     2.1100    79.1950    24.2570     9.8580     7.0690    10.7190 
   80.0000   -22.0680     2.1100    77.7230    24.2570     9.6980     7.0500    10.4880 
   80.1250   -21.9870     2.1110    76.5050    24.2570     9.5440     6.9970    10.2870 
   80.2500   -21.9270     2.1130    77.2830    24.2570     9.4610     6.9030    10.0810 
   80.3750   -21.8590     2.1120    79.2670    24.2520     9.3870     6.7760     9.8750 
   80.5000   -21.7440     2.1020    80.6800    24.2270     9.2200     6.6510     9.7180 
   80.6250   -21.7340     2.0890    80.7860    24.1260     9.0270     6.5600     9.6070 
   80.7500   -21.7810     2.0780    79.9470    23.9560     8.9110     6.5320     9.5650 
   80.8750   -21.8780     2.0720    77.3400    23.7830     8.9740     6.5890     9.6520 
   81.0000   -21.9880     2.0700    73.8680    23.6970     9.2180     6.6890     9.8280 
   81.1250   -22.0420     2.0750    72.3920    23.6580     9.5140     6.7780    10.0310 
   81.2500   -22.1320     2.0870    74.6700    23.5920     9.6320     6.8120    10.2110 
   81.3750   -22.2080     2.0950    78.7080    23.5340     9.4880     6.7620    10.3690 
   81.5000   -22.2380     2.0970    80.3250    23.6130     9.2150     6.6670    10.5360 
   81.6250   -22.2350     2.1000    79.5830    23.8440     9.0400     6.5610    10.6700 
   81.7500   -22.2230     2.1060    77.6390    24.0870     9.1260     6.4620    10.6780 
   81.8750   -22.1190     2.1060    74.5360    24.2090     9.4430     6.3650    10.4360 
   82.0000   -21.9880     2.0930    72.8850    24.2130     9.6400     6.2890    10.0590 
   82.1250   -21.8750     2.0800    72.9580    24.1530     9.6170     6.2930     9.7350 
   82.2500   -21.7110     2.0760    72.2760    24.1590     9.5900     6.4610     9.6660 
   82.3750   -21.5000     2.0760    69.2170    24.2330    10.2470     6.8910    10.0530 
   82.5000   -21.2930     2.0820    67.6060    24.3030    13.0730     7.5260    10.8080 
   82.6250   -21.0110     2.1160    68.9690    24.3290    18.9190     8.2420    11.7530 
   82.7500   -20.7040     2.1890    72.2270    24.3250    23.3460     8.8050    12.5410 
   82.8750   -20.4070     2.2840    75.9490    24.2620    20.3840     8.8610    12.6270 
   83.0000   -20.1520     2.3600    77.8510    24.0530    14.0450     8.4120    11.9930 
   83.1250   -19.9250     2.3570    76.8540    23.6460     9.9340     7.6450    10.9390 
   83.2500   -19.7160     2.2900    74.4010    23.3100     8.1360     6.8320     9.8620 
   83.3750   -19.5340     2.2060    75.4320    23.1250     7.1890     6.2230     9.1060 
   83.5000   -19.4570     2.1510    81.0620    22.9980     6.7950     5.8800     8.7550 
   83.6250   -19.4960     2.1440    87.6860    22.9340     7.1670     5.7990     8.7960 
