~V
VERS. 2.00: Ver 2.00
~W
STRT.M 64.0000:
STOP.M 220.0000:
STEP.M 0.1250:
NULL. -999.2500:
UWI. F10051:
~C
DEPT.M :
SP.MV :
GR.API :
RML.OHMM :
RI. :
RXO.OHMM :
CALI.CM :
DEN.GM/CC :
~A
# ...
  142.7500   -25.5740    56.2420   245.9210   226.8020   101.2050    24.3920     2.2360 
  142.8750   -25.7690    56.8290   233.7550   212.9090    76.0040    24.4300     2.2500 
  143.0000   -25.8730    56.9370   220.7260   196.1420    64.1990    24.4070     2.2710 
  143.1250   -25.9370    56.2070   201.1540   178.4300    67.2030    24.3990     2.2870 
  143.2500   -25.9730    55.6820   182.2160   162.6540    73.0240    24.5580     2.2910 
  143.3750   -26.0010    56.0340   167.8150   150.7840    77.3270    24.7550     2.2800 
  143.5000   -26.0130    57.2350   159.4250   143.8050    82.6620    24.8680     2.2600 
  143.6250   -25.9830    58.3190   156.9570   142.1530    91.0150    24.8910     2.2350 
  143.7500   -25.9460    58.7180   157.4460   143.4570    97.8200    24.8910     2.2070 
  143.8750   -25.9230    57.9900   158.5110   145.6160    99.3080    24.8770     2.1760 
  144.0000   -25.9280    57.3060   157.9960   146.5630    95.8220    24.8300     2.1520 
  144.1250   -25.9250    57.7700   154.2760   144.5290    87.1510    24.7060     2.1460 
  144.2500   -25.8970    58.8960   148.5120   140.2540    73.5380    24.4350     2.1590 
  144.3750   -25.8150    59.6810   142.6440   135.3350    59.7220    24.0550     2.1880 
  144.5000   -25.6710    60.8540   138.8680   131.8160    51.7880    23.6480     2.2210 
  144.6250   -25.5200    62.8770   139.4260   131.9580    52.8110    23.4370     2.2450 
  144.7500   -25.4120    64.6000   143.8970   135.7050    57.7270    23.3270     2.2570 
  144.8750   -25.2940    65.5280   151.2900   142.3050    64.6320    23.2580     2.2610 
  145.0000   -25.2010    64.1940   159.9030   150.2450    72.3240    23.1830     2.2600 
  145.1250   -25.1340    60.2470   167.5050   157.4050    79.8690    23.1180     2.2590 
  145.2500   -25.0850    56.7690   172.9460   162.5270    84.8120    23.1240     2.2590 
  145.3750   -25.0590    57.4840   176.2970   165.5240    90.0100    23.1960     2.2590 
  145.5000   -25.0670    60.9990   178.4440   167.1330    98.5310    23.2520     2.2600 
  145.6250   -25.1160    61.1910   180.4680   168.3390   104.4170    23.2650     2.2590 
  145.7500   -25.1370    57.5300   182.9580   169.8090   107.7900    23.2400     2.2570 
  145.8750   -25.1590    53.5860   185.9950   171.6780   109.5820    23.1770     2.2580 
  146.0000   -25.1710    53.5340   189.6350   174.0180   106.0090    23.1150     2.2620 
  146.1250   -25.1310    57.1860   194.3000   177.2310    96.9400    23.0750     2.2680 
  146.2500   -25.0270    61.3580   200.0360   181.4500    95.4010    23.0630     2.2710 
  146.3750   -24.8460    63.1050   206.3690   186.4010   110.3900    23.0710     2.2650 
  146.5000   -24.6150    61.1580   211.9730   191.0820   136.2150    23.0950     2.2500 
  146.6250   -24.2970    57.3140   214.2400   193.3980   156.7870    23.1370     2.2300 
  146.7500   -23.9230    55.0600   211.9740   192.1890   158.3860    23.1370     2.2130 
  146.8750   -23.5120    54.9390   205.0060   187.1170   141.0650    23.1320     2.2010 
  147.0000   -23.0220    55.9690   194.4610   178.9040   113.7380    23.1300     2.1990 
  147.1250   -22.5070    58.3950   182.0020   168.7840    87.8210    23.1270     2.2150 
  147.2500   -22.0120    60.0970   169.0900   158.0920    67.2690    23.1130     2.2480 
  147.3750   -21.5450    58.5540   155.6540   146.8360    53.1810    23.0960     2.2950 
  147.5000   -21.0880    55.8300   141.2410   134.5640    46.6370    23.1300     2.3430 
  147.6250   -20.6220    56.8350   125.8410   121.0160    49.2860    23.2790     2.3710 
  147.7500   -20.1450    59.4070   110.6150   107.1510    54.1810    23.5330     2.3750 
  147.8750   -19.6530    59.3830    96.5940    93.9590    55.7590    23.8700     2.3640 
  148.0000   -19.2020    57.7010    84.3580    82.1410    49.3430    24.1220     2.3540 
  148.1250   -18.7880    57.5160    74.3040    72.2420    38.7800    23.9530     2.3590 
  148.2500   -18.4080    57.9320    66.0690    64.0370    30.7560    23.4840     2.3710 
  148.3750   -18.0420    57.4860    59.9090    57.6740    25.7220    23.0540     2.3790 
  148.5000   -17.6940    55.5690    56.1640    53.4490    24.4380    22.9720     2.3760 
  148.6250   -17.4620    54.7970    55.5870    52.1090    27.0250    23.2580     2.3570 
  148.7500   -17.3030    56.9200    57.5810    53.3030    33.1160    23.7610     2.3310 
  148.8750   -17.2180    59.9810    61.5590    56.6530    42.4030    24.2560     2.3040 
  149.0000   -17.1630    60.6220    66.3130    61.3790    50.9000    24.4650     2.2790 
  149.1250   -17.1040    57.7210    70.9730    66.3680    52.2430    24.4120     2.2620 
  149.2500   -17.0590    55.2830    75.1570    70.6340    47.3980    24.2970     2.2620 
  149.3750   -17.0420    54.5200    79.3890    73.9240    38.9030    24.0660     2.2930 
  149.5000   -17.0650    54.5090    82.9790    76.5320    31.9740    23.5820     2.3610 
  149.6250   -17.0550    55.4830    86.2010    78.8290    31.2990    22.9860     2.4630 
  149.7500   -17.0350    55.5150    88.6920    80.6650    34.4260    22.6480     2.5650 
  149.8750   -17.0380    53.8410    89.4900    81.2930    37.6110    22.6320     2.6410 
  150.0000   -17.0900    52.2270    87.7530    79.9740    38.9630    22.8010     2.6760 
  150.1250   -17.2030    53.9430    83.0200    76.1850    37.7060    22.9190     2.6730 
  150.2500   -17.3220    57.4150    76.6100    70.8480    33.1830    22.8480     2.6580 
  150.3750   -17.5000    59.8870    69.4850    64.6490    30.3950    22.6980     2.6460 
  150.5000   -17.7310    60.8230    62.0490    57.9370    31.5070    22.6750     2.6440 
  150.6250   -18.0110    60.7030    54.0230    50.5290    34.5270    22.9660     2.6500 
  150.7500   -18.3810    61.1710    45.3180    42.4940    36.3820    23.3860     2.6490 
  150.8750   -18.8000    62.7890    36.3560    34.2900    34.1460    23.7380     2.6270 
  151.0000   -19.2380    65.3010    27.8670    26.7290    27.3680    23.9060     2.5800 
  151.1250   -19.7140    68.1300    21.1500    20.8300    19.5690    24.0110     2.5240 
  151.2500   -20.1810    71.9640    16.4540    16.5810    15.2250    24.1500     2.4810 
  151.3750   -20.5840    75.5380    13.7610    13.7640    12.6660    24.2390     2.4600 
  151.5000   -20.9040    76.5900    12.1920    12.0350    12.1520    24.2150     2.4570 
  151.6250   -21.0910    75.0460    11.5010    11.1860    11.9220    24.1840     2.4600 
  151.7500   -21.1360    74.2770    11.3570    10.8930    11.3640    24.2170     2.4590 
  151.8750   -21.0220    74.4490    11.7100    11.0930    10.5760    24.2760     2.4560 
  152.0000   -20.7340    74.4850    12.5600    11.7620    10.4020    24.2850     2.4610 
  152.1250   -20.2350    73.3470    13.8990    12.8970    11.7930    24.2090     2.4840 
  152.2500   -19.6690    72.3500    15.4160    14.2330    14.1520    24.1280     2.5170 
  152.3750   -19.0250    72.0750    16.7660    15.4680    16.7920    24.0760     2.5520 
  152.5000   -18.3410    72.2270    17.6000    16.2720    18.7160    24.0710     2.5780 
  152.6250   -17.6560    74.3740    17.6160    16.3170    18.2510    24.1000     2.5890 
  152.7500   -16.9650    77.5440    17.0710    15.7880    16.8980    24.1160     2.5900 
  152.8750   -16.3100    78.6940    16.3000    14.9780    14.9110    24.1180     2.5860 
  153.0000   -15.6920    76.5600    15.6610    14.2220    13.2890    24.1090     2.5770 
  153.1250   -15.1700    72.6090    15.4830    13.8340    12.8900    24.1080     2.5650 
  153.2500   -14.6970    69.6930    15.7450    13.8400    12.8870    24.1420     2.5580 
  153.3750   -14.2790    68.6600    16.3070    14.1510    13.4650    24.1850     2.5630 
  153.5000   -13.8550    69.5080    16.9040    14.5620    14.3070    24.1880     2.5840 
  153.6250   -13.4260    70.6050    17.1040    14.7230    14.9600    24.1360     2.6190 
  153.7500   -12.9880    71.3190    16.6720    14.4010    15.0800    24.0730     2.6470 
  153.8750   -12.5820    72.3850    15.5810    13.5250    13.4110    24.0520     2.6500 
