~V
VERS. 2.00: Ver 2.00
~W
STRT.M 50.0000:
STOP.M 278.0000:
STEP.M 0.1250:
NULL. -999.2500:
UWI. F10031:
~C
DEPT.M :
GR.API :
RML.OHMM :
RI. :
RXO.OHMM :
CALI.CM :
DEN.GM/CC :
SP.MV :
~A
# ...
  196.2500    43.8330     6.7030     5.7880     6.0890    23.7530     2.4280    -7.5710 
  196.3750    47.1120     6.8250     5.8690     6.3410    23.7030     2.4340    -7.6350 
  196.5000    51.6200     7.1040     6.0730     6.8100    23.6890     2.4360    -7.7060 
  196.6250    58.4030     7.5520     6.4230     7.5370    23.7100     2.4250    -7.7780 
  196.7500    64.9440     8.0750     6.8560     8.3720    23.7300     2.4020    -7.8270 
  196.8750    68.9080     8.5690     7.2950     9.0260    23.7620     2.3690    -7.8420 
  197.0000    70.1570     8.9120     7.6410     8.9800    23.8530     2.3360    -7.8390 
  197.1250    69.0870     8.9660     7.7680     8.3170    23.9790     2.3170    -7.8100 
  197.2500    65.9650     8.7580     7.6760     8.0040    23.9690     2.3190    -7.7770 
  197.3750    60.8460     8.3590     7.4040     7.8930    23.7190     2.3440    -7.7290 
  197.5000    55.5160     7.8780     7.0330     7.3500    23.4840     2.3880    -7.6520 
  197.6250    50.4250     7.4400     6.6630     6.7080    23.4690     2.4340    -7.5560 
  197.7500    45.2880     7.1050     6.3580     6.3170    23.6270     2.4570    -7.4800 
  197.8750    41.5730     6.8790     6.1360     6.1510    23.9070     2.4410    -7.4220 
  198.0000    40.6770     6.7380     5.9880     6.0330    24.3040     2.3830    -7.3660 
  198.1250    41.4220     6.6490     5.8970     5.8280    24.9070     2.2960    -7.3130 
  198.2500    41.2470     6.5710     5.8300     5.6330    25.5830     2.2160    -7.2520 
  198.3750    41.1350     6.4920     5.7710     5.5060    25.9360     2.1670    -7.1990 
  198.5000    41.7120     6.4160     5.7190     5.4760    25.7730     2.1620    -7.1640 
  198.6250    40.9970     6.3480     5.6750     5.5190    25.3440     2.2080    -7.1310 
  198.7500    38.0430     6.2850     5.6360     5.5680    24.9370     2.2760    -7.0990 
  198.8750    34.8340     6.2210     5.5980     5.5710    24.5580     2.3390    -7.0680 
  199.0000    34.1610     6.1570     5.5640     5.4810    24.1530     2.3700    -7.0320 
  199.1250    36.1100     6.1240     5.5530     5.3720    23.9600     2.3590    -6.9880 
  199.2500    38.0510     6.1540     5.5900     5.3730    24.0490     2.3260    -6.9360 
  199.3750    38.6810     6.2710     5.6930     5.5650    24.2860     2.2960    -6.8680 
  199.5000    39.3770     6.4720     5.8670     5.9650    24.4750     2.2870    -6.8130 
  199.6250    42.6130     6.7180     6.0900     6.5190    24.6170     2.3100    -6.7630 
  199.7500    46.5450     6.9340     6.3020     7.0270    24.7150     2.3530    -6.6910 
  199.8750    50.4480     7.0670     6.4580     7.2980    24.6760     2.4000    -6.6090 
  200.0000    55.4950     7.0990     6.5320     7.2730    24.4000     2.4320    -6.5410 
  200.1250    63.7200     7.0500     6.5230     7.0460    24.1690     2.4400    -6.5100 
  200.2500    72.7450     6.9890     6.4840     6.9150    24.0660     2.4330    -6.5220 
  200.3750    79.1420     6.9530     6.4470     6.9830    24.0400     2.4180    -6.5780 
  200.5000    81.7860     6.9500     6.4300     7.2140    24.0080     2.4030    -6.6470 
  200.6250    82.7180     6.9600     6.4280     7.5190    23.9520     2.3910    -6.7430 
  200.7500    83.5420     6.9560     6.4210     7.6600    23.9280     2.3840    -6.8660 
  200.8750    83.1340     6.9240     6.3970     7.5190    23.9380     2.3800    -6.9970 
  201.0000    80.4580     6.8600     6.3480     7.2150    23.9510     2.3780    -7.1110 
  201.1250    78.5260     6.7570     6.2670     7.0590    23.9520     2.3760    -7.2020 
  201.2500    79.7710     6.6230     6.1620     7.0930    23.9400     2.3720    -7.2760 
  201.3750    82.2470     6.4720     6.0460     7.1060    23.9210     2.3670    -7.3280 
  201.5000    83.1720     6.3440     5.9470     7.0140    23.9060     2.3630    -7.3710 
  201.6250    81.9080     6.3210     5.9290     6.9620    23.8870     2.3660    -7.4100 
  201.7500    80.1730     6.4560     6.0340     7.1600    23.8530     2.3770    -7.4660 
  201.8750    79.3150     6.7750     6.2910     7.7480    23.8270     2.3970    -7.5390 
  202.0000    79.6620     7.2470     6.6920     8.6030    23.8160     2.4180    -7.6460 
  202.1250    81.4040     7.7850     7.1810     9.3340    23.8110     2.4310    -7.7770 
  202.2500    82.3400     8.2560     7.6440     9.6850    23.8020     2.4290    -7.9130 
  202.3750    80.9660     8.5770     7.9960     9.7780    23.7880     2.4130    -8.0540 
  202.5000    78.6200     8.7260     8.1920     9.7350    23.7800     2.3930    -8.1880 
  202.6250    78.4450     8.7360     8.2320     9.7760    23.8020     2.3790    -8.3200 
  202.7500    80.4530     8.6950     8.2060    10.0240    23.8400     2.3760    -8.4240 
  202.8750    82.4410     8.6530     8.1790    10.4070    23.8690     2.3820    -8.5000 
  203.0000    82.4460     8.6680     8.1930    10.8000    23.8780     2.3930    -8.5500 
  203.1250    80.7180     8.7900     8.2910    11.1700    23.8700     2.3990    -8.5670 
  203.2500    78.2670     9.1600     8.5000    11.5800    23.8540     2.3980    -8.5690 
  203.3750    76.3160     9.8890     8.8900    12.1290    23.8390     2.3910    -8.5740 
  203.5000    76.3270    11.0750     9.5630    12.8550    23.8300     2.3840    -8.5830 
  203.6250    77.3740    12.8070    10.6640    13.9890    23.8360     2.3850    -8.5960 
  203.7500    76.2900    14.4940    12.0850    15.7670    23.8470     2.3970    -8.6310 
  203.8750    71.8390    16.1950    13.6060    17.9770    23.8440     2.4140    -8.6810 
  204.0000    66.8640    17.4600    14.8690    20.0860    23.8210     2.4300    -8.7360 
  204.1250    65.7610    17.7040    15.3430    20.8760    23.7980     2.4390    -8.7860 
  204.2500    67.9390    16.9720    14.9590    19.5160    23.7800     2.4370    -8.8230 
  204.3750    70.5690    15.5610    13.8990    17.0770    23.7740     2.4280    -8.8310 
  204.5000    72.0460    13.9620    12.5530    14.4250    23.7830     2.4120    -8.8180 
  204.6250    73.0960    12.7040    11.3720    12.4380    23.7780     2.3900    -8.7660 
  204.7500    74.3870    11.9640    10.5730    11.8540    23.7610     2.3660    -8.6700 
  204.8750    75.2110    11.7560    10.2130    11.9520    23.7400     2.3440    -8.5460 
  205.0000    74.8960    12.0120    10.2790    12.4000    23.7110     2.3300    -8.4090 
  205.1250    72.9800    12.6730    10.7570    12.8750    23.6670     2.3310    -8.2830 
  205.2500    69.9070    13.5340    11.4770    13.6050    23.6300     2.3460    -8.1750 
  205.3750    67.0240    14.4510    12.3160    14.6950    23.6170     2.3640    -8.0910 
  205.5000    65.0190    15.2760    13.1380    15.9420    23.6220     2.3750    -8.0420 
  205.6250    64.4060    15.8650    13.8010    16.7380    23.6350     2.3700    -8.0280 
  205.7500    65.2130    16.2510    14.2880    16.8630    23.6520     2.3530    -8.0610 
  205.8750    66.2220    16.5400    14.6520    16.6930    23.6560     2.3360    -8.1230 
  206.0000    66.1720    16.8590    14.9850    16.5170    23.6300     2.3240    -8.2140 
  206.1250    65.9110    17.2820    15.3550    16.0830    23.5590     2.3110    -8.3190 
  206.2500    66.7070    17.7040    15.7160    15.5290    23.4130     2.2890    -8.4330 
  206.3750    66.4270    17.9570    15.9500    15.1330    23.1880     2.2580    -8.5590 
  206.5000    63.9260    17.8930    15.9380    15.0830    23.0280     2.2260    -8.6600 
  206.6250    63.1520    17.4300    15.5860    15.5620    23.0640     2.2110    -8.7270 
  206.7500    66.9490    16.7570    15.0270    16.1960    23.2930     2.2140    -8.7620 
  206.8750    72.9620    16.0320    14.3860    16.5040    23.5350     2.2330    -8.7700 
  207.0000    76.5240    15.3560    13.7540    16.3530    23.6370     2.2570    -8.7460 
  207.1250    74.7590    14.7450    13.1680    15.9680    23.6410     2.2770    -8.6800 
  207.2500    72.1450    14.1450    12.6080    15.3440    23.6450     2.2930    -8.5820 
  207.3750    71.7520    13.5370    12.0630    14.4970    23.6990     2.3100    -8.4490 
