~V
VERS. 2.00: Ver 2.00
~W
STRT.M 60.0000:
STOP.M 245.0000:
STEP.M 0.1250:
NULL. -999.2500:
UWI. F10050:
~C
DEPT.M :
SP.MV :
GR.API :
RML.OHMM :
RI. :
RXO.OHMM :
CALI.CM :
DEN.GM/CC :
~A
# ...
  161.2500   -27.7690    54.4080   221.1510   213.2520   113.0440    24.9950     2.2070 
  161.3750   -27.8880    54.6280   213.1540   208.4440    99.1790    24.9600     2.1890 
  161.5000   -28.0220    54.4430   200.9730   199.9560    89.5290    24.7700     2.1760 
  161.6250   -28.0400    53.6540   182.8000   185.4610    93.9820    24.3600     2.1760 
  161.7500   -28.0180    54.8560   161.4820   166.4760   112.1200    24.1130     2.1880 
  161.8750   -28.0520    58.8470   141.0820   146.2800   112.6600    24.0270     2.2050 
  162.0000   -28.0580    62.2620   125.5650   129.1640    93.7030    24.0180     2.2240 
  162.1250   -28.0210    61.3910   118.8750   120.0840    77.6210    24.0150     2.2380 
  162.2500   -27.9960    59.9550   120.8740   119.9550    77.4360    23.9810     2.2450 
  162.3750   -27.9210    62.0380   131.9230   129.4850    94.9890    23.9020     2.2410 
  162.5000   -27.8560    65.3310   151.9640   148.5500   120.9060    23.8140     2.2300 
  162.6250   -27.8010    64.1320   180.3940   176.1880   144.2460    23.8020     2.2180 
  162.7500   -27.7300    60.7640   210.5730   205.7110   155.7540    23.8490     2.2090 
  162.8750   -27.6550    60.1500   235.0460   230.3060   153.7400    23.9060     2.2070 
  163.0000   -27.5680    60.6230   248.6050   245.0470   142.2320    23.9480     2.2120 
  163.1250   -27.4660    59.9450   251.1890   248.9250   134.5600    23.9850     2.2200 
  163.2500   -27.3760    60.4580   249.3330   247.5790   132.9900    23.9990     2.2250 
  163.3750   -27.2670    61.8190   245.4820   243.4450   133.9960    23.9890     2.2250 
  163.5000   -27.1280    61.4640   239.9130   236.9670   140.0220    23.9550     2.2230 
  163.6250   -26.9850    57.6360   232.4070   227.9050   140.2770    23.9180     2.2230 
  163.7500   -26.8080    54.8350   224.7030   218.1770   129.0090    23.8860     2.2270 
  163.8750   -26.5210    55.0250   219.2470   210.3720   113.9450    23.8690     2.2300 
  164.0000   -26.2060    56.2570   218.6760   207.3020   106.3980    23.8180     2.2280 
  164.1250   -25.9080    56.1090   226.2920   212.3890   113.1960    23.6370     2.2180 
  164.2500   -25.5800    55.3990   241.7430   225.2030   115.2780    23.3650     2.2060 
  164.3750   -25.2980    56.2610   264.6440   245.1010    97.4110    23.0970     2.1950 
  164.5000   -25.0460    57.8680   293.5470   270.3410    68.5390    22.7930     2.1870 
  164.6250   -24.7970    58.1250   325.8170   298.0000    45.1170    22.4080     2.1820 
  164.7500   -24.6270    57.7610   356.8320   323.7230    35.1260    22.1680     2.1790 
  164.8750   -24.5400    58.1580   382.7530   344.0190    36.9600    22.1760     2.1800 
  165.0000   -24.4170    58.6340   399.8320   355.8760    47.3660    22.3460     2.1860 
  165.1250   -24.2580    57.4550   402.8950   355.6100    74.0720    22.5920     2.1970 
  165.2500   -24.0780    56.6840   394.4950   345.6960   100.4460    22.6990     2.2090 
  165.3750   -23.8240    58.2830   378.9740   329.4150   119.5220    22.8040     2.2180 
  165.5000   -23.5130    60.0250   361.9310   311.2840   133.5480    23.0400     2.2240 
  165.6250   -23.1860    57.8030   349.4200   296.7410   150.1160    23.4630     2.2260 
  165.7500   -22.8650    54.6600   344.3510   288.7680   154.2560    23.8170     2.2260 
  165.8750   -22.5860    54.1680   348.2610   288.7220   150.3290    24.0270     2.2240 
  166.0000   -22.3770    56.4830   361.1670   296.3830   150.4350    24.0950     2.2210 
  166.1250   -22.2410    58.6390   381.4480   310.1680   164.8360    24.0940     2.2170 
  166.2500   -22.1930    59.1410   402.0770   324.5880   177.8500    24.0940     2.2150 
  166.3750   -22.2100    57.6250   415.8730   334.7290   176.6050    24.0940     2.2140 
  166.5000   -22.3090    54.7090   416.5590   336.3930   165.3590    24.0940     2.2150 
  166.6250   -22.4660    51.8580   399.7040   325.8680   156.8840    24.0940     2.2120 
  166.7500   -22.5990    50.4910   371.6300   306.3970   152.0230    24.0940     2.2060 
  166.8750   -22.7540    50.6250   337.2310   281.0250   147.5260    24.0940     2.2000 
  167.0000   -22.9740    50.6570   300.0430   252.5340   139.8550    24.0940     2.1970 
  167.1250   -23.1230    50.8770   262.5990   222.9290   127.5890    24.0940     2.1990 
  167.2500   -23.2050    51.6480   227.1360   194.1480   116.0250    24.0940     2.2030 
  167.3750   -23.3060    53.6200   195.3570   167.6270   108.2360    24.0930     2.2100 
  167.5000   -23.3030    56.3970   168.5380   144.5120   100.7870    24.0840     2.2180 
  167.6250   -23.2340    58.4180   148.6010   126.5310    92.4530    24.0590     2.2330 
  167.7500   -23.1770    59.7740   135.0490   113.6970    85.3340    24.0280     2.2470 
  167.8750   -23.0290    60.3900   128.0190   106.4510    79.1010    24.0130     2.2480 
  168.0000   -22.7650    60.2110   127.5940   105.1390    73.7380    24.0130     2.2310 
  168.1250   -22.5380    56.7350   134.6550   110.6640    76.5830    24.0120     2.2100 
  168.2500   -22.3100    52.2850   146.3120   120.1760    91.1550    23.9840     2.2170 
  168.3750   -22.0230    50.3430   157.3050   129.3310   114.7740    23.9080     2.2820 
  168.5000   -21.7820    51.1980   158.0570   131.6920   137.8060    23.8060     2.4120 
  168.6250   -21.5560    51.9960   136.5550   118.8350   136.7700    23.7620     2.5750 
  168.7500   -21.3060    51.5980   101.4990    93.5320   102.2040    23.7510     2.7030 
  168.8750   -21.0600    52.5360    66.6870    64.0070    60.9220    23.7510     2.7600 
  169.0000   -20.8290    54.3150    40.7910    39.3260    36.4740    23.7500     2.7510 
  169.1250   -20.6030    52.7900    25.0240    24.2860    26.5270    23.7480     2.6960 
  169.2500   -20.3890    51.2910    14.0150    15.6750    17.6070    23.7480     2.6310 
  169.3750   -20.1890    53.4670    10.1170    11.1840    10.0830    23.7490     2.5830 
  169.5000   -20.0110    56.5610     8.9510     9.2030     7.3440    23.7510     2.5770 
  169.6250   -19.8690    54.3520     9.3550     8.9580     8.8750    23.7500     2.6190 
  169.7500   -19.7360    49.6710    10.5120     9.6170    12.2450    23.7460     2.6780 
  169.8750   -19.6440    46.7220    11.7620    10.6480    15.0010    23.7200     2.7200 
  170.0000   -19.5950    43.9260    12.2210    11.2690    15.3070    23.6550     2.7290 
  170.1250   -19.4880    42.1630    11.0170    10.5410    12.9230    23.5600     2.7070 
  170.2500   -19.3630    44.0680     8.9240     8.8880     8.9350    23.4980     2.6690 
  170.3750   -19.2830    46.5040     6.9060     7.0930     6.2950    23.4760     2.6170 
  170.5000   -19.1980    45.5270     5.4910     5.6890     5.1550    23.4440     2.5540 
  170.6250   -19.1020    44.4350     4.8100     4.8850     4.7510    23.3360     2.4860 
  170.7500   -19.0140    48.1130     4.5840     4.4970     4.6460    23.1690     2.4240 
  170.8750   -18.9270    53.7990     4.6670     4.4040     4.8470    23.0230     2.3750 
  171.0000   -18.8310    55.2410     4.9420     4.5010     4.9950    22.8880     2.3480 
  171.1250   -18.7770    52.8210     5.3180     4.7200     5.0820    22.8000     2.3510 
  171.2500   -18.7760    51.8920     5.6990     4.9850     5.2340    22.7660     2.3700 
  171.3750   -18.7380    52.3380     6.0220     5.2490     5.6630    22.7600     2.3900 
  171.5000   -18.6900    52.7010     6.2410     5.4590     6.1920    22.7420     2.3970 
  171.6250   -18.6880    53.6260     6.3070     5.5490     6.6000    22.6830     2.3840 
  171.7500   -18.6620    55.2480     6.2670     5.5270     6.4820    22.6110     2.3640 
  171.8750   -18.6320    55.8880     6.1890     5.4290     5.9980    22.6370     2.3480 
  172.0000   -18.6280    52.6120     6.1380     5.3120     5.8000    22.8060     2.3440 
  172.1250   -18.5920    46.2910     6.1640     5.2370     5.9850    23.0700     2.3520 
  172.2500   -18.5340    40.8590     6.2450     5.2200     6.1530    23.2950     2.3680 
  172.3750   -18.4940    38.1390     6.3450     5.2490     6.2120    23.5020     2.3850 
