~V
VERS. 2.00: Ver 2.00
~W
STRT.M 57.0000:
STOP.M 257.0000:
STEP.M 0.1250:
NULL. -999.2500:
UWI. F10004:
~C
DEPT.M :
GR.API :
RML.OHMM :
RI. :
RXO.OHMM :
CALI.CM :
DEN.GM/CC :
SP.MV :
~A
# ...
  237.0000    33.0960     5.2870     4.5310     4.5900    24.3760     2.3860    -3.4210 
  237.1250    34.6010     5.2800     4.5280     4.6660    24.2850     2.3780    -3.3270 
  237.2500    34.6540     5.2630     4.5370     4.7040    24.1800     2.3690    -3.2630 
  237.3750    32.9180     5.2310     4.5510     4.6950    24.1390     2.3680    -3.2230 
  237.5000    31.2530     5.1950     4.5680     4.6070    24.2390     2.3760    -3.1970 
  237.6250    30.7290     5.1670     4.5880     4.5180    24.3210     2.3890    -3.1660 
  237.7500    31.0890     5.1550     4.6100     4.4960    24.3570     2.3940    -3.1400 
  237.8750    32.0670     5.1600     4.6280     4.5190    24.3410     2.3870    -3.1330 
  238.0000    33.1460     5.1690     4.6340     4.5640    24.2900     2.3740    -3.1500 
  238.1250    33.7120     5.1710     4.6200     4.6710    24.2740     2.3650    -3.1920 
  238.2500    33.6740     5.1590     4.5930     4.7270    24.2590     2.3680    -3.2640 
  238.3750    33.1620     5.1300     4.5660     4.7040    24.2690     2.3830    -3.3690 
  238.5000    32.3050     5.0910     4.5460     4.6540    24.3100     2.4040    -3.5010 
  238.6250    32.1360     5.0640     4.5440     4.5930    24.3710     2.4180    -3.6900 
  238.7500    32.1450     5.0700     4.5660     4.6280    24.4090     2.4210    -3.9170 
  238.8750    31.6260     5.1190     4.6170     4.7880    24.3930     2.4150    -4.1710 
  239.0000    31.4300     5.2110     4.6960     4.9830    24.3220     2.4080    -4.4610 
  239.1250    34.4370     5.3520     4.8060     5.1560    24.1990     2.4140    -4.8220 
  239.2500    40.0720     5.5210     4.9310     5.2760    24.0690     2.4330    -5.2400 
  239.3750    45.1830     5.6940     5.0550     5.4190    23.9870     2.4610    -5.6960 
  239.5000    47.2390     5.8300     5.1590     5.6380    23.9600     2.4820    -6.1720 
  239.6250    46.0370     5.8650     5.2070     5.9100    23.9550     2.4820    -6.6520 
  239.7500    44.3810     5.8110     5.2050     6.2230    23.9140     2.4620    -7.1440 
  239.8750    43.5520     5.7310     5.1840     6.1190    23.7910     2.4330    -7.6630 
  240.0000    44.6210     5.7370     5.2130     6.0330    23.6160     2.4040    -8.2070 
  240.1250    51.9680     5.9880     5.4100     6.7210    23.4220     2.3840    -8.8010 
  240.2500    66.0750     6.5260     5.8270     8.2280    23.1860     2.3670    -9.4320 
  240.3750    81.9950     7.3430     6.4900     9.5060    22.6550     2.3510   -10.0850 
  240.5000    93.3580     8.3520     7.3580     9.7660    21.5860     2.3350   -10.7540 
  240.6250    97.6660     9.3260     8.2690     9.5270    20.5420     2.3240   -11.3740 
  240.7500    99.2210     9.9820     8.9610     9.4050    19.8960     2.3170   -11.9030 
  240.8750    97.8210    10.1330     9.2360     9.3370    19.4880     2.3120   -12.2850 
  241.0000    92.2920     9.7680     9.0360     8.7960    19.1200     2.3050   -12.4960 
  241.1250    85.2050     9.0590     8.4700     7.7340    18.9910     2.2960   -12.5070 
  241.2500    79.9120     8.3750     7.8560     7.2550    19.3400     2.2900   -12.3900 
  241.3750    78.7090     7.9270     7.3820     7.7490    20.0500     2.2880   -12.2320 
  241.5000    81.6870     7.7960     7.1460     8.8050    20.7370     2.2910   -12.0710 
  241.6250    86.1600     7.9620     7.1840     9.5670    21.3920     2.2950   -11.8810 
  241.7500    88.9270     8.2340     7.3820    10.0890    22.2070     2.2990   -11.7180 
  241.8750    89.2170     8.4920     7.6500     9.8300    22.9900     2.3050   -11.6240 
  242.0000    88.8370     8.6870     7.9240     9.4330    23.4340     2.3180   -11.6030 
  242.1250    89.5460     8.8820     8.2070     9.6550    23.4770     2.3350   -11.6320 
  242.2500    90.4930     9.1710     8.5440    11.5770    23.3810     2.3490   -11.6280 
  242.3750    90.6070     9.5590     8.9400    13.0650    23.4220     2.3540   -11.5100 
  242.5000    89.9450     9.9220     9.3130    13.2860    23.6130     2.3510   -11.2690 
  242.6250    90.0020     9.9820     9.4370    12.5140    23.7130     2.3460   -10.8870 
  242.7500    89.4890     9.6150     9.1880    10.6210    23.7350     2.3440   -10.3760 
  242.8750    87.5540     8.8640     8.5810     8.2070    23.8100     2.3490    -9.7740 
  243.0000    86.2070     7.9350     7.7710     7.0960    24.0040     2.3580    -9.0990 
  243.1250    87.3550     7.1210     6.9940     6.8580    24.2480     2.3680    -8.3320 
  243.2500    89.2010     6.5610     6.3960     6.8000    24.4230     2.3760    -7.5710 
  243.3750    89.8580     6.2550     6.0020     6.3890    24.5000     2.3840    -6.8420 
  243.5000    88.1830     6.1250     5.7780     5.9430    24.5210     2.3910    -6.1530 
  243.6250    84.6610     6.0790     5.6730     5.6220    24.5270     2.3960    -5.5930 
  243.7500    82.6000     6.0380     5.6110     5.3920    24.5190     2.3980    -5.1010 
  243.8750    84.2260     5.9900     5.5670     5.2100    24.5160     2.3980    -4.6550 
  244.0000    87.9450     5.9440     5.5350     5.1310    24.5240     2.3980    -4.2750 
  244.1250    89.0950     5.9120     5.5230     5.2150    24.5250     2.4020    -3.9570 
  244.2500    87.4060     5.8860     5.5240     5.3000    24.5230     2.4080    -3.6600 
  244.3750    85.6120     5.8510     5.5230     5.3310    24.5110     2.4160    -3.3990 
  244.5000    85.5210     5.7940     5.5030     5.3020    24.4920     2.4230    -3.1790 
  244.6250    85.2450     5.6970     5.4410     5.2060    24.4660     2.4280    -2.9720 
  244.7500    84.5320     5.5740     5.3440     5.0850    24.4550     2.4320    -2.8200 
  244.8750    86.1850     5.4450     5.2290     4.9910    24.4500     2.4360    -2.7040 
  245.0000    90.6390     5.3320     5.1210     4.9230    24.4420     2.4380    -2.5770 
  245.1250    93.5680     5.2630     5.0480     4.8260    24.4270     2.4360    -2.4830 
  245.2500    92.6950     5.2390     5.0090     4.7470    24.4130     2.4260    -2.4160 
  245.3750    89.0210     5.2510     4.9980     4.7070    24.4070     2.4090    -2.3400 
  245.5000    85.1620     5.2770     5.0000     4.7000    24.3940     2.3900    -2.2370 
  245.6250    82.8330     5.2910     5.0030     4.6800    24.3510     2.3740    -2.1960 
  245.7500    82.1150     5.2710     4.9980     4.6570    24.3010     2.3660    -2.2230 
  245.8750    83.0020     5.2120     4.9820     4.6210    24.2940     2.3630    -2.2810 
  246.0000    84.8610     5.1220     4.9490     4.5490    24.2930     2.3630    -2.3610 
  246.1250    87.9630     5.0240     4.9010     4.5370    24.2790     2.3640    -2.5080 
  246.2500    90.2820     4.9420     4.8490     4.5670    24.2790     2.3650    -2.7130 
  246.3750    90.8850     4.8860     4.8010     4.6310    24.2880     2.3650    -2.9780 
  246.5000    90.6870     4.8530     4.7590     4.6460    24.2840     2.3650    -3.3090 
  246.6250    91.2790     4.8230     4.7130     4.6120    24.2800     2.3640    -3.6880 
  246.7500    92.0780     4.7800     4.6540     4.6260    24.3120     2.3650    -4.0700 
  246.8750    92.2140     4.7370     4.5830     4.6830    24.3640     2.3710    -4.5210 
  247.0000    92.2140     4.7440     4.5280     4.7170    24.3580     2.3810    -5.0940 
  247.1250    92.2140     4.9150     4.5650     4.9820    24.2490     2.3910    -5.7690 
  247.2500    92.2140     5.2910     4.7530     5.5200    24.1790     2.3960    -6.5260 
  247.3750    92.2140     5.8420     5.1260     6.1740    24.2360     2.3940    -7.3980 
  247.5000    92.2140     6.4550     5.6610     6.7540    24.3870     2.3880    -8.3490 
  247.6250    92.2140     6.9540     6.2640     7.4730    24.4750     2.3790    -9.3080 
  247.7500    92.2140     7.2790     6.7910     7.9500    24.4840     2.3700   -10.2880 
  247.8750    92.2140     7.4590     7.1590     8.2350    24.4340     2.3630   -11.2360 
  248.0000    92.2140     7.5580     7.3550     8.2920    24.3680     2.3580   -12.0870 
  248.1250    92.2140     7.6230     7.4100     8.2260    24.2870     2.3580   -12.7650 
