~V
VERS. 2.00: Ver 2.00
~W
STRT.M 50.0000:
STOP.M 237.0000:
STEP.M 0.1250:
NULL. -999.2500:
UWI. F10006:
~C
DEPT.M :
GR.API :
RML.OHMM :
RI. :
RXO.OHMM :
CALI.CM :
DEN.GM/CC :
SP.MV :
~A
# ...
   61.2500    65.3900    18.9380    15.8350    14.3860    23.4180     2.1650   -25.6350 
   61.3750    65.6110    18.9590    15.8000    13.7500    23.3470     2.1600   -25.7410 
   61.5000    66.1030    18.6800    15.5710    13.0160    23.2030     2.1520   -25.8320 
   61.6250    68.4300    17.9220    14.9880    12.6210    23.0890     2.1520   -25.8720 
   61.7500    73.7560    16.7430    14.0650    11.9450    22.9090     2.1680   -25.9070 
   61.8750    80.1260    15.2610    12.8650    10.2700    22.5540     2.1990   -25.9000 
   62.0000    86.0820    13.6790    11.5310     8.8260    22.1240     2.2320   -25.8410 
   62.1250    90.3130    12.2700    10.2760     7.9940    21.7760     2.2510   -25.7460 
   62.2500    92.2650    11.1820     9.2560     7.7980    21.7210     2.2550   -25.6290 
   62.3750    93.5060    10.4840     8.5670     7.9870    21.8190     2.2500   -25.5040 
   62.5000    94.2230    10.1810     8.2530     8.2570    21.9720     2.2420   -25.3570 
   62.6250    91.8360    10.2890     8.3830     8.3920    22.0350     2.2260   -25.2440 
   62.7500    85.5350    10.7330     8.8880     9.0880    21.9940     2.2030   -25.1480 
   62.8750    77.8940    11.6060     9.8070    10.6910    21.9680     2.1840   -25.0780 
   63.0000    74.5050    13.1320    11.2630    12.5980    22.1700     2.1980   -25.0550 
   63.1250    74.5450    15.7860    13.6170    13.8970    22.4780     2.2800   -25.0600 
   63.2500    72.4680    19.5250    16.9190    16.7990    22.4680     2.4060   -25.1020 
   63.3750    67.7900    23.9280    20.9720    26.1750    22.1730     2.5300   -25.1720 
   63.5000    65.2970    27.8860    24.9610    41.1330    22.0190     2.5940   -25.2960 
   63.6250    66.9980    29.4270    27.1180    40.5360    22.2330     2.5560   -25.4280 
   63.7500    68.0130    28.2000    26.7490    26.0140    22.5710     2.4510   -25.5420 
   63.8750    67.6930    25.0600    24.3470    18.0160    22.8610     2.3300   -25.6650 
   64.0000    66.7330    21.5470    21.2260    16.3130    23.2400     2.2330   -25.7820 
   64.1250    63.6870    19.1520    18.7940    17.5140    23.8600     2.1850   -25.8830 
   64.2500    59.5270    18.1570    17.5170    18.3730    24.5030     2.1700   -25.9540 
   64.3750    58.4100    18.3490    17.3520    18.3990    24.9090     2.1670   -25.9890 
   64.5000    61.6150    19.2050    17.9540    18.1160    25.0220     2.1640   -25.9500 
   64.6250    65.1270    19.9060    18.6830    18.0660    25.0170     2.1580   -25.9050 
   64.7500    66.8300    19.7680    18.8100    18.2080    25.0500     2.1580   -25.8450 
   64.8750    70.3180    18.5510    17.9890    17.9490    25.0640     2.1740   -25.7530 
   65.0000    79.0620    16.4710    16.3050    15.9020    24.9180     2.2060   -25.6420 
   65.1250    91.5260    14.0930    14.1880    11.9290    24.5580     2.2440   -25.5130 
   65.2500    98.7830    12.0530    12.2280     9.1090    24.2240     2.2730   -25.3750 
   65.3750    96.7900    10.6210    10.6870     8.2690    24.0250     2.2880   -25.2240 
   65.5000    92.2890     9.7440     9.6230     8.5760    23.9170     2.2910   -25.1020 
   65.6250    93.3330     9.2470     9.0150     9.1090    23.8670     2.2950   -24.9460 
   65.7500    97.1790     8.9110     8.6730     9.1550    23.8500     2.3090   -24.7590 
   65.8750    99.5210     8.8790     8.5420     8.7940    23.8730     2.3350   -24.5400 
   66.0000    98.8620     9.1730     8.6540     8.4060    23.8930     2.3620   -24.3060 
   66.1250    94.3530     9.9840     9.1890     9.4730    23.8830     2.3620   -24.0430 
   66.2500    86.2190    11.3800    10.2060    12.7210    23.8330     2.3260   -23.7980 
   66.3750    78.2090    13.3190    11.7220    19.8430    23.7550     2.2580   -23.5540 
   66.5000    73.6710    15.5380    13.5950    22.5920    23.7300     2.1820   -23.2780 
   66.6250    71.9890    17.5040    15.4460    21.3310    23.8600     2.1320   -23.0040 
   66.7500    72.7170    18.8290    16.8590    18.8930    24.0460     2.1180   -22.7520 
   66.8750    75.0510    19.4570    17.6780    17.3010    24.1930     2.1280   -22.5640 
   67.0000    76.5490    19.6530    18.0470    16.1300    24.2340     2.1430   -22.4030 
   67.1250    75.0640    19.8760    18.3190    17.8450    24.2780     2.1480   -22.2740 
   67.2500    71.8780    20.4030    18.7860    19.0460    24.2860     2.1430   -22.1450 
   67.3750    70.2430    21.2020    19.4710    19.4050    24.2590     2.1370   -22.0670 
   67.5000    71.3360    22.0300    20.1940    19.6230    24.2050     2.1360   -22.0640 
   67.6250    72.4720    22.4970    20.6060    20.2940    24.1250     2.1420   -22.0790 
   67.7500    71.2460    22.4690    20.5460    20.2990    24.0220     2.1500   -22.1270 
   67.8750    68.9850    22.0140    20.0350    18.3780    23.9720     2.1580   -22.2120 
   68.0000    68.7900    21.3480    19.2420    15.5030    23.9400     2.1640   -22.3550 
   68.1250    70.6240    20.7330    18.3950    14.5720    23.9490     2.1670   -22.5390 
   68.2500    71.9200    20.2960    17.6680    15.2340    23.9830     2.1670   -22.7170 
   68.3750    72.0860    20.0260    17.1130    16.0950    24.0150     2.1630   -22.8620 
   68.5000    71.0710    19.8550    16.7240    15.6850    24.0130     2.1550   -22.9990 
   68.6250    69.9010    19.7420    16.5060    14.7860    23.9660     2.1450   -23.2000 
   68.7500    70.8880    19.7180    16.4450    15.2610    23.8930     2.1310   -23.3940 
   68.8750    74.7180    19.8870    16.5780    15.7320    23.8290     2.1110   -23.5300 
   69.0000    77.6840    20.3400    16.9360    15.8570    23.7470     2.0920   -23.6010 
   69.1250    76.8310    21.0130    17.4650    15.9710    23.7080     2.0970   -23.6950 
   69.2500    75.7790    21.4750    17.8520    15.9190    23.6890     2.1360   -23.8530 
   69.3750    76.1800    21.2130    17.7110    16.2010    23.6650     2.2010   -24.0980 
   69.5000    77.9850    19.8590    16.7310    15.8000    23.6410     2.2670   -24.3730 
   69.6250    82.1380    17.3540    14.8200    13.6880    23.5900     2.3020   -24.6140 
   69.7500    89.3120    14.4960    12.5690     9.7590    23.5090     2.3100   -24.8630 
   69.8750    96.6670    11.9620    10.4910     7.7630    23.4270     2.3070   -25.1170 
   70.0000    99.9230    10.1900     8.9370     7.0080    23.3920     2.3120   -25.3900 
   70.1250   100.9670     9.3900     8.1140     6.8650    23.3700     2.3250   -25.5900 
   70.2500   101.9490     9.1790     7.8020     7.3160    23.3030     2.3300   -25.7210 
   70.3750   102.2710     9.2270     7.7990     7.9080    23.2030     2.3210   -25.8010 
   70.5000   102.0460     9.2330     7.8880     7.0330    23.1510     2.3080   -25.8260 
   70.6250   104.2100     8.9970     7.8810     6.2260    23.1770     2.3070   -25.8210 
   70.7500   108.0100     8.5880     7.7520     5.7520    23.1790     2.3210   -25.7920 
   70.8750   109.4010     8.1310     7.5570     5.6160    23.1040     2.3430   -25.7480 
   71.0000   107.1590     7.7490     7.3740     5.5820    23.0060     2.3620   -25.6590 
   71.1250   104.3560     7.5600     7.2850     5.5860    22.9270     2.3700   -25.5840 
   71.2500   103.6000     7.5590     7.2930     5.4760    22.8910     2.3720   -25.5390 
   71.3750   104.0040     7.7030     7.3610     5.3670    22.8630     2.3710   -25.4750 
   71.5000   103.4230     7.8950     7.4200     5.8220    22.7450     2.3670   -25.3940 
   71.6250   101.3340     7.9880     7.3760     6.5060    22.4020     2.3630   -25.2940 
   71.7500   101.7740     7.9130     7.2040     6.8220    21.8630     2.3580   -25.1790 
   71.8750   106.5540     7.6960     6.9310     6.1720    21.3660     2.3520   -25.0500 
   72.0000   111.8940     7.4360     6.6300     5.6550    20.9460     2.3430   -24.9520 
   72.1250   112.8250     7.2730     6.4000     5.5810    20.3830     2.3270   -24.8350 
   72.2500   112.4720     7.2540     6.2800     5.6810    19.5720     2.3100   -24.6700 
   72.3750   114.4390     7.3550     6.2730     5.7910    18.7670     2.2980   -24.5130 
