~V
VERS. 2.00: Ver 2.00
~W
STRT.M 50.0000:
STOP.M 313.0000:
STEP.M 0.1250:
NULL. -999.2500:
UWI. F10034:
~C
DEPT.M :
GR.API :
RML.OHMM :
RI. :
RXO.OHMM :
CALI.CM :
DEN.GM/CC :
SP.MV :
~A
# ...
   95.0000    52.7430    12.4020     9.7550     9.3370    23.2600     2.3350   -14.4530 
   95.1250    50.8800    12.7060    10.0550     9.5580    22.9780     2.3830   -14.6040 
   95.2500    50.8380    12.4730     9.9840     9.8140    22.8100     2.3890   -14.6700 
   95.3750    53.5340    11.7760     9.5560    10.0540    22.8600     2.3540   -14.7360 
   95.5000    56.1360    10.8620     8.9190    10.2030    23.0050     2.2990   -14.8390 
   95.6250    55.7350    10.0690     8.3000    10.1550    23.0670     2.2530   -15.0200 
   95.7500    54.3910     9.5640     7.8480     9.9350    23.0780     2.2270   -15.3070 
   95.8750    54.4710     9.3490     7.6000     9.7690    23.0600     2.2170   -15.6670 
   96.0000    55.8700     9.3310     7.5240     9.7410    23.0260     2.2140   -16.0550 
   96.1250    57.0540     9.3810     7.5570     9.7210    23.0190     2.2120   -16.4490 
   96.2500    58.0080     9.3950     7.6090     9.6610    23.0450     2.2090   -16.8160 
   96.3750    57.7310     9.3480     7.6430     9.5120    23.1100     2.2050   -17.1460 
   96.5000    55.4610     9.2570     7.6520     9.2610    23.2010     2.2010   -17.4300 
   96.6250    53.4880     9.1540     7.6430     9.1520    23.2860     2.1980   -17.6080 
   96.7500    53.1900     9.0740     7.6350     9.1330    23.3380     2.2010   -17.6480 
   96.8750    52.3280     9.0370     7.6350     9.2890    23.3420     2.2110   -17.5550 
   97.0000    50.0200     9.0490     7.6430     9.4810    23.2960     2.2260   -17.3580 
   97.1250    49.8250     9.1050     7.6490     9.6530    23.1960     2.2380   -17.0800 
   97.2500    52.5590     9.1680     7.6410     9.7800    23.1450     2.2400   -16.7700 
   97.3750    54.2650     9.2010     7.6090     9.9180    23.1450     2.2310   -16.4470 
   97.5000    53.4040     9.1790     7.5500    10.0680    23.0480     2.2180   -16.1090 
   97.6250    53.7220     9.0930     7.4630    10.0550    22.9220     2.2100   -15.7990 
   97.7500    57.2550     8.9790     7.3690     9.9230    22.8390     2.2110   -15.5450 
   97.8750    62.1130     8.8710     7.2900     9.6530    22.7940     2.2200   -15.3450 
   98.0000    64.7610     8.7910     7.2460     9.2830    22.7600     2.2290   -15.1770 
   98.1250    63.5030     8.7700     7.2640     9.1030    22.7770     2.2280   -15.0470 
   98.2500    60.4030     8.8270     7.3530     9.0610    22.8350     2.2110   -14.9330 
   98.3750    56.3690     8.9910     7.5190     9.1060    22.8980     2.1800   -14.7640 
   98.5000    52.6470     9.2610     7.7540     9.1540    22.9290     2.1450   -14.5370 
   98.6250    51.1010     9.5800     8.0090     9.1800    22.9240     2.1250   -14.2110 
   98.7500    51.3860     9.7860     8.1870     9.2560    22.8930     2.1300   -13.7540 
   98.8750    52.8760     9.7280     8.1880     9.3980    22.8440     2.1580   -13.1820 
   99.0000    54.7380     9.3190     7.9370     9.4780    22.7810     2.2000   -12.4880 
   99.1250    57.6040     8.5510     7.4060     9.0560    22.7960     2.2400   -11.5940 
   99.2500    60.7280     7.7150     6.7540     8.2310    22.8890     2.2710   -10.5780 
   99.3750    64.1330     7.0560     6.1410     7.2730    23.0140     2.2920    -9.5760 
   99.5000    67.8680     6.7560     5.7120     6.5320    23.0980     2.3030    -8.7050 
   99.6250    71.9700     6.9520     5.6000     6.6680    23.0790     2.3010    -8.0790 
   99.7500    74.2960     7.3310     5.7580     7.2940    22.9800     2.2860    -7.6960 
   99.8750    73.2610     7.9390     6.1180     8.1910    22.8480     2.2640    -7.4920 
  100.0000    68.2820     8.5770     6.5650     9.0460    22.7400     2.2400    -7.3820 
  100.1250    61.5600     9.0040     6.9330     9.1480    22.6850     2.2240    -7.3330 
  100.2500    59.0520     9.1110     7.1030     8.9320    22.6670     2.2190    -7.2760 
  100.3750    62.3410     8.8740     7.0260     8.4460    22.6690     2.2250    -7.1470 
  100.5000    66.9810     8.3610     6.7250     7.8440    22.7010     2.2400    -6.8590 
  100.6250    69.4350     7.6990     6.2760     7.3000    22.8150     2.2620    -6.3680 
  100.7500    71.9070     7.0840     5.8220     6.5360    23.0090     2.2830    -5.7920 
  100.8750    76.4460     6.6480     5.4630     5.9640    23.2450     2.2990    -5.2470 
  101.0000    81.5060     6.4770     5.2710     5.7550    23.4560     2.3080    -4.8530 
  101.1250    82.7270     6.6460     5.3210     6.0180    23.5310     2.3080    -4.7660 
  101.2500    80.8450     7.0530     5.5730     6.5250    23.4570     2.2990    -4.9630 
  101.3750    77.1630     7.5920     5.9700     7.2630    23.3050     2.2830    -5.3990 
  101.5000    72.0630     8.1260     6.4230     8.0760    23.1490     2.2610    -5.9890 
  101.6250    66.3490     8.4860     6.7970     8.6630    23.1040     2.2390    -6.5800 
  101.7500    61.8300     8.6100     7.0070     8.8340    23.1140     2.2240    -7.0060 
  101.8750    60.6280     8.5000     7.0220     8.5030    23.1140     2.2220    -7.1760 
  102.0000    62.1930     8.2230     6.8720     7.9790    23.0700     2.2360    -7.0590 
  102.1250    66.1140     7.8680     6.6090     7.3460    23.0860     2.2600    -6.5930 
  102.2500    73.3550     7.5120     6.3140     6.8230    23.1390     2.2840    -5.9000 
  102.3750    79.0440     7.1780     6.0190     6.4400    23.1650     2.2980    -5.0610 
  102.5000    79.1600     6.8740     5.7470     6.2620    23.1840     2.3030    -4.1620 
  102.6250    77.1510     6.6400     5.5340     6.1080    23.2420     2.3000    -3.3350 
  102.7500    79.4230     6.5320     5.4130     5.8140    23.3050     2.2950    -2.6910 
  102.8750    84.0200     6.6040     5.4210     5.6500    23.3260     2.2870    -2.3040 
  103.0000    82.1920     6.8540     5.5680     5.7630    23.2590     2.2800    -2.1920 
  103.1250    71.8970     7.1990     5.8200     6.2120    23.0350     2.2730    -2.3350 
  103.2500    63.6520     7.4680     6.0650     6.7650    22.7210     2.2710    -2.5710 
  103.3750    63.5170     7.5390     6.2060     7.1700    22.3920     2.2730    -2.8110 
  103.5000    69.7670     7.3730     6.1790     7.1470    22.1710     2.2800    -3.0050 
  103.6250    74.4190     7.0360     5.9790     6.3980    22.1510     2.2940    -3.1320 
  103.7500    77.1880     6.7210     5.7260     5.8490    22.1780     2.3140    -3.1740 
  103.8750    82.2840     6.5420     5.5120     5.6510    22.1230     2.3410    -3.1190 
  104.0000    90.0840     6.5270     5.3830     5.7660    22.0260     2.3670    -3.0190 
  104.1250    92.2390     6.6200     5.3450     6.0230    21.9740     2.3810    -2.9320 
  104.2500    86.6690     6.6980     5.3400     6.2760    21.9520     2.3770    -2.9280 
  104.3750    80.4300     6.6950     5.3340     6.3730    21.9640     2.3530    -3.0660 
  104.5000    78.3090     6.6330     5.3280     6.2260    22.0220     2.3180    -3.3930 
  104.6250    76.9650     6.6780     5.4010     6.3060    22.1470     2.2800    -3.9390 
  104.7500    72.6280     7.0510     5.6730     6.6550    22.2830     2.2540    -4.6350 
  104.8750    68.8780     7.9290     6.2680     7.2720    22.4400     2.2520    -5.4460 
  105.0000    68.5400     9.3530     7.2500     8.1250    22.6640     2.2820    -6.2930 
  105.1250    68.9640    11.1490     8.5770     9.3870    22.9330     2.3460    -7.1450 
  105.2500    66.5180    12.7880     9.9080    10.8560    22.9980     2.4200    -8.0090 
  105.3750    61.8130    13.7790    10.8770    12.3270    22.9030     2.4760    -8.8600 
  105.5000    58.7070    13.7940    11.1680    13.3790    22.8400     2.4870    -9.6640 
  105.6250    59.9380    12.7480    10.5980    13.3370    22.9250     2.4450   -10.3860 
  105.7500    62.4640    11.2680     9.5820    12.3670    23.0180     2.3780   -11.0350 
  105.8750    63.9210     9.8470     8.4900    11.0280    23.0630     2.3110   -11.6020 
  106.0000    64.9930     8.7900     7.5850     9.9570    23.0730     2.2590   -12.0950 
  106.1250    67.7420     8.2270     7.0150     9.2600    23.0830     2.2300   -12.5000 
