~V
VERS. 2.00: Ver 2.00
~W
STRT.M 51.0000:
STOP.M 313.0000:
STEP.M 0.1250:
NULL. -999.2500:
UWI. F10047:
~C
DEPT.M :
SP.MV :
GR.API :
RML.OHMM :
RI. :
RXO.OHMM :
CALI.CM :
DEN.GM/CC :
~A
# ...
  163.5000   -15.5130    66.9550     9.4440     8.5440     7.9320    23.1710     2.1270 
  163.6250   -15.3370    66.2350     9.4280     8.5320     7.9050    23.1870     2.1290 
  163.7500   -15.0460    66.5980     9.3260     8.4520     7.8570    23.2540     2.1300 
  163.8750   -14.6190    67.9170     9.1100     8.2780     7.6690    23.4080     2.1320 
  164.0000   -14.0850    69.1090     8.7710     7.9990     7.3710    23.6320     2.1420 
  164.1250   -13.4370    70.7790     8.3320     7.6250     7.1430    23.8830     2.1630 
  164.2500   -12.6450    74.3920     7.8810     7.2270     6.8450    24.0930     2.1920 
  164.3750   -11.7470    78.6230     7.4910     6.8670     6.3020    24.2370     2.2180 
  164.5000   -10.8770    81.5830     7.2220     6.5980     5.9000    24.3340     2.2330 
  164.6250   -10.1380    83.3660     7.1250     6.4690     5.9140    24.3920     2.2320 
  164.7500    -9.5030    83.5480     7.1550     6.4560     6.0160    24.4140     2.2240 
  164.8750    -8.9880    82.1920     7.2580     6.5220     6.0420    24.4170     2.2160 
  165.0000    -8.6190    80.4900     7.3670     6.6170     6.0300    24.4160     2.2130 
  165.1250    -8.4230    79.2580     7.4120     6.6750     6.0130    24.4600     2.2170 
  165.2500    -8.3250    77.5740     7.3890     6.6710     6.0240    24.6020     2.2210 
  165.3750    -8.3220    75.9040     7.3270     6.6160     6.0440    24.8090     2.2210 
  165.5000    -8.3720    76.0160     7.2530     6.5320     5.9900    24.9430     2.2160 
  165.6250    -8.4930    78.2040     7.1610     6.4230     5.9270    24.9440     2.2100 
  165.7500    -8.6520    80.3920     7.0270     6.2860     6.0170    24.8540     2.2110 
  165.8750    -8.7990    81.6080     6.8450     6.1190     6.2340    24.7320     2.2230 
  166.0000    -8.9430    82.5650     6.6370     5.9370     6.3270    24.6580     2.2430 
  166.1250    -9.1750    86.1790     6.4590     5.7780     5.7080    24.6300     2.2520 
  166.2500    -9.5500    91.0000     6.3690     5.6830     5.4280    24.5770     2.2360 
  166.3750    -9.9830    92.0490     6.4290     5.7000     5.6440    24.4410     2.1910 
  166.5000   -10.3330    86.8700     6.7120     5.8900     6.2330    24.2620     2.1380 
  166.6250   -10.4660    80.7970     7.3040     6.3370     6.4510    24.1190     2.1210 
  166.7500   -10.4320    78.9480     8.0900     6.9800     6.6780    23.9900     2.1610 
  166.8750   -10.2820    78.3460     8.8810     7.6830     7.3050    23.9500     2.2480 
  167.0000   -10.0360    77.3970     9.4000     8.2080     8.6380    24.0530     2.3440 
  167.1250    -9.6780    79.3680     9.2810     8.2090     9.8910    24.1510     2.4010 
  167.2500    -9.2420    84.3910     8.6090     7.7130     9.2470    24.1910     2.4070 
  167.3750    -8.7540    89.3510     7.6450     6.9290     7.2340    24.1950     2.3810 
  167.5000    -8.2400    91.2780     6.7160     6.1260     6.1000    24.1950     2.3460 
  167.6250    -7.8350    92.4290     6.0930     5.5350     5.9480    24.2060     2.3230 
  167.7500    -7.6060    94.7290     5.7890     5.1860     5.5940    24.2290     2.3090 
  167.8750    -7.5370    97.0520     5.7600     5.0660     5.2580    24.2530     2.2980 
  168.0000    -7.5040    95.0740     5.9340     5.1410     5.1170    24.2640     2.2940 
  168.1250    -7.4700    88.8800     6.2590     5.3910     5.1740    24.2640     2.3040 
  168.2500    -7.4380    84.1940     6.6540     5.7460     5.2240    24.2640     2.3270 
  168.3750    -7.4720    81.8500     7.0350     6.1390     5.4750    24.2640     2.3530 
  168.5000    -7.6300    80.6370     7.2810     6.4620     6.2820    24.2620     2.3660 
  168.6250    -7.8330    81.4820     7.2460     6.5580     7.1400    24.2230     2.3520 
  168.7500    -8.0610    84.7170     6.9930     6.4330     6.9580    24.1200     2.3230 
  168.8750    -8.3140    87.4940     6.6470     6.1710     6.1210    23.9910     2.2930 
  169.0000    -8.6140    87.2650     6.3380     5.8830     5.6510    23.9190     2.2730 
  169.1250    -8.8220    86.8920     6.1630     5.6650     5.3810    23.9050     2.2670 
  169.2500    -8.9160    87.1110     6.0940     5.5240     5.2280    23.9050     2.2660 
  169.3750    -8.9510    88.1530     6.0540     5.4230     5.1780    23.9050     2.2670 
  169.5000    -8.9320    91.2400     5.9740     5.3130     5.1260    23.9050     2.2700 
  169.6250    -8.8920    95.6300     5.8530     5.1900     5.0740    23.9050     2.2800 
  169.7500    -8.8300    97.8110     5.7840     5.1140     4.9380    23.9050     2.2980 
  169.8750    -8.8220    95.8380     5.8540     5.1440     4.8150    23.9050     2.3190 
  170.0000    -8.9710    92.0470     6.1190     5.3260     4.9000    23.9050     2.3350 
  170.1250    -9.3630    88.0650     6.5990     5.6960     5.5410    23.9050     2.3340 
  170.2500    -9.8880    84.6870     7.1610     6.1680     6.6540    23.9050     2.3160 
  170.3750   -10.4500    82.5470     7.6700     6.6400     7.1610    23.9050     2.2840 
  170.5000   -11.0030    79.6490     8.0250     7.0110     7.2260    23.9050     2.2470 
  170.6250   -11.4580    75.9470     8.2230     7.2430     7.2620    23.9060     2.2180 
  170.7500   -11.8520    74.0600     8.4130     7.4400     7.5000    23.9080     2.2040 
  170.8750   -12.1800    74.2000     8.7180     7.7020     7.6440    23.9050     2.2030 
  171.0000   -12.3380    74.3480     9.1890     8.0800     7.6170    23.8850     2.2040 
  171.1250   -12.3500    75.3090     9.7610     8.5300     8.8890    23.8230     2.1870 
  171.2500   -12.3650    77.1120    10.2240     8.8900    13.1950    23.6650     2.1440 
  171.3750   -12.4090    76.4620    10.3990     9.0200    17.0560    23.3330     2.0830 
  171.5000   -12.5030    74.6980    10.2180     8.8670    14.2330    22.8370     2.0280 
  171.6250   -12.6880    75.0430     9.7760     8.5100     9.2980    22.3810     2.0110 
  171.7500   -12.9450    76.4490     9.3810     8.1820     7.5610    21.9530     2.0340 
  171.8750   -13.2260    75.0310     9.2480     8.0430     7.1180    21.5890     2.0860 
  172.0000   -13.4910    72.6570     9.4780     8.1720     7.0220    21.2670     2.1470 
  172.1250   -13.6860    74.9890    10.0370     8.5690     6.9560    21.0870     2.1910 
  172.2500   -13.7690    78.8930    10.6240     9.0300     7.1780    20.9740     2.2090 
  172.3750   -13.7110    80.4580    10.9570     9.3440     7.5440    20.8570     2.2030 
  172.5000   -13.4800    77.5110    10.8400     9.3420     7.3620    20.6890     2.1840 
  172.6250   -13.0820    74.1930    10.2260     8.9400     6.9160    20.5850     2.1700 
  172.7500   -12.5490    76.1140     9.4120     8.3320     6.5190    20.5390     2.1660 
  172.8750   -11.9010    80.8610     8.6300     7.6850     6.1300    20.5080     2.1720 
  173.0000   -11.3000    82.9670     8.0370     7.1370     5.8710    20.5090     2.1820 
  173.1250   -10.8400    80.3420     7.7290     6.7870     5.8860    20.5660     2.1900 
  173.2500   -10.4560    78.8550     7.6270     6.6050     6.0850    20.6520     2.1940 
  173.3750   -10.1430    80.5270     7.6540     6.5480     6.3080    20.6910     2.1950 
  173.5000    -9.9100    82.5080     7.7130     6.5570     6.3670    20.7140     2.1940 
  173.6250    -9.7310    80.4590     7.6790     6.5480     6.5590    20.7670     2.1930 
  173.7500    -9.6220    76.9330     7.4950     6.4620     6.1790    20.8580     2.1940 
  173.8750    -9.6110    75.7350     7.1870     6.2970     5.9800    20.9800     2.2020 
  174.0000    -9.5530    78.7150     6.8700     6.1190     6.2920    21.1000     2.2160 
  174.1250    -9.3400    83.6220     6.7450     6.0560     6.4840    21.2340     2.2300 
  174.2500    -9.1270    86.4800     6.9110     6.1910     6.3550    21.3140     2.2350 
  174.3750    -9.0010    87.0230     7.3710     6.5470     6.4560    21.3440     2.2270 
  174.5000    -8.9270    84.9440     8.0000     7.0560     7.1730    21.3460     2.2090 
  174.6250    -8.8550    81.3720     8.4900     7.5080     8.6240    21.3460     2.1910 
