~V
VERS. 2.00: Ver 2.00
~W
STRT.M 51.0000:
STOP.M 313.0000:
STEP.M 0.1250:
NULL. -999.2500:
UWI. F10047:
~C
DEPT.M :
SP.MV :
GR.API :
RML.OHMM :
RI. :
RXO.OHMM :
CALI.CM :
DEN.GM/CC :
~A
# ...
  287.2500   -13.4610    81.7540    11.0070     9.1810    10.0240    25.4080     2.3400 
  287.3750   -13.8830    85.1160    11.4280     9.5340     9.9300    25.4080     2.3520 
  287.5000   -14.4470    86.8850    11.8270     9.8970    10.5100    25.4080     2.3560 
  287.6250   -15.0900    87.3300    12.1920    10.2460    11.4570    25.4080     2.3470 
  287.7500   -15.7350    86.3500    12.5410    10.5830    12.3050    25.4080     2.3290 
  287.8750   -16.4340    85.3640    12.9040    10.9250    13.1220    25.4080     2.3090 
  288.0000   -17.1170    85.7710    13.3230    11.2960    13.4320    25.4080     2.2960 
  288.1250   -17.6690    86.9660    13.8590    11.7340    13.7810    25.4080     2.2920 
  288.2500   -18.1500    87.2790    14.4910    12.2310    14.1770    25.4150     2.2930 
  288.3750   -18.4700    87.6120    15.1340    12.7340    15.4850    25.4340     2.2940 
  288.5000   -18.5120    91.4140    15.6450    13.1430    16.5450    25.4610     2.2930 
  288.6250   -18.3940    96.8770    15.8190    13.3040    16.5130    25.4730     2.2910 
  288.7500   -18.2050    97.7390    15.6500    13.2000    15.6900    25.4760     2.2910 
  288.8750   -17.9200    93.7620    15.2250    12.8790    14.4080    25.4700     2.2910 
  289.0000   -17.6330    89.0660    14.7410    12.4840    13.6970    25.4530     2.2910 
  289.1250   -17.4520    88.1170    14.5150    12.2520    14.1560    25.4170     2.2890 
  289.2500   -17.3810    88.8420    14.7220    12.3360    15.6810    25.3930     2.2860 
  289.3750   -17.4450    89.4390    15.4410    12.8220    17.6880    25.3670     2.2820 
  289.5000   -17.6660    91.0180    16.6500    13.7270    19.9490    25.3430     2.2780 
  289.6250   -18.0000    94.8080    18.2400    15.0190    22.0430    25.3230     2.2750 
  289.7500   -18.3890    96.7580    19.8880    16.4530    23.2790    25.2970     2.2750 
  289.8750   -18.7690    94.2610    21.3520    17.8170    23.5260    25.2730     2.2770 
  290.0000   -19.0830    90.4000    22.4560    18.9330    23.9880    25.2630     2.2830 
  290.1250   -19.3160    91.5140    23.0720    19.6370    23.7140    25.2630     2.2910 
  290.2500   -19.3940    94.6170    23.3550    20.0180    24.0090    25.2630     2.2980 
  290.3750   -19.3440    94.8250    23.4510    20.1800    24.1290    25.2630     2.2990 
  290.5000   -19.2920    92.5650    23.4870    20.2320    23.9800    25.2620     2.2900 
  290.6250   -19.1530    90.9750    23.5660    20.2600    22.7900    25.2610     2.2750 
  290.7500   -18.9130    90.6410    23.7710    20.3500    21.9280    25.2600     2.2640 
  290.8750   -18.6690    92.0430    24.1610    20.5690    21.8960    25.2620     2.2630 
  291.0000   -18.4240    94.8360    24.7070    20.9240    22.8750    25.2630     2.2710 
  291.1250   -18.0890    95.5170    25.2350    21.3250    23.9760    25.2620     2.2820 
  291.2500   -17.8010    94.5600    25.5360    21.6300    24.7670    25.2610     2.2880 
  291.3750   -17.5540    95.4840    25.5200    21.7690    25.4400    25.2580     2.2910 
  291.5000   -17.2320    97.0340    25.2800    21.7900    26.3610    25.2570     2.2950 
  291.6250   -16.9400    93.9250    25.2020    21.9430    23.8180    25.2570     2.3030 
  291.7500   -16.6830    88.7050    25.7160    22.5350    23.8970    25.2570     2.3150 
  291.8750   -16.4140    86.4880    27.0290    23.7580    25.1000    25.2590     2.3280 
  292.0000   -16.1670    88.5430    29.0200    25.5710    25.6710    25.2590     2.3400 
  292.1250   -16.0130    91.6280    31.1080    27.5750    29.0440    25.2560     2.3530 
  292.2500   -15.8560    94.0660    32.3900    28.9970    34.1110    25.2560     2.3660 
  292.3750   -15.6460    95.3080    32.2090    29.1900    32.5320    25.2590     2.3730 
  292.5000   -15.3760    96.7810    30.3680    27.8490    25.2200    25.2610     2.3700 
  292.6250   -15.0100    96.8180    27.0410    24.9920    21.8660    25.2590     2.3540 
  292.7500   -14.5630    94.9060    23.1390    21.4770    21.1120    25.2580     2.3340 
  292.8750   -14.0860    93.2160    19.3370    17.9890    19.8920    25.2590     2.3170 
  293.0000   -13.6510    92.6600    16.2160    15.0950    15.3130    25.2610     2.3100 
  293.1250   -13.3400    91.6610    14.3250    13.2570    10.6140    25.2590     2.3110 
  293.2500   -13.1810    89.8650    13.5880    12.3680     9.7670    25.2560     2.3130 
  293.3750   -13.1490    89.8020    13.9350    12.3690    12.6040    25.2540     2.3110 
  293.5000   -13.2770    90.9500    15.1750    13.1630    21.1280    25.2550     2.3040 
  293.6250   -13.6440    90.1350    16.9810    14.6270    25.5950    25.2560     2.2950 
  293.7500   -14.1670    89.2190    18.7410    16.2790    25.1260    25.2570     2.2900 
  293.8750   -14.7640    89.4540    20.0900    17.7450    23.9450    25.2550     2.2930 
  294.0000   -15.4140    90.6710    20.9340    18.8170    23.9060    25.2540     2.3030 
  294.1250   -15.9660    91.9510    21.4160    19.5060    23.7730    25.2540     2.3130 
  294.2500   -16.3090    93.9980    21.8120    20.0570    23.8040    25.2550     2.3170 
  294.3750   -16.5500    95.0820    22.1760    20.5480    24.0340    25.2560     2.3100 
  294.5000   -16.6880    93.6660    22.4680    20.9600    24.5870    25.2580     2.2960 
  294.6250   -16.5000    91.9270    22.7020    21.2800    24.3750    25.2560     2.2790 
  294.7500   -16.0870    92.3090    22.9200    21.5460    24.9550    25.2550     2.2650 
  294.8750   -15.5250    93.5490    22.9280    21.6140    25.1420    25.2550     2.2540 
  295.0000   -14.7440    94.0730    22.2890    21.1130    24.5170    25.2560     2.2480 
  295.1250   -13.6750    92.4280    20.4370    19.5070    24.7870    25.2570     2.2430 
  295.2500   -12.4830    90.2660    17.6770    17.0520    22.2650    25.2570     2.2410 
  295.3750   -11.2460    89.1310    14.5810    14.2610    16.2720    25.2570     2.2410 
  295.5000   -10.0360    89.4980    11.7910    11.7080     9.4760    25.2560     2.2460 
  295.6250    -8.9430    89.6970     9.8600     9.8640     7.5070    25.2550     2.2560 
  295.7500    -7.9650    88.1460     8.7260     8.6910     6.9970    25.2540     2.2690 
  295.8750    -7.1360    85.4740     8.2520     8.0970     7.0740    25.2550     2.2810 
  296.0000    -6.5320    81.6550     8.2510     7.9580     7.0060    25.2560     2.2910 
  296.1250    -6.1760    76.9950     8.5390     8.1430     7.0030    25.2570     2.2940 
  296.2500    -5.9440    74.3990     8.8540     8.4080     7.1950    25.2550     2.2920 
  296.3750    -5.8230    73.9080     9.0480     8.5970     7.2670    25.2540     2.2890 
  296.5000    -5.7960    74.4290     9.0360     8.6160     7.2010    25.2540     2.2920 
  296.6250    -5.8530    73.2610     8.7890     8.4310     7.1210    25.2540     2.3090 
  296.7500    -6.0260    68.6460     8.4970     8.1930     7.1310    25.2540     2.3390 
  296.8750    -6.3310    63.0510     8.4160     8.0970     7.1530    25.2540     2.3780 
  297.0000    -6.7460    61.2580     8.8320     8.3550     7.5630    25.2540     2.4150 
  297.1250    -7.4040    65.2090    10.1210     9.2660     9.4020    25.2540     2.4350 
  297.2500    -8.3060    71.8450    12.2600    10.8870    13.8880    25.2540     2.4320 
  297.3750    -9.2910    78.6360    15.0920    13.2050    21.6540    25.2540     2.4060 
  297.5000   -10.2720    84.7130    18.1510    15.9390    27.6690    25.2540     2.3650 
  297.6250   -11.3700    89.3610    20.5890    18.3740    28.3400    25.2540     2.3230 
  297.7500   -12.4750    93.3400    22.0000    19.9700    26.1990    25.2540     2.2930 
  297.8750   -13.4240    96.8250    22.5130    20.7080    23.4600    25.2540     2.2760 
  298.0000   -14.2380    98.2150    22.6160    20.9480    21.5590    25.2540     2.2690 
  298.1250   -14.9140    95.5860    22.8090    21.1120    21.8290    25.2540     2.2640 
  298.2500   -15.4030    91.4150    23.1670    21.3620    24.4830    25.2540     2.2570 
  298.3750   -15.7770    90.8120    23.4720    21.5810    27.1680    25.2540     2.2480 
