~V
VERS. 2.00: Ver 2.00
~W
STRT.M 64.0000:
STOP.M 308.0000:
STEP.M 0.1250:
NULL. -999.2500:
UWI. F10040:
~C
DEPT.M :
GR.API :
RML.OHMM :
RI. :
RXO.OHMM :
CALI.CM :
DEN.GM/CC :
SP.MV :
~A
# ...
  187.7500    52.0300    22.3800    20.0650    23.0970    24.8840     2.5940     2.5730 
  187.8750    54.0190    21.9660    19.7820    20.8600    24.9000     2.6000     2.5100 
  188.0000    55.3710    21.3070    19.3210    19.6830    24.9570     2.6030     2.4660 
  188.1250    56.9310    20.3540    18.5980    19.4910    24.8660     2.6050     2.4720 
  188.2500    58.0790    19.2160    17.6610    19.7130    24.8910     2.6030     2.4510 
  188.3750    57.7970    18.0010    16.5860    18.7170    24.9580     2.5980     2.3700 
  188.5000    56.8740    16.8600    15.5060    16.7710    25.0030     2.5910     2.2770 
  188.6250    56.9550    16.0430    14.6590    15.0400    24.9390     2.5860     2.2490 
  188.7500    55.7690    15.6770    14.1880    14.0830    24.8660     2.5850     2.2670 
  188.8750    53.1480    15.8130    14.1680    14.2970    24.9210     2.5900     2.2950 
  189.0000    51.0100    16.3880    14.5700    16.2720    24.9700     2.5990     2.3130 
  189.1250    50.0400    17.2230    15.2770    19.8070    25.0070     2.6060     2.3100 
  189.2500    48.5520    17.9820    15.9880    20.9060    24.9430     2.6080     2.3380 
  189.3750    47.4450    18.4410    16.4810    19.5050    24.9340     2.6030     2.3930 
  189.5000    48.7270    18.5030    16.6380    17.6630    24.9290     2.5920     2.4350 
  189.6250    51.6620    18.2130    16.4710    17.3980    25.0270     2.5840     2.4490 
  189.7500    53.1690    17.8350    16.2090    17.3910    25.1040     2.5810     2.4510 
  189.8750    53.1620    17.5470    16.0120    17.8950    25.0960     2.5850     2.4380 
  190.0000    53.1370    17.4400    15.9630    18.5920    25.0530     2.5910     2.4050 
  190.1250    53.6260    17.5140    16.0560    18.9430    25.0260     2.5930     2.3150 
  190.2500    53.3120    17.6170    16.1530    18.9480    24.9990     2.5910     2.2000 
  190.3750    52.5060    17.6040    16.1250    18.4920    25.0150     2.5900     2.0860 
  190.5000    53.2910    17.3660    15.8760    18.0930    25.0510     2.5910     1.9530 
  190.6250    55.9850    16.8390    15.3500    17.6030    25.0210     2.5930     1.7530 
  190.7500    57.8090    16.1640    14.6740    16.0150    24.9050     2.5920     1.5290 
  190.8750    58.2340    15.5090    13.9950    14.1880    24.8360     2.5850     1.3280 
  191.0000    58.4630    15.0620    13.4750    13.1850    24.9860     2.5770     1.1350 
  191.1250    58.8690    15.0560    13.3110    13.0960    25.0660     2.5730     0.9670 
  191.2500    58.4120    15.5040    13.5300    14.0690    25.0260     2.5780     0.7510 
  191.3750    57.0730    16.3610    14.1190    16.1290    24.9160     2.5890     0.5110 
  191.5000    54.8270    17.4800    14.9860    18.5280    24.7980     2.6010     0.3170 
  191.6250    53.9500    18.5930    15.9530    20.9010    24.6490     2.6040     0.1830 
  191.7500    54.9400    19.4290    16.7670    21.4180    24.6850     2.5950     0.0460 
  191.8750    56.4390    19.8420    17.2610    21.7230    24.8680     2.5750    -0.1240 
  192.0000    56.7480    19.8210    17.3660    21.4480    24.8600     2.5480    -0.2620 
  192.1250    56.1360    19.4500    17.1020    19.4260    24.6400     2.5230    -0.3520 
  192.2500    55.0140    18.9910    16.6940    16.4210    24.3810     2.5080    -0.4360 
  192.3750    54.4670    18.6110    16.3050    14.6590    24.2150     2.5090    -0.5070 
  192.5000    56.0540    18.4160    16.0530    14.0770    24.1400     2.5240    -0.5680 
  192.6250    56.7610    18.4600    16.0130    14.3550    24.1310     2.5490    -0.6610 
  192.7500    54.3240    18.6560    16.1290    15.7760    24.1960     2.5720    -0.7390 
  192.8750    52.1760    18.9340    16.3460    16.7870    24.3400     2.5870    -0.7570 
  193.0000    53.4580    19.2200    16.5970    16.6640    24.5600     2.5920    -0.8000 
  193.1250    55.2280    19.3990    16.7760    16.3040    24.8610     2.5900    -0.8960 
  193.2500    53.9300    19.3550    16.7730    17.1470    25.0800     2.5860    -0.9310 
  193.3750    51.9640    18.9790    16.4890    18.1940    25.1160     2.5790    -0.9700 
  193.5000    52.9940    18.2330    15.8860    18.1840    25.0080     2.5680    -1.0740 
  193.6250    57.7220    17.1900    15.0050    16.4960    25.0340     2.5510    -1.1790 
  193.7500    62.3620    16.1420    14.0860    14.1320    25.0470     2.5330    -1.2880 
  193.8750    64.8580    15.3390    13.3370    12.9850    24.9670     2.5190    -1.4280 
  194.0000    64.4900    14.9620    12.9310    13.3940    24.8720     2.5120    -1.5560 
  194.1250    61.5240    15.1650    13.0380    15.3370    24.8870     2.5100    -1.6300 
  194.2500    59.6090    15.8110    13.5780    17.8660    24.9400     2.5110    -1.7270 
  194.3750    60.3390    16.7680    14.4570    19.7880    24.9890     2.5140    -1.8020 
  194.5000    62.2720    17.8460    15.5130    19.5350    25.0290     2.5220    -1.7820 
  194.6250    63.9390    18.7450    16.4910    19.1180    25.0300     2.5370    -1.6530 
  194.7500    64.5310    19.1980    17.1180    19.5040    25.0850     2.5540    -1.4860 
  194.8750    62.5680    18.9930    17.1700    20.1610    25.1330     2.5680    -1.2830 
  195.0000    58.8610    18.0430    16.5210    19.3320    25.1350     2.5730    -1.0130 
  195.1250    57.1700    16.3770    15.1390    14.6340    25.1170     2.5660    -0.7160 
  195.2500    56.7090    14.4280    13.4150    10.2290    25.0930     2.5530    -0.4030 
  195.3750    54.5730    12.5420    11.6810     8.4680    25.1140     2.5410    -0.0490 
  195.5000    52.1910    11.0030    10.2180     8.0590    25.1700     2.5300     0.2750 
  195.6250    53.2500    10.0400     9.2680     7.6910    25.1800     2.5190     0.5170 
  195.7500    55.0910     9.5520     8.7640     7.8920    25.1050     2.5050     0.7570 
  195.8750    54.5820     9.4140     8.6050     8.7800    24.9970     2.4890     0.9870 
  196.0000    52.1660     9.4490     8.6240     9.5380    25.0290     2.4750     1.1410 
  196.1250    51.1030     9.4640     8.6240     9.3480    25.0800     2.4700     1.2270 
  196.2500    52.4550     9.3670     8.5050     8.1330    25.1110     2.4750     1.2970 
  196.3750    54.4170     9.1930     8.2930     7.3480    25.1350     2.4900     1.2890 
  196.5000    55.8370     9.0570     8.0980     7.5150    25.2310     2.5090     1.2570 
  196.6250    55.3830     9.1370     8.0920     8.8600    25.1470     2.5280     1.2310 
  196.7500    53.4230     9.5100     8.3530    10.6850    25.0930     2.5410     1.1350 
  196.8750    51.0390    10.1870     8.9030    11.8940    25.0550     2.5490     0.9800 
  197.0000    50.1970    11.0990     9.6870    12.4300    24.9720     2.5550     0.8480 
  197.1250    53.0730    12.1250    10.5990    13.1080    24.8140     2.5600     0.7400 
  197.2500    56.4870    13.1130    11.4800    13.9580    24.7860     2.5650     0.5950 
  197.3750    58.1720    13.9960    12.2570    15.3430    24.9700     2.5670     0.4730 
  197.5000    58.7930    14.7620    12.9090    15.7760    25.1290     2.5660     0.3780 
  197.6250    62.3420    15.3910    13.4280    16.4140    25.1920     2.5660     0.2730 
  197.7500    66.5120    15.8590    13.8150    17.0800    25.1410     2.5710     0.1980 
  197.8750    66.9290    16.0890    14.0090    17.7810    25.0540     2.5830     0.1830 
  198.0000    63.0580    16.0060    13.9440    17.1750    24.9580     2.5960     0.1460 
  198.1250    59.1100    15.5560    13.5590    14.9580    24.8740     2.6050     0.0840 
  198.2500    58.9210    14.9070    12.9880    13.1670    24.7810     2.6070     0.0950 
  198.3750    60.9660    14.2320    12.3790    12.6300    24.7510     2.6000     0.1100 
  198.5000    61.8340    13.7170    11.8910    12.6500    24.7800     2.5890     0.0790 
  198.6250    59.7760    13.5590    11.6990    13.5040    24.8100     2.5770     0.0790 
  198.7500    57.3840    13.7350    11.7960    14.0620    24.8090     2.5670     0.0950 
  198.8750    56.9480    14.1650    12.1360    14.9680    24.8240     2.5600     0.0640 
