~V
VERS. 2.00: Ver 2.00
~W
STRT.M 50.0000:
STOP.M 307.0000:
STEP.M 0.1250:
NULL. -999.2500:
UWI. F10044:
~C
DEPT.M :
GR.API :
RML.OHMM :
RI. :
RXO.OHMM :
CALI.CM :
DEN.GM/CC :
SP.MV :
~A
# ...
  162.5000    59.9590     7.8180     7.9000     8.7210    23.0410     2.1850   -12.5980 
  162.6250    60.3780     7.8070     7.8990     8.5850    23.1470     2.1920   -12.0180 
  162.7500    59.9250     7.6000     7.7130     8.3910    23.1670     2.2050   -11.2950 
  162.8750    60.8770     7.1780     7.3150     8.0530    23.1660     2.2280   -10.4390 
  163.0000    64.6190     6.5940     6.7390     7.4270    23.1820     2.2610    -9.5210 
  163.1250    70.3990     5.9540     6.0740     6.4210    23.2300     2.3040    -8.6410 
  163.2500    75.6490     5.3720     5.4390     5.3740    23.2810     2.3460    -7.8340 
  163.3750    79.6130     4.8940     4.8910     4.7060    23.3080     2.3810    -7.0910 
  163.5000    83.2400     4.5240     4.4510     4.4990    23.3030     2.4070    -6.4510 
  163.6250    85.5640     4.2630     4.1340     4.5200    23.2600     2.4230    -6.0790 
  163.7500    86.1300     4.1030     3.9330     4.5110    23.2090     2.4320    -5.9780 
  163.8750    86.3580     4.0940     3.8830     4.5030    23.1940     2.4370    -6.1160 
  164.0000    86.9360     4.3060     4.0320     4.6230    23.2560     2.4370    -6.4570 
  164.1250    86.9180     4.8170     4.4500     5.0250    23.3930     2.4330    -7.0020 
  164.2500    83.5480     5.5340     5.0680     5.6390    23.5480     2.4230    -7.7420 
  164.3750    77.9030     6.3240     5.7950     6.4030    23.6570     2.4050    -8.6290 
  164.5000    72.2580     7.0170     6.4910     7.1350    23.6720     2.3730    -9.5580 
  164.6250    67.0910     7.4200     6.9780     7.5130    23.6220     2.3280   -10.4810 
  164.7500    62.2360     7.5520     7.2210     7.7910    23.5840     2.2780   -11.3950 
  164.8750    58.5240     7.5160     7.2750     8.2490    23.5690     2.2350   -12.2410 
  165.0000    57.7020     7.4580     7.2560     8.7330    23.5570     2.2040   -12.9520 
  165.1250    58.5170     7.5110     7.2910     8.9680    23.5260     2.1920   -13.4860 
  165.2500    58.1270     7.6880     7.4220     9.1380    23.4720     2.1950   -13.8340 
  165.3750    55.7580     7.9450     7.6230     9.4690    23.3910     2.2050   -14.0080 
  165.5000    52.6250     8.2140     7.8350     9.8930    23.2940     2.2190   -14.0380 
  165.6250    51.3550     8.4070     7.9760    10.3650    23.1950     2.2280   -13.8660 
  165.7500    52.1920     8.4840     8.0110    10.4090    23.1010     2.2330   -13.5560 
  165.8750    53.4140     8.4350     7.9340     9.7460    23.0250     2.2370   -13.2000 
  166.0000    52.7470     8.2920     7.7700     9.0540    22.9900     2.2440   -12.8420 
  166.1250    54.1210     8.1110     7.5720     8.7090    23.0100     2.2540   -12.4530 
  166.2500    59.6550     7.9570     7.4010     8.6350    23.0600     2.2610   -12.0300 
  166.3750    66.4700     7.8580     7.2860     8.6480    23.1240     2.2590   -11.6300 
  166.5000    70.2750     7.8110     7.2300     8.8080    23.1790     2.2470   -11.3160 
  166.6250    67.2460     7.8010     7.2220     9.0250    23.1930     2.2290   -11.0950 
  166.7500    61.3270     7.8080     7.2340     9.0990    23.1710     2.2160   -10.8520 
  166.8750    56.5040     7.8240     7.2520     9.0390    23.1270     2.2100   -10.5410 
  167.0000    56.2460     7.8370     7.2600     8.8650    23.0820     2.2140   -10.1870 
  167.1250    59.2360     7.8000     7.2240     8.7400    23.0560     2.2250    -9.8420 
  167.2500    62.7320     7.6610     7.1060     8.7460    23.0580     2.2390    -9.4630 
  167.3750    66.6370     7.3830     6.8770     8.7920    23.0790     2.2550    -8.9840 
  167.5000    69.8100     6.9790     6.5400     8.6570    23.1150     2.2730    -8.3980 
  167.6250    71.2370     6.5310     6.1490     8.2330    23.1590     2.2950    -7.7640 
  167.7500    73.2700     6.1660     5.8050     7.3720    23.2080     2.3170    -7.1720 
  167.8750    76.9020     5.9640     5.5760     6.4060    23.2540     2.3390    -6.6350 
  168.0000    80.3420     5.9350     5.4860     6.0780    23.2850     2.3570    -6.1340 
  168.1250    80.8270     6.0270     5.5220     6.4190    23.2960     2.3710    -5.6590 
  168.2500    80.6010     6.1140     5.5960     6.7380    23.3150     2.3780    -5.2800 
  168.3750    79.8570     6.1240     5.6470     6.6610    23.3610     2.3750    -5.0000 
  168.5000    78.8710     6.0470     5.6430     6.3490    23.4480     2.3620    -4.7670 
  168.6250    79.6460     5.9330     5.5850     6.0430    23.5720     2.3410    -4.5550 
  168.7500    81.2300     5.8590     5.5220     5.8820    23.6950     2.3210    -4.4040 
  168.8750    80.6520     5.8540     5.4880     5.8600    23.7610     2.3060    -4.3120 
  169.0000    77.0890     5.9040     5.4940     5.9380    23.7430     2.2990    -4.2420 
  169.1250    75.0270     5.9640     5.5290     6.0260    23.7010     2.3020    -4.1290 
  169.2500    75.9600     6.0000     5.5660     6.0980    23.6780     2.3150    -3.9490 
  169.3750    78.1470     6.0020     5.5880     6.1930    23.6800     2.3350    -3.7640 
  169.5000    80.5010     5.9750     5.5840     6.2840    23.7100     2.3600    -3.6190 
  169.6250    83.0160     5.9260     5.5460     6.1680    23.7700     2.3810    -3.4940 
  169.7500    84.3070     5.8620     5.4800     6.1020    23.8280     2.3900    -3.3050 
  169.8750    83.3460     5.7830     5.3930     6.1070    23.8650     2.3860    -3.0790 
  170.0000    80.3210     5.6880     5.3000     6.0900    23.8880     2.3720    -2.9050 
  170.1250    76.9890     5.5990     5.2310     6.0050    23.9010     2.3540    -2.8350 
  170.2500    74.8400     5.5550     5.2050     5.8630    23.9060     2.3370    -2.7920 
  170.3750    74.6640     5.5720     5.2240     5.8580    23.9060     2.3250    -2.7540 
  170.5000    77.6200     5.6330     5.2730     5.9900    23.9020     2.3170    -2.7470 
  170.6250    80.4720     5.6780     5.3130     6.1800    23.8980     2.3140    -2.8080 
  170.7500    81.2440     5.6560     5.3100     6.3540    23.8940     2.3170    -2.9050 
  170.8750    79.6930     5.5660     5.2560     6.4240    23.8920     2.3270    -3.0070 
  171.0000    78.0060     5.4440     5.1660     6.2520    23.8930     2.3410    -3.0880 
  171.1250    78.3250     5.3570     5.0810     5.7600    23.8730     2.3520    -3.1780 
  171.2500    81.1610     5.3150     5.0350     5.5470    23.8240     2.3590    -3.2960 
  171.3750    86.3020     5.3030     5.0370     5.5500    23.7450     2.3590    -3.4090 
  171.5000    88.8390     5.3270     5.0840     5.5590    23.6500     2.3550    -3.4790 
  171.6250    87.3280     5.4040     5.1720     5.5670    23.5690     2.3510    -3.5320 
  171.7500    87.6980     5.6210     5.3050     5.5540    23.5180     2.3490    -3.6320 
  171.8750    89.5490     6.0170     5.5080     5.6890    23.4710     2.3460    -3.7630 
  172.0000    87.8170     6.5980     5.8120     6.0340    23.3960     2.3400    -3.8700 
  172.1250    82.5340     7.3300     6.2420     6.5890    23.2960     2.3280    -3.9250 
  172.2500    80.6720     7.8530     6.7330     7.2060    23.2240     2.3130    -4.0040 
  172.3750    79.7710     8.3220     7.1940     7.6720    23.2230     2.2970    -4.1380 
  172.5000    75.8140     8.6210     7.5130     7.9770    23.3000     2.2840    -4.2790 
  172.6250    72.2760     8.6100     7.5550     7.8990    23.4290     2.2780    -4.3060 
  172.7500    73.1080     8.3320     7.3440     7.7300    23.5520     2.2810    -4.2480 
  172.8750    76.0370     7.8750     6.9490     7.4840    23.6480     2.2930    -4.1850 
  173.0000    77.9260     7.3800     6.4900     7.1480    23.7120     2.3090    -4.1750 
  173.1250    80.3020     7.0630     6.1380     6.8190    23.7260     2.3260    -4.1640 
  173.2500    83.9050     7.0720     6.0150     6.6700    23.6820     2.3370    -4.0990 
  173.3750    85.9830     7.4860     6.1960     6.7500    23.5860     2.3400    -4.0240 
  173.5000    84.1660     8.2720     6.6870     7.0520    23.4490     2.3330    -4.0100 
  173.6250    80.3710     9.2600     7.4200     7.7820    23.3120     2.3210    -4.1030 
