~V
VERS. 2.00: Ver 2.00
~W
STRT.M 50.0000:
STOP.M 300.0000:
STEP.M 0.1250:
NULL. -999.2500:
UWI. F10041:
~C
DEPT.M :
DEN.GM/CC :
GR.API :
RML.OHMM :
RI. :
RXO.OHMM :
CALI.CM :
SP.MV :
~A
# ...
  207.5000     2.3670    86.2440    12.9310    12.3370    13.7780    24.8210    -9.3080 
  207.6250     2.3530    84.8730    13.0740    12.4750    13.6500    24.7400    -9.7990 
  207.7500     2.3490    81.2800    13.2950    12.6880    13.7270    24.7050   -10.3080 
  207.8750     2.3580    78.9210    13.5910    12.9730    13.9490    24.6850   -10.7980 
  208.0000     2.3730    78.7570    13.9510    13.3180    14.1640    24.5380   -11.3260 
  208.1250     2.3870    78.3660    14.3400    13.6920    15.1210    24.2310   -11.8390 
  208.2500     2.3930    78.2280    14.7040    14.0420    15.8960    23.9810   -12.3350 
  208.3750     2.3940    78.0110    15.0060    14.3330    16.4600    23.8640   -12.7800 
  208.5000     2.3920    76.5190    15.2260    14.5440    16.6380    23.7920   -13.1750 
  208.6250     2.3890    72.8540    15.3500    14.6630    16.7530    23.7180   -13.5790 
  208.7500     2.3850    70.0500    15.4020    14.7140    16.7450    23.6170   -13.8950 
  208.8750     2.3780    71.0070    15.3980    14.7100    16.3230    23.5520   -14.1820 
  209.0000     2.3700    75.2400    15.3510    14.6640    15.5170    23.5440   -14.3380 
  209.1250     2.3630    78.9180    15.2720    14.5880    15.1130    23.5590   -14.4650 
  209.2500     2.3630    77.6620    15.1720    14.4930    15.4470    23.6030   -14.5450 
  209.3750     2.3700    73.1760    15.0600    14.3840    15.6440    23.6560   -14.6400 
  209.5000     2.3840    71.1870    14.9460    14.2750    15.6010    23.7240   -14.7280 
  209.6250     2.3950    72.7620    14.8570    14.1900    15.1930    23.7960   -14.7940 
  209.7500     2.3940    73.0000    14.8060    14.1400    14.8570    23.8290   -14.8410 
  209.8750     2.3840    70.7480    14.7900    14.1250    14.4580    23.8580   -14.8310 
  210.0000     2.3740    69.8480    14.7930    14.1280    13.9380    23.9820   -14.8220 
  210.1250     2.3740    72.1310    14.7960    14.1310    14.1470    24.3010   -14.7870 
  210.2500     2.3710    74.8780    14.7830    14.1180    14.5750    24.6200   -14.7430 
  210.3750     2.3450    77.9790    14.7280    14.0660    14.6820    24.6890   -14.6760 
  210.5000     2.2810    80.3640    14.5930    13.9350    14.3710    24.5730   -14.5580 
  210.6250     2.1900    79.6480    14.3230    13.6760    13.9830    24.8510   -14.4020 
  210.7500     2.1120    76.3750    13.9530    13.3200    13.5110    25.6050   -14.2250 
  210.8750     2.0810    74.8330    13.5490    12.9320    13.2850    26.5790   -14.0710 
  211.0000     2.1040    76.2880    13.2010    12.5970    12.9030    27.0380   -13.9350 
  211.1250     2.1710    75.9330    13.0090    12.4130    13.0420    26.6320   -13.8030 
  211.2500     2.2440    73.4780    12.9620    12.3670    13.3310    25.7590   -13.7030 
  211.3750     2.3040    72.4790    13.0150    12.4180    13.5060    25.1060   -13.5980 
  211.5000     2.3470    74.4390    13.1150    12.5140    13.3090    24.8410   -13.5200 
  211.6250     2.3720    77.4650    13.2340    12.6290    13.8680    24.8710   -13.4430 
  211.7500     2.3860    78.7900    13.3900    12.7790    14.2110    24.8730   -13.4610 
  211.8750     2.3880    78.7990    13.6130    12.9930    14.4410    24.8200   -13.4920 
  212.0000     2.3820    77.5280    13.9000    13.2690    14.9560    24.7830   -13.5710 
  212.1250     2.3780    75.0250    14.1640    13.5230    15.4360    24.7390   -13.6890 
  212.2500     2.3830    74.0730    14.2830    13.6370    15.6250    24.6930   -13.7940 
  212.3750     2.3990    76.6510    14.1890    13.5470    15.2850    24.6710   -13.9040 
  212.5000     2.4230    81.6010    13.9200    13.2880    14.2280    24.6680   -13.9730 
  212.6250     2.4470    84.7080    13.6340    13.0140    13.6470    24.6410   -14.0340 
  212.7500     2.4600    84.6680    13.5290    12.9090    13.4770    24.5330   -14.0270 
  212.8750     2.4600    82.9320    13.7080    13.0690    14.6510    24.3280   -14.0380 
  213.0000     2.4450    81.3030    14.0860    13.5060    17.5620    24.1300   -14.0420 
  213.1250     2.4160    79.9310    14.4530    14.1600    19.3660    23.9970   -14.0750 
  213.2500     2.3860    76.8080    14.7330    14.8480    16.8370    23.9400   -14.1150 
  213.3750     2.3660    72.5370    14.9840    15.4460    15.9920    24.0070   -14.1490 
  213.5000     2.3650    70.2400    15.2400    15.9090    17.9920    24.1100   -14.1990 
  213.6250     2.3860    72.5660    15.4780    16.2750    20.6090    24.1670   -14.2800 
  213.7500     2.4140    75.0010    15.7340    16.6330    19.4410    24.1100   -14.3690 
  213.8750     2.4350    74.5910    16.0330    16.9780    18.8720    23.9780   -14.4490 
  214.0000     2.4390    71.2360    16.3230    17.1970    20.9460    23.8530   -14.4510 
  214.1250     2.4240    68.4060    16.4350    17.0450    21.6590    23.8540   -14.3190 
  214.2500     2.4030    71.7660    16.2250    16.4610    17.6440    23.9110   -14.1080 
  214.3750     2.3840    80.1320    15.6020    15.5090    14.8170    23.9540   -13.8740 
  214.5000     2.3690    86.7960    14.5880    14.3720    13.3160    24.0210   -13.5960 
  214.6250     2.3550    87.4860    13.3100    13.2870    12.4750    24.1080   -13.2450 
  214.7500     2.3400    87.0260    12.0460    12.3920    11.8850    24.1640   -12.8290 
  214.8750     2.3290    88.0540    10.9730    11.7130    11.2170    24.2280   -12.3370 
  215.0000     2.3250    89.5700    10.1680    11.2030    10.4420    24.3390   -11.8730 
  215.1250     2.3330    90.5880     9.6410    10.8040    10.5040    24.5330   -11.4600 
  215.2500     2.3460    90.2840     9.2620    10.4580    11.0810    24.7480   -11.0720 
  215.3750     2.3610    88.7100     8.9690    10.1630    11.5220    24.8330   -10.6600 
  215.5000     2.3720    87.4770     8.7470     9.9260    10.9420    24.8170   -10.3140 
  215.6250     2.3790    86.9600     8.6380     9.7540     9.9270    24.5460   -10.0600 
  215.7500     2.3820    86.1470     8.6560     9.6380     9.4220    24.2690    -9.8990 
  215.8750     2.3830    84.9420     8.7950     9.5980     9.6030    24.1510    -9.7580 
  216.0000     2.3820    84.3560     9.0300     9.6700    10.0960    24.3060    -9.6540 
  216.1250     2.3810    83.1520     9.3300     9.9090    10.9480    24.6130    -9.6010 
  216.2500     2.3810    82.0620     9.6430    10.2760    11.8090    24.8340    -9.6130 
  216.3750     2.3860    82.1750     9.9460    10.7100    12.6910    24.9080    -9.6920 
  216.5000     2.3950    83.3230    10.2210    11.1250    12.8110    24.8980    -9.7930 
  216.6250     2.4070    83.0300    10.4120    11.4030    12.5540    24.8870    -9.8920 
  216.7500     2.4160    82.1010    10.4550    11.4860    12.3160    24.8940    -9.9500 
  216.8750     2.4200    81.5370    10.2830    11.3420    12.1420    24.9130   -10.0310 
  217.0000     2.4170    81.9360     9.8640    10.9790    11.5230    24.9180   -10.1070 
  217.1250     2.4140    83.0790     9.1790    10.4200    10.5550    24.9050   -10.1670 
  217.2500     2.4200    83.8310     8.3360     9.7600     9.3620    24.8980   -10.1700 
  217.3750     2.4350    83.3010     7.4370     9.0540     8.3810    24.8480   -10.1540 
  217.5000     2.4560    81.7710     6.6110     8.3550     7.9650    24.7440   -10.1070 
  217.6250     2.4700    78.9680     6.0280     7.7420     7.5550    24.6790   -10.0460 
  217.7500     2.4730    75.4620     5.7420     7.2710     7.2000    24.5940   -10.0220 
  217.8750     2.4660    71.5700     5.7650     6.9900     7.3930    24.3780    -9.9940 
  218.0000     2.4560    68.8800     6.0580     6.9270     8.7310    24.1920    -9.9560 
  218.1250     2.4530    68.5600     6.5860     7.1270     9.3400    24.1250    -9.8520 
  218.2500     2.4570    71.5370     7.2590     7.5460     9.1260    24.1040    -9.7800 
  218.3750     2.4650    76.2630     8.0540     8.1660     9.5010    24.0730    -9.7170 
  218.5000     2.4690    79.1090     8.9490     8.9510    11.3070    24.0190    -9.7300 
  218.6250     2.4620    78.2380     9.8860     9.8330    13.5920    23.9950    -9.7710 
