~V
VERS. 2.00: Ver 2.00
~W
STRT.M 55.0000:
STOP.M 297.0000:
STEP.M 0.1250:
NULL. -999.2500:
UWI. F10076:
~C
DEPT.M :
DEN.GM/CC :
SP.MV :
GR.API :
CALI.CM :
RXO.OHMM :
RI. :
RML.OHMM :
~A
# ...
  178.7500     2.4130    -5.7860    89.8450    24.5380    13.9380    17.1840    16.4420 
  178.8750     2.4280    -5.7830    87.7520    24.5200    19.2440    18.9410    18.4670 
  179.0000     2.4380    -5.7400    85.3800    24.4740    25.9610    21.3820    21.0330 
  179.1250     2.4370    -5.6880    84.3440    24.3900    27.3260    23.8000    23.3200 
  179.2500     2.4330    -5.7310    83.4290    24.3460    24.3170    25.3050    24.5200 
  179.3750     2.4300    -5.8010    82.3490    24.3410    21.0220    25.5410    24.4400 
  179.5000     2.4310    -5.7830    81.3560    24.3630    20.3430    24.8280    23.5570 
  179.6250     2.4390    -5.7390    81.9980    24.4070    20.7890    23.8540    22.6230 
  179.7500     2.4540    -5.7160    84.5120    24.4600    20.3550    23.1400    22.0550 
  179.8750     2.4670    -5.6750    84.9110    24.4310    18.9590    22.7660    21.8700 
  180.0000     2.4700    -5.6300    83.4060    24.3210    18.5750    22.6300    21.9230 
  180.1250     2.4580    -5.5720    85.3650    24.2720    20.5080    22.5610    22.0170 
  180.2500     2.4460    -5.4600    89.7670    24.2820    22.4510    22.4080    21.9840 
  180.3750     2.4440    -5.2830    91.4820    24.3340    21.9850    22.1110    21.7570 
  180.5000     2.4550    -5.1420    87.7760    24.3690    20.1050    21.6840    21.3580 
  180.6250     2.4700    -5.0400    83.6280    24.3730    20.3260    21.2020    20.8800 
  180.7500     2.4830    -4.9470    81.9110    24.3570    20.9580    20.7820    20.4660 
  180.8750     2.4990    -4.8500    81.5930    24.3410    20.6470    20.5090    20.2160 
  181.0000     2.5210    -4.8010    81.5540    24.3300    19.5030    20.4340    20.1840 
  181.1250     2.5380    -4.7380    80.1400    24.3120    18.5810    20.6070    20.4130 
  181.2500     2.5440    -4.6540    78.5010    24.2810    18.5570    20.9770    20.8410 
  181.3750     2.5440    -4.6160    77.7280    24.2540    19.3570    21.4680    21.3830 
  181.5000     2.5510    -4.6120    78.3250    24.2430    20.2090    21.8940    21.8300 
  181.6250     2.5560    -4.5900    78.6160    24.2430    20.5340    21.8540    21.7450 
  181.7500     2.5420    -4.5600    77.6550    24.2430    19.9820    21.1320    20.9200 
  181.8750     2.5110    -4.5480    75.9550    24.2430    18.3330    19.7070    19.3730 
  182.0000     2.4890    -4.5260    76.1020    24.2430    15.9750    17.8180    17.4090 
  182.1250     2.4910    -4.4850    78.3380    24.2430    13.8550    15.9210    15.5550 
  182.2500     2.4980    -4.4590    80.3250    24.2420    12.2420    14.4160    14.1980 
  182.3750     2.4970    -4.4380    79.1490    24.2380    10.9830    13.4790    13.4820 
  182.5000     2.4940    -4.4350    75.6150    24.2280    10.4680    13.1410    13.3790 
  182.6250     2.4950    -4.3520    74.0430    24.2180    11.3930    13.3580    13.7680 
  182.7500     2.4890    -4.2150    73.0910    24.2230    12.9680    13.7920    14.2650 
  182.8750     2.4740    -4.0410    69.6570    24.2340    13.9640    14.1600    14.5760 
  183.0000     2.4600    -3.7820    64.9280    24.2370    13.8660    14.2390    14.5250 
  183.1250     2.4640    -3.5200    62.8250    24.2300    13.3240    13.9380    14.1110 
  183.2500     2.4770    -3.2570    63.0900    24.2230    12.3580    13.4800    13.6240 
  183.3750     2.4880    -2.9860    62.9400    24.2170    11.4250    13.0850    13.2960 
  183.5000     2.4910    -2.6660    62.7390    24.2190    11.0790    12.9220    13.2690 
  183.6250     2.4910    -2.4380    65.3600    24.2430    11.0740    13.0920    13.5960 
  183.7500     2.4900    -2.2330    69.5010    24.2820    11.0630    13.4670    14.1080 
  183.8750     2.4830    -2.0270    72.9630    24.3120    11.5480    13.9070    14.6450 
  184.0000     2.4690    -1.8970    75.0320    24.3220    12.7900    14.2700    15.0520 
  184.1250     2.4560    -1.8420    76.5280    24.3060    13.6490    14.4230    15.1940 
  184.2500     2.4570    -1.8330    77.0430    24.2750    13.3340    14.4010    15.1420 
  184.3750     2.4670    -1.8060    75.5680    24.2430    12.3110    14.2840    15.0060 
  184.5000     2.4760    -1.7870    75.8470    24.2240    11.5890    14.1720    14.9050 
  184.6250     2.4790    -1.8040    80.7080    24.2140    11.9000    14.1540    14.9250 
  184.7500     2.4840    -1.8540    82.8250    24.2280    12.2490    14.2230    15.0380 
  184.8750     2.4890    -1.9230    78.7660    24.2360    12.4120    14.3410    15.2000 
  185.0000     2.4830    -2.0190    72.2370    24.2310    12.4470    14.4730    15.3850 
  185.1250     2.4640    -2.0880    69.8530    24.2100    12.4930    14.5970    15.5750 
  185.2500     2.4490    -2.1410    71.2590    24.1850    12.6350    14.6750    15.7060 
  185.3750     2.4470    -2.2260    73.9280    24.1820    13.2500    14.6350    15.6840 
  185.5000     2.4490    -2.2690    74.5190    24.1970    14.2980    14.3920    15.4170 
  185.6250     2.4460    -2.2630    73.1300    24.1820    13.9150    13.8810    14.8590 
  185.7500     2.4430    -2.2970    72.6970    24.1720    12.3900    13.2450    14.1960 
  185.8750     2.4470    -2.3810    73.0360    24.1580    10.8460    12.6690    13.6410 
  186.0000     2.4570    -2.4400    72.6340    24.1170    10.1860    12.3280    13.3770 
  186.1250     2.4660    -2.4380    71.6050    23.9800    10.2310    12.3850    13.5720 
  186.2500     2.4680    -2.4060    71.0130    23.8090    10.4420    12.7830    14.1350 
  186.3750     2.4690    -2.4250    70.0180    23.7250    11.0810    13.4320    14.9260 
  186.5000     2.4690    -2.5010    71.6700    23.8280    12.5200    14.1610    15.7190 
  186.6250     2.4620    -2.4930    77.5380    24.0310    14.1280    14.7140    16.2230 
  186.7500     2.4470    -2.4280    80.5190    24.1720    15.1130    14.9700    16.3770 
  186.8750     2.4370    -2.3810    78.0320    24.2270    15.1740    14.9420    16.2570 
  187.0000     2.4400    -2.3240    74.4060    24.2390    14.3770    14.7420    16.0160 
  187.1250     2.4490    -2.3270    73.9440    24.2410    13.4710    14.5230    15.8110 
  187.2500     2.4570    -2.3420    75.0460    24.2360    13.1210    14.3710    15.6950 
  187.3750     2.4660    -2.2940    75.7570    24.2140    13.2260    14.2700    15.6310 
  187.5000     2.4770    -2.2330    75.8700    24.1650    13.2150    14.1660    15.5610 
  187.6250     2.4800    -2.2130    75.5380    24.1250    12.5780    14.0110    15.4420 
  187.7500     2.4710    -2.2080    75.1190    24.1130    11.7980    13.8310    15.3010 
  187.8750     2.4610    -2.1350    74.0060    24.1190    11.5300    13.6690    15.1770 
  188.0000     2.4630    -2.0740    71.3120    24.1330    11.9080    13.5650    15.1040 
  188.1250     2.4800    -2.0470    68.7930    24.1070    12.4050    13.5470    15.1050 
  188.2500     2.4940    -2.0280    69.1330    24.0600    12.4830    13.5960    15.1640 
  188.3750     2.4930    -1.9920    71.8820    24.0390    12.1930    13.7050    15.2770 
  188.5000     2.4810    -1.9520    74.2210    24.0590    11.7720    13.8650    15.4550 
  188.6250     2.4770    -1.9600    73.0720    24.1190    11.8770    14.0660    15.6960 
  188.7500     2.4920    -1.9950    71.0930    24.1560    12.6340    14.2750    15.9480 
  188.8750     2.5070    -2.0110    73.7130    24.1670    13.7230    14.4610    16.1490 
  189.0000     2.5040    -2.0250    80.4740    24.1670    14.1180    14.5900    16.2580 
  189.1250     2.4830    -1.9990    84.4840    24.1440    13.5620    14.6480    16.2730 
  189.2500     2.4680    -1.9920    84.6810    24.1040    13.0820    14.6790    16.2740 
  189.3750     2.4720    -2.0160    85.5700    24.0940    13.3710    14.7210    16.3040 
  189.5000     2.4920    -2.0370    88.7350    24.1380    13.8120    14.7800    16.3550 
  189.6250     2.5070    -2.0250    87.0220    24.1250    13.6370    14.8310    16.3900 
  189.7500     2.5020    -1.9980    80.7610    24.0400    12.9540    14.8640    16.3990 
  189.8750     2.4860    -2.0250    75.4930    23.9300    12.1940    14.8940    16.4020 
