~V
VERS. 2.00: Ver 2.00
~W
STRT.M 57.0000:
STOP.M 177.0000:
STEP.M 0.1250:
NULL. -999.2500:
UWI. F10011:
~C
DEPT.M :
DEN.GM/CC :
SP.MV :
GR.API :
CALI.CM :
RXO.OHMM :
RI. :
RML.OHMM :
~A
# ...
   90.7500     2.1270   -17.9430    76.5430    23.0940    22.4930    28.3360    28.9910 
   90.8750     2.1060   -18.1250    75.1880    23.4670    24.7010    28.3910    29.3640 
   91.0000     2.0860   -18.1540    74.1760    23.8720    25.7620    28.7980    29.9670 
   91.1250     2.0870   -17.9320    74.8990    24.0700    25.2110    28.9770    30.2270 
   91.2500     2.1030   -17.5340    76.2290    24.1260    24.5610    28.6990    29.9870 
   91.3750     2.1180   -16.9120    77.7380    24.1180    24.2820    28.0610    29.3900 
   91.5000     2.1240   -16.1100    79.1660    24.1240    23.6610    27.3080    28.7080 
   91.6250     2.1210   -15.2670    78.9840    24.1380    22.7360    26.7040    28.1900 
   91.7500     2.1210   -14.3990    78.0210    24.1190    22.2980    26.3010    27.8530 
   91.8750     2.1230   -13.5540    77.9830    24.0330    22.5350    26.0360    27.6210 
   92.0000     2.1190   -12.8100    78.4150    23.8970    23.8400    25.8210    27.4220 
   92.1250     2.1010   -12.2380    76.5400    23.8380    25.4470    25.5810    27.1970 
   92.2500     2.0780   -11.8770    74.2150    23.8660    25.7350    25.2930    26.8690 
   92.3750     2.0670   -11.7210    75.9790    23.8200    24.3460    24.9790    26.4250 
   92.5000     2.0710   -11.7850    82.3090    23.5440    23.0690    24.7000    25.9410 
   92.6250     2.0800   -11.8520    86.1050    23.3030    23.2360    24.5410    25.5950 
   92.7500     2.0820   -11.9830    84.9130    23.1130    23.3770    24.5100    25.4890 
   92.8750     2.0810   -12.1370    83.4780    22.9060    22.3150    24.5610    25.5830 
   93.0000     2.0850   -12.2550    85.2640    22.6100    20.1660    24.5040    25.6060 
   93.1250     2.0960   -12.3830    87.0640    22.0660    18.7810    23.8020    24.8500 
   93.2500     2.1100   -12.4840    87.1700    21.4500    17.5220    22.0810    22.9070 
   93.3750     2.1250   -12.5750    88.4200    20.9840    15.4920    19.2900    19.8310 
   93.5000     2.1470   -12.5900    91.2630    20.5580    12.3400    15.8830    16.2180 
   93.6250     2.1810   -12.6610    95.8540    19.3640     9.2610    12.6410    12.9600 
   93.7500     2.2230   -12.6820   102.5260    17.3800     7.5390    10.0570    10.5040 
   93.8750     2.2660   -12.6900   110.0880    15.4410     7.1420     8.2920     8.9790 
   94.0000     2.2990   -12.6940   115.2620    14.3490     7.4900     7.3790     8.4260 
   94.1250     2.3170   -12.7220   114.9590    14.0790     8.1760     7.5050     9.0960 
   94.2500     2.3210   -12.7120   110.5800    14.1130     9.1220     8.6220    10.9370 
   94.3750     2.3060   -12.6800   102.6470    14.3740    11.0270    10.8090    13.9240 
   94.5000     2.2720   -12.6510    94.4910    14.9790    14.2070    13.8550    17.5580 
   94.6250     2.2330   -12.5870    89.4460    16.0930    17.5530    16.5450    20.0730 
   94.7500     2.2090   -12.5690    87.1180    17.5630    19.0440    17.3940    20.0280 
   94.8750     2.2020   -12.5370    84.9840    19.0550    17.8170    16.3660    17.9070 
   95.0000     2.2050   -12.5170    83.9720    20.4030    14.6030    14.6370    15.4110 
   95.1250     2.2070   -12.4850    87.9520    21.2630    12.3170    13.4070    13.9870 
   95.2500     2.2070   -12.5050    93.3140    21.7870    12.8810    12.9580    13.7030 
   95.3750     2.2080   -12.4880    96.2510    22.1430    15.8690    13.1330    14.1740 
   95.5000     2.2170   -12.4990    96.2520    22.4480    19.0140    13.4750    14.6760 
   95.6250     2.2560   -12.5310    94.8860    22.7220    20.3110    13.1960    14.1810 
   95.7500     2.3250   -12.5170    95.0980    22.8930    17.6620    12.0830    12.6530 
   95.8750     2.3990   -12.5080    98.8220    22.9850    12.7880    10.4890    10.7170 
   96.0000     2.4420   -12.4870   106.1220    23.0290     8.9090     8.9390     9.0580 
   96.1250     2.4270   -12.5160   110.9450    23.0810     7.1620     7.8380     8.0800 
   96.2500     2.3860   -12.5140   110.6610    23.1450     6.9170     7.1990     7.6450 
   96.3750     2.3460   -12.5400   110.4750    23.1980     7.0220     6.9660     7.6260 
   96.5000     2.3160   -12.5290   113.3930    23.2210     7.0100     7.0290     7.8840 
   96.6250     2.2980   -12.5360   117.5460    23.2230     7.2210     7.2580     8.2580 
   96.7500     2.2970   -12.5540   118.6620    23.2230     7.6050     7.4860     8.5600 
   96.8750     2.3100   -12.5770   116.4680    23.2210     7.8040     7.6400     8.7030 
   97.0000     2.3190   -12.5960   113.6740    23.2040     7.7430     7.6950     8.6820 
   97.1250     2.3040   -12.6030   112.2000    23.1550     7.7170     7.6860     8.6130 
   97.2500     2.2800   -12.6270   112.4120    23.1000     8.0050     7.7500     8.7130 
   97.3750     2.2660   -12.6700   112.1760    23.0690     8.6690     8.0560     9.1960 
   97.5000     2.2660   -12.7310   111.3240    23.0470     9.9320     8.7970    10.2880 
   97.6250     2.2650   -12.7460   110.1440    23.0250    12.7100    10.3360    12.4090 
   97.7500     2.2480   -12.7580   109.3080    23.0710    17.3090    12.8170    15.6320 
   97.8750     2.2170   -12.7750   105.8990    23.2100    22.6620    16.3460    19.8930 
   98.0000     2.1850   -12.8040    99.3910    23.3630    27.5410    20.6110    24.5530 
   98.1250     2.1680   -12.7700    94.4010    23.4860    30.8010    24.2740    27.7460 
   98.2500     2.1590   -12.7800    91.4050    23.6590    33.4630    25.9300    28.2640 
   98.3750     2.1510   -12.7750    88.5450    23.8770    35.0400    25.3550    26.5220 
   98.5000     2.1420   -12.7550    86.6620    24.0650    34.0970    23.4100    23.8930 
   98.6250     2.1410   -12.7470    89.8540    24.1290    26.5770    21.1060    21.4420 
   98.7500     2.1470   -12.7700    95.6460    24.1450    19.7960    18.9420    19.2850 
   98.8750     2.1530   -12.7930    99.1770    24.1420    17.0270    16.8790    17.2060 
   99.0000     2.1570   -12.7610   101.5970    24.1210    15.5280    14.7810    15.0440 
   99.1250     2.1650   -12.7840   105.3510    24.0710    13.6350    12.6410    12.8360 
   99.2500     2.1850   -12.7640   108.5340    24.0210    11.5790    10.6540    10.7950 
   99.3750     2.2220   -12.7580   110.0630    23.9980     9.0440     9.0270     9.1260 
   99.5000     2.2720   -12.7490   110.4830    23.9790     6.7850     7.9020     7.9900 
   99.6250     2.3150   -12.7490   113.2120    23.9410     6.5550     7.4360     7.5940 
   99.7500     2.3390   -12.7220   116.8910    23.9070     7.3120     7.5350     7.8440 
   99.8750     2.3430   -12.6850   117.8970    23.9010     8.6520     8.1690     8.6740 
  100.0000     2.3310   -12.6760   115.0700    23.9260    10.5160     9.2810     9.9690 
  100.1250     2.3080   -12.5800   109.8570    24.0000    13.0380    10.7850    11.6190 
  100.2500     2.2860   -12.4870   105.6210    24.1310    15.2580    12.4120    13.3800 
  100.3750     2.2700   -12.3800   102.7620    24.2430    16.5310    14.0110    15.1090 
  100.5000     2.2550   -12.2920    99.8810    24.2890    17.4400    15.5390    16.7480 
  100.6250     2.2380   -12.1410    95.4020    24.2880    19.0950    17.0860    18.3600 
  100.7500     2.2160   -11.9990    90.4880    24.2730    21.5610    18.7990    20.1490 
  100.8750     2.1930   -11.8710    87.4130    24.2430    24.4650    20.8270    22.3620 
  101.0000     2.1710   -11.8040    86.8690    24.2210    27.2430    23.3250    25.2500 
  101.1250     2.1580   -11.7710    85.6480    24.2070    30.2200    26.5410    29.1900 
  101.2500     2.1520   -11.7430    82.6110    24.1730    34.1060    30.4890    34.1800 
  101.3750     2.1500   -11.7140    80.3780    24.0950    39.2460    35.2430    40.2530 
  101.5000     2.1480   -11.6750    79.1720    23.9930    45.5410    40.7480    47.2050 
  101.6250     2.1470   -11.6660    77.2150    23.8310    52.2290    46.6090    54.3220 
  101.7500     2.1420   -11.6750    74.9260    23.5870    57.9820    51.9330    60.4510 
  101.8750     2.1330   -11.7120    72.6550    23.3740    61.0660    55.9510    64.6780 
