~V
VERS. 2.00: Ver 2.00
~W
STRT.M 56.0000:
STOP.M 235.0000:
STEP.M 0.1250:
NULL. -999.2500:
UWI. F10014:
~C
DEPT.M :
GR.API :
RML.OHMM :
RI. :
RXO.OHMM :
CALI.CM :
DEN.GM/CC :
SP.MV :
~A
# ...
  213.5000    79.3600     8.4960     8.4460     8.8120    24.7660     2.3370   -16.7710 
  213.6250    79.9390     8.8410     8.7020     9.0830    24.6910     2.3210   -17.3160 
  213.7500    81.8070     9.3630     9.0950     9.3750    24.6720     2.3140   -17.8940 
  213.8750    83.7410    10.0240     9.6090     9.9520    24.6720     2.3290   -18.3760 
  214.0000    82.9630    10.6560    10.1080    11.5590    24.6300     2.3690   -18.6210 
  214.1250    78.0140    10.9070    10.2800    15.0600    24.5500     2.4160   -18.5960 
  214.2500    73.3850    10.6210     9.9620    16.8340    24.5240     2.4470   -18.4310 
  214.3750    73.3970     9.8630     9.2090    14.6730    24.6090     2.4490   -18.0490 
  214.5000    76.3160     8.9100     8.2750    10.1630    24.7750     2.4230   -17.5310 
  214.6250    77.4630     8.1410     7.4830     8.3670    24.8430     2.3870   -16.9780 
  214.7500    75.1840     7.7440     6.9900     7.6500    24.8230     2.3570   -16.4560 
  214.8750    72.2330     7.7490     6.8340     7.7060    24.7910     2.3410   -16.0990 
  215.0000    73.0090     8.0760     6.9770     7.8140    24.8030     2.3380   -16.0670 
  215.1250    77.3940     8.5610     7.3260     8.0260    24.8730     2.3450   -16.3490 
  215.2500    79.8570     8.9710     7.6780     8.2580    24.9200     2.3520   -16.6490 
  215.3750    79.3910     9.1600     7.8890     8.3650    24.9070     2.3560   -16.9690 
  215.5000    79.2170     9.0770     7.8800     8.1070    24.9150     2.3520   -17.3040 
  215.6250    82.3130     8.7840     7.6660     8.0330    24.9080     2.3420   -17.5550 
  215.7500    86.3430     8.4990     7.4180     7.7390    24.9030     2.3290   -17.8210 
  215.8750    88.5110     8.3640     7.2560     7.6820    24.9050     2.3160   -18.1370 
  216.0000    87.1250     8.4380     7.2440     8.2520    24.8990     2.3020   -18.3830 
  216.1250    82.8410     8.6870     7.3850     9.0620    24.9130     2.2880   -18.5610 
  216.2500    79.2660     8.9310     7.5590     9.7120    24.9450     2.2780   -18.7320 
  216.3750    79.5130     9.0370     7.6570     9.6240    24.9590     2.2790   -18.8760 
  216.5000    82.0360     8.9460     7.6150     8.7020    24.8900     2.2950   -19.0640 
  216.6250    82.1530     8.7100     7.4460     7.7010    24.7350     2.3210   -19.3350 
  216.7500    79.3350     8.5140     7.2790     7.5380    24.6290     2.3450   -19.6000 
  216.8750    77.5290     8.4770     7.2020     7.8630    24.6140     2.3610   -19.8440 
  217.0000    78.0670     8.6330     7.2560     8.3560    24.6230     2.3700   -20.0570 
  217.1250    78.0450     8.9140     7.4170     9.2930    24.6190     2.3770   -20.1980 
  217.2500    76.7380     9.1430     7.5710    10.7080    24.6260     2.3850   -20.3490 
  217.3750    74.3730     9.2030     7.6260    11.5980    24.6660     2.3890   -20.4890 
  217.5000    71.3450     9.0680     7.5430    11.0340    24.6970     2.3820   -20.5280 
  217.6250    70.6650     8.8120     7.3510     9.1560    24.6480     2.3620   -20.5230 
  217.7500    75.1420     8.5780     7.1560     8.3850    24.5870     2.3360   -20.4520 
  217.8750    82.2830     8.4380     7.0230     8.5150    24.6230     2.3120   -20.2830 
  218.0000    86.2510     8.4130     6.9860     9.1360    24.7450     2.2940   -20.1420 
  218.1250    84.5720     8.5230     7.0850     9.8020    24.7670     2.2830   -20.1620 
  218.2500    80.8620     8.7660     7.3170     9.9400    24.6720     2.2780   -20.3950 
  218.3750    77.5340     9.1720     7.7000    10.1650    24.5620     2.2790   -20.8400 
  218.5000    76.8190     9.7460     8.2370    10.4980    24.5100     2.2910   -21.4480 
  218.6250    77.3030    10.4150     8.8810    11.6530    24.5110     2.3140   -22.0860 
  218.7500    78.7570    10.9610     9.4560    12.7460    24.6050     2.3390   -22.5690 
  218.8750    82.1720    11.1750     9.7720    12.3030    24.7430     2.3550   -22.8040 
  219.0000    85.9880    10.9490     9.6990    10.7970    24.8620     2.3570   -22.6850 
  219.1250    85.4240    10.3310     9.2320     8.9710    24.9210     2.3480   -22.1620 
  219.2500    79.6380     9.6150     8.6190     8.1320    24.9290     2.3380   -21.4680 
  219.3750    73.5000     8.9890     8.0280     7.8410    24.9070     2.3330   -20.6670 
  219.5000    70.5350     8.5410     7.5520     7.7540    24.9010     2.3310   -19.7560 
  219.6250    70.2550     8.2750     7.2200     7.7940    24.9370     2.3290   -18.8030 
  219.7500    71.8350     8.0840     6.9680     7.6100    24.9870     2.3250   -17.8970 
  219.8750    75.0140     7.9060     6.7540     7.1260    25.0370     2.3240   -17.1580 
  220.0000    78.0640     7.7170     6.5630     6.8660    25.0470     2.3250   -16.7540 
  220.1250    77.9120     7.5380     6.4190     6.9290    25.0100     2.3280   -16.6840 
  220.2500    75.6620     7.4460     6.3700     7.1330    24.9600     2.3270   -16.7020 
  220.3750    75.5880     7.5680     6.4950     7.3260    24.9090     2.3230   -16.8360 
  220.5000    77.2810     8.0700     6.9020     7.5330    24.8610     2.3220   -17.0540 
  220.6250    75.4960     9.2410     7.8130     7.7870    24.7910     2.3420   -17.1980 
  220.7500    70.9780    11.0590     9.2750     8.8150    24.6850     2.3880   -17.4030 
  220.8750    68.3210    13.3160    11.2330    11.5850    24.5930     2.4580   -17.7370 
  221.0000    69.1250    15.4390    13.2950    18.2000    24.5670     2.5330   -18.0360 
  221.1250    70.8770    16.3090    14.4470    24.2930    24.5810     2.5750   -18.2540 
  221.2500    72.6980    15.6060    14.1770    22.8800    24.5500     2.5680   -18.4760 
  221.3750    75.5260    13.7740    12.7710    15.2610    24.5340     2.5130   -18.6100 
  221.5000    79.1150    11.6890    10.9900    10.6570    24.6410     2.4310   -18.6150 
  221.6250    81.8410    10.1390     9.5220     9.5380    24.7320     2.3580   -18.5980 
  221.7500    82.6190     9.2160     8.5180     9.3120    24.7510     2.3190   -18.5670 
  221.8750    82.0320     8.7770     7.9200     8.8470    24.7250     2.3160   -18.4120 
  222.0000    81.1710     8.6070     7.6080     8.1890    24.6790     2.3340   -18.2070 
  222.1250    78.7460     8.5280     7.4760     7.7240    24.6580     2.3550   -18.0780 
  222.2500    74.8710     8.4580     7.4240     7.5130    24.6930     2.3640   -17.9630 
  222.3750    73.0200     8.4280     7.4460     7.7760    24.7500     2.3640   -18.0090 
  222.5000    74.9620     8.4920     7.5680     8.6490    24.7170     2.3590   -18.3090 
  222.6250    77.9650     8.6880     7.8190     9.6120    24.6580     2.3530   -18.7840 
  222.7500    79.4530     8.9610     8.1560    10.0040    24.6230     2.3480   -19.3900 
  222.8750    80.8590     9.2670     8.5340    10.3480    24.6530     2.3400   -20.1240 
  223.0000    82.1150     9.5630     8.9020    10.6650    24.7010     2.3290   -20.9710 
  223.1250    80.9890     9.7880     9.1840    11.3600    24.7230     2.3160   -21.8740 
  223.2500    80.8310     9.8890     9.3210    11.7570    24.7800     2.3060   -22.6260 
  223.3750    84.6370     9.8040     9.2590    10.9690    24.8440     2.3030   -23.0030 
  223.5000    90.7390     9.5010     8.9700     9.9740    24.8630     2.3080   -22.9630 
  223.6250    92.9280     8.9780     8.4620     9.0870    24.8480     2.3180   -22.5090 
  223.7500    89.1290     8.3750     7.8660     7.9420    24.8470     2.3270   -21.7690 
  223.8750    83.1600     7.8140     7.2920     7.1310    24.8510     2.3290   -20.9130 
  224.0000    79.9070     7.3830     6.8190     6.6950    24.8230     2.3220   -19.9720 
  224.1250    80.4990     7.1460     6.5100     6.4940    24.8020     2.3100   -18.9570 
  224.2500    80.9300     7.0570     6.3440     6.5470    24.7620     2.2990   -18.0820 
  224.3750    80.2260     7.0770     6.3030     6.6800    24.7750     2.2880   -17.4960 
  224.5000    80.0770     7.1720     6.3680     6.7300    24.7990     2.2790   -17.2590 
  224.6250    79.4140     7.3340     6.5330     6.9420    24.7570     2.2740   -17.5230 
