~V
VERS. 2.00: Ver 2.00
~W
STRT.M 64.0000:
STOP.M 260.0000:
STEP.M 0.1250:
NULL. -999.2500:
UWI. F10016:
~C
DEPT.M :
GR.API :
RML.OHMM :
RI. :
RXO.OHMM :
CALI.CM :
DEN.GM/CC :
SP.MV :
~A
# ...
  120.2500    92.3920     8.6270     7.9870     6.9840    24.0240     2.3120   -13.7780 
  120.3750    97.4610     8.5980     7.9460     7.4930    23.9850     2.3040   -13.6220 
  120.5000    99.1790     8.7710     7.9800     9.4010    23.9560     2.2800   -13.4850 
  120.6250    97.1730     9.1340     8.2100    11.4630    24.0100     2.2610   -13.3550 
  120.7500    95.0210     9.5320     8.6010    10.9450    24.0400     2.2650   -13.2190 
  120.8750    93.1160     9.8640     9.0510     9.5160    24.0140     2.2970   -13.1520 
  121.0000    88.8590    10.0820     9.4110     9.8210    23.9710     2.3410   -13.1070 
  121.1250    85.1410    10.1550     9.5280    11.2410    23.9260     2.3730   -13.0270 
  121.2500    87.3890    10.0950     9.4240    11.1460    23.9420     2.3780   -12.9820 
  121.3750    92.5740     9.9030     9.1620     9.5700    24.0340     2.3590   -12.9400 
  121.5000    94.8320     9.5990     8.8180     8.6470    24.1320     2.3330   -12.8990 
  121.6250    94.9800     9.2290     8.4550     8.5630    24.1760     2.3180   -12.8450 
  121.7500    99.0140     8.8730     8.1200     8.1080    24.1830     2.3210   -12.8130 
  121.8750   104.3800     8.5920     7.8520     7.4750    24.2140     2.3360   -12.7940 
  122.0000   105.9240     8.4220     7.6700     7.1310    24.2530     2.3520   -12.7710 
  122.1250   104.0620     8.3800     7.5840     7.1230    24.2290     2.3600   -12.7570 
  122.2500   103.8270     8.4120     7.5590     7.3320    24.1610     2.3600   -12.7390 
  122.3750   106.8680     8.4640     7.5830     7.3910    24.1190     2.3570   -12.7390 
  122.5000   109.3100     8.4830     7.6400     7.2670    24.1060     2.3560   -12.7490 
  122.6250   106.7910     8.4320     7.6910     7.3090    24.1550     2.3590   -12.7680 
  122.7500   103.3460     8.3510     7.6890     7.2740    24.2840     2.3650   -12.7990 
  122.8750   104.3120     8.2900     7.6290     7.2830    24.4140     2.3690   -12.8670 
  123.0000   109.3170     8.2810     7.5520     7.3900    24.4560     2.3690   -12.9340 
  123.1250   113.2900     8.3130     7.5190     7.5430    24.4350     2.3640   -13.0450 
  123.2500   114.0520     8.3320     7.5260     7.6750    24.4400     2.3570   -13.1860 
  123.3750   110.6490     8.3160     7.5340     7.4700    24.4610     2.3510   -13.3540 
  123.5000   104.8810     8.2880     7.5190     7.0930    24.4800     2.3490   -13.5470 
  123.6250   101.7990     8.3200     7.5200     7.3270    24.4490     2.3500   -13.7750 
  123.7500   103.2280     8.4320     7.5840     8.0990    24.3110     2.3540   -14.0270 
  123.8750   105.6990     8.5830     7.7030     9.0290    24.1530     2.3570   -14.2200 
  124.0000   106.0520     8.6900     7.8120     9.6860    24.0310     2.3570   -14.4160 
  124.1250   105.4910     8.6790     7.8400     9.2060    24.0630     2.3560   -14.5630 
  124.2500   105.8580     8.6560     7.8430     9.1360    24.2440     2.3550   -14.6490 
  124.3750   104.5740     8.8310     7.9580     9.4290    24.3460     2.3520   -14.7210 
  124.5000    99.2130     9.4330     8.3470    10.3350    24.3280     2.3380   -14.7170 
  124.6250    89.3440    10.6270     9.1780    11.8310    24.2730     2.3040   -14.6680 
  124.7500    79.8860    12.0770    10.2990    15.8180    24.2870     2.2580   -14.5560 
  124.8750    74.5770    13.2940    11.4130    21.6630    24.3420     2.2160   -14.4390 
  125.0000    75.2740    13.7810    12.1040    23.7750    24.2710     2.1960   -14.2730 
  125.1250    80.6930    13.2710    12.0020    16.0230    23.9580     2.2040   -14.0910 
  125.2500    85.2000    12.3840    11.4450    11.6100    23.7690     2.2200   -13.8960 
  125.3750    87.1350    11.7750    10.9250    10.8620    23.7710     2.2270   -13.6190 
  125.5000    86.3460    11.9460    10.9010    13.2430    23.8690     2.2170   -13.3230 
  125.6250    83.8240    13.2380    11.7650    18.0550    24.0220     2.1930   -13.0220 
  125.7500    80.3300    15.2820    13.3520    21.7930    24.2100     2.1690   -12.7350 
  125.8750    76.6170    17.6250    15.3810    22.0610    24.2840     2.1480   -12.4900 
  126.0000    74.8410    19.7300    17.4230    21.0670    24.2540     2.1310   -12.2880 
  126.1250    76.4540    21.0530    18.9640    21.6070    24.2140     2.1170   -12.1530 
  126.2500    77.6690    21.6180    19.8590    22.1900    24.2740     2.1090   -12.0630 
  126.3750    76.0710    21.5660    20.1200    22.0960    24.3310     2.1050   -12.0700 
  126.5000    73.3860    21.0870    19.8700    22.2580    24.4220     2.1090   -12.1430 
  126.6250    73.8730    20.3570    19.2800    21.7350    24.3810     2.1200   -12.2260 
  126.7500    75.9400    19.6610    18.6650    20.3050    24.3150     2.1360   -12.3370 
  126.8750    77.6320    19.2890    18.2670    19.0960    24.2710     2.1450   -12.4010 
  127.0000    76.7000    19.5360    18.3020    20.3280    24.2350     2.1400   -12.4870 
  127.1250    73.5460    20.7370    19.0570    22.1790    24.3220     2.1230   -12.5520 
  127.2500    70.8360    22.7050    20.5170    24.7900    24.5400     2.1200   -12.5800 
  127.3750    68.7750    25.1380    22.6050    25.9030    24.7820     2.1440   -12.5850 
  127.5000    66.4040    27.5390    25.0130    26.4320    24.8150     2.1880   -12.5930 
  127.6250    64.0250    29.1800    27.0890    26.3020    24.6160     2.2220   -12.5850 
  127.7500    62.7440    29.8210    28.3410    26.7200    24.6080     2.2230   -12.5700 
  127.8750    61.8280    29.5670    28.6600    27.1860    24.8860     2.1960   -12.5730 
  128.0000    60.4920    28.7920    28.3010    27.7480    25.2060     2.1630   -12.5650 
  128.1250    61.0660    27.9580    27.6740    26.6290    25.2050     2.1450   -12.5680 
  128.2500    63.4130    27.3540    27.1350    25.4600    25.0180     2.1370   -12.5720 
  128.3750    66.1660    27.0240    26.7740    25.7600    24.8820     2.1270   -12.5850 
  128.5000    67.3670    26.8930    26.5690    26.5340    24.8340     2.1110   -12.5910 
  128.6250    67.0170    26.8470    26.4720    26.0430    24.7890     2.0960   -12.6350 
  128.7500    66.2070    26.7790    26.4030    24.8620    24.6680     2.0920   -12.6330 
  128.8750    65.9070    26.6480    26.3060    23.9290    24.5430     2.1030   -12.5910 
  129.0000    66.5870    26.4500    26.1500    23.5310    24.5100     2.1230   -12.5550 
  129.1250    66.2910    26.2610    25.9970    24.1300    24.5710     2.1390   -12.4890 
  129.2500    64.1950    26.2350    26.0090    24.1590    24.6560     2.1470   -12.4900 
  129.3750    62.2710    26.5350    26.3300    23.8880    24.7450     2.1500   -12.5000 
  129.5000    62.0610    27.2690    27.0130    24.3260    24.8250     2.1590   -12.5230 
  129.6250    64.4150    28.4710    28.0250    26.9050    24.8560     2.1810   -12.5540 
  129.7500    68.2190    29.8760    29.1600    32.1330    24.7820     2.2080   -12.5670 
  129.8750    71.7750    31.2330    30.2920    35.3070    24.5970     2.2260   -12.5620 
  130.0000    71.7260    32.3330    31.3450    35.0880    24.4280     2.2260   -12.5270 
  130.1250    67.5180    33.0290    32.2610    29.8660    24.4630     2.2120   -12.4760 
  130.2500    64.4690    33.4330    33.0420    27.2120    24.6490     2.2030   -12.4090 
  130.3750    65.5730    33.6140    33.6410    27.3490    24.8100     2.2090   -12.3480 
  130.5000    68.9360    33.5820    33.9520    28.4360    24.8220     2.2310   -12.2560 
  130.6250    69.1230    33.2500    33.7860    27.4880    24.7600     2.2540   -12.1270 
  130.7500    64.4660    32.6680    33.2210    26.2160    24.7300     2.2590   -12.0500 
  130.8750    58.8710    31.9400    32.4310    26.1880    24.7780     2.2360   -11.9690 
  131.0000    56.9750    31.2150    31.6500    27.7430    24.9660     2.1830   -11.9060 
  131.1250    58.4650    30.6460    31.0870    29.4790    25.5480     2.1160   -11.9140 
  131.2500    60.3820    30.2540    30.7520    31.2140    26.1480     2.0670   -11.8980 
  131.3750    62.3310    30.0360    30.6210    30.9460    26.3430     2.0530   -11.8920 
