~V
VERS. 2.00: Ver 2.00
~W
STRT.M 56.0000:
STOP.M 235.0000:
STEP.M 0.1250:
NULL. -999.2500:
UWI. F10014:
~C
DEPT.M :
GR.API :
RML.OHMM :
RI. :
RXO.OHMM :
CALI.CM :
DEN.GM/CC :
SP.MV :
~A
# ...
  202.2500    70.4640    97.1440    92.8170   100.0200    24.5250     2.1620   -19.5010 
  202.3750    69.5910    95.2800    91.7370    97.6460    24.3370     2.1670   -19.4940 
  202.5000    67.4730    92.6340    89.7700    95.6510    24.2930     2.1810   -19.5460 
  202.6250    67.0500    90.2640    87.8190    93.7020    24.3170     2.2000   -19.6370 
  202.7500    67.5680    89.2510    86.9710    92.4960    24.3420     2.2200   -19.8610 
  202.8750    68.3870    90.3130    88.0080    90.7400    24.3690     2.2340   -20.0810 
  203.0000    68.7790    93.7280    91.3100    92.0260    24.3920     2.2420   -20.2500 
  203.1250    70.1450    99.6020    97.0910   102.0900    24.4230     2.2390   -20.4050 
  203.2500    72.7870   106.7510   104.2590   120.3100    24.4420     2.2310   -20.5940 
  203.3750    74.1070   113.7690   111.4900   132.0590    24.4490     2.2200   -20.9060 
  203.5000    72.8200   118.6680   116.8730   130.0170    24.4360     2.2110   -21.2380 
  203.6250    69.6030   118.8740   117.8070   125.4680    24.4230     2.2080   -21.4780 
  203.7500    68.3920   114.9810   114.5820   133.0630    24.4180     2.2090   -21.6690 
  203.8750    70.0760   108.7560   108.6730   134.4930    24.4280     2.2140   -21.9030 
  204.0000    70.7300   102.7110   102.4390   112.1720    24.4440     2.2240   -22.0950 
  204.1250    69.4850    99.8550    98.8630    93.5900    24.4760     2.2360   -22.2670 
  204.2500    68.9530   101.3380    99.3340    97.4620    24.5280     2.2470   -22.5010 
  204.3750    69.3280   107.6490   104.5000   107.5670    24.6040     2.2500   -22.6500 
  204.5000    68.5860   118.5210   114.2370   110.9070    24.7370     2.2440   -22.6680 
  204.6250    65.3720   133.2440   128.0560   135.5240    24.8700     2.2310   -22.7310 
  204.7500    62.5950   149.2290   143.5510   165.1100    24.9030     2.2220   -22.7700 
  204.8750    60.5460   164.8770   159.1820   171.2660    24.8600     2.2190   -22.7160 
  205.0000    60.2240   179.7040   174.3110   153.0640    24.8840     2.2190   -22.6800 
  205.1250    62.0390   193.7720   188.7670   165.1440    25.0150     2.2140   -22.6480 
  205.2500    62.1330   205.7120   201.2310   205.6940    25.1090     2.2030   -22.6460 
  205.3750    59.9370   211.6770   208.2810   261.3230    25.1350     2.1910   -22.6340 
  205.5000    58.0810   207.5250   206.0730   279.7470    25.1250     2.1850   -22.6400 
  205.6250    58.1880   191.6620   192.3490   231.6810    25.0950     2.1900   -22.7140 
  205.7500    57.6620   171.8800   173.6280   180.6820    25.0730     2.2020   -22.8440 
  205.8750    56.6750   154.7650   156.1700   152.5530    25.0520     2.2140   -23.1320 
  206.0000    57.6350   144.3660   144.5610   132.0790    25.0540     2.2230   -23.5140 
  206.1250    60.6370   143.0430   141.8920   126.1620    25.0410     2.2280   -23.8840 
  206.2500    62.0250   148.5220   146.2540   136.1110    25.0280     2.2290   -24.2120 
  206.3750    60.8160   159.1260   156.0040   165.7680    24.9850     2.2280   -24.5270 
  206.5000    60.0590   172.7310   168.9960   192.9590    24.9320     2.2270   -24.9270 
  206.6250    61.0620   186.7280   182.6620   201.0250    24.9550     2.2240   -25.3890 
  206.7500    61.1550   198.8070   194.6520   199.7160    25.0120     2.2190   -25.7590 
  206.8750    59.3020   207.9110   203.8630   200.5080    25.0130     2.2110   -26.0820 
  207.0000    57.6570   213.7820   209.9520   219.2510    24.9180     2.2030   -26.3980 
  207.1250    59.5270   215.9980   212.4310   231.1140    24.6750     2.1980   -26.6490 
  207.2500    63.4110   215.1480   211.8450   234.0760    24.3920     2.2000   -26.9060 
  207.3750    65.5160   211.5000   208.3860   220.6780    24.1880     2.2060   -27.1880 
  207.5000    64.0190   205.9100   202.7920   206.3450    24.0830     2.2120   -27.2940 
  207.6250    61.5720   199.6190   196.2190   203.3560    24.0950     2.2150   -27.1260 
  207.7500    60.8500   193.4090   189.6120   207.2730    24.1870     2.2120   -26.9620 
  207.8750    60.6470   186.7600   182.6730   200.3510    24.3690     2.2070   -26.6590 
  208.0000    60.5640   178.4440   174.3800   185.5430    24.6360     2.2010   -26.1080 
  208.1250    61.4050   167.3740   163.6550   185.4720    24.8530     2.1930   -25.4570 
  208.2500    61.8540   155.3880   151.9100   182.8390    24.9630     2.1880   -24.7630 
  208.3750    61.6590   145.2520   141.5810   167.3270    24.9970     2.1960   -24.0310 
  208.5000    62.8150   139.6320   135.2830   149.0420    24.9730     2.2200   -23.3150 
  208.6250    66.4360   141.5500   136.1740   134.6550    24.9100     2.2550   -22.7350 
  208.7500    68.1490   150.7710   144.2180   133.0120    24.8880     2.2820   -22.1970 
  208.8750    65.3490   166.5840   158.5800   173.4470    24.9640     2.2870   -21.6550 
  209.0000    60.4360   185.7670   175.8470   240.4450    25.0460     2.2720   -21.3000 
  209.1250    57.8920   199.7020   188.0250   268.0210    25.0870     2.2490   -21.1060 
  209.2500    58.6010   200.6680   188.7260   243.6760    25.1110     2.2350   -20.8430 
  209.3750    62.1210   187.5850   176.9240   203.6810    25.1140     2.2320   -20.6400 
  209.5000    68.0650   166.5990   157.3880   160.3810    25.0730     2.2410   -20.5230 
  209.6250    73.6660   146.1460   137.3940   125.3750    24.9680     2.2640   -20.3610 
  209.7500    76.8790   130.2960   121.3500   103.3500    24.8380     2.3000   -20.0860 
  209.8750    78.5580   119.5020   110.0670    97.0460    24.6710     2.3510   -19.8360 
  210.0000    78.7350   113.0890   103.0670   101.4590    24.6450     2.4070   -19.6030 
  210.1250    75.5950   110.2340    99.6910   126.9430    24.7290     2.4560   -19.3580 
  210.2500    71.5630   108.8930    98.0300   158.3850    24.8360     2.4910   -19.1090 
  210.3750    70.4360   107.9430    97.0540   150.6300    24.8080     2.5120   -18.8180 
  210.5000    71.7820   106.7560    96.1370   137.6760    24.6850     2.5230   -18.5130 
  210.6250    72.0990   105.2220    95.0350   121.0800    24.5720     2.5280   -18.2120 
  210.7500    70.1920   103.6430    93.8130   109.5690    24.5620     2.5340   -18.0650 
  210.8750    67.0100   101.9050    92.3370   107.9980    24.6750     2.5430   -17.9940 
  211.0000    64.4090    98.9260    89.8080   123.6820    24.7650     2.5540   -17.9120 
  211.1250    64.2620    91.4420    83.5730   121.7580    24.7390     2.5620   -17.9240 
  211.2500    66.3460    78.1790    72.1660   108.3390    24.7060     2.5620   -18.0450 
  211.3750    69.8830    60.8330    56.5620    92.2390    24.6730     2.5560   -18.1230 
  211.5000    72.6160    43.5130    40.4210    65.4580    24.5560     2.5450   -18.2070 
  211.6250    73.8360    30.3270    27.9570    39.9960    24.4020     2.5300   -18.4140 
  211.7500    76.7810    19.8720    19.5580    19.1900    24.2880     2.5090   -18.6070 
  211.8750    83.6030    13.2700    14.4370    11.3320    24.2090     2.4820   -18.7270 
  212.0000    91.4530    10.7370    11.5670     9.1470    24.1820     2.4500   -18.7290 
  212.1250    93.2520     9.7660    10.2920     9.0810    24.2150     2.4190   -18.6110 
  212.2500    90.2200     9.5230     9.8160     8.8110    24.3170     2.3970   -18.3970 
  212.3750    86.7130     9.5940     9.7630     9.7850    24.4900     2.3860   -18.1740 
  212.5000    83.7570     9.6470     9.7950    12.4030    24.6810     2.3830   -17.9290 
  212.6250    80.5610     9.4480     9.6260    12.1680    24.7580     2.3820   -17.5140 
  212.7500    80.3060     9.0540     9.2610     9.4880    24.7740     2.3750   -17.0690 
  212.8750    82.7210     8.6100     8.8220     8.0810    24.7490     2.3620   -16.6870 
  213.0000    83.5320     8.2570     8.4460     8.2760    24.7520     2.3500   -16.4530 
  213.1250    80.9270     8.1100     8.2460     8.4730    24.8150     2.3460   -16.3050 
  213.2500    78.8140     8.1380     8.2100     8.3650    24.8370     2.3480   -16.2600 
  213.3750    78.8250     8.2800     8.2920     8.4270    24.8220     2.3470   -16.4230 
