~V
VERS. 2.00: Ver 2.00
~W
STRT.M 64.0000:
STOP.M 308.0000:
STEP.M 0.1250:
NULL. -999.2500:
UWI. F10040:
~C
DEPT.M :
GR.API :
RML.OHMM :
RI. :
RXO.OHMM :
CALI.CM :
DEN.GM/CC :
SP.MV :
~A
# ...
  221.5000    49.4100     5.9870     5.1090     5.3890    25.0040     2.4110    -0.4700 
  221.6250    45.2460     5.9610     5.0850     5.3920    24.9970     2.4070    -0.4880 
  221.7500    42.1380     5.9120     5.0400     5.3120    25.0220     2.4090    -0.4970 
  221.8750    41.9440     5.8510     4.9830     5.1860    24.9740     2.4160    -0.4650 
  222.0000    45.0500     5.7880     4.9250     5.1410    24.9300     2.4240    -0.4820 
  222.1250    47.7500     5.7350     4.8760     5.1420    24.9390     2.4290    -0.5400 
  222.2500    48.6390     5.6980     4.8420     5.1070    24.9160     2.4300    -0.5310 
  222.3750    48.9760     5.6810     4.8270     5.0270    24.8500     2.4300    -0.4940 
  222.5000    48.1380     5.6800     4.8260     4.9410    24.8420     2.4270    -0.5000 
  222.6250    45.8880     5.6780     4.8230     5.0120    24.9500     2.4170    -0.5020 
  222.7500    44.8180     5.6510     4.7990     5.0810    24.8540     2.3990    -0.4880 
  222.8750    47.7120     5.5930     4.7460     5.0620    24.7870     2.3770    -0.5070 
  223.0000    54.6520     5.5190     4.6770     4.9290    24.8130     2.3620    -0.5250 
  223.1250    62.3850     5.4680     4.6290     4.9460    24.8960     2.3620    -0.5080 
  223.2500    70.9560     5.4790     4.6400     5.2300    24.9690     2.3710    -0.4910 
  223.3750    83.7840     5.5720     4.7260     5.7740    24.9750     2.3830    -0.4880 
  223.5000   101.6150     5.7450     4.8860     6.2390    24.8860     2.3950    -0.4520 
  223.6250   115.2810     5.9730     5.0960     6.4470    24.9220     2.4050    -0.3480 
  223.7500   117.6680     6.1990     5.3090     6.5500    24.9390     2.4160    -0.2690 
  223.8750   110.5400     6.3840     5.4940     6.7330    24.8010     2.4240    -0.1940 
  224.0000   100.4970     6.4940     5.6300     6.9620    24.6910     2.4270    -0.0670 
  224.1250    93.4040     6.5350     5.6970     7.0090    24.6950     2.4220     0.0760 
  224.2500    89.9200     6.5010     5.6890     6.8930    24.7200     2.4150     0.1650 
  224.3750    87.1700     6.3880     5.6000     6.7620    24.7750     2.4110     0.2350 
  224.5000    82.1200     6.2110     5.4360     6.6310    24.9070     2.4110     0.3050 
  224.6250    78.4150     6.0140     5.2380     6.1910    25.0940     2.4130     0.2840 
  224.7500    79.5860     5.8630     5.0790     5.6840    25.2230     2.4130     0.2470 
  224.8750    84.9400     5.8220     5.0180     5.5310    25.3330     2.4100     0.2110 
  225.0000    90.1370     5.9340     5.0960     6.1480    25.4930     2.4070     0.0980 
  225.1250    90.5150     6.2290     5.3450     7.4890    25.3810     2.4060    -0.0880 
  225.2500    87.8190     6.6280     5.7030     8.1810    25.2900     2.4080    -0.2350 
  225.3750    86.6980     7.0450     6.1020     8.3810    25.2520     2.4130    -0.3540 
  225.5000    90.7010     7.3990     6.4570     8.4500    25.2520     2.4210    -0.5000 
  225.6250    94.1480     7.6200     6.6820     8.4280    25.2530     2.4310    -0.6410 
  225.7500    93.2960     7.7430     6.7860     8.2910    25.2530     2.4390    -0.7510 
  225.8750    91.3500     7.8140     6.8150     8.1230    25.2530     2.4430    -0.8240 
  226.0000    91.0730     7.8740     6.8240     8.2060    25.2530     2.4420    -0.8670 
  226.1250    89.6320     7.9400     6.8480     8.5970    25.2530     2.4360    -0.8940 
  226.2500    86.8690     7.9930     6.8830     8.8400    25.2580     2.4290    -0.9060 
  226.3750    85.9900     8.0120     6.9160     8.6140    25.2700     2.4260    -0.9230 
  226.5000    86.9540     7.9840     6.9430     8.2660    25.2570     2.4270    -0.9280 
  226.6250    87.4210     7.9300     6.9800     8.2350    25.2690     2.4330    -0.8770 
  226.7500    88.2710     7.9090     7.0530     8.4950    25.3100     2.4390    -0.8480 
  226.8750    90.7160     7.9690     7.1790     8.7990    25.3810     2.4450    -0.8150 
  227.0000    93.5450     8.1310     7.3670     9.0000    25.3760     2.4510    -0.7570 
  227.1250    92.5990     8.3910     7.6190     9.4130    25.4110     2.4590    -0.6610 
  227.2500    88.2010     8.6710     7.8990     9.8400    25.2870     2.4690    -0.5550 
  227.3750    84.8060     8.9060     8.1710    10.2060    25.2290     2.4790    -0.4550 
  227.5000    85.3510     9.0320     8.3880    10.0620    25.2720     2.4850    -0.3110 
  227.6250    88.6270     9.0410     8.4950    10.0900    25.3120     2.4800    -0.1600 
  227.7500    90.7450     9.0260     8.5050     9.9340    25.2950     2.4690    -0.0180 
  227.8750    90.4950     9.0460     8.4440     9.7560    25.2490     2.4550     0.1140 
  228.0000    89.1700     9.0580     8.3530     9.8610    25.2070     2.4410     0.2750 
  228.1250    87.4050     9.0240     8.2560     9.7430    25.1470     2.4310     0.4260 
  228.2500    85.5630     8.9540     8.1480     9.6430    25.0740     2.4220     0.5550 
  228.3750    84.2380     8.8280     8.0130     9.7450    25.0430     2.4150     0.7260 
  228.5000    82.1140     8.6510     7.8490     9.6070    25.0390     2.4120     0.8540 
  228.6250    80.8450     8.4880     7.6900     9.1750    25.0420     2.4100     0.9350 
  228.7500    81.6690     8.4300     7.5990     8.7140    25.0460     2.4030     1.0800 
  228.8750    84.4320     8.5560     7.6390     9.0150    25.0470     2.3910     1.2210 
  229.0000    86.5880     8.9160     7.8690     9.7550    25.0350     2.3830     1.3000 
  229.1250    84.7710     9.5680     8.3580    10.6350    24.9960     2.3940     1.3660 
  229.2500    79.7000    10.4430     9.0490    10.7870    24.9140     2.4260     1.4400 
  229.3750    73.9900    11.4720     9.8750    12.4060    24.8100     2.4650     1.4690 
  229.5000    69.9730    12.5590    10.7410    14.9180    24.7370     2.4950     1.4770 
  229.6250    67.7180    13.5510    11.5310    15.7490    24.6960     2.4940     1.5290 
  229.7500    66.5780    14.3370    12.1720    15.4760    24.6840     2.4710     1.5530 
  229.8750    68.3390    14.8670    12.6320    15.8420    24.7030     2.4400     1.5370 
  230.0000    72.1990    15.1920    12.9340    16.8230    24.6740     2.4140     1.5500 
  230.1250    74.2350    15.4820    13.1780    17.8500    24.6420     2.3980     1.6160 
  230.2500    74.4040    15.9830    13.5330    18.4260    24.7040     2.3860     1.6510 
  230.3750    73.9960    16.8700    14.1370    18.7690    24.9110     2.3760     1.6720 
  230.5000    72.2340    18.2090    15.0790    23.6130    25.0120     2.3680     1.7520 
  230.6250    70.1100    19.9540    16.3810    26.6280    24.9650     2.3660     1.8260 
  230.7500    68.6080    21.7710    17.8150    26.9930    24.9130     2.3650     1.8740 
  230.8750    66.9420    23.3610    19.1390    26.1520    24.9300     2.3570     1.9670 
  231.0000    65.4980    24.4980    20.1440    25.2490    24.9530     2.3350     2.0450 
  231.1250    65.5130    25.1220    20.7200    24.6450    24.9360     2.2990     2.0550 
  231.2500    65.6090    25.6400    21.1440    25.3550    25.1560     2.2620     2.0930 
  231.3750    65.2520    26.5150    21.7600    27.8330    25.3020     2.2440     2.1360 
  231.5000    64.2860    28.1860    22.9160    31.9870    25.3180     2.2640     2.1360 
  231.6250    61.7450    31.1040    25.0010    34.5200    25.3070     2.3370     2.1360 
  231.7500    57.1820    35.0610    27.9310    42.6510    25.3320     2.4330     2.1180 
  231.8750    52.5110    39.7290    31.5200    55.8360    25.3630     2.5160     2.0400 
  232.0000    50.5920    44.5220    35.3600    66.5920    25.2300     2.5530     1.9710 
  232.1250    53.2010    48.5090    38.7360    61.3700    25.1810     2.5260     1.9500 
  232.2500    57.2530    51.1710    41.1370    57.1570    25.1840     2.4710     1.8890 
  232.3750    58.6290    52.3440    42.3430    58.2910    25.2030     2.4160     1.8100 
  232.5000    56.8750    52.2420    42.4500    59.8390    25.2120     2.3760     1.7520 
  232.6250    55.9840    51.2550    41.7140    54.5340    25.2350     2.3470     1.7070 
