~V
VERS. 2.00: Ver 2.00
~W
STRT.M 55.0000:
STOP.M 314.0000:
STEP.M 0.1250:
NULL. -999.2500:
UWI. F10048:
~C
DEPT.M :
DEN.GM/CC :
GR.API :
RML.OHMM :
RI. :
RXO.OHMM :
CALI.CM :
SP.MV :
~A
# ...
   88.7500     2.3940    80.0130     7.4610     6.7790     7.1850    22.8900    -4.0260 
   88.8750     2.3740    74.7310     7.4910     6.8060     7.4460    22.6040    -3.8580 
   89.0000     2.3660    72.4910     7.4920     6.8200     7.8800    22.4850    -3.8850 
   89.1250     2.3660    77.3460     7.4070     6.7790     7.8590    22.5330    -4.0380 
   89.2500     2.3650    83.5310     7.2600     6.6970     7.4070    22.6770    -4.2240 
   89.3750     2.3580    83.5930     7.1060     6.6140     7.0740    22.8920    -4.4060 
   89.5000     2.3490    78.7010     7.0100     6.5700     7.1340    23.1510    -4.5750 
   89.6250     2.3460    78.2240     7.0000     6.5740     7.4390    23.4050    -4.7020 
   89.7500     2.3530    83.2530     6.9990     6.5600     7.7110    23.6130    -4.7950 
   89.8750     2.3690    87.8040     6.9120     6.4580     7.9450    23.7710    -4.9430 
   90.0000     2.3850    89.3910     6.6860     6.2320     7.8520    23.8650    -5.1730 
   90.1250     2.3910    90.4410     6.3700     5.9180     7.0590    23.8970    -5.4750 
   90.2500     2.3830    92.2080     6.1390     5.6490     6.3420    23.8780    -5.8690 
   90.3750     2.3620    93.1110     6.1340     5.5290     6.0930    23.7780    -6.4000 
   90.5000     2.3360    90.3900     6.4350     5.6250     6.3480    23.5750    -7.0830 
   90.6250     2.3160    82.2320     7.0980     6.0050     7.2070    23.2780    -7.8780 
   90.7500     2.3040    74.3320     8.0050     6.6090     8.5440    22.9950    -8.7190 
   90.8750     2.3000    71.5840     9.0480     7.3850    10.3310    22.8200    -9.5650 
   91.0000     2.2980    70.8100    10.0870     8.2450    12.5970    22.7600   -10.3730 
   91.1250     2.2920    67.0420    10.9100     9.0340    15.4450    22.7560   -11.1670 
   91.2500     2.2800    64.0290    11.3860     9.6050    18.7060    22.7520   -11.8990 
   91.3750     2.2640    65.4720    11.4480     9.8510    21.0400    22.7250   -12.5540 
   91.5000     2.2480    67.8250    11.1290     9.7480    20.4280    22.6860   -13.1320 
   91.6250     2.2340    65.7330    10.5580     9.3470    17.4240    22.6500   -13.6680 
   91.7500     2.2250    62.0440     9.9920     8.8600    14.0350    22.6090   -14.2090 
   91.8750     2.2200    60.8480     9.5890     8.4310    11.3300    22.5610   -14.7460 
   92.0000     2.2190    61.7290     9.4150     8.1440    10.2130    22.5240   -15.2560 
   92.1250     2.2210    63.3150     9.4390     8.0270    10.2070    22.4990   -15.7060 
   92.2500     2.2230    63.5360     9.5050     8.0040    10.4110    22.4940   -16.1530 
   92.3750     2.2240    63.3200     9.5220     8.0200    10.5600    22.5150   -16.5680 
   92.5000     2.2230    63.6160     9.4660     8.0440    10.5870    22.5600   -16.9470 
   92.6250     2.2210    62.8060     9.3930     8.0740    10.6480    22.6180   -17.3040 
   92.7500     2.2180    60.0640     9.3910     8.1220    10.7820    22.6670   -17.5940 
   92.8750     2.2150    57.3510     9.4940     8.1960    11.0330    22.6820   -17.8060 
   93.0000     2.2140    56.1380     9.6830     8.2930    11.3950    22.6660   -17.9600 
   93.1250     2.2170    56.3130     9.8790     8.3910    11.5980    22.6200   -18.0360 
   93.2500     2.2230    56.7690     9.9820     8.4580    11.6800    22.5590   -18.0270 
   93.3750     2.2310    56.9730     9.9330     8.4650    11.6240    22.5040   -17.9540 
   93.5000     2.2390    56.1000     9.7130     8.3840    11.4190    22.4640   -17.8070 
   93.6250     2.2460    57.1960     9.3560     8.1960    10.9910    22.4320   -17.5830 
   93.7500     2.2550    60.9280     8.9770     7.9430    10.3800    22.3960   -17.3530 
   93.8750     2.2650    64.1240     8.6590     7.6750     9.7290    22.3570   -17.1410 
   94.0000     2.2770    64.0210     8.4640     7.4460     9.2580    22.3220   -16.9530 
   94.1250     2.2890    63.5450     8.4230     7.3190     9.1570    22.3020   -16.7900 
   94.2500     2.2970    65.9790     8.4760     7.2940     9.2670    22.3040   -16.6540 
   94.3750     2.3010    68.6210     8.5760     7.3530     9.4520    22.3180   -16.5320 
   94.5000     2.2980    67.7210     8.6860     7.4600     9.6240    22.3280   -16.3850 
   94.6250     2.2900    64.5030     8.7860     7.5750     9.8000    22.3310   -16.1820 
   94.7500     2.2790    61.9400     8.8760     7.6700     9.8960    22.3320   -15.9580 
   94.8750     2.2680    60.9140     8.9590     7.7380     9.8990    22.3340   -15.7250 
   95.0000     2.2590    61.6190     9.0320     7.7830     9.9040    22.3440   -15.4760 
   95.1250     2.2540    64.3190     9.0720     7.8130     9.8740    22.3690   -15.1890 
   95.2500     2.2530    68.0620     9.0710     7.8350     9.7630    22.4140   -14.8840 
   95.3750     2.2560    71.1770     9.0260     7.8410     9.5870    22.4800   -14.5880 
   95.5000     2.2620    73.5940     8.9330     7.8170     9.4350    22.5530   -14.3410 
   95.6250     2.2700    74.3680     8.7690     7.7280     9.4040    22.6180   -14.1440 
   95.7500     2.2810    73.3230     8.5370     7.5690     9.4070    22.6750   -13.9590 
   95.8750     2.2920    72.0550     8.2490     7.3520     9.3370    22.7370   -13.7880 
   96.0000     2.3000    71.1450     7.9470     7.1150     9.1110    22.8180   -13.6510 
   96.1250     2.2980    73.8110     7.7080     6.9140     8.6560    22.9150   -13.6110 
   96.2500     2.2860    79.8600     7.5770     6.7750     8.2800    22.9880   -13.6450 
   96.3750     2.2690    84.5300     7.5500     6.6930     8.3450    22.9690   -13.7290 
   96.5000     2.2560    82.1780     7.5630     6.6320     8.7550    22.8400   -13.8340 
   96.6250     2.2540    76.7600     7.5210     6.5500     9.0330    22.7380   -13.9550 
   96.7500     2.2650    76.6160     7.4020     6.4520     8.8620    22.7530   -14.1640 
   96.8750     2.2810    79.6830     7.2700     6.3820     8.4700    22.8890   -14.4960 
   97.0000     2.2940    80.3220     7.2450     6.4040     8.0400    23.0800   -14.9940 
   97.1250     2.2980    78.0470     7.4830     6.5950     8.1830    23.1700   -15.6650 
   97.2500     2.2920    75.2600     7.9450     6.9270     9.0500    23.1060   -16.4100 
   97.3750     2.2780    70.7520     8.5130     7.3340    10.2110    22.9690   -17.1910 
   97.5000     2.2600    63.7930     9.0210     7.7250    10.9750    22.8260   -18.0090 
   97.6250     2.2450    57.3270     9.2870     7.9910    11.2550    22.7120   -18.8710 
   97.7500     2.2360    53.4160     9.3100     8.1140    11.3540    22.6200   -19.6720 
   97.8750     2.2330    51.7040     9.1570     8.1130    11.4090    22.5730   -20.3540 
   98.0000     2.2360    50.8480     8.9320     8.0270    11.5080    22.5960   -20.8590 
   98.1250     2.2400    49.9840     8.7230     7.8890    11.6710    22.6700   -21.1280 
   98.2500     2.2410    50.6690     8.5480     7.7280    11.7970    22.7530   -21.2440 
   98.3750     2.2380    53.5900     8.3900     7.5600    11.7150    22.8230   -21.2450 
   98.5000     2.2320    56.8640     8.2370     7.4080    11.4100    22.8710   -21.1580 
   98.6250     2.2270    57.1360     8.1020     7.3060    11.0550    22.9230   -20.9830 
   98.7500     2.2250    56.2220     8.0150     7.2580    10.9190    23.0140   -20.7250 
   98.8750     2.2310    55.8210     8.0100     7.2620    11.0490    23.1240   -20.4350 
   99.0000     2.2410    56.1970     8.0980     7.3110    11.2580    23.2420   -20.1760 
   99.1250     2.2540    56.6430     8.2760     7.4060    11.3560    23.4050   -19.9850 
   99.2500     2.2630    57.8800     8.4950     7.5370    11.4260    23.5790   -19.8340 
   99.3750     2.2680    59.1230     8.7260     7.7000    11.4660    23.6940   -19.7100 
   99.5000     2.2690    57.4630     8.9480     7.8810    11.4620    23.7040   -19.6080 
   99.6250     2.2660    53.8820     9.1470     8.0520    11.4190    23.5800   -19.5210 
   99.7500     2.2600    53.0970     9.3160     8.1850    11.3790    23.3920   -19.4680 
   99.8750     2.2490    55.1290     9.4360     8.2620    11.2840    23.2080   -19.4420 
