~V
VERS. 2.00: Ver 2.00
~W
STRT.M 50.0000:
STOP.M 279.0000:
STEP.M 0.1250:
NULL. -999.2500:
UWI. F10075:
~C
DEPT.M :
GR.API :
RML.OHMM :
RI. :
RXO.OHMM :
CALI.CM :
DEN.GM/CC :
SP.MV :
~A
# ...
   95.0000    62.6870    10.3400     7.6280     9.2680    24.5770     2.0820   -21.8010 
   95.1250    57.3730    10.0570     7.4310     9.4170    24.4520     2.0720   -21.8730 
   95.2500    55.5950     9.6890     7.1840     9.1410    24.5870     2.0560   -21.8820 
   95.3750    58.3680     9.4060     6.9930     8.8320    24.8830     2.0530   -21.8400 
   95.5000    62.9250     9.5110     7.0290     8.9090    25.1350     2.0750   -21.7410 
   95.6250    64.9350    10.4230     7.5380     8.9870    25.1280     2.1180   -21.5110 
   95.7500    63.5610    12.0670     8.5220     9.3040    24.9300     2.1620   -21.1670 
   95.8750    60.7450    14.1050     9.8570    11.1040    24.7220     2.1880   -20.7270 
   96.0000    60.5990    15.8110    11.1570    16.6270    24.5000     2.1900   -20.2370 
   96.1250    64.1390    15.9770    11.6170    24.4970    24.3930     2.1680   -19.7400 
   96.2500    67.0240    14.5640    11.0210    17.7210    24.2740     2.1430   -19.2870 
   96.3750    67.2500    12.3280     9.7490    10.5760    24.1430     2.1270   -18.8490 
   96.5000    65.5440    10.2380     8.4000     8.2630    24.0350     2.1270   -18.4370 
   96.6250    64.5680     9.0000     7.4420     8.2400    24.0840     2.1380   -18.1500 
   96.7500    64.6970     8.5290     6.9190     8.3470    24.2870     2.1480   -17.8940 
   96.8750    66.0090     8.5870     6.7620     8.2800    24.4470     2.1510   -17.6420 
   97.0000    67.9780     8.8470     6.8170     7.9730    24.4620     2.1460   -17.3360 
   97.1250    69.4860     8.9690     6.8880     7.6060    24.4190     2.1370   -16.8580 
   97.2500    71.7600     8.8290     6.8320     7.2440    24.3420     2.1340   -16.1820 
   97.3750    75.4100     8.4290     6.6030     7.1640    24.3210     2.1460   -15.3040 
   97.5000    82.0650     7.8320     6.2150     6.8470    24.4260     2.1720   -14.1270 
   97.6250    92.7110     7.1460     5.7280     6.0740    24.6530     2.2080   -12.5360 
   97.7500   104.5290     6.5200     5.2550     5.2070    24.7510     2.2410   -10.7640 
   97.8750   112.4700     6.0400     4.8680     4.9040    24.7410     2.2650    -8.9810 
   98.0000   114.9350     5.7500     4.6180     4.8890    24.6770     2.2830    -7.3660 
   98.1250   113.5740     5.7170     4.5690     4.8880    24.4720     2.3000    -6.0200 
   98.2500   107.6870     5.9130     4.7030     4.9340    24.1340     2.3130    -4.8550 
   98.3750    97.4050     6.3200     5.0010     5.2190    23.8640     2.3150    -3.9470 
   98.5000    87.5730     6.8860     5.4200     5.6740    23.7480     2.3020    -3.4720 
   98.6250    83.7180     7.4960     5.8830     6.1100    23.6630     2.2800    -3.5440 
   98.7500    83.0420     7.9770     6.2720     6.4060    23.5250     2.2610    -3.8790 
   98.8750    82.3080     8.1990     6.5010     6.6500    23.5240     2.2510    -4.2830 
   99.0000    82.8280     8.1310     6.5350     6.8220    23.7580     2.2490    -4.6470 
   99.1250    84.2610     7.8490     6.3930     6.6450    24.0830     2.2500    -4.9090 
   99.2500    84.9870     7.5370     6.1830     6.2800    24.3190     2.2480    -5.0840 
   99.3750    84.9460     7.2900     5.9690     5.9600    24.4980     2.2460    -5.1930 
   99.5000    84.1330     7.1430     5.7880     6.3470    24.6490     2.2470    -5.2380 
   99.6250    84.7780     7.1000     5.6610     6.8160    24.7160     2.2560    -5.1370 
   99.7500    87.1980     7.1100     5.5750     7.1250    24.7680     2.2710    -4.9700 
   99.8750    88.7250     7.1230     5.5120     6.7440    24.8400     2.2850    -4.7920 
  100.0000    85.9510     7.0870     5.4500     6.4150    24.8500     2.2910    -4.6200 
  100.1250    81.1350     6.9680     5.3810     6.3480    24.6890     2.2820    -4.5720 
  100.2500    78.1860     6.8920     5.3680     6.6490    24.5300     2.2610    -4.6640 
  100.3750    76.0190     7.1000     5.5370     7.0860    24.4430     2.2440    -4.8070 
  100.5000    73.6540     7.8740     6.0440     7.4850    24.4270     2.2530    -4.9630 
  100.6250    73.0610     9.5490     7.1280     8.1530    24.4750     2.3130    -5.2030 
  100.7500    73.3330    11.8980     8.7450    11.0900    24.5450     2.4080    -5.4660 
  100.8750    71.4200    14.3750    10.6380    19.0660    24.5160     2.5000    -5.7550 
  101.0000    68.5330    16.0060    12.1350    26.6730    24.2900     2.5470    -6.0770 
  101.1250    69.6340    15.5810    12.1800    24.8040    23.8910     2.5120    -6.4830 
  101.2500    71.9560    13.6620    10.9940    16.7550    23.4510     2.4240    -7.0170 
  101.3750    71.7450    11.2900     9.3170    10.6240    23.1800     2.3210    -7.6370 
  101.5000    70.7450     9.3520     7.8180     7.9990    23.0520     2.2320    -8.2320 
  101.6250    73.1300     8.4020     6.9150     7.8130    22.9960     2.1710    -8.8280 
  101.7500    75.3400     8.3090     6.5870     7.9830    22.9970     2.1270    -9.4640 
  101.8750    73.5860     8.9880     6.8260     8.2050    23.0790     2.1030   -10.1010 
  102.0000    69.3960    10.3590     7.6140     8.4500    23.1970     2.1210   -10.6630 
  102.1250    68.1870    12.3430     8.9590     9.4860    23.3080     2.2110   -11.0690 
  102.2500    70.6260    14.4710    10.5640    12.5620    23.3810     2.3440   -11.3340 
  102.3750    73.0250    16.1590    12.0340    18.8840    23.4900     2.4710   -11.4630 
  102.5000    71.6940    16.7920    12.8660    21.6930    23.6320     2.5380   -11.5290 
  102.6250    67.7770    15.9470    12.6160    17.3310    23.7320     2.5080   -11.5790 
  102.7500    66.9030    14.3450    11.7030    11.9590    23.8530     2.4210   -11.6830 
  102.8750    70.0800    12.6810    10.6060     9.8590    23.9900     2.3210   -11.8030 
  103.0000    72.9250    11.4280     9.6770     9.3220    24.0890     2.2420   -11.9380 
  103.1250    71.7000    10.7950     9.1030     9.3350    24.1250     2.2000   -12.1450 
  103.2500    68.9200    10.5600     8.7870     9.1890    24.0530     2.1810   -12.3250 
  103.3750    66.3580    10.5180     8.6200     8.9910    23.8890     2.1740   -12.4740 
  103.5000    64.4760    10.4850     8.4920     8.8820    23.7920     2.1730   -12.5900 
  103.6250    65.7310    10.3390     8.3210     8.5440    23.7830     2.1740   -12.6230 
  103.7500    69.3370    10.0890     8.0930     8.2420    23.7650     2.1740   -12.5530 
  103.8750    71.4510     9.7560     7.8140     8.2020    23.8150     2.1730   -12.4020 
  104.0000    71.3440     9.3600     7.4950     8.3980    23.9890     2.1740   -12.1870 
  104.1250    72.6140     8.9300     7.1720     8.1580    24.2100     2.1860   -11.8340 
  104.2500    75.5590     8.5460     6.9010     7.6030    24.2170     2.2060   -11.4110 
  104.3750    78.3070     8.2950     6.7400     7.1960    23.9040     2.2270   -11.0390 
  104.5000    80.0670     8.2580     6.7330     6.5280    23.3750     2.2380   -10.8240 
  104.6250    79.8140     8.4990     6.9190     6.5270    23.0120     2.2310   -10.7970 
  104.7500    76.0930     8.9020     7.2300     6.9890    22.9580     2.2140   -10.8610 
  104.8750    69.7470     9.3350     7.5830     7.7230    23.1630     2.1970   -11.0460 
  105.0000    66.3820     9.6620     7.8860     8.0830    23.4540     2.1880   -11.3810 
  105.1250    69.7890     9.7590     8.0420     8.2670    23.6450     2.1900   -11.8550 
  105.2500    73.0010     9.6660     8.0540     8.4420    23.6980     2.1950   -12.3780 
  105.3750    72.4450     9.4410     7.9450     8.5400    23.6620     2.1960   -12.9020 
  105.5000    70.8120     9.1510     7.7540     8.5960    23.5700     2.1930   -13.3550 
  105.6250    73.8810     8.8610     7.5190     8.6550    23.4910     2.1890   -13.5980 
  105.7500    77.9130     8.6270     7.2890     8.6290    23.5110     2.1860   -13.7040 
  105.8750    78.8680     8.4780     7.1020     8.4510    23.6000     2.1840   -13.7090 
  106.0000    77.3570     8.4210     6.9910     8.2160    23.6260     2.1810   -13.6570 
  106.1250    75.5220     8.4650     6.9870     7.9730    23.4770     2.1760   -13.5460 
