~V
VERS. 2.00: Ver 2.00
~W
STRT.M 50.0000:
STOP.M 255.0000:
STEP.M 0.1250:
NULL. -999.2500:
UWI. F10005:
~C
DEPT.M :
SP.MV :
GR.API :
RML.OHMM :
RI. :
RXO.OHMM :
CALI.CM :
DEN.GM/CC :
~A
# ...
  106.2500    -7.2230    81.2630     8.5840     7.2280     6.8960    22.6330     2.3270 
  106.3750    -7.1420    83.6900     8.0110     6.6620     6.3200    22.6850     2.3470 
  106.5000    -7.0300    89.6340     7.7380     6.3190     6.2300    22.7590     2.3560 
  106.6250    -6.8350    92.6660     7.9680     6.3360     6.4360    22.9060     2.3540 
  106.7500    -6.7090    89.9310     8.7390     6.7560     6.9260    23.1590     2.3420 
  106.8750    -6.5750    85.2130    10.0400     7.6270     7.9040    23.4970     2.3210 
  107.0000    -6.4040    81.5020    11.6790     8.8920     9.3300    23.8410     2.2930 
  107.1250    -6.2610    78.7230    13.1210    10.2410    12.0860    24.0630     2.2690 
  107.2500    -6.1460    77.4280    13.7420    11.0910    14.2110    24.1390     2.2600 
  107.3750    -6.0390    77.2440    13.2400    11.0650    13.8080    24.1200     2.2660 
  107.5000    -5.9590    77.3770    11.9190    10.2920    10.2400    24.0810     2.2800 
  107.6250    -6.0160    77.1270    10.6550     9.3940     8.7540    24.0710     2.2810 
  107.7500    -6.0310    75.8920    10.2020     8.9620     8.7890    24.0730     2.2660 
  107.8750    -6.0290    73.5290    10.8930     9.2740     9.7230    24.0540     2.2500 
  108.0000    -6.0580    69.7960    12.8130    10.4860    10.6500    23.9830     2.2530 
  108.1250    -6.0820    66.6070    15.7870    12.6950    13.5440    23.8130     2.2850 
  108.2500    -6.0770    66.9430    18.6480    15.1510    16.3800    23.5680     2.3230 
  108.3750    -6.0690    69.5610    20.0440    16.7000    17.5140    23.2860     2.3410 
  108.5000    -6.0860    72.4270    19.1110    16.3690    15.8280    23.0140     2.3300 
  108.6250    -6.0460    75.6640    16.1810    14.2260    12.7810    22.8290     2.3010 
  108.7500    -6.0220    80.5810    13.0710    11.7700    10.3710    22.7450     2.2810 
  108.8750    -6.0120    86.6020    10.7800     9.8200     8.9720    22.7310     2.2780 
  109.0000    -6.0030    90.1400     9.6720     8.6830     8.4340    22.7300     2.2810 
  109.1250    -5.9910    89.1780     9.8590     8.4980     9.2270    22.7180     2.2750 
  109.2500    -5.9650    83.2670    10.9290     9.0530    10.8360    22.7240     2.2540 
  109.3750    -5.9590    73.3940    12.6230    10.2520    14.3270    22.7940     2.2260 
  109.5000    -5.9210    64.6910    14.6070    11.9170    18.3420    22.9760     2.2040 
  109.6250    -5.8930    62.7630    16.4710    13.7550    18.4610    23.3120     2.1950 
  109.7500    -5.8330    63.4560    18.0540    15.4840    16.7850    23.7050     2.1930 
  109.8750    -5.7890    61.4940    19.4460    17.0580    18.2500    24.0340     2.1870 
  110.0000    -5.6900    56.9290    20.8260    18.5410    22.9040    24.2070     2.1740 
  110.1250    -5.5670    52.8780    22.2930    19.9880    25.8410    24.2130     2.1530 
  110.2500    -5.4810    51.9110    23.6810    21.3160    26.5860    24.1610     2.1330 
  110.3750    -5.3920    54.7520    24.7090    22.3280    25.5530    24.1070     2.1150 
  110.5000    -5.3330    58.3860    25.2250    22.9000    25.0960    24.0810     2.1000 
  110.6250    -5.2100    59.5450    25.3860    23.1180    25.1750    24.0820     2.0880 
  110.7500    -5.1110    58.9830    25.6390    23.3370    24.9200    24.0630     2.0810 
  110.8750    -5.0200    58.1470    26.2120    23.7570    24.6970    23.9920     2.0820 
  111.0000    -4.9980    56.8690    27.1260    24.4390    24.4720    23.8790     2.0940 
  111.1250    -4.9910    54.4510    28.1980    25.3260    24.2050    23.7850     2.1110 
  111.2500    -4.9490    52.1930    29.0930    26.1890    24.7080    23.7350     2.1230 
  111.3750    -4.8900    51.5330    29.5740    26.8090    26.5690    23.7190     2.1250 
  111.5000    -4.8110    53.6920    29.5250    27.0070    28.6840    23.7150     2.1170 
  111.6250    -4.7810    57.8410    28.9450    26.6990    29.2900    23.7150     2.1050 
  111.7500    -4.7620    61.3130    28.1660    26.1650    28.2830    23.7240     2.0980 
  111.8750    -4.7380    64.0550    27.4710    25.6570    26.2550    23.7480     2.1000 
  112.0000    -4.7180    65.6510    27.0840    25.3810    24.5160    23.7870     2.1090 
  112.1250    -4.7060    64.2740    27.1910    25.5070    24.3100    23.8340     2.1210 
  112.2500    -4.6900    60.5660    27.7010    25.9650    25.7690    23.8550     2.1320 
  112.3750    -4.6460    56.0690    28.5000    26.6730    27.4920    23.8220     2.1400 
  112.5000    -4.6140    52.0140    29.4370    27.5150    28.8870    23.7370     2.1430 
  112.6250    -4.5380    50.5070    30.3740    28.3630    30.2750    23.6100     2.1430 
  112.7500    -4.4350    50.5360    31.2510    29.1420    31.4470    23.4310     2.1400 
  112.8750    -4.3030    51.3200    32.0480    29.8440    32.5630    23.2300     2.1360 
  113.0000    -4.1850    53.2400    32.7210    30.4850    33.1910    23.0800     2.1310 
  113.1250    -4.0700    56.1690    33.1490    31.0150    34.6660    23.0200     2.1250 
  113.2500    -3.9650    56.8150    33.3020    31.3720    34.7160    23.0180     2.1190 
  113.3750    -3.8860    54.8910    33.1990    31.5120    34.3500    23.0790     2.1140 
  113.5000    -3.7400    53.5040    32.9490    31.4620    34.5130    23.2010     2.1100 
  113.6250    -3.6490    54.0990    32.7480    31.3330    34.4390    23.3300     2.1100 
  113.7500    -3.5730    54.8790    32.7560    31.3000    33.7900    23.4050     2.1150 
  113.8750    -3.5450    54.4360    33.0190    31.4610    33.1470    23.4370     2.1240 
  114.0000    -3.4870    53.0210    33.4130    31.7880    32.4440    23.4930     2.1300 
  114.1250    -3.4890    52.6700    33.4650    31.9380    32.7460    23.5970     2.1300 
  114.2500    -3.5340    54.3100    32.6550    31.4050    33.1670    23.7000     2.1240 
  114.3750    -3.6450    57.0040    30.7550    29.8880    33.4720    23.7710     2.1180 
  114.5000    -3.8500    61.1160    28.0390    27.5380    31.9310    23.8150     2.1200 
  114.6250    -4.0600    65.4250    25.2410    24.9520    25.6890    23.8440     2.1360 
  114.7500    -4.2510    67.1500    23.0950    22.8270    20.5240    23.8690     2.1580 
  114.8750    -4.4010    65.6110    21.9580    21.5140    19.8560    23.8870     2.1770 
  115.0000    -4.5590    63.8800    21.8690    21.0980    22.1210    23.8770     2.1870 
  115.1250    -4.6920    63.5780    22.6570    21.5330    24.2230    23.8240     2.1870 
  115.2500    -4.8000    61.8680    23.7260    22.3730    24.1010    23.7340     2.1840 
  115.3750    -4.8630    58.2360    24.7220    23.3240    24.3790    23.6200     2.1840 
  115.5000    -4.8720    56.2280    25.5240    24.2180    25.0820    23.5080     2.1870 
  115.6250    -4.8110    57.5650    26.2880    25.0870    25.6790    23.4280     2.1900 
  115.7500    -4.7370    58.2270    27.2400    26.0810    26.6440    23.3910     2.1900 
  115.8750    -4.6960    56.2110    28.3560    27.2030    29.1160    23.3810     2.1840 
  116.0000    -4.6240    53.7610    29.3650    28.2620    32.5020    23.3870     2.1730 
  116.1250    -4.5410    53.2120    29.8190    28.8830    33.6310    23.4130     2.1630 
  116.2500    -4.4320    53.5760    29.7310    28.9970    32.8540    23.4530     2.1570 
  116.3750    -4.3360    54.4060    29.5250    28.8550    31.7560    23.4950     2.1530 
  116.5000    -4.2730    55.5090    30.0430    29.1130    30.9390    23.5380     2.1480 
  116.6250    -4.2620    57.2110    32.6950    31.0670    30.5450    23.5440     2.1500 
  116.7500    -4.2980    58.8620    37.7660    35.2430    33.0970    23.4830     2.1790 
  116.8750    -4.3170    58.1070    44.5010    41.2410    41.0760    23.3640     2.2520 
  117.0000    -4.4160    52.7970    49.9720    46.7270    60.5080    23.2190     2.3630 
  117.1250    -4.5350    47.6400    48.1340    46.2210   104.7690    23.1070     2.4720 
  117.2500    -4.6930    49.3010    39.4270    39.1080   111.0990    23.0430     2.5280 
  117.3750    -4.8220    57.0900    28.7500    29.4240    50.3590    23.0190     2.5140 
