~V
VERS. 2.00: Ver 2.00
~W
STRT.M 55.0000:
STOP.M 264.0000:
STEP.M 0.1250:
NULL. -999.2500:
UWI. F10017:
~C
DEPT.M :
DEN.GM/CC :
SP.MV :
GR.API :
CALI.CM :
RXO.OHMM :
RI. :
RML.OHMM :
~A
# ...
  122.5000     2.1260   -32.9890    70.9760    23.5440     9.6730    13.0480    13.1500 
  122.6250     2.1410   -33.1400    73.6160    23.8040    10.0000    12.2980    12.8140 
  122.7500     2.1430   -33.3030    76.0240    23.8630    10.0490    12.0170    13.0360 
  122.8750     2.1270   -33.4480    76.0120    23.5080     9.7170    12.4110    14.0010 
  123.0000     2.1110   -33.6780    71.3800    22.8180     9.3850    13.7080    15.9220 
  123.1250     2.1400   -34.0530    65.7630    22.2680     9.5810    16.2060    19.1080 
  123.2500     2.2280   -34.5780    63.2030    22.1930    10.1640    19.3100    22.7320 
  123.3750     2.3560   -35.2580    62.0290    22.5560    10.8820    21.7460    25.0280 
  123.5000     2.4700   -36.0810    60.2710    23.1630    12.4150    21.8610    24.0520 
  123.6250     2.4940   -37.0790    60.1050    23.5710    11.9800    18.9910    19.8230 
  123.7500     2.4380   -38.1650    64.4470    23.7250    10.7430    15.2470    15.2970 
  123.8750     2.3510   -39.1820    71.4570    23.8610     9.9270    11.9490    11.7860 
  124.0000     2.2830   -40.0460    78.0400    24.0990     9.7700     9.5290     9.4630 
  124.1250     2.2570   -40.7280    81.6900    24.2170     9.2200     8.0150     8.1610 
  124.2500     2.2620   -41.1660    83.9280    24.2440     8.3170     7.0650     7.4480 
  124.3750     2.2810   -41.4340    85.9550    24.2240     7.5430     6.5230     7.1680 
  124.5000     2.2910   -41.5780    87.7330    24.1980     7.0730     6.2750     7.1740 
  124.6250     2.2740   -41.5320    92.1040    24.1850     6.9160     6.2880     7.3640 
  124.7500     2.2500   -41.3980    96.9100    24.1580     7.3740     6.4940     7.6350 
  124.8750     2.2410   -41.2770    96.8740    24.1030     8.0270     6.8600     7.9300 
  125.0000     2.2480   -41.1440    91.3460    24.0580     8.3920     7.3150     8.2020 
  125.1250     2.2640   -40.9290    88.1370    24.0650     8.5820     7.7380     8.4330 
  125.2500     2.2860   -40.6810    91.8060    24.1120     9.3160     8.0400     8.6260 
  125.3750     2.3080   -40.4460    95.0260    24.1600    10.8410     8.1760     8.7500 
  125.5000     2.3200   -40.2360    92.9440    24.1820    11.7740     8.1400     8.7540 
  125.6250     2.3110   -40.1330    89.3290    24.1820    11.2210     7.9360     8.6080 
  125.7500     2.2970   -40.1040    89.3820    24.1810     9.6290     7.6450     8.3730 
  125.8750     2.2850   -40.0570    92.3490    24.1840     8.5670     7.3240     8.1490 
  126.0000     2.2770   -39.9730    95.7780    24.1950     8.0940     7.0210     8.0440 
  126.1250     2.2720   -39.8540    98.6220    24.2160     7.7130     6.7870     8.0800 
  126.2500     2.2720   -39.7260    99.6630    24.2360     7.6410     6.6230     8.1270 
  126.3750     2.2750   -39.5160    98.3730    24.2400     7.9990     6.5280     8.0940 
  126.5000     2.2780   -39.2900    96.5480    24.2260     8.2670     6.5120     7.9790 
  126.6250     2.2750   -39.0870    99.1740    24.1960     8.3820     6.6120     7.8950 
  126.7500     2.2680   -38.9240   102.5090    24.1850     8.4630     6.8040     7.9350 
  126.8750     2.2570   -38.8020   101.4720    24.1900     8.8950     7.0670     8.1050 
  127.0000     2.2460   -38.7110    96.1650    24.2100     9.4510     7.3920     8.3920 
  127.1250     2.2500   -38.6830    91.1610    24.2120     9.6950     7.7960     8.8070 
  127.2500     2.2770   -38.6800    88.8580    24.2160     9.6480     8.2310     9.2750 
  127.3750     2.3160   -38.7000    89.6900    24.2120     9.9330     8.6050     9.6840 
  127.5000     2.3490   -38.7170    91.3750    24.1930    11.4960     8.7840     9.8600 
  127.6250     2.3590   -38.6860    90.6990    24.1790    13.2740     8.6030     9.5940 
  127.7500     2.3530   -38.5920    90.8990    24.1660    12.2400     8.1450     9.0530 
  127.8750     2.3390   -38.5110    95.4460    24.1690     9.4150     7.5770     8.5230 
  128.0000     2.3240   -38.3510   100.8810    24.1770     7.7290     7.0830     8.2820 
  128.1250     2.3090   -38.0990   101.7760    24.1670     7.8560     6.8070     8.3640 
  128.2500     2.2970   -37.8110   101.2010    24.1560     8.4980     6.7230     8.4550 
  128.3750     2.2870   -37.4040   102.3320    24.1770     9.0580     6.7610     8.3250 
  128.5000     2.2780   -36.8140   103.4710    24.2150     8.9980     6.8210     7.9160 
  128.6250     2.2720   -35.9440   103.5640    24.2290     8.4640     6.8630     7.5710 
  128.7500     2.2660   -34.8070   101.5560    24.2340     8.3860     7.0060     7.7820 
  128.8750     2.2480   -33.2890    98.0420    24.2380     9.3190     7.4420     8.8030 
  129.0000     2.2160   -31.5130    95.8840    24.2300    11.3010     8.3830    10.6470 
  129.1250     2.1780   -29.7740    93.2290    24.2280    14.7770    10.1910    13.3620 
  129.2500     2.1450   -28.2220    85.7990    24.3240    20.2440    12.8520    16.7300 
  129.3750     2.1180   -26.9850    74.4800    24.5580    25.5440    16.0630    20.2080 
  129.5000     2.0960   -26.1450    65.7390    24.7680    28.1820    18.9340    22.6460 
  129.6250     2.0810   -25.7970    64.1250    24.7760    26.9540    20.0700    22.6510 
  129.7500     2.0750   -25.7880    66.8770    24.7960    23.3410    19.5400    20.9570 
  129.8750     2.0770   -26.1310    71.5170    24.7010    18.6490    18.0510    18.6750 
  130.0000     2.0900   -26.7360    74.9760    24.5270    15.4000    16.3880    16.6810 
  130.1250     2.1100   -27.3050    75.4860    24.3900    14.5070    15.1410    15.5530 
  130.2500     2.1210   -27.6180    75.1420    24.3750    13.7020    14.4530    15.2860 
  130.3750     2.1200   -27.5550    74.9520    24.3180    12.4540    14.3870    15.8810 
  130.5000     2.1180   -27.1510    74.3410    24.2510    12.4130    14.9810    17.3240 
  130.6250     2.1450   -26.4370    72.5400    24.2190    14.3240    16.3080    19.5220 
  130.7500     2.2050   -25.4950    69.9930    24.2200    16.9440    18.1040    21.9830 
  130.8750     2.2690   -24.3150    66.5600    24.2490    19.3900    20.1030    24.3290 
  131.0000     2.2920   -22.9790    63.6760    24.2550    20.4590    21.9700    26.2540 
  131.1250     2.2450   -21.4510    64.1510    24.2530    20.5060    23.3130    27.4260 
  131.2500     2.1740   -19.9260    67.3720    24.2740    21.7080    24.1800    27.9710 
  131.3750     2.1230   -18.5330    70.7200    24.3190    24.9290    24.7930    28.1130 
  131.5000     2.1070   -17.2390    71.1070    24.3310    28.5560    25.3400    28.0800 
  131.6250     2.1080   -16.1530    67.9810    24.3070    30.3080    25.7880    27.9070 
  131.7500     2.1040   -15.3420    64.9200    24.3560    31.0690    25.9790    27.5550 
  131.8750     2.0990   -14.8410    63.5520    24.4620    30.9060    25.7980    27.0620 
  132.0000     2.1080   -14.6710    63.6950    24.5060    29.3400    25.2750    26.5400 
  132.1250     2.1380   -14.8860    65.3080    24.4710    26.4300    24.6240    26.1590 
  132.2500     2.1690   -15.2990    68.0910    24.4140    23.6690    24.1540    26.0320 
  132.3750     2.1780   -15.9360    70.0140    24.3720    22.4840    24.0190    26.1600 
  132.5000     2.1600   -16.8180    70.0790    24.3510    23.1560    24.1910    26.4370 
  132.6250     2.1310   -17.9080    70.2910    24.3310    24.2970    24.3740    26.5970 
  132.7500     2.1170   -19.1110    70.0170    24.3560    24.3690    24.1200    26.2330 
  132.8750     2.1260   -20.4430    68.3500    24.4260    22.3880    23.1380    25.0340 
  133.0000     2.1470   -21.7770    67.5020    24.4970    18.7880    21.4490    23.0090 
  133.1250     2.1610   -23.0200    70.5400    24.4730    14.9450    19.4080    20.5470 
  133.2500     2.1650   -24.0580    73.0470    24.3860    12.2860    17.5640    18.2700 
  133.3750     2.1630   -24.7310    72.0000    24.2670    10.8320    16.2210    16.5080 
  133.5000     2.1610   -24.9670    70.0510    24.1680    10.4000    15.5140    15.4610 
  133.6250     2.1520   -24.6550    69.9550    24.0980    10.7490    15.5590    15.3900 
