~V
VERS. 2.00: Ver 2.00
~W
STRT.M 59.0000:
STOP.M 275.0000:
STEP.M 0.1250:
NULL. -999.2500:
UWI. F10021:
~C
DEPT.M :
GR.API :
RML.OHMM :
RI. :
RXO.OHMM :
CALI.CM :
DEN.GM/CC :
SP.MV :
~A
# ...
  205.2500    61.9240    15.1530    12.8440    18.7110    23.3460     2.3880   -12.5070 
  205.3750    60.0280    16.5230    14.3080    20.5040    23.6440     2.3820   -12.7040 
  205.5000    58.5500    17.3960    15.3700    21.3500    23.9190     2.3740   -12.8930 
  205.6250    61.0940    17.7960    15.9610    21.0550    24.0980     2.3750   -13.0920 
  205.7500    66.4440    17.9950    16.2850    20.4850    24.1450     2.3810   -13.2940 
  205.8750    69.5720    18.1280    16.4650    20.0140    24.0940     2.3830   -13.4620 
  206.0000    68.5440    18.2070    16.5430    19.8880    24.0100     2.3730   -13.6090 
  206.1250    66.1560    18.1210    16.4590    19.7650    23.9050     2.3560   -13.7400 
  206.2500    64.5110    17.8110    16.1910    19.8570    23.8000     2.3460   -13.8350 
  206.3750    62.9400    17.2980    15.7540    19.6000    23.6960     2.3530   -13.9210 
  206.5000    62.0020    16.6970    15.2370    17.7830    23.5890     2.3760   -13.9920 
  206.6250    63.8200    16.2120    14.7970    16.0610    23.4830     2.4060   -14.0130 
  206.7500    65.7530    15.9570    14.5390    15.4490    23.3810     2.4290   -14.0290 
  206.8750    65.1420    15.9410    14.4880    15.6590    23.3710     2.4430   -14.0180 
  207.0000    63.3160    16.0720    14.5850    16.2160    23.5060     2.4510   -13.9470 
  207.1250    63.9630    16.1460    14.7000    16.5490    23.7570     2.4550   -13.8570 
  207.2500    64.9320    16.0360    14.6870    16.0190    23.8730     2.4560   -13.7430 
  207.3750    64.2260    15.6740    14.4730    15.1830    23.8910     2.4500   -13.5930 
  207.5000    63.5680    15.1850    14.0590    14.7020    23.8700     2.4350   -13.4590 
  207.6250    64.5130    14.6080    13.5070    13.9500    23.8280     2.4140   -13.3210 
  207.7500    64.8090    14.1810    12.9450    13.1320    23.7530     2.3940   -13.1610 
  207.8750    63.7640    13.9200    12.4630    12.4720    23.6270     2.3820   -13.0270 
  208.0000    63.1920    13.5840    12.1400    11.9370    23.4320     2.3790   -12.9160 
  208.1250    64.6550    13.5290    12.0920    11.4900    23.1500     2.3830   -12.8260 
  208.2500    65.5300    13.8040    12.3160    11.2540    22.8490     2.3900   -12.7970 
  208.3750    63.8470    14.3390    12.7770    11.3750    22.6190     2.3980   -12.8070 
  208.5000    59.9610    14.9800    13.3710    11.9190    22.5420     2.4070   -12.8180 
  208.6250    57.8580    15.4810    13.9090    12.7810    22.6730     2.4120   -12.8230 
  208.7500    58.0140    15.6770    14.2240    13.5350    22.8980     2.4090   -12.8410 
  208.8750    58.5600    15.5190    14.2390    13.7000    23.1130     2.3970   -12.8820 
  209.0000    59.2100    15.0830    13.9820    13.1670    23.2170     2.3800   -12.9240 
  209.1250    60.6050    14.5320    13.5590    12.5370    23.1530     2.3660   -12.9310 
  209.2500    61.0360    14.0560    13.1420    12.2210    23.0280     2.3630   -12.9260 
  209.3750    60.6920    13.7360    12.8260    12.2220    22.9470     2.3700   -12.9090 
  209.5000    61.5450    13.5910    12.6580    12.4710    23.0170     2.3860   -12.8590 
  209.6250    63.5060    13.6430    12.6800    12.8220    23.2520     2.4050   -12.8280 
  209.7500    63.0440    13.8570    12.8680    13.1680    23.5130     2.4240   -12.8020 
  209.8750    61.0200    14.2200    13.2060    13.7010    23.6890     2.4360   -12.7520 
  210.0000    60.3690    14.6860    13.6550    14.4600    23.7660     2.4350   -12.7210 
  210.1250    61.3160    15.1800    14.1510    15.7210    23.8160     2.4170   -12.7160 
  210.2500    61.0430    15.6090    14.6050    16.9770    23.8760     2.3910   -12.6870 
  210.3750    59.2910    15.8960    14.9410    17.9200    23.9230     2.3680   -12.6760 
  210.5000    58.1770    15.9660    15.0830    17.9970    23.9440     2.3530   -12.7030 
  210.6250    60.1290    15.7290    14.9330    16.6790    23.9440     2.3480   -12.7250 
  210.7500    63.3990    15.2710    14.5600    16.5080    23.9360     2.3480   -12.7750 
  210.8750    64.8240    14.7870    14.1070    17.1810    23.9170     2.3490   -12.8530 
  211.0000    62.3340    14.6510    13.8390    17.1810    23.8850     2.3510   -12.9380 
  211.1250    59.5290    15.5090    14.2510    16.6580    23.8490     2.3550   -13.0470 
  211.2500    59.4640    17.6720    15.6220    18.2560    23.8260     2.3570   -13.1770 
  211.3750    60.7630    21.1820    18.1220    23.2500    23.8280     2.3550   -13.3220 
  211.5000    61.0180    25.6690    21.6530    30.5970    23.8460     2.3490   -13.4990 
  211.6250    58.6050    30.2570    25.7420    37.7720    23.8580     2.3440   -13.7000 
  211.7500    53.6870    33.6570    29.4300    40.6240    23.8350     2.3410   -13.8900 
  211.8750    48.9650    35.6500    32.0260    38.8180    23.8000     2.3350   -14.0780 
  212.0000    48.6680    36.4320    33.3640    36.2840    23.7800     2.3240   -14.2550 
  212.1250    52.3640    36.9020    33.9740    35.6800    23.7360     2.3140   -14.4380 
  212.2500    53.5010    38.1060    34.9020    36.6740    23.6050     2.3180   -14.6270 
  212.3750    52.5750    40.4460    36.6770    38.5000    23.3910     2.3420   -14.7810 
  212.5000    52.7360    43.8010    39.3830    41.2670    23.1540     2.3830   -14.9080 
  212.6250    52.4350    47.6410    42.7340    46.0170    22.9960     2.4200   -15.0470 
  212.7500    50.5260    51.1460    46.0110    50.1150    22.9500     2.4370   -15.1480 
  212.8750    48.7800    53.8140    48.6930    50.6900    22.9940     2.4360   -15.2350 
  213.0000    48.4590    55.4650    50.5080    49.8450    23.0710     2.4290   -15.3610 
  213.1250    48.2290    56.1740    51.4140    48.8570    23.0360     2.4270   -15.4660 
  213.2500    47.2400    56.4600    51.8480    48.8330    22.8980     2.4240   -15.5570 
  213.3750    46.4450    56.5530    52.0380    48.0790    22.7030     2.4110   -15.6710 
  213.5000    45.9220    56.4950    52.0640    47.7810    22.5220     2.3810   -15.7680 
  213.6250    47.7550    56.1580    51.8540    49.1450    22.4990     2.3410   -15.8370 
  213.7500    51.1280    55.5630    51.4390    50.6240    22.5650     2.3020   -15.9360 
  213.8750    53.0750    54.8550    50.9340    50.6330    22.5680     2.2690   -16.0150 
  214.0000    52.0420    54.2620    50.5270    50.4700    22.4310     2.2390   -16.0460 
  214.1250    49.4160    54.0250    50.4320    50.0060    22.1470     2.2130   -16.0870 
  214.2500    49.6610    54.0980    50.6340    47.8870    21.8270     2.1930   -16.1140 
  214.3750    52.5980    54.3210    51.0160    45.8180    21.6140     2.1820   -16.1260 
  214.5000    54.8330    54.4600    51.3770    44.4490    21.6100     2.1810   -16.1460 
  214.6250    53.8320    54.2470    51.4460    43.4310    21.8930     2.1840   -16.1570 
  214.7500    51.3970    53.6780    51.1560    42.6620    22.3930     2.1850   -16.1800 
  214.8750    49.8450    52.8410    50.5460    42.4570    22.9850     2.1810   -16.2210 
  215.0000    48.1710    51.8760    49.7360    42.3070    23.4700     2.1710   -16.2600 
  215.1250    45.9720    50.9020    48.8600    41.6910    23.6870     2.1550   -16.2930 
  215.2500    46.0040    49.9650    48.0160    40.8710    23.7310     2.1370   -16.3150 
  215.3750    49.2120    49.0510    47.2170    40.5560    23.6970     2.1230   -16.3340 
  215.5000    53.0030    48.1420    46.4420    40.8740    23.6300     2.1230   -16.3620 
  215.6250    55.1190    47.2330    45.6630    40.5300    23.5830     2.1400   -16.3630 
  215.7500    56.6180    46.3390    44.8810    38.6760    23.5540     2.1640   -16.3190 
  215.8750    55.8410    45.4830    44.1340    36.4500    23.5340     2.1850   -16.2830 
  216.0000    52.2380    44.7100    43.4790    35.2760    23.5160     2.1960   -16.2470 
  216.1250    48.9940    44.1190    43.0260    34.8970    23.4810     2.2040   -16.1700 
  216.2500    48.4660    43.7680    42.8050    34.5880    23.4220     2.2220   -16.1260 
  216.3750    49.0670    43.6870    42.8240    34.1270    23.3400     2.2550   -16.0870 
