~V
VERS. 2.00: Ver 2.00
~W
STRT.M 50.0000:
STOP.M 255.0000:
STEP.M 0.1250:
NULL. -999.2500:
UWI. F10005:
~C
DEPT.M :
SP.MV :
GR.API :
RML.OHMM :
RI. :
RXO.OHMM :
CALI.CM :
DEN.GM/CC :
~A
# ...
   72.5000   -14.8200    53.8870    23.7430    23.1500    21.7190    23.3920     2.0350 
   72.6250   -14.8680    51.9120    23.0570    22.5760    20.9620    23.2550     2.0510 
   72.7500   -14.8990    52.8680    21.1010    20.7840    20.4110    23.1810     2.0690 
   72.8750   -14.8940    57.2380    18.0140    17.9220    19.7730    23.2020     2.0830 
   73.0000   -14.8860    62.8770    14.5820    14.7640    17.0060    23.3600     2.0970 
   73.1250   -14.8430    66.5460    11.9530    12.3150    11.8150    23.6470     2.1210 
   73.2500   -14.7350    68.2390    10.6090    10.8940     8.5940    23.9460     2.1500 
   73.3750   -14.6180    67.9200    10.6700    10.5620     8.3990    24.1650     2.1720 
   73.5000   -14.5180    65.1570    12.0550    11.3290    11.2300    24.2860     2.1780 
   73.6250   -14.3860    62.2810    14.6200    13.3480    17.3510    24.3240     2.1670 
   73.7500   -14.2430    60.6440    17.5690    16.1500    21.5290    24.3170     2.1530 
   73.8750   -14.0960    60.4130    20.1370    19.0440    22.7580    24.2820     2.1440 
   74.0000   -13.9300    60.1430    21.7150    21.1970    22.6080    24.2410     2.1380 
   74.1250   -13.7730    58.9650    22.1260    22.0740    22.7010    24.2110     2.1320 
   74.2500   -13.7020    57.2990    22.0520    22.2260    22.6520    24.2050     2.1230 
   74.3750   -13.6020    56.2180    21.9250    22.1150    22.2640    24.2210     2.1110 
   74.5000   -13.5400    57.2430    21.9440    22.0180    21.9980    24.2450     2.1000 
   74.6250   -13.5080    59.4190    22.1620    22.0420    22.5140    24.2160     2.0930 
   74.7500   -13.4770    60.5880    22.5210    22.1430    23.1140    24.1320     2.0920 
   74.8750   -13.4530    59.3020    22.9730    22.2730    22.9070    24.0060     2.0980 
   75.0000   -13.4080    55.7510    23.4370    22.3820    22.1570    23.8300     2.1090 
   75.1250   -13.3640    55.1900    23.7850    22.4190    22.1120    23.5730     2.1110 
   75.2500   -13.3120    59.1220    23.9530    22.3750    21.9600    23.2740     2.0890 
   75.3750   -13.2640    62.3460    23.9410    22.2590    21.3630    22.9900     2.0330 
   75.5000   -13.2210    60.1090    23.8450    22.1210    20.5180    22.7530     1.9480 
   75.6250   -13.1690    56.5090    23.8440    22.0780    20.0680    22.5890     1.8700 
   75.7500   -13.1280    58.4320    24.0570    22.2050    19.6600    22.5260     1.8530 
   75.8750   -13.1160    62.8710    24.4860    22.5130    18.9340    22.5480     1.9260 
   76.0000   -13.1610    63.4150    25.0080    22.9370    18.6620    22.5990     2.0770 
   76.1250   -13.1880    59.3380    25.3870    23.3120    19.4750    22.5890     2.2420 
   76.2500   -13.2130    56.9500    25.4810    23.4710    20.3030    22.5050     2.3460 
   76.3750   -13.2340    56.7580    25.2890    23.3390    20.4120    22.3930     2.3630 
   76.5000   -13.2540    56.5210    24.9280    22.9590    20.4150    22.3220     2.3080 
   76.6250   -13.3000    57.9970    24.5640    22.4590    20.5280    22.3790     2.2250 
   76.7500   -13.3590    61.8530    24.2810    22.0110    20.7150    22.5700     2.1560 
   76.8750   -13.3890    65.3040    24.0790    21.7010    20.5700    22.8280     2.1110 
   77.0000   -13.3920    65.3030    23.9380    21.5410    20.4300    23.0770     2.0900 
   77.1250   -13.3930    62.3560    23.8160    21.4650    20.7820    23.2640     2.0880 
   77.2500   -13.3530    59.2180    23.6400    21.3340    20.7740    23.3800     2.0970 
   77.3750   -13.3380    57.5150    23.3180    21.0380    20.3490    23.4510     2.1090 
   77.5000   -13.2820    58.8610    22.7570    20.5060    20.1650    23.5030     2.1190 
   77.6250   -13.1990    62.4650    21.8900    19.7060    19.7230    23.5450     2.1230 
   77.7500   -13.1030    66.0970    20.8770    18.7940    18.8950    23.5800     2.1210 
   77.8750   -13.0690    69.0150    19.9300    17.9330    17.5600    23.6080     2.1150 
   78.0000   -13.0450    70.4940    19.2480    17.2680    16.6440    23.6360     2.1050 
   78.1250   -13.0210    70.3220    18.9720    16.9240    16.3990    23.6700     2.0930 
   78.2500   -13.0210    70.9460    18.9680    16.8190    16.3800    23.6960     2.0830 
   78.3750   -12.9840    73.6020    19.0200    16.8020    16.4920    23.7030     2.0750 
   78.5000   -12.9520    76.8740    18.8680    16.6730    16.3300    23.6950     2.0730 
   78.6250   -12.9210    78.5260    18.2860    16.2370    15.8970    23.6870     2.0770 
   78.7500   -12.8920    77.9510    17.3840    15.5560    14.9500    23.6890     2.0880 
   78.8750   -12.8340    74.8040    16.3410    14.7460    13.6640    23.6960     2.1010 
   79.0000   -12.7490    71.7870    15.3480    13.9440    12.3240    23.7030     2.1150 
   79.1250   -12.6800    73.0100    14.5620    13.2600    12.3160    23.7110     2.1250 
   79.2500   -12.5840    76.8240    13.9150    12.6560    12.3380    23.7290     2.1350 
   79.3750   -12.5130    79.1760    13.2710    12.0290    11.5640    23.7690     2.1480 
   79.5000   -12.4410    79.9670    12.5260    11.2900    11.0380    23.8370     2.1650 
   79.6250   -12.3510    81.7930    11.6620    10.4220    10.4090    23.9120     2.1860 
   79.7500   -12.2020    84.3550    10.8000     9.5510     9.1590    23.9610     2.2050 
   79.8750   -12.0170    87.6160    10.0530     8.7870     7.8340    23.9740     2.2230 
   80.0000   -11.8530    90.5660     9.4870     8.2000     7.2770    23.9690     2.2400 
   80.1250   -11.6640    91.1030     9.1360     7.8270     7.6830    23.9660     2.2590 
   80.2500   -11.4770    89.8290     8.9150     7.5940     8.3880    23.9730     2.2780 
   80.3750   -11.2660    89.5550     8.7820     7.4670     8.3570    23.9910     2.2960 
   80.5000   -11.0510    91.5500     8.7210     7.4290     7.9670    24.0100     2.3060 
   80.6250   -10.8150    91.7440     8.7680     7.4940     8.1670    24.0080     2.3040 
   80.7500   -10.6940    88.2360     8.9460     7.6480     8.1770    23.9760     2.2910 
   80.8750   -10.6230    83.3860     9.2770     7.8950     7.8700    23.9140     2.2720 
   81.0000   -10.5740    79.8890     9.7350     8.2330     7.9930    23.8450     2.2540 
   81.1250   -10.6020    79.6260    10.2310     8.6250     8.6110    23.8050     2.2410 
   81.2500   -10.6230    80.1580    10.6340     8.9820     9.1130    23.8220     2.2320 
   81.3750   -10.6480    78.8960    10.8410     9.2100     9.4770    23.8800     2.2260 
   81.5000   -10.6500    77.7390    10.7850     9.2270     9.0700    23.9470     2.2210 
   81.6250   -10.6570    79.9320    10.4120     8.9550     8.7330    23.9870     2.2200 
   81.7500   -10.5600    82.3110     9.8620     8.5040     7.9780    23.9720     2.2260 
   81.8750   -10.4170    81.8820     9.2850     7.9920     7.3890    23.8920     2.2390 
   82.0000   -10.2550    80.5020     8.8260     7.5310     6.9400    23.7820     2.2550 
   82.1250   -10.0860    82.6730     8.6110     7.2140     6.6680    23.7110     2.2690 
   82.2500    -9.9250    87.1390     8.5990     7.0350     6.5350    23.7190     2.2740 
   82.3750    -9.7730    90.6800     8.7010     6.9580     6.5770    23.7790     2.2740 
   82.5000    -9.6890    91.6670     8.8000     6.9250     6.5570    23.8360     2.2720 
   82.6250    -9.6530    90.4260     8.7890     6.8840     6.5360    23.8420     2.2780 
   82.7500    -9.6810    89.6550     8.6920     6.8300     6.5830    23.8190     2.2940 
   82.8750    -9.7290    88.5320     8.5760     6.7870     6.6380    23.7850     2.3150 
   83.0000    -9.7770    84.3830     8.5020     6.7780     6.6260    23.7390     2.3310 
   83.1250    -9.8030    78.8140     8.5150     6.8250     6.9600    23.6780     2.3320 
   83.2500    -9.8460    75.3870     8.6490     6.9420     7.2490    23.6390     2.3210 
   83.3750    -9.9380    74.2730     8.9880     7.1870     7.6330    23.6510     2.3050 
   83.5000    -9.9860    72.9050     9.6340     7.6370     8.0170    23.7210     2.2940 
   83.6250   -10.0410    69.7580    10.6670     8.3810     8.4130    23.8320     2.2930 
