~V
VERS. 2.00: Ver 2.00
~W
STRT.M 50.0000:
STOP.M 286.0000:
STEP.M 0.1250:
NULL. -999.2500:
UWI. F10036:
~C
DEPT.M :
GR.API :
RML.OHMM :
RI. :
RXO.OHMM :
CALI.CM :
DEN.GM/CC :
SP.MV :
~A
# ...
  128.7500    78.6830     8.6150     7.2760    10.3260    24.2180     2.4550   -11.8860 
  128.8750    76.8550     9.4550     7.9830    12.3280    24.1550     2.4470   -11.8310 
  129.0000    75.3110     9.8460     8.3390    15.9560    24.0030     2.4090   -11.8630 
  129.1250    76.7010     9.5450     8.1340    12.0930    23.8250     2.3540   -12.0340 
  129.2500    79.7920     8.8190     7.5920     9.5560    23.7350     2.3030   -12.2860 
  129.3750    80.6850     7.9720     6.9460     7.6980    23.7100     2.2670   -12.5730 
  129.5000    79.4040     7.2620     6.3810     7.0020    23.7060     2.2510   -12.8600 
  129.6250    81.7730     6.9000     6.0370     6.6470    23.7070     2.2500   -13.1250 
  129.7500    85.9010     6.8780     5.9220     6.5810    23.7030     2.2490   -13.3910 
  129.8750    85.5360     7.1350     6.0200     6.5270    23.6910     2.2440   -13.7170 
  130.0000    80.0260     7.5350     6.2720     6.7040    23.6580     2.2320   -14.0780 
  130.1250    76.0000     7.8940     6.5840     7.1040    23.6270     2.2200   -14.4890 
  130.2500    75.1710     8.0840     6.8380     7.5870    23.6070     2.2110   -14.8810 
  130.3750    76.2800     8.0670     6.9710     7.7540    23.6160     2.2090   -15.2070 
  130.5000    77.8990     7.8850     6.9810     7.3540    23.6600     2.2100   -15.4630 
  130.6250    79.6150     7.6690     6.9140     6.6660    23.6900     2.2160   -15.6330 
  130.7500    80.5530     7.5530     6.8440     6.5710    23.6940     2.2260   -15.7590 
  130.8750    80.4430     7.5570     6.7930     7.0270    23.6710     2.2400   -15.7370 
  131.0000    80.7920     7.6250     6.7550     7.0730    23.6330     2.2570   -15.5330 
  131.1250    82.7170     7.6400     6.6950     7.0040    23.5840     2.2680   -15.1620 
  131.2500    86.3420     7.5460     6.5870     6.6630    23.5530     2.2710   -14.7710 
  131.3750    89.3010     7.3790     6.4420     6.5220    23.5550     2.2640   -14.4270 
  131.5000    88.0100     7.2510     6.3220     6.6090    23.5650     2.2540   -14.1700 
  131.6250    82.5710     7.2930     6.3380     6.7490    23.5730     2.2530   -13.9790 
  131.7500    79.1460     7.4850     6.5150     6.8600    23.5890     2.2670   -13.7790 
  131.8750    79.9880     7.7560     6.8200     7.1710    23.6030     2.2960   -13.6220 
  132.0000    81.5110     8.0140     7.1530     8.3680    23.5680     2.3270   -13.5270 
  132.1250    80.6680     8.1280     7.3430     9.6990    23.4370     2.3420   -13.4930 
  132.2500    79.8060     8.0610     7.3140     9.4290    23.2680     2.3310   -13.4980 
  132.3750    80.0930     7.8310     7.0940     7.4420    23.0820     2.3020   -13.5240 
  132.5000    80.4130     7.5090     6.7790     6.4720    22.9490     2.2660   -13.5620 
  132.6250    79.8590     7.2000     6.4880     6.3520    22.8610     2.2390   -13.6600 
  132.7500    80.4920     7.0060     6.3020     6.4150    22.7900     2.2240   -13.7590 
  132.8750    81.9310     6.9960     6.2670     6.4690    22.7420     2.2200   -13.8010 
  133.0000    81.9260     7.1990     6.3920     6.2460    22.7740     2.2250   -13.7410 
  133.1250    80.1560     7.5690     6.6430     6.2040    22.8460     2.2460   -13.6280 
  133.2500    78.9080     7.9230     6.8970     6.6580    22.9160     2.2800   -13.4690 
  133.3750    79.4340     8.0700     7.0180     7.7750    22.9400     2.3190   -13.2960 
  133.5000    81.6240     7.8590     6.8880     9.1330    22.8980     2.3510   -13.0860 
  133.6250    85.9100     7.2890     6.4760     7.6890    22.8160     2.3610   -12.8340 
  133.7500    89.6920     6.7040     6.0060     6.1090    22.7880     2.3510   -12.6080 
  133.8750    91.9380     6.3950     5.6860     5.3760    22.8810     2.3310   -12.4900 
  134.0000    92.8500     6.5440     5.6720     5.4490    23.1090     2.3110   -12.5990 
  134.1250    89.8830     7.2520     6.1100     6.2920    23.3330     2.2970   -12.9050 
  134.2500    81.8750     8.2740     6.8880     7.8320    23.2960     2.2830   -13.3700 
  134.3750    72.7310     9.3020     7.8100     9.5140    23.0940     2.2660   -13.9360 
  134.5000    67.8110     9.9720     8.5650    10.6530    22.9240     2.2440   -14.5820 
  134.6250    66.8960     9.9860     8.8160    10.1700    22.8390     2.2240   -15.2430 
  134.7500    66.3370     9.5940     8.6770     9.3140    22.8100     2.2120   -15.8950 
  134.8750    67.2610     9.1100     8.3730     8.7310    22.8040     2.2070   -16.4870 
  135.0000    68.7610     8.7990     8.1150     8.6000    22.7970     2.2040   -16.9940 
  135.1250    67.1780     8.8070     8.0390     8.6640    22.7060     2.1920   -17.3830 
  135.2500    63.6830     9.0050     8.1020     8.7980    22.4620     2.1710   -17.6670 
  135.3750    62.6650     9.2600     8.2350     9.1150    22.1650     2.1420   -17.8770 
  135.5000    64.6850     9.4690     8.3680     9.6160    22.1080     2.1160   -18.0550 
  135.6250    67.0800     9.5890     8.4640     9.7770    22.6030     2.1040   -18.2640 
  135.7500    67.3680     9.6810     8.5470     9.8400    23.3360     2.1070   -18.5390 
  135.8750    66.1210     9.7790     8.6470    10.1160    23.9060     2.1220   -18.9450 
  136.0000    65.4930     9.8730     8.7730    10.9060    24.1270     2.1390   -19.4240 
  136.1250    65.8750     9.9220     8.9100    11.4030    24.1580     2.1520   -20.0010 
  136.2500    64.7420     9.9320     9.0180    11.3480    24.1870     2.1610   -20.5800 
  136.3750    59.9760     9.9310     9.0680    10.9280    24.2130     2.1680   -21.1650 
  136.5000    55.4020     9.9330     9.0600    10.6590    24.2230     2.1770   -21.6970 
  136.6250    56.2260     9.9160     9.0300    10.6500    24.2230     2.1870   -22.1610 
  136.7500    58.2650     9.8540     9.0270    10.7080    24.2260     2.1950   -22.5230 
  136.8750    58.8130     9.7660     9.0720    10.6220    24.2410     2.1980   -22.7550 
  137.0000    59.2200     9.7320     9.1820    10.6440    24.2860     2.1950   -22.8970 
  137.1250    60.6250     9.8650     9.3900    10.8950    24.3450     2.1840   -22.8900 
  137.2500    59.0490    10.1340     9.6600    10.9650    24.3970     2.1650   -22.8100 
  137.3750    54.4440    10.4050     9.9100    10.5880    24.4060     2.1410   -22.6260 
  137.5000    52.3720    10.4640     9.9830    10.2950    24.3580     2.1210   -22.3580 
  137.6250    57.2930    10.0340     9.6230    10.0740    24.2730     2.1220   -21.8970 
  137.7500    64.6710     9.1440     8.8270     9.5050    24.2250     2.1510   -21.2040 
  137.8750    73.0110     7.9520     7.7320     8.1660    24.2060     2.2060   -20.2540 
  138.0000    83.2130     6.7200     6.5810     6.2660    24.1660     2.2740   -19.1340 
  138.1250    91.1110     6.2910     5.6590     5.4650    24.1380     2.3300   -17.9450 
  138.2500    93.2830     5.7600     5.0790     5.1060    24.1720     2.3610   -16.8230 
  138.3750    91.3710     5.7130     4.8840     4.8850    24.2590     2.3640   -15.8270 
  138.5000    89.6390     6.1320     5.0760     5.1370    24.3540     2.3510   -15.0110 
  138.6250    86.1190     7.0180     5.6870     6.1470    24.3650     2.3340   -14.5500 
  138.7500    80.1520     8.1680     6.5800     7.6650    24.2830     2.3190   -14.4630 
  138.8750    75.5800     9.3850     7.6130     8.3450    24.1260     2.3050   -14.7590 
  139.0000    73.4280    10.4380     8.5940     8.3560    23.9140     2.2850   -15.3760 
  139.1250    70.4160    11.0850     9.3160     8.7460    23.7580     2.2590   -16.3160 
  139.2500    66.3130    11.3570     9.7730     9.6010    23.6980     2.2310   -17.3420 
  139.3750    64.1910    11.3390    10.0090    10.1190    23.7090     2.2080   -18.3510 
  139.5000    64.7430    11.1390    10.0520    10.3440    23.7490     2.1980   -19.2440 
  139.6250    63.7300    10.7980     9.8660    10.4830    23.7810     2.2030   -19.9180 
  139.7500    60.1300    10.3950     9.5200    10.5370    23.7690     2.2190   -20.4010 
  139.8750    59.2320    10.0370     9.1290    10.1220    23.7490     2.2390   -20.6960 
