~V
VERS. 2.00: Ver 2.00
~W
STRT.M 55.0000:
STOP.M 279.0000:
STEP.M 0.1250:
NULL. -999.2500:
UWI. F10072:
~C
DEPT.M :
GR.API :
RML.OHMM :
RI. :
RXO.OHMM :
CALI.CM :
DEN.GM/CC :
SP.MV :
~A
# ...
  212.5000    91.6070    12.3760     9.5290    11.3510    24.5660     2.4350   -12.2760 
  212.6250    91.0500    12.4340     9.3290     9.9020    24.4620     2.4340   -12.1370 
  212.7500    90.3250    12.9930     9.5290     9.5590    24.4260     2.4310   -12.1420 
  212.8750    90.5780    13.8000    10.0730    11.3290    24.4150     2.4290   -12.2420 
  213.0000    92.8860    14.4610    10.7590    13.0950    24.3780     2.4270   -12.3100 
  213.1250    95.2390    14.4590    11.1130    13.8270    24.3000     2.4290   -12.2860 
  213.2500    94.6780    13.7340    10.8110    13.6130    24.2430     2.4300   -12.0610 
  213.3750    89.8400    12.4540     9.8790    12.2070    24.2030     2.4290   -11.6850 
  213.5000    82.2800    10.9590     8.6490     9.6480    24.1610     2.4250   -11.1010 
  213.6250    72.9000     9.6360     7.5350     7.1160    24.0980     2.4170   -10.4260 
  213.7500    61.6250     8.6590     6.7340     5.9630    24.0260     2.4090    -9.5770 
  213.8750    50.8900     8.0700     6.2880     5.6340    23.9600     2.4040    -8.6520 
  214.0000    44.5490     7.8360     6.1580     5.7070    23.9380     2.4050    -7.7170 
  214.1250    43.9180     7.8900     6.2600     5.7180    23.9660     2.4140    -6.8650 
  214.2500    44.8720     8.0300     6.4220     5.7490    23.9890     2.4260    -6.2000 
  214.3750    46.4180     8.1260     6.5630     5.7740    23.9870     2.4330    -5.6910 
  214.5000    48.4280     8.1070     6.6680     5.7180    23.9680     2.4320    -5.3200 
  214.6250    49.4080     7.9460     6.7660     5.5810    23.9530     2.4240    -5.0130 
  214.7500    51.0770     7.7090     6.8860     5.5490    23.9580     2.4180    -4.7530 
  214.8750    57.5310     7.4680     7.0220     5.7350    23.9680     2.4200    -4.4980 
  215.0000    66.5850     7.3060     7.1530     6.1320    23.9730     2.4320    -4.2400 
  215.1250    71.2270     7.3090     7.2410     6.5330    23.9670     2.4480    -4.0150 
  215.2500    75.5440     7.4620     7.2750     6.7810    23.9570     2.4580    -3.8600 
  215.3750    84.9200     7.7140     7.2550     6.4860    23.9650     2.4590    -3.7710 
  215.5000    95.8870     7.9880     7.1970     6.2280    24.0230     2.4530    -3.7090 
  215.6250    97.4520     8.2070     7.1540     6.4940    24.1620     2.4470    -3.6810 
  215.7500    92.4420     8.3770     7.1700     6.9510    24.2860     2.4440    -3.6690 
  215.8750    88.3170     8.5300     7.2330     7.1960    24.3760     2.4440    -3.6470 
  216.0000    88.4990     8.6730     7.2870     7.3030    24.4140     2.4440    -3.7230 
  216.1250    90.8490     8.7340     7.2570     7.3270    24.4290     2.4390    -3.8010 
  216.2500    92.0010     8.6160     7.1090     7.2370    24.4800     2.4290    -3.8800 
  216.3750    92.0850     8.2730     6.8350     6.9440    24.5960     2.4160    -3.9540 
  216.5000    92.9600     7.7780     6.4900     6.8150    24.7000     2.4040    -4.0250 
  216.6250    93.7560     7.4050     6.2170     6.6340    24.7280     2.3970    -4.1370 
  216.7500    91.4700     7.4760     6.1630     6.4920    24.7160     2.3960    -4.2600 
  216.8750    85.6320     8.2420     6.4470     6.2820    24.7210     2.4000    -4.4680 
  217.0000    78.1840     9.8480     7.1910     6.7550    24.7480     2.4000    -4.6620 
  217.1250    73.4390    12.4420     8.6880     9.5010    24.7660     2.3910    -4.9010 
  217.2500    72.6700    15.7180    11.0230    15.3980    24.7450     2.3710    -5.1120 
  217.3750    73.9210    19.3800    14.2210    21.3830    24.7410     2.3440    -5.3090 
  217.5000    74.1510    23.0760    18.0120    22.9230    24.7450     2.3170    -5.5550 
  217.6250    71.3750    26.5290    21.8590    24.1220    24.7430     2.2930    -5.8090 
  217.7500    69.3920    29.8650    25.4600    29.9630    24.7310     2.2730    -6.1160 
  217.8750    69.0690    33.4410    29.0010    37.9550    24.7040     2.2540    -6.3580 
  218.0000    69.0450    37.7120    32.9160    41.9820    24.6840     2.2380    -6.5630 
  218.1250    67.5590    43.3330    37.8310    44.2070    24.6770     2.2310    -6.7100 
  218.2500    65.6330    50.4630    43.9050    50.1530    24.6790     2.2360    -6.8480 
  218.3750    65.0490    59.3010    51.3460    57.3960    24.6870     2.2580    -6.9960 
  218.5000    64.6510    72.2960    60.3710    65.8420    24.7160     2.2940    -7.1400 
  218.6250    61.9680    84.4820    71.0660    82.9340    24.6950     2.3320    -7.2510 
  218.7500    59.4300    96.4170    82.1940   108.2690    24.6070     2.3550    -7.2840 
  218.8750    58.1990   106.4820    92.2400   123.7300    24.5280     2.3560    -7.2980 
  219.0000    59.2920   113.2860    99.7810   109.5060    24.5700     2.3350    -7.3210 
  219.1250    62.0590   115.6440   103.5200    89.4920    24.7550     2.3040    -7.2840 
  219.2500    64.0810   114.8000   104.3000    84.8440    24.9370     2.2750    -7.2370 
  219.3750    64.3540   111.8760   102.9560    84.1690    24.8960     2.2510    -7.1100 
  219.5000    63.2660   108.0170   100.3540    71.8130    24.7660     2.2340    -6.9180 
  219.6250    63.0960   104.2470    97.2280    54.2020    24.7000     2.2220    -6.6730 
  219.7500    64.6460   101.1910    94.3990    47.7460    24.7460     2.2150    -6.3710 
  219.8750    67.7570    99.0110    92.3940    47.5470    24.7880     2.2150    -6.0940 
  220.0000    70.8020    97.4280    91.4170    50.5620    24.8060     2.2180    -5.7840 
  220.1250    69.9010    95.5610    91.1040    56.5960    24.8170     2.2200    -5.5660 
  220.2500    67.4460    92.4060    90.2200    63.2800    24.8410     2.2180    -5.4010 
  220.3750    66.0270    87.3260    87.5820    68.0920    24.8570     2.2130    -5.2570 
  220.5000    66.7720    80.3300    82.5390    74.7500    24.8470     2.2090    -5.1390 
  220.6250    68.5450    72.1750    75.3270    74.4910    24.8050     2.2080    -5.0300 
  220.7500    69.4240    64.3850    67.7020    66.8350    24.7700     2.2130    -5.0620 
  220.8750    68.2560    57.9220    60.9010    55.3430    24.7510     2.2250    -5.0590 
  221.0000    65.1920    53.2050    55.6340    46.9840    24.8100     2.2450    -5.0380 
  221.1250    63.3080    50.3360    52.2800    44.9000    24.9310     2.2680    -4.9340 
  221.2500    63.0890    48.5230    50.1960    45.3770    24.9990     2.2840    -4.7900 
  221.3750    64.0940    47.2370    48.8920    44.8020    24.8880     2.2870    -4.6460 
  221.5000    66.1110    46.0760    47.9320    44.5700    24.8000     2.2740    -4.4680 
  221.6250    67.8630    44.8570    47.0510    45.4560    24.7760     2.2530    -4.2850 
  221.7500    68.3880    43.6760    46.2130    44.0570    24.7570     2.2340    -4.0650 
  221.8750    67.8120    42.7200    45.5630    42.2710    24.7470     2.2230    -3.8550 
  222.0000    68.0920    42.1210    45.2450    40.0080    24.7450     2.2210    -3.7230 
  222.1250    69.4820    41.9270    45.3150    39.9330    24.7450     2.2240    -3.6690 
  222.2500    69.8540    41.9540    45.5720    39.4300    24.7450     2.2280    -3.6220 
  222.3750    68.9130    42.1070    45.8930    40.9670    24.7440     2.2330    -3.6100 
  222.5000    68.7970    42.4040    46.2560    45.4420    24.7430     2.2380    -3.6350 
  222.6250    70.3840    43.0080    46.7940    46.8870    24.7420     2.2400    -3.7810 
  222.7500    71.2650    43.9610    47.6060    46.2350    24.7420     2.2400    -3.9110 
  222.8750    71.0790    45.2300    48.7090    44.9110    24.7400     2.2370    -4.0800 
  223.0000    70.5390    46.6840    50.0320    46.1570    24.7390     2.2330    -4.2260 
  223.1250    69.3310    48.0910    51.4080    53.3890    24.7610     2.2310    -4.3300 
  223.2500    67.4670    49.2270    52.6020    60.3470    24.7890     2.2340    -4.4780 
  223.3750    66.7180    50.0100    53.4630    58.5120    24.7940     2.2400    -4.6150 
  223.5000    69.6000    50.5310    53.9840    53.3200    24.7760     2.2480    -4.7770 
  223.6250    73.6540    51.0690    54.3750    54.3090    24.7530     2.2540    -4.8420 
