~V
VERS. 2.00: Ver 2.00
~W
STRT.M 50.0000:
STOP.M 286.0000:
STEP.M 0.1250:
NULL. -999.2500:
UWI. F10036:
~C
DEPT.M :
GR.API :
RML.OHMM :
RI. :
RXO.OHMM :
CALI.CM :
DEN.GM/CC :
SP.MV :
~A
# ...
   83.7500    67.6270     9.3720     7.9650     8.3540    23.6540     2.2030   -23.1400 
   83.8750    65.9980     9.6450     8.0880     8.3190    23.6810     2.2030   -23.3720 
   84.0000    65.9470     9.8120     8.1030     8.2540    23.6570     2.2020   -23.5410 
   84.1250    66.3080     9.6220     7.8910     8.0190    23.6040     2.2050   -23.5930 
   84.2500    65.4250     9.0830     7.4870     7.7310    23.5330     2.2140   -23.5700 
   84.3750    65.5490     8.3570     6.9920     7.3000    23.4220     2.2250   -23.4510 
   84.5000    67.9690     7.7060     6.5480     6.7380    23.3540     2.2290   -23.2390 
   84.6250    70.6480     7.4310     6.3130     6.2060    23.3570     2.2110   -23.1170 
   84.7500    70.4990     7.5580     6.3100     6.4020    23.2900     2.1790   -23.1430 
   84.8750    66.8690     7.9970     6.5150     7.2760    23.1220     2.1450   -23.3740 
   85.0000    62.1220     8.5690     6.8560     8.0080    22.9770     2.1260   -23.7780 
   85.1250    60.3190     9.0400     7.2130     8.2490    22.9600     2.1330   -24.3420 
   85.2500    61.8370     9.2880     7.4700     8.1240    23.0100     2.1550   -24.9990 
   85.3750    64.1920     9.3270     7.5840     8.1710    23.1220     2.1770   -25.7510 
   85.5000    64.1180     9.2690     7.5800     8.3880    23.3090     2.1890   -26.4980 
   85.6250    62.5070     9.2320     7.5180     8.6760    23.4290     2.1850   -27.1010 
   85.7500    60.9980     9.2230     7.4550     8.8970    23.4270     2.1690   -27.5270 
   85.8750    60.2060     9.1970     7.4060     8.9290    23.2930     2.1490   -27.8230 
   86.0000    60.0480     9.1190     7.3650     8.7720    23.1340     2.1330   -27.9700 
   86.1250    60.8050     9.0040     7.3230     8.6510    23.0680     2.1330   -28.0620 
   86.2500    60.5310     8.9170     7.2810     8.5510    23.0690     2.1470   -28.1210 
   86.3750    59.1300     8.9110     7.2570     8.4480    23.0830     2.1690   -28.1720 
   86.5000    58.1900     8.9960     7.2710     8.3880    23.1080     2.1890   -28.2600 
   86.6250    59.2750     9.1460     7.3320     8.5040    23.1290     2.1910   -28.3940 
   86.7500    62.3460     9.2970     7.4100     8.7250    23.0910     2.1760   -28.5790 
   86.8750    66.3310     9.4010     7.4800     9.0760    22.9940     2.1540   -28.6650 
   87.0000    68.2990     9.4360     7.5220     9.3630    22.9020     2.1380   -28.6720 
   87.1250    66.1770     9.4150     7.5250     9.2900    22.8750     2.1390   -28.6310 
   87.2500    63.4670     9.4100     7.5090     9.0370    22.9340     2.1530   -28.5560 
   87.3750    62.0580     9.4670     7.4910     8.9730    23.0660     2.1680   -28.4890 
   87.5000    60.8550     9.5800     7.4770     9.0760    23.2250     2.1730   -28.3940 
   87.6250    60.2500     9.6740     7.4590     9.0750    23.2610     2.1630   -28.1840 
   87.7500    60.9640     9.6560     7.4250     9.0990    23.1760     2.1500   -27.8720 
   87.8750    62.5930     9.5010     7.3680     9.1130    23.0570     2.1440   -27.5600 
   88.0000    64.0460     9.2880     7.3010     9.0330    22.9830     2.1520   -27.3040 
   88.1250    65.6800     9.1730     7.2570     8.8640    23.0090     2.1720   -27.0480 
   88.2500    67.0120     9.2300     7.2590     8.7380    23.1940     2.1900   -26.8370 
   88.3750    66.0150     9.4230     7.3050     8.5890    23.4500     2.1960   -26.6170 
   88.5000    63.0020     9.6460     7.3670     8.5760    23.6150     2.1840   -26.4110 
   88.6250    61.3840     9.7610     7.4020     8.7080    23.6730     2.1600   -26.2630 
   88.7500    62.2680     9.7260     7.3900     8.8260    23.6780     2.1420   -26.1670 
   88.8750    64.6560     9.5820     7.3370     8.9100    23.6590     2.1400   -26.1190 
   89.0000    66.8920     9.4040     7.2650     8.9030    23.6540     2.1570   -26.0920 
   89.1250    67.2630     9.2560     7.1950     8.7500    23.7160     2.1830   -26.0950 
   89.2500    65.4240     9.1590     7.1250     8.3750    23.7920     2.2010   -26.1060 
   89.3750    62.5080     9.0970     7.0440     7.9750    23.8370     2.2060   -26.0870 
   89.5000    60.0500     9.0390     6.9460     7.9190    23.8500     2.1980   -26.0630 
   89.6250    59.1480     8.9430     6.8330     8.1860    23.7690     2.1810   -26.0080 
   89.7500    59.3680     8.8120     6.7250     8.3360    23.5580     2.1650   -25.8710 
   89.8750    60.0650     8.6490     6.6390     8.4430    23.3290     2.1550   -25.7180 
   90.0000    62.1860     8.4560     6.5820     8.5480    23.2450     2.1530   -25.5410 
   90.1250    64.4360     8.2490     6.5560     8.5520    23.2000     2.1590   -25.3080 
   90.2500    65.4760     8.0690     6.5610     8.4740    23.1440     2.1670   -25.0250 
   90.3750    65.3720     7.9760     6.5990     8.3940    23.1420     2.1690   -24.7030 
   90.5000    64.7820     8.0300     6.6710     8.2810    23.2260     2.1540   -24.3930 
   90.6250    64.3490     8.2600     6.7810     8.1970    23.2830     2.1140   -24.1010 
   90.7500    64.1630     8.5410     6.9030     8.1670    23.3040     2.0590   -23.8420 
   90.8750    64.6360     8.7310     6.9850     8.2390    23.3620     2.0080   -23.5520 
   91.0000    65.8920     8.7020     6.9610     8.2000    23.4690     1.9820   -23.1930 
   91.1250    67.5140     8.3580     6.7580     7.8380    23.4650     2.0010   -22.6910 
   91.2500    70.9280     7.8220     6.4230     7.4830    23.4950     2.0490   -22.0160 
   91.3750    75.0510     7.2410     6.0300     6.9000    23.7530     2.1040   -21.2050 
   91.5000    78.1790     6.7560     5.6700     6.0250    24.0940     2.1440   -20.2470 
   91.6250    81.5600     6.4890     5.4270     5.7700    24.2670     2.1550   -19.2050 
   91.7500    84.6820     6.4360     5.3020     5.6700    24.3310     2.1500   -18.1510 
   91.8750    85.6320     6.5650     5.2830     5.7390    24.3520     2.1440   -17.1150 
   92.0000    83.3300     6.8030     5.3480     5.9000    24.3380     2.1470   -16.2060 
   92.1250    80.4140     7.0290     5.4580     6.0970    24.2860     2.1610   -15.4790 
   92.2500    79.5680     7.1390     5.5510     6.1580    24.2310     2.1810   -14.9590 
   92.3750    79.6850     7.0850     5.5830     6.0150    24.1850     2.2040   -14.7080 
   92.5000    80.8320     6.8620     5.5200     6.2420    24.1560     2.2260   -14.5820 
   92.6250    84.1230     6.5370     5.3590     6.1940    24.1640     2.2460   -14.4810 
   92.7500    88.0930     6.2860     5.2000     5.7180    24.1800     2.2660   -14.3820 
   92.8750    89.4760     6.2510     5.1470     5.4340    24.2270     2.2910   -14.3140 
   93.0000    86.9270     6.5020     5.2830     5.4940    24.3050     2.3210   -14.2980 
   93.1250    81.8900     7.0400     5.6630     6.1420    24.3900     2.3490   -14.3970 
   93.2500    78.0220     7.6620     6.1760     7.7060    24.4010     2.3620   -14.5710 
   93.3750    75.6470     8.1560     6.6660     9.2410    24.2730     2.3510   -14.7570 
   93.5000    73.5510     8.3620     6.9630     8.6950    24.0240     2.3180   -15.0400 
   93.6250    72.2050     8.2320     6.9640     7.6450    23.7950     2.2750   -15.4420 
   93.7500    73.0690     7.9420     6.7910     7.1040    23.6980     2.2400   -15.8490 
   93.8750    75.3530     7.6050     6.5440     6.9970    23.6710     2.2210   -16.1950 
   94.0000    79.0320     7.2950     6.2860     7.0240    23.6620     2.2210   -16.3800 
   94.1250    85.3050     7.0410     6.0340     6.8960    23.6650     2.2350   -16.3430 
   94.2500    91.3520     6.8170     5.7810     6.5050    23.6890     2.2530   -16.1330 
   94.3750    94.4900     6.6280     5.5380     5.8930    23.7110     2.2680   -15.7930 
   94.5000    96.7910     6.4900     5.3360     5.4550    23.7060     2.2720   -15.4400 
   94.6250    99.6560     6.4210     5.2280     5.5270    23.6430     2.2620   -15.1530 
   94.7500    96.8690     6.4020     5.2060     5.8310    23.5180     2.2440   -14.9790 
   94.8750    88.8370     6.4180     5.2550     6.2170    23.3870     2.2230   -14.9440 
