~V
VERS. 2.00: Ver 2.00
~W
STRT.M 59.0000:
STOP.M 275.0000:
STEP.M 0.1250:
NULL. -999.2500:
UWI. F10021:
~C
DEPT.M :
GR.API :
RML.OHMM :
RI. :
RXO.OHMM :
CALI.CM :
DEN.GM/CC :
SP.MV :
~A
# ...
   70.2500    78.4720     5.9410     6.5160     5.2960    22.2210     2.2140   -17.3100 
   70.3750    88.0190     4.7840     5.0970     3.8650    22.2570     2.2310   -16.9250 
   70.5000    94.3060     4.2720     4.2760     3.5390    22.3090     2.2510   -16.6990 
   70.6250    93.6420     4.1710     3.9310     3.5930    22.3680     2.2750   -16.6340 
   70.7500    91.9490     4.1680     3.7890     3.6610    22.4110     2.2960   -16.6910 
   70.8750    91.2330     4.1220     3.7190     3.7170    22.4370     2.3090   -16.8440 
   71.0000    91.2750     4.0040     3.6580     3.7310    22.4570     2.3150   -17.0460 
   71.1250    90.3760     3.9630     3.6680     3.7670    22.4670     2.3140   -17.2890 
   71.2500    87.0920     4.2120     3.8740     3.9900    22.4750     2.3140   -17.5650 
   71.3750    82.9570     4.8920     4.3930     4.7730    22.4850     2.3200   -17.8640 
   71.5000    81.7400     5.9770     5.2410     6.9460    22.5000     2.3420   -18.1740 
   71.6250    81.2720     7.2070     6.2760    10.5850    22.5190     2.3900   -18.4900 
   71.7500    76.1450     8.1130     7.1340    14.6070    22.5380     2.4480   -18.8270 
   71.8750    68.6650     8.3450     7.5010    17.6370    22.5630     2.4960   -19.1950 
   72.0000    65.2470     7.8120     7.2260    16.0440    22.6110     2.5120   -19.6260 
   72.1250    67.9900     6.7730     6.4280    10.0060    22.6970     2.4850   -20.1230 
   72.2500    69.9950     5.8360     5.5990     6.0100    22.8010     2.4380   -20.6720 
   72.3750    71.0350     5.3180     5.0270     5.0420    22.8800     2.3910   -21.2750 
   72.5000    72.8430     5.2930     4.8200     5.1340    22.8950     2.3540   -21.9580 
   72.6250    73.9960     5.6910     4.9870     5.6010    22.8870     2.3280   -22.7300 
   72.7500    70.8710     6.2450     5.3520     6.2290    22.9880     2.3100   -23.5350 
   72.8750    63.2460     6.8120     5.8090     6.8810    23.3040     2.2970   -24.3440 
   73.0000    56.8800     7.3430     6.3000     7.4920    23.8370     2.2900   -25.1190 
   73.1250    57.2610     7.8960     6.8400     8.4690    24.4070     2.2900   -25.8080 
   73.2500    60.3360     8.5330     7.4510    10.5520    24.7000     2.2960   -26.3890 
   73.3750    61.4680     9.2240     8.1060    14.2520    24.5750     2.3060   -26.8530 
   73.5000    59.1540     9.8310     8.6950    19.0040    24.1390     2.3170   -27.1840 
   73.6250    57.0950    10.0840     8.9940    23.1080    23.6010     2.3170   -27.3800 
   73.7500    56.2990     9.8930     8.9070    23.6350    23.1650     2.3020   -27.4980 
   73.8750    56.0290     9.3090     8.4500    18.9700    22.8170     2.2760   -27.5560 
   74.0000    55.3370     8.5250     7.7680    12.4310    22.5360     2.2460   -27.5860 
   74.1250    54.7440     7.8190     7.0850     8.8880    22.3310     2.2250   -27.5890 
   74.2500    55.0790     7.3380     6.5560     7.6710    22.2190     2.2140   -27.5720 
   74.3750    54.2600     7.0870     6.2210     7.2180    22.1800     2.2080   -27.5370 
   74.5000    52.2290     6.9870     6.0510     6.9360    22.1830     2.2030   -27.5020 
   74.6250    51.4840     6.9440     5.9980     6.8400    22.2480     2.1980   -27.4350 
   74.7500    52.7240     6.8930     5.9920     6.9510    22.4130     2.1960   -27.3090 
   74.8750    54.3790     6.8390     6.0080     7.0460    22.7020     2.1980   -27.1350 
   75.0000    54.3040     6.8090     6.0420     6.9830    23.1080     2.2030   -26.8840 
   75.1250    54.2900     6.8320     6.1000     6.8540    23.5790     2.2060   -26.5900 
   75.2500    54.2840     6.8800     6.1620     6.8390    23.9920     2.2070   -26.2410 
   75.3750    54.9710     6.8940     6.1900     6.9520    24.2730     2.2080   -25.8410 
   75.5000    57.9740     6.8040     6.1300     7.0340    24.4040     2.2110   -25.3800 
   75.6250    61.4620     6.5340     5.9240     7.0010    24.4440     2.2220   -24.8180 
   75.7500    64.6730     6.1320     5.6040     6.7590    24.4540     2.2420   -24.2180 
   75.8750    68.4340     5.6810     5.2310     6.2580    24.4340     2.2710   -23.5790 
   76.0000    72.7420     5.2900     4.8830     5.5620    24.3690     2.3060   -22.9900 
   76.1250    75.9470     5.0830     4.6550     4.9640    24.2080     2.3410   -22.4950 
   76.2500    75.1410     5.0660     4.5640     4.7440    23.9180     2.3690   -22.1400 
   76.3750    71.8400     5.2180     4.6120     4.7910    23.4940     2.3810   -21.9290 
   76.5000    69.3630     5.4970     4.7780     5.0820    22.9980     2.3720   -21.8710 
   76.6250    69.2280     5.8680     5.0500     5.5240    22.5820     2.3380   -22.0570 
   76.7500    68.4090     6.2770     5.3800     5.9480    22.2810     2.2920   -22.4130 
   76.8750    65.4300     6.6860     5.7340     6.3270    22.0550     2.2500   -22.9180 
   77.0000    63.0970     7.0520     6.0740     6.6570    21.8860     2.2290   -23.5060 
   77.1250    61.5150     7.3090     6.3400     6.9320    21.8620     2.2390   -24.1360 
   77.2500    58.7780     7.4450     6.5020     7.1150    22.1000     2.2650   -24.7490 
   77.3750    57.2590     7.4720     6.5500     7.2670    22.5890     2.2880   -25.3180 
   77.5000    57.9160     7.4330     6.5080     7.4790    23.1590     2.2940   -25.8130 
   77.6250    57.7820     7.3880     6.4210     7.7010    23.6120     2.2770   -26.1790 
   77.7500    56.4700     7.3830     6.3450     7.8130    23.8220     2.2540   -26.4490 
   77.8750    57.2070     7.4290     6.3060     7.8270    23.8580     2.2340   -26.6630 
   78.0000    58.9250     7.5190     6.3090     7.8060    23.7820     2.2220   -26.7900 
   78.1250    59.1920     7.6310     6.3450     7.8320    23.6350     2.2180   -26.8430 
   78.2500    59.6030     7.7350     6.3940     7.9130    23.4900     2.2200   -26.8540 
   78.3750    60.9270     7.8120     6.4450     8.0230    23.4290     2.2270   -26.8660 
   78.5000    62.2590     7.8520     6.4920     8.0800    23.4740     2.2380   -26.8620 
   78.6250    62.6740     7.8530     6.5280     8.0180    23.5590     2.2490   -26.8640 
   78.7500    62.8980     7.8350     6.5500     7.9470    23.6200     2.2580   -26.8870 
   78.8750    62.6920     7.8110     6.5580     7.8790    23.6690     2.2610   -26.8930 
   79.0000    61.8380     7.7900     6.5510     7.7970    23.7160     2.2580   -26.9210 
   79.1250    59.9370     7.7710     6.5330     7.6980    23.7350     2.2490   -26.9100 
   79.2500    57.7090     7.7500     6.5100     7.6440    23.7070     2.2380   -26.8880 
   79.3750    56.6840     7.7300     6.4860     7.6220    23.6440     2.2290   -26.8210 
   79.5000    57.4370     7.7180     6.4650     7.6020    23.5840     2.2240   -26.7490 
   79.6250    58.8780     7.7290     6.4570     7.6030    23.5190     2.2240   -26.6530 
   79.7500    59.9980     7.7650     6.4710     7.6010    23.4090     2.2270   -26.5410 
   79.8750    60.5780     7.8240     6.5070     7.6240    23.2410     2.2320   -26.4290 
   80.0000    60.9110     7.8950     6.5620     7.7610    23.0410     2.2410   -26.3320 
   80.1250    61.1430     7.9610     6.6210     8.0550    22.8700     2.2500   -26.2700 
   80.2500    60.8120     8.0030     6.6630     8.3190    22.7910     2.2570   -26.2200 
   80.3750    59.8460     8.0120     6.6770     8.4740    22.7580     2.2630   -26.2110 
   80.5000    58.8970     7.9870     6.6580     8.5090    22.7020     2.2670   -26.2410 
   80.6250    58.5490     7.9350     6.6050     8.3160    22.6410     2.2710   -26.3430 
   80.7500    57.4410     7.8700     6.5300     8.0410    22.7180     2.2700   -26.4740 
   80.8750    56.4650     7.7950     6.4420     7.7550    22.9130     2.2610   -26.6210 
   81.0000    56.6740     7.7110     6.3500     7.4700    23.1600     2.2430   -26.7750 
   81.1250    56.5580     7.6210     6.2620     7.2080    23.3610     2.2220   -26.9360 
   81.2500    55.3750     7.5340     6.1850     7.0880    23.4760     2.2090   -27.1070 
   81.3750    53.5460     7.4610     6.1250     7.1410    23.5520     2.2090   -27.2680 
