~V
VERS. 2.00: Ver 2.00
~W
STRT.M 64.0000:
STOP.M 308.0000:
STEP.M 0.1250:
NULL. -999.2500:
UWI. F10040:
~C
DEPT.M :
GR.API :
RML.OHMM :
RI. :
RXO.OHMM :
CALI.CM :
DEN.GM/CC :
SP.MV :
~A
# ...
  255.2500    64.3270    36.9220    36.0640    71.4640    24.7820     2.3310    -4.0160 
  255.3750    60.4730    46.6540    46.0750   117.8190    24.7810     2.3170    -4.6230 
  255.5000    60.9720    57.7820    58.0790   110.6960    24.7320     2.3060    -5.1700 
  255.6250    63.7080    67.9630    69.8960    82.8320    24.6180     2.2980    -5.7130 
  255.7500    65.2550    76.0770    79.8260    77.0300    24.5350     2.2940    -6.2770 
  255.8750    66.1900    83.2340    88.2000    94.2390    24.5010     2.2920    -6.7690 
  256.0000    66.6880    91.3000    96.9970   113.8830    24.5240     2.2920    -7.2270 
  256.1250    65.4720   103.5160   109.4060   112.6070    24.6330     2.2910    -7.6840 
  256.2500    63.9360   124.6320   126.4760   107.6410    24.8470     2.2860    -8.0570 
  256.3750    63.2900   156.6060   148.3080   106.1630    24.9790     2.2740    -8.4150 
  256.5000    62.6080   192.8030   174.1610   107.3850    24.9160     2.2600    -8.8320 
  256.6250    59.8300   220.9810   202.7420   113.8090    24.7060     2.2490    -9.2240 
  256.7500    57.0220   240.3150   231.0440   130.8410    24.7810     2.2440    -9.5670 
  256.8750    56.1910   255.7780   256.0680   137.0660    24.9990     2.2440    -9.9380 
  257.0000    58.3250   270.1010   274.9790   133.5070    25.1450     2.2460   -10.3090 
  257.1250    61.8130   281.6310   285.0710   125.1690    25.1930     2.2440   -10.6060 
  257.2500    62.4980   288.8350   288.5230   121.8350    25.2370     2.2390   -10.9130 
  257.3750    60.1300   290.8640   287.4320   128.2320    25.3280     2.2340   -11.2240 
  257.5000    57.4580   289.6550   283.9570   141.7750    25.4470     2.2330   -11.4870 
  257.6250    56.6500   286.7210   279.7160   159.1480    25.6030     2.2350   -11.6650 
  257.7500    55.7320   282.8100   275.4050   178.0220    25.6320     2.2400   -11.8220 
  257.8750    55.4390   277.4590   270.3540   185.5900    25.4250     2.2450   -11.9520 
  258.0000    56.7330   270.4300   263.1920   183.3400    25.1650     2.2490   -12.0240 
  258.1250    58.8120   261.2760   252.3550   175.4470    25.0710     2.2510   -12.0380 
  258.2500    59.9960   248.2110   239.1880   165.0550    25.0430     2.2510   -12.0420 
  258.3750    59.1900   230.2090   226.1000   148.9140    24.9940     2.2510   -11.9920 
  258.5000    57.7340   215.6820   216.1170   131.9610    24.9380     2.2490   -11.8470 
  258.6250    58.3820   211.0740   213.1130   131.2270    24.8920     2.2490   -11.7130 
  258.7500    61.7150   216.5010   217.3960   142.1960    24.8660     2.2490   -11.5630 
  258.8750    64.5010   231.4070   228.2930   143.0670    24.8300     2.2520   -11.3130 
  259.0000    63.6580   255.7660   243.5320   133.7330    24.7450     2.2560   -11.0230 
  259.1250    60.2450   276.0590   259.2450   129.6120    24.5970     2.2580   -10.7850 
  259.2500    58.6310   289.5100   271.5100   132.3750    24.4720     2.2570   -10.4920 
  259.3750    59.4920   295.6760   278.4390   135.2640    24.4220     2.2520   -10.2360 
  259.5000    60.2810   296.2000   279.9750   141.1970    24.4790     2.2460   -10.1260 
  259.6250    59.0220   291.8200   276.7100   142.4500    24.6690     2.2430   -10.0810 
  259.7500    57.7600   284.3900   270.5300   147.0270    24.8580     2.2440   -10.0800 
  259.8750    58.9330   274.3260   261.9420   155.2880    24.9750     2.2500   -10.2250 
  260.0000    61.6900   261.9960   251.2740   161.5570    25.0140     2.2590   -10.4740 
  260.1250    63.9760   248.1070   238.9780   157.4040    25.0150     2.2670   -10.7250 
  260.2500    64.3750   234.3850   226.4870   135.3050    25.0130     2.2730   -11.0110 
  260.3750    63.3500   222.2630   215.1110   111.3040    25.0140     2.2770   -11.2320 
  260.5000    62.3460   212.7970   205.9940   116.2040    25.0190     2.2770   -11.2980 
  260.6250    60.3800   206.7590   200.1620   131.5360    25.0320     2.2750   -11.2690 
  260.7500    57.3140   203.0370   196.7960   145.7480    25.0420     2.2720   -11.2430 
  260.8750    54.7920   200.6730   195.0410   156.0480    25.0440     2.2690   -11.1390 
  261.0000    55.5680   198.7690   193.9480   162.3290    25.0380     2.2650   -10.9070 
  261.1250    59.3420   196.7390   192.7480   164.3280    25.0220     2.2600   -10.6860 
  261.2500    60.7600   194.6200   191.2890   158.2460    25.0000     2.2540   -10.4400 
  261.3750    60.1390   192.8190   189.9430   153.2940    24.9670     2.2490   -10.1620 
  261.5000    60.7440   191.8230   189.3120   157.3450    24.9490     2.2460    -9.9430 
  261.6250    63.9600   192.2410   189.8340   158.0810    24.9490     2.2460    -9.7530 
  261.7500    65.5630   194.4640   189.8840   156.3910    24.9640     2.2460    -9.4820 
  261.8750    64.5650   198.1770   187.9260   157.1630    24.9970     2.2450    -9.2010 
  262.0000    63.2610   199.8670   186.2470   157.8360    25.0250     2.2410    -8.9840 
  262.1250    63.3420   197.2160   184.2940   156.3120    25.0370     2.2380    -8.6990 
  262.2500    64.2610   190.6430   180.4150   152.0540    25.0240     2.2380    -8.3920 
  262.3750    65.5810   180.5060   172.9940   142.8380    24.9810     2.2440    -8.1310 
  262.5000    66.0910   166.3430   161.4610   132.4230    24.8530     2.2580    -7.8190 
  262.6250    66.2150   147.0520   144.5760   124.9780    24.7350     2.2770    -7.4600 
  262.7500    66.9560   124.3490   123.8390   111.7760    24.6470     2.2950    -7.1900 
  262.8750    67.8990   100.8760   101.6260    88.4300    24.5930     2.3090    -6.9380 
  263.0000    68.6250    79.9480    81.1700    59.5070    24.5780     2.3140    -6.6590 
  263.1250    70.5340    65.1520    66.1430    37.3890    24.5590     2.3120    -6.4880 
  263.2500    72.8500    56.5410    56.9570    35.0520    24.6160     2.3060    -6.3900 
  263.3750    72.9330    53.8040    53.4530    46.3890    24.8450     2.3010    -6.2700 
  263.5000    69.7270    56.1410    54.9190    60.8090    25.0120     2.2960    -6.2130 
  263.6250    65.6840    62.8270    60.7060    69.1090    25.1120     2.2900    -6.2470 
  263.7500    62.9980    71.3510    68.4030    75.3810    25.0130     2.2830    -6.2530 
  263.8750    62.1880    79.6610    76.0560    78.5770    24.7490     2.2750    -6.2450 
  264.0000    62.7560    85.9520    81.8970    75.8810    24.5790     2.2680    -6.2190 
  264.1250    63.1900    89.0980    84.6860    69.5780    24.5610     2.2630    -6.1290 
  264.2500    63.9120    90.4010    85.4850    67.9420    24.5630     2.2590    -5.9660 
  264.3750    65.8490    91.0840    85.3890    71.9270    24.5870     2.2560    -5.7710 
  264.5000    67.1730    91.9950    85.2410    79.7760    24.6600     2.2550    -5.5600 
  264.6250    65.2990    93.4820    85.4420    86.0210    24.6260     2.2550    -5.3070 
  264.7500    62.8910    95.2930    85.8620    90.8120    24.5770     2.2580    -5.0020 
  264.8750    64.4920    97.2560    86.3720    99.0140    24.6000     2.2620    -4.7060 
  265.0000    68.1380    99.4470    87.0530   103.2190    24.6780     2.2670    -4.4800 
  265.1250    67.1780   102.4750    88.4720   105.1940    24.7580     2.2740    -4.2510 
  265.2500    63.0340   106.9280    91.1980   107.3670    24.8100     2.2830    -4.1020 
  265.3750    59.6940   113.3300    95.7460   123.3530    24.8420     2.2890    -4.0530 
  265.5000    57.9760   121.8960   102.3280   144.6100    24.8700     2.2920    -3.9920 
  265.6250    56.1090   132.6360   110.9560   161.0500    24.9190     2.2870    -3.9180 
  265.7500    55.1520   144.3140   120.5070   171.0320    24.9830     2.2800    -3.9060 
  265.8750    56.2840   155.4230   129.7070   178.9040    25.0200     2.2810    -3.8800 
  266.0000    57.5700   163.7510   136.7750   181.6760    25.0670     2.3020    -3.7720 
  266.1250    56.4520   165.5410   138.7530   180.1560    25.1330     2.3530    -3.6790 
  266.2500    54.8260   160.0010   134.9240   166.1470    25.1180     2.4250    -3.5370 
  266.3750    56.0520   147.7040   125.5100   141.6440    24.9240     2.5000    -3.3040 
