~V
VERS. 2.00: Ver 2.00
~W
STRT.M 50.0000:
STOP.M 278.0000:
STEP.M 0.1250:
NULL. -999.2500:
UWI. F10031:
~C
DEPT.M :
GR.API :
RML.OHMM :
RI. :
RXO.OHMM :
CALI.CM :
DEN.GM/CC :
SP.MV :
~A
# ...
  173.7500    49.6920    26.8370    25.9990    31.0190    23.4690     2.6420    -8.7450 
  173.8750    51.0800    24.0300    23.4480    27.8010    23.3060     2.6250    -8.9070 
  174.0000    53.4550    21.1920    20.7920    21.7050    23.0700     2.5980    -9.1100 
  174.1250    55.1180    19.0280    18.6740    17.2230    23.0390     2.5680    -9.3810 
  174.2500    56.2710    17.7130    17.2780    15.8140    23.0550     2.5410    -9.7000 
  174.3750    57.9650    17.1920    16.5900    16.1140    23.0890     2.5240   -10.0420 
  174.5000    59.1710    17.2610    16.4730    17.1310    23.1290     2.5180   -10.4110 
  174.6250    57.9840    17.6860    16.7690    18.3270    23.1950     2.5200   -10.8000 
  174.7500    55.6710    18.1870    17.2130    19.0390    23.2650     2.5230   -11.1970 
  174.8750    54.3220    18.6600    17.6840    19.3210    23.3470     2.5220   -11.5790 
  175.0000    53.7690    19.0630    18.1150    19.6530    23.3980     2.5150   -11.9270 
  175.1250    53.1890    19.3450    18.4460    19.5160    23.4140     2.5010   -12.1860 
  175.2500    52.9660    19.5070    18.6630    20.1340    23.4130     2.4850   -12.3520 
  175.3750    53.2520    19.5870    18.7830    20.8980    23.4120     2.4750   -12.4210 
  175.5000    53.4590    19.7050    18.8910    21.2920    23.4080     2.4730   -12.3810 
  175.6250    53.6720    20.0660    19.1520    21.3410    23.4010     2.4830   -12.2120 
  175.7500    54.8800    20.6890    19.6080    21.8400    23.3850     2.5010   -11.9330 
  175.8750    56.1810    21.3990    20.1430    23.2490    23.3510     2.5210   -11.5620 
  176.0000    56.1270    21.8430    20.4770    25.3500    23.2750     2.5370   -11.1300 
  176.1250    54.7230    21.4970    20.1560    25.6840    23.1170     2.5430   -10.6660 
  176.2500    54.1270    20.3250    19.1110    22.8700    22.8240     2.5380   -10.2100 
  176.3750    54.7080    18.5540    17.5090    18.4560    22.4710     2.5210    -9.7820 
  176.5000    55.3120    16.6530    15.7450    14.9720    22.4240     2.5010    -9.4050 
  176.6250    55.4810    15.2280    14.3370    13.3960    22.8050     2.4860    -9.1070 
  176.7500    56.9800    14.4970    13.5000    13.2540    23.2610     2.4820    -8.8850 
  176.8750    59.3710    14.4420    13.2580    13.8870    23.5180     2.4870    -8.7500 
  177.0000    59.3620    14.8720    13.4960    14.8590    23.5840     2.4970    -8.6800 
  177.1250    55.3820    15.5200    14.0330    15.7040    23.6690     2.5030    -8.6540 
  177.2500    51.8480    16.0880    14.5810    16.3660    23.7820     2.5060    -8.6440 
  177.3750    50.4780    16.4320    14.9760    16.8160    23.8320     2.5060    -8.6410 
  177.5000    50.2770    16.5190    15.1400    17.0730    23.8390     2.5070    -8.6250 
  177.6250    50.4620    16.3870    15.0630    17.1210    23.8380     2.5100    -8.5870 
  177.7500    51.3510    16.1850    14.8720    16.8750    23.8370     2.5140    -8.5310 
  177.8750    51.7640    15.9970    14.6460    16.3200    23.8360     2.5170    -8.4350 
  178.0000    50.4160    15.8560    14.4280    15.7590    23.8330     2.5180    -8.3100 
  178.1250    48.1360    15.7310    14.2080    15.4760    23.8330     2.5190    -8.1870 
  178.2500    46.5140    15.5360    13.9370    15.4450    23.8320     2.5200    -8.0860 
  178.3750    46.6140    15.2120    13.5740    15.3850    23.8330     2.5200    -8.0090 
  178.5000    48.1800    14.7530    13.1190    15.0190    23.8350     2.5200    -7.9600 
  178.6250    49.7330    14.2380    12.6340    14.4660    23.8400     2.5160    -7.9400 
  178.7500    50.6060    13.8370    12.2440    13.8670    23.8550     2.5110    -7.9330 
  178.8750    50.7170    13.7070    12.0690    13.5330    23.8770     2.5040    -7.9470 
  179.0000    50.3670    13.9460    12.1940    13.6960    23.8870     2.4960    -7.9870 
  179.1250    51.5050    14.5700    12.6500    14.2730    23.8710     2.4870    -8.0170 
  179.2500    54.5850    15.2930    13.2290    15.1170    23.8260     2.4780    -8.0400 
  179.3750    58.0610    15.7950    13.6750    16.0210    23.7380     2.4720    -8.0750 
  179.5000    59.8080    15.7740    13.7030    16.5150    23.6110     2.4710    -8.0970 
  179.6250    61.3980    14.9050    13.0160    16.1310    23.4840     2.4730    -8.0960 
  179.7500    63.5730    13.4220    11.7870    14.3060    23.4930     2.4720    -8.0780 
  179.8750    64.4200    11.5990    10.2900    11.6960    23.5320     2.4680    -8.0480 
  180.0000    62.5310     9.8510     8.8510     9.1670    23.5120     2.4610    -8.0010 
  180.1250    57.4970     8.4020     7.7720     7.0750    23.4150     2.4580    -7.9600 
  180.2500    51.7280     7.4110     7.0860     6.4360    23.3160     2.4600    -7.9070 
  180.3750    46.7510     7.0220     6.7580     6.3230    23.2420     2.4670    -7.8280 
  180.5000    43.2090     7.0720     6.7070     6.3250    23.2180     2.4770    -7.7430 
  180.6250    39.9990     7.2760     6.8530     6.3680    23.2430     2.4870    -7.6600 
  180.7500    37.0010     7.4990     7.0610     6.6120    23.2980     2.4930    -7.5820 
  180.8750    35.3100     7.6730     7.2520     7.0350    23.3750     2.4920    -7.4990 
  181.0000    34.1690     7.7580     7.3690     7.4190    23.4460     2.4830    -7.4170 
  181.1250    32.3750     7.7230     7.3670     7.5630    23.4430     2.4660    -7.3570 
  181.2500    31.8280     7.5970     7.2640     7.4010    23.4000     2.4470    -7.3200 
  181.3750    35.3330     7.4100     7.0840     6.9750    23.3390     2.4290    -7.3050 
  181.5000    42.7290     7.2020     6.8640     6.5150    23.2320     2.4180    -7.3130 
  181.6250    50.5570     7.0170     6.6480     6.2150    23.0470     2.4200    -7.3340 
  181.7500    54.6090     6.8790     6.4670     6.0020    22.8730     2.4330    -7.3650 
  181.8750    53.2640     6.7940     6.3330     5.8710    22.8180     2.4530    -7.4030 
  182.0000    47.5610     6.7580     6.2500     5.8410    22.9290     2.4730    -7.4320 
  182.1250    41.8140     6.7600     6.2160     5.8580    23.1820     2.4820    -7.4290 
  182.2500    39.4410     6.7790     6.2120     5.8900    23.4680     2.4760    -7.3950 
  182.3750    39.7840     6.8070     6.2280     5.9540    23.7280     2.4570    -7.3310 
  182.5000    39.8190     6.8410     6.2550     6.0760    23.8640     2.4350    -7.2330 
  182.6250    38.8100     6.8830     6.2890     6.2940    23.9100     2.4170    -7.1300 
  182.7500    39.2310     6.9290     6.3220     6.5800    23.9640     2.4080    -7.0250 
  182.8750    42.0810     6.9730     6.3480     6.8220    24.0290     2.4020    -6.9280 
  183.0000    45.4800     7.0010     6.3580     6.8970    24.0700     2.3930    -6.8590 
  183.1250    46.1350     6.9920     6.3380     6.7730    24.0670     2.3770    -6.8210 
  183.2500    44.7920     6.9410     6.2840     6.5690    23.9910     2.3600    -6.8070 
  183.3750    43.8150     6.8420     6.1960     6.3640    23.8660     2.3520    -6.8210 
  183.5000    44.7750     6.7020     6.0770     6.0950    23.6910     2.3580    -6.8580 
  183.6250    46.0900     6.5370     5.9370     5.7630    23.5200     2.3780    -6.8910 
  183.7500    45.4410     6.3860     5.8020     5.4940    23.3560     2.3980    -6.9200 
  183.8750    42.9520     6.2820     5.6930     5.3570    23.3080     2.4100    -6.9540 
  184.0000    40.4520     6.2470     5.6290     5.3550    23.3690     2.4100    -6.9960 
  184.1250    39.6570     6.2970     5.6300     5.4520    23.4120     2.4020    -7.0380 
  184.2500    40.4280     6.3990     5.6800     5.6150    23.4940     2.3960    -7.0870 
  184.3750    42.4060     6.5240     5.7650     5.8280    23.7390     2.3940    -7.1340 
  184.5000    44.6250     6.6430     5.8630     6.0360    24.1240     2.3950    -7.1950 
  184.6250    45.3680     6.7420     5.9570     6.2310    24.4060     2.3950    -7.2670 
  184.7500    43.6150     6.8250     6.0410     6.3380    24.4810     2.3960    -7.3450 
  184.8750    40.3150     6.9020     6.1180     6.3440    24.5170     2.4000    -7.4160 
