~V
VERS. 2.00: Ver 2.00
~W
STRT.M 56.0000:
STOP.M 269.0000:
STEP.M 0.1250:
NULL. -999.2500:
UWI. F10026:
~C
DEPT.M :
GR.API :
RML.OHMM :
RI. :
RXO.OHMM :
CALI.CM :
DEN.GM/CC :
SP.MV :
~A
# ...
  134.7500    68.5200     8.3000     8.0130     9.4110    24.5760     2.1650   -36.1470 
  134.8750    66.3260     8.3540     8.0140     9.6250    24.7260     2.1510   -36.2730 
  135.0000    65.1130     8.5570     8.1090     9.7950    24.7830     2.1420   -36.3430 
  135.1250    63.6030     8.8200     8.2460     9.9250    24.8590     2.1400   -36.3880 
  135.2500    62.8270     9.0620     8.3720     9.9620    25.0370     2.1400   -36.4170 
  135.3750    63.6000     9.2520     8.4700     9.9740    25.1980     2.1390   -36.4190 
  135.5000    63.6260     9.3850     8.5380     9.9660    25.2290     2.1360   -36.3870 
  135.6250    61.6050     9.4560     8.5770     9.9180    25.0160     2.1320   -36.3140 
  135.7500    62.0890     9.4810     8.6020    10.0840    24.7620     2.1310   -36.2040 
  135.8750    66.2230     9.4800     8.6280    10.4760    24.5650     2.1360   -36.0350 
  136.0000    70.0980     9.4860     8.6740    10.9320    24.4120     2.1440   -35.8080 
  136.1250    68.5690     9.5420     8.7570    11.0320    24.3230     2.1500   -35.4910 
  136.2500    63.5650     9.6450     8.8680    10.9150    24.2890     2.1530   -35.1130 
  136.3750    59.3130     9.7670     8.9920    10.8290    24.2850     2.1520   -34.6890 
  136.5000    58.6010     9.8780     9.1180    10.8260    24.2920     2.1470   -34.2160 
  136.6250    60.5110     9.9680     9.2540    10.9390    24.3010     2.1410   -33.6950 
  136.7500    60.6720    10.0680     9.4180    10.8750    24.3210     2.1350   -33.1150 
  136.8750    58.4590    10.2010     9.6090    10.8160    24.3540     2.1320   -32.4810 
  137.0000    57.1130    10.3360     9.7840    10.8280    24.3870     2.1350   -31.7820 
  137.1250    59.2960    10.3330     9.8090    10.9040    24.3780     2.1470   -31.0290 
  137.2500    63.0530    10.0570     9.5750    10.9020    24.2870     2.1650   -30.2390 
  137.3750    68.2810     9.4450     9.0350    10.7610    24.1120     2.1910   -29.4480 
  137.5000    76.8380     8.5660     8.2510    10.0360    23.9790     2.2230   -28.7130 
  137.6250    87.4170     7.6290     7.4010     7.8420    23.9480     2.2650   -28.0510 
  137.7500    94.8280     6.8830     6.7010     6.5310    23.9680     2.3140   -27.4900 
  137.8750    96.7110     6.4620     6.2730     6.1730    23.9820     2.3680   -27.0430 
  138.0000    93.9000     6.3950     6.1550     6.4640    23.9920     2.4150   -26.7250 
  138.1250    90.4250     6.6410     6.3310     7.2640    23.9950     2.4400   -26.5520 
  138.2500    89.7940     6.9890     6.6220     7.9780    23.9680     2.4380   -26.4900 
  138.3750    89.1790     7.2730     6.8900     8.2270    23.9030     2.4120   -26.5100 
  138.5000    85.1690     7.3940     7.0330     8.1730    23.8000     2.3720   -26.5490 
  138.6250    82.1040     7.3570     7.0050     7.2860    23.7250     2.3330   -26.5930 
  138.7500    82.6730     7.2860     6.9020     6.9830    23.7010     2.3090   -26.6250 
  138.8750    84.4540     7.2000     6.8070     6.9560    23.7690     2.3110   -26.6350 
  139.0000    85.5840     7.1620     6.7820     6.9430    23.8840     2.3370   -26.6230 
  139.1250    87.7290     7.2190     6.8480     6.9720    24.0070     2.3760   -26.5820 
  139.2500    89.6730     7.3030     6.9470     7.2570    24.1050     2.4040   -26.5170 
  139.3750    89.8250     7.3550     7.0140     7.5190    24.2300     2.4090   -26.4240 
  139.5000    90.0960     7.3590     6.9900     7.3800    24.3530     2.3920   -26.3370 
  139.6250    93.4870     7.2930     6.8370     7.3670    24.4020     2.3660   -26.2640 
  139.7500    98.9670     7.1650     6.6030     7.0890    24.4050     2.3450   -26.2160 
  139.8750   105.2840     7.0210     6.3480     6.7630    24.3890     2.3360   -26.1990 
  140.0000   108.7720     6.9050     6.1460     6.4270    24.3570     2.3370   -26.2100 
  140.1250   104.3890     6.8650     6.0840     6.3640    24.3090     2.3450   -26.2610 
  140.2500    96.6810     6.9800     6.1680     6.4390    24.2860     2.3550   -26.3420 
  140.3750    90.6810     7.2610     6.3740     6.8790    24.2770     2.3630   -26.4410 
  140.5000    89.8870     7.6260     6.6390     7.8650    24.2700     2.3640   -26.5220 
  140.6250    92.7500     7.9250     6.8640     8.7780    24.2730     2.3540   -26.5790 
  140.7500    94.3390     8.0740     6.9900     8.5420    24.2790     2.3410   -26.6080 
  140.8750    92.8790     8.0750     7.0220     7.7500    24.2780     2.3320   -26.6190 
  141.0000    90.1720     7.9950     7.0070     7.6550    24.2680     2.3340   -26.6210 
  141.1250    88.9000     7.9410     7.0070     7.7640    24.2170     2.3420   -26.6030 
  141.2500    87.6200     7.9910     7.0580     8.0870    24.1220     2.3440   -26.5730 
  141.3750    86.1240     8.1800     7.1730     8.8370    23.9610     2.3360   -26.5470 
  141.5000    85.8790     8.4890     7.3510     8.6490    23.7910     2.3180   -26.5430 
  141.6250    86.8090     8.8430     7.5830     8.7210    23.5020     2.3000   -26.5740 
  141.7500    86.9660     9.1500     7.8460     9.1300    23.3590     2.2900   -26.5920 
  141.8750    86.6860     9.4180     8.1640    10.8720    23.2840     2.2890   -26.5740 
  142.0000    86.6780     9.7800     8.6180    12.8190    23.1720     2.2980   -26.5140 
  142.1250    84.4590    10.6040     9.4370    11.6000    22.9170     2.3270   -26.3950 
  142.2500    78.1360    12.1630    10.8060    10.1970    22.6740     2.3810   -26.2490 
  142.3750    69.1900    14.6290    12.9120    12.3380    22.6370     2.4560   -26.0700 
  142.5000    61.9240    17.8630    15.7740    20.7900    22.7960     2.5340   -25.8740 
  142.6250    59.6770    21.1320    18.9570    29.0240    22.8350     2.5790   -25.6570 
  142.7500    60.3550    23.2660    21.3830    29.5430    22.6050     2.5720   -25.4380 
  142.8750    61.9990    23.4870    22.1760    25.2180    22.2080     2.5110   -25.2370 
  143.0000    64.0980    21.8560    21.1750    21.3850    21.9550     2.4150   -25.0390 
  143.1250    67.6270    19.2800    19.0540    18.8210    21.8890     2.3150   -24.8360 
  143.2500    71.9710    17.0640    17.0290    16.0060    21.8350     2.2370   -24.6060 
  143.3750    76.3380    15.7670    15.6510    14.7870    21.7510     2.1900   -24.3620 
  143.5000    78.2140    15.5040    15.0890    14.8740    21.6920     2.1740   -24.0940 
  143.6250    73.6240    16.2030    15.3960    16.5820    21.7910     2.1780   -23.7860 
  143.7500    67.7610    17.3430    16.2260    17.9040    22.0460     2.1840   -23.4530 
  143.8750    66.6430    18.5380    17.2970    18.6520    22.4220     2.1850   -23.1030 
  144.0000    69.9280    19.4660    18.3140    19.1790    22.8180     2.1760   -22.7580 
  144.1250    69.8810    19.9320    19.0270    19.5000    23.1300     2.1590   -22.4380 
  144.2500    65.9180    20.1460    19.5040    18.7070    23.2190     2.1440   -22.1640 
  144.3750    62.4490    20.3680    19.9170    18.1320    23.3000     2.1350   -21.9210 
  144.5000    61.3110    20.8100    20.4410    18.8380    23.5720     2.1340   -21.6970 
  144.6250    61.5660    21.5480    21.1570    21.7160    23.9750     2.1360   -21.5360 
  144.7500    63.1740    22.3630    21.9220    24.3530    24.2360     2.1380   -21.4240 
  144.8750    64.6020    23.0310    22.5680    25.9340    24.3290     2.1390   -21.3490 
  145.0000    63.5100    23.4010    22.9710    26.1060    24.3670     2.1400   -21.2860 
  145.1250    61.8440    23.4390    23.0790    25.2320    24.3540     2.1440   -21.2330 
  145.2500    62.1740    23.3580    23.0480    23.5440    24.3090     2.1490   -21.1730 
  145.3750    63.2380    23.3130    22.9940    23.8910    24.2890     2.1560   -21.1130 
  145.5000    62.4580    23.3780    22.9860    25.4660    24.3020     2.1640   -21.0530 
  145.6250    61.2170    23.5260    23.0340    26.2470    24.3150     2.1730   -20.9610 
  145.7500    61.6680    23.6630    23.1070    25.0190    24.2980     2.1790   -20.8660 
  145.8750    62.8070    23.7740    23.2240    23.9830    24.2720     2.1730   -20.7710 
