~V
VERS. 2.00: Ver 2.00
~W
STRT.M 50.0000:
STOP.M 244.0000:
STEP.M 0.1250:
NULL. -999.2500:
UWI. F10003:
~C
DEPT.M :
GR.API :
RML.OHMM :
RI. :
RXO.OHMM :
CALI.CM :
DEN.GM/CC :
SP.MV :
~A
# ...
   83.7500    61.2160    18.6260    16.7720    16.5770    24.9400     2.2020   -13.3110 
   83.8750    58.2670    18.6270    16.8110    15.7360    24.9390     2.2070   -13.2740 
   84.0000    55.8860    18.6630    16.8200    15.0310    24.9390     2.2120   -13.3130 
   84.1250    57.3010    18.5420    16.7020    15.3700    25.0140     2.2100   -13.3580 
   84.2500    60.7190    17.9460    16.2390    16.1850    25.0890     2.2010   -13.4400 
   84.3750    63.4890    16.6620    15.2470    16.6270    25.1620     2.1900   -13.5850 
   84.5000    65.9680    14.7240    13.7080    15.7860    25.1690     2.1870   -13.8290 
   84.6250    69.8040    12.4560    11.8230    13.3070    25.1330     2.2040   -14.1560 
   84.7500    70.7580    10.3830    10.0230    10.6570    24.9360     2.2420   -14.4870 
   84.8750    69.5350     8.7870     8.5640     8.9860    24.7170     2.2930   -14.7490 
   85.0000    71.6400     7.7430     7.5440     8.3750    24.6160     2.3420   -14.9560 
   85.1250    77.4170     7.2430     6.9990     8.0590    24.6850     2.3700   -15.1950 
   85.2500    79.6520     7.0610     6.7630     7.6260    24.7800     2.3760   -15.4120 
   85.3750    77.5690     7.0710     6.7340     7.3430    24.8110     2.3710   -15.5610 
   85.5000    77.0120     7.1600     6.8080     7.0630    24.8060     2.3640   -15.6240 
   85.6250    79.0590     7.2220     6.8750     6.7480    24.8010     2.3610   -15.5670 
   85.7500    79.7780     7.1690     6.8410     6.5780    24.8030     2.3620   -15.4550 
   85.8750    79.7700     6.9420     6.6430     6.5720    24.7980     2.3640   -15.3430 
   86.0000    80.0450     6.5220     6.2590     6.3080    24.7700     2.3680   -15.2130 
   86.1250    79.3350     5.9400     5.7130     5.6740    24.7720     2.3740   -15.0350 
   86.2500    78.6460     5.3410     5.1340     5.1040    24.7810     2.3810   -14.8360 
   86.3750    79.0020     4.8710     4.6410     4.8200    24.7750     2.3860   -14.6370 
   86.5000    79.1940     4.6840     4.3550     4.7710    24.7530     2.3910   -14.4540 
   86.6250    79.1120     5.0080     4.4580     5.1310    24.7550     2.3930   -14.2850 
   86.7500    79.9940     5.8520     4.9840     6.2970    24.7760     2.3930   -14.0950 
   86.8750    79.0560     7.1910     5.9610     8.3770    24.8100     2.3880   -13.9010 
   87.0000    72.9540     8.8830     7.3380    11.1530    24.8350     2.3760   -13.7250 
   87.1250    65.5850    10.6530     8.9630    13.8850    24.8870     2.3520   -13.5030 
   87.2500    62.4830    12.1750    10.5260    15.0740    24.9330     2.3220   -13.2420 
   87.3750    62.0170    13.2820    11.7990    14.0410    24.9770     2.2900   -12.9850 
   87.5000    60.9820    13.9750    12.6750    12.8310    24.9910     2.2590   -12.7150 
   87.6250    58.4300    14.3560    13.1460    12.6970    24.9970     2.2340   -12.4570 
   87.7500    55.8990    14.6060    13.3890    13.0640    25.0380     2.2150   -12.2320 
   87.8750    55.7020    14.7540    13.4710    13.5360    25.0590     2.2060   -12.0250 
   88.0000    59.6270    14.7590    13.4020    13.7320    25.0140     2.2090   -11.8220 
   88.1250    65.2660    14.5750    13.1790    13.5920    24.9490     2.2240   -11.6410 
   88.2500    67.3770    14.3310    12.9140    13.3150    25.0060     2.2440   -11.4940 
   88.3750    65.6290    14.2250    12.7620    13.2120    25.1740     2.2610   -11.3420 
   88.5000    63.2540    14.5110    12.9230    13.4890    25.3580     2.2700   -11.1660 
   88.6250    61.2780    15.5680    13.7130    14.3550    25.4410     2.2650   -10.9350 
   88.7500    58.7970    17.4210    15.1930    15.9950    25.4860     2.2460   -10.6770 
   88.8750    57.2930    19.9440    17.3150    18.5130    25.5080     2.2160   -10.3950 
   89.0000    56.7750    22.6880    19.7650    21.6890    25.5030     2.1830   -10.1440 
   89.1250    56.2230    24.6540    21.7460    24.2830    25.4800     2.1590   -10.0020 
   89.2500    54.8300    25.0060    22.4420    25.1970    25.4570     2.1480    -9.9420 
   89.3750    53.9040    23.3170    21.3490    24.4650    25.4370     2.1510    -9.9600 
   89.5000    55.2560    19.8630    18.5890    22.2280    25.3890     2.1650   -10.0870 
   89.6250    60.8840    15.6110    14.9530    17.8840    25.1900     2.1910   -10.3470 
   89.7500    69.5760    11.8600    11.6290    12.7520    24.7960     2.2280   -10.6840 
   89.8750    78.3890     9.2220     9.1560     8.9080    24.3620     2.2710   -11.0620 
   90.0000    84.1400     7.8810     7.6990     7.2800    24.1060     2.3130   -11.4090 
   90.1250    84.2970     7.9290     7.3780     7.2230    24.1250     2.3370   -11.6460 
   90.2500    80.7900     8.8930     7.8910     7.9490    24.3740     2.3350   -11.7920 
   90.3750    76.2520    10.3850     9.0070     9.2890    24.7310     2.3110   -11.8650 
   90.5000    71.6870    11.8930    10.3640    11.1260    25.0730     2.2760   -11.8700 
   90.6250    66.9490    12.7350    11.3880    12.6020    25.2460     2.2460   -11.8100 
   90.7500    63.5110    12.6810    11.7050    12.8890    25.3360     2.2300   -11.6950 
   90.8750    62.1870    11.8370    11.2560    12.2250    25.3070     2.2320   -11.5440 
   91.0000    63.3950    10.5940    10.2990    10.8790    25.1240     2.2480   -11.3980 
   91.1250    65.9430     9.4550     9.2560     9.2430    24.9100     2.2710   -11.2970 
   91.2500    67.6140     8.7110     8.4520     8.7140    24.6880     2.2890   -11.1830 
   91.3750    68.8710     8.4690     8.0180     9.1340    24.5140     2.2970   -10.9870 
   91.5000    72.5890     8.7940     8.0260     9.7690    24.4370     2.2970   -10.6810 
   91.6250    77.0360     9.9080     8.6570    10.8760    24.5440     2.2970   -10.2120 
   91.7500    77.3700    11.8060     9.9350    13.0600    24.7660     2.3070    -9.6240 
   91.8750    73.4780    14.4890    11.9390    16.6360    25.0260     2.3240    -8.9630 
   92.0000    68.5930    17.7890    14.6480    21.0180    25.2550     2.3390    -8.2740 
   92.1250    65.3390    21.2800    17.8870    25.1840    25.4180     2.3320    -7.5520 
   92.2500    62.8150    24.3320    21.0920    28.0790    25.5240     2.3020    -6.8510 
   92.3750    60.7280    26.5020    23.7560    30.1560    25.4430     2.2580    -6.2230 
   92.5000    58.4710    27.6310    25.5240    31.1590    25.1740     2.2170    -5.7080 
   92.6250    55.9520    27.7940    26.2020    31.2300    24.8910     2.1940    -5.3690 
   92.7500    53.6510    27.4770    26.1610    30.5550    24.9900     2.1860    -5.1970 
   92.8750    51.5510    26.7890    25.5430    29.8460    25.1750     2.1860    -5.2410 
   93.0000    51.1910    25.5840    24.3200    29.1430    25.2450     2.1830    -5.4740 
   93.1250    53.9280    23.4790    22.2630    27.6080    25.2530     2.1750    -5.9030 
   93.2500    57.3530    20.5990    19.5560    25.0960    25.2830     2.1670    -6.4700 
   93.3750    61.1680    17.2910    16.5110    21.2510    25.2690     2.1690    -7.1660 
   93.5000    65.6800    14.1100    13.5870    16.0820    25.1490     2.1860    -7.9250 
   93.6250    70.8970    11.6970    11.3020    11.8010    25.0410     2.2170    -8.6980 
   93.7500    77.0250    10.1170     9.7120     9.8000    24.9770     2.2540    -9.4340 
   93.8750    81.1010     9.2270     8.7280     9.0940    24.9220     2.2850   -10.0290 
   94.0000    81.5250     8.7670     8.1740     8.9720    24.8960     2.3040   -10.4920 
   94.1250    82.2330     8.4950     7.8870     8.9020    24.9130     2.3090   -10.8330 
   94.2500    84.3460     8.2460     7.6880     8.6640    24.9160     2.3100   -11.0520 
   94.3750    86.1080     8.0360     7.5490     7.9300    24.8890     2.3130   -11.1390 
   94.5000    86.2030     7.9590     7.5080     7.4180    24.8600     2.3180   -11.1240 
   94.6250    85.0150     8.1210     7.6440     7.6690    24.8350     2.3230   -11.0380 
   94.7500    83.3740     8.4470     7.9230     8.4750    24.8210     2.3220   -10.9610 
   94.8750    82.1830     8.8180     8.2650     9.3740    24.8420     2.3120   -10.9620 
