~V
VERS. 2.00: Ver 2.00
~W
STRT.M 56.0000:
STOP.M 235.0000:
STEP.M 0.1250:
NULL. -999.2500:
UWI. F10014:
~C
DEPT.M :
GR.API :
RML.OHMM :
RI. :
RXO.OHMM :
CALI.CM :
DEN.GM/CC :
SP.MV :
~A
# ...
  224.7500    78.0190     7.5420     6.7630     7.5500    24.6970     2.2780   -18.1470 
  224.8750    77.4560     7.7800     7.0330     8.3250    24.6720     2.2910   -18.9200 
  225.0000    77.4560     8.0260     7.3170     9.1620    24.6440     2.3090   -19.7680 
  225.1250    77.4560     8.2630     7.5960     9.9140    24.6820     2.3190   -20.7130 
  225.2500    77.4560     8.4940     7.8670     9.5410    24.8030     2.3140   -21.7860 
  225.3750    77.4560     8.7350     8.1390     9.6310    24.9300     2.2980   -22.9180 
  225.5000    77.4560     9.0050     8.4260    10.5230    24.9530     2.2800   -24.0420 
  225.6250    77.4560     9.3120     8.7320    11.6910    24.8810     2.2700   -25.0220 
  225.7500    77.4560     9.6170     9.0240    11.3560    24.8020     2.2690   -25.7900 
  225.8750    77.4560     9.8650     9.2510    11.4390    24.7190     2.2720   -26.4170 
  226.0000    77.4560     9.9900     9.3460    11.6190    24.6390     2.2760   -26.8350 
  226.1250    77.4560     9.8990     9.2210    11.8520    24.6940     2.2780   -26.9030 
  226.2500    77.4560     9.6190     8.9090    11.2030    24.7480     2.2780   -26.6100 
  226.3750    77.4560     9.2010     8.4650    10.3110    24.8190     2.2770   -25.9990 
  226.5000    77.4560     8.7290     7.9700     8.8460    24.8610     2.2780   -25.2110 
  226.6250    77.4560     8.3130     7.5290     8.3140    24.8830     2.2820   -24.3880 
  226.7500    77.4560     8.0400     7.2190     8.0190    24.9030     2.2890   -23.6760 
  226.8750    77.4560     7.9570     7.0860     8.0450    24.9250     2.2960   -23.1760 
  227.0000    77.4560     8.0750     7.1510     8.6330    24.9300     2.3020   -23.0090 
  227.1250    77.4560     8.3980     7.4360     9.6800    24.9090     2.3070   -23.1370 
  227.2500    77.4560     8.8700     7.8880    10.9240    24.8640     2.3160   -23.4430 
  227.3750    77.4560     9.4800     8.4890    11.3110    24.8060     2.3320   -23.9280 
  227.5000    77.4560    10.2030     9.2110    10.8830    24.7490     2.3570   -24.5190 
  227.6250    77.4560    10.9510     9.9710    11.6070    24.7190     2.3840   -25.1700 
  227.7500    77.4560    11.5570    10.6130    14.5880    24.7060     2.4030   -25.7560 
  227.8750    77.4560    11.8530    10.9700    16.9730    24.7320     2.4090   -26.1420 
  228.0000    77.4560    11.7220    10.9200    15.3140    24.7610     2.4000   -26.3410 
  228.1250    77.4560    11.1430    10.4260    12.6080    24.7650     2.3780   -26.4860 
  228.2500    77.4560    10.3900     9.7380    10.8010    24.7880     2.3530   -26.6470 
  228.3750    77.4560     9.6750     9.0480     9.5930    24.8240     2.3320   -26.7960 
  228.5000    77.4560     9.1460     8.4950     9.3750    24.8280     2.3180   -26.8630 
  228.6250    77.4560     8.8900     8.1690     9.6160    24.8140     2.3160   -26.8710 
  228.7500    77.4560     8.8150     8.0160    10.3700    24.8010     2.3210   -26.9280 
  228.8750    77.4560     8.8470     7.9880    10.5470    24.7920     2.3300   -27.1380 
  229.0000    77.4560     8.9570     8.0570     9.5400    24.8060     2.3350   -27.4930 
  229.1250    77.4560     9.1930     8.2580     9.3810    24.7800     2.3320   -28.0420 
  229.2500    77.4560     9.5750     8.6020    10.2920    24.7670     2.3220   -28.6880 
  229.3750    77.4560    10.0740     9.0760    12.4380    24.7320     2.3130   -29.3460 
  229.5000    77.4560    10.5840     9.5970    14.0930    24.6840     2.3080   -29.9960 
  229.6250    77.4560    10.9080     9.9930    13.3980    24.6570     2.3060   -30.5060 
  229.7500    77.4560    10.9780    10.1670    11.9590    24.6670     2.3030   -30.8480 
  229.8750    77.4560    10.8380    10.1300    10.6400    24.6700     2.2970   -30.9560 
  230.0000    77.4560    10.6100     9.9820     9.7920    24.6610     2.2890   -30.9330 
  230.1250    77.4560    10.4250     9.8430     9.8020    24.6360     2.2850   -30.7550 
  230.2500    77.4560    10.3210     9.7680    10.3100    24.6310     2.2860   -30.4330 
  230.3750    77.4560    10.2760     9.7430    10.4280    24.5970     2.2910   -30.0180 
  230.5000    77.4560    10.2570     9.7400     9.5600    24.5870     2.2970   -29.5760 
  230.6250    77.4560    10.2510     9.7400     8.5140    24.5830     2.3030   -29.2750 
  230.7500    77.4560    10.2500     9.7390     7.9700    24.5880     2.3100   -29.1530 
  230.8750    77.4560    10.2500     9.7390     7.7090    24.5760     2.3190   -29.2190 
  231.0000    77.4560    10.2500     9.7390     7.5250    24.5810     2.3300   -29.2810 
  231.1250    77.4560    10.2500     9.7390     8.0640    24.6260     2.3380   -29.1580 
  231.2500    77.4560    10.2500     9.7390     8.8300    24.7000     2.3400   -28.8700 
  231.3750    77.4560    10.2500     9.7390     9.2540    24.7890     2.3370   -28.5300 
  231.5000    77.4560    10.2500     9.7390     8.9630    24.8440     2.3270   -28.2310 
  231.6250    77.4560    10.2500     9.7390     9.7000    24.8450     2.3150   -27.9160 
  231.7500    77.4560    10.2500     9.7390    10.2260    24.8900     2.3050   -27.5300 
  231.8750    77.4560    10.2500     9.7390     9.9160    24.9400     2.3000   -27.0840 
  232.0000    77.4560    10.2500     9.7390     9.5900    25.0190     2.3010   -26.6360 
  232.1250    77.4560    10.2500     9.7390     9.4190    25.0560     2.3090   -26.2750 
  232.2500    77.4560    10.2500     9.7390     9.0600    25.0500     2.3170   -26.0880 
  232.3750    77.4560    10.2500     9.7390     8.9170    25.0170     2.3200   -26.0330 
  232.5000    77.4560    10.2500     9.7390     9.1620    24.9960     2.3190   -26.0290 
  232.6250    77.4560    10.2500     9.7390     9.6380    24.9960     2.3150   -26.0410 
  232.7500    77.4560    10.2500     9.7390    10.3050    25.0030     2.3130   -26.0680 
  232.8750    77.4560    10.2500     9.7390    11.1950    24.9820     2.3150   -26.0700 
  233.0000    77.4560    10.2500     9.7390    11.7200    24.9250     2.3160   -26.0630 
  233.1250    77.4560    10.2500     9.7390    11.1120    24.8780     2.3120   -26.1020 
  233.2500    77.4560    10.2500     9.7390     9.7950    24.8910     2.3040   -26.1360 
  233.3750    77.4560    10.2500     9.7390     8.5030    24.9400     2.3010   -26.1360 
  233.5000    77.4560    10.2500     9.7390     7.7190    24.9270     2.3090   -26.1360 
  233.6250    77.4560    10.2500     9.7390     7.2980    24.8680     2.3290  -999.2500 
  233.7500    77.4560    10.2500     9.7390     7.5530    24.8260     2.3420  -999.2500 
  233.8750    77.4560    10.2500     9.7390     7.8680    24.8170     2.3300  -999.2500 
  234.0000    77.4560    10.2500     9.7390     8.0040    24.8200     2.2780  -999.2500 
  234.1250    77.4560    10.2500     9.7390     8.4380    24.8730     2.1830  -999.2500 
  234.2500    77.4560    10.2500     9.7390     9.1160    24.8710     2.0720  -999.2500 
  234.3750    77.4560    10.2500     9.7390     9.0960    24.7800     1.9660  -999.2500 
  234.5000    77.4560    10.2500     9.7390     8.2000    24.6880     1.8810  -999.2500 
  234.6250    77.4560    10.2500     9.7390     8.2560    23.9170     1.8270  -999.2500 
  234.7500    77.4560    10.2500     9.7390     8.8070    21.7710     1.7930  -999.2500 
  234.8750    77.4560    10.2500     9.7390     9.1260    18.8220     1.7730  -999.2500 
  235.0000    77.4560    10.2500     9.7390     9.1250    17.0850     1.7600  -999.2500 
