~V
VERS. 2.00: Ver 2.00
~W
STRT.M 50.0000:
STOP.M 207.0000:
STEP.M 0.1250:
NULL. -999.2500:
UWI. F10009:
~C
DEPT.M :
GR.API :
RML.OHMM :
RI. :
RXO.OHMM :
CALI.CM :
DEN.GM/CC :
SP.MV :
~A
# ...
  128.7500    55.7370    24.7640    23.7920    27.0790    23.7970     2.4600    -8.4160 
  128.8750    54.3070    24.8980    23.8920    27.3890    23.9210     2.4560    -8.3760 
  129.0000    51.7550    25.0160    23.9460    27.2080    24.0160     2.4610    -8.3560 
  129.1250    49.7040    25.0410    23.9100    26.9800    24.0400     2.4740    -8.3350 
  129.2500    49.0730    24.9800    23.8040    27.2070    24.0260     2.4900    -8.3080 
  129.3750    49.6730    24.8910    23.6700    27.3380    23.9890     2.5080    -8.2730 
  129.5000    49.9210    24.8750    23.5780    26.8370    23.9320     2.5260    -8.2300 
  129.6250    49.6200    25.0970    23.6460    26.1350    23.8560     2.5390    -8.1880 
  129.7500    49.5620    25.6220    23.9390    26.1990    23.7800     2.5480    -8.1660 
  129.8750    49.0930    26.4860    24.5140    26.8110    23.7110     2.5520    -8.1650 
  130.0000    46.8250    27.6740    25.3890    27.7880    23.6410     2.5520    -8.1740 
  130.1250    43.4770    29.1300    26.5520    28.4710    23.5810     2.5460    -8.1840 
  130.2500    41.7770    30.6170    27.8100    29.9660    23.5640     2.5400    -8.1960 
  130.3750    43.3910    31.8700    28.9450    32.1350    23.6140     2.5400    -8.2250 
  130.5000    46.5410    32.6100    29.7110    34.1770    23.6960     2.5500    -8.2690 
  130.6250    47.5230    32.5210    29.8190    34.9600    23.7540     2.5680    -8.3140 
  130.7500    46.1410    31.7820    29.3750    34.8850    23.7650     2.5810    -8.3540 
  130.8750    45.3210    30.7050    28.6110    33.9410    23.7440     2.5770    -8.3630 
  131.0000    47.1350    29.7370    27.8880    33.1370    23.7240     2.5590    -8.3340 
  131.1250    49.0720    29.4070    27.6460    33.2330    23.7310     2.5380    -8.2830 
  131.2500    49.6650    29.7490    27.9460    34.6010    23.7510     2.5300    -8.2160 
  131.3750    49.8100    30.5220    28.6200    36.7740    23.7700     2.5340    -8.1450 
  131.5000    50.0860    31.2490    29.3070    38.7220    23.7830     2.5410    -8.0960 
  131.6250    49.4130    31.2610    29.4610    38.9060    23.7930     2.5360    -8.0660 
  131.7500    48.1630    30.3710    28.8800    37.1300    23.8060     2.5190    -8.0320 
  131.8750    48.5240    28.7170    27.6290    33.4730    23.8110     2.4980    -8.0010 
  132.0000    51.1490    26.7180    26.0230    28.4950    23.7900     2.4840    -7.9770 
  132.1250    54.7850    24.9910    24.5560    24.8730    23.7350     2.4800    -7.9720 
  132.2500    58.1830    23.9340    23.5970    23.6900    23.6540     2.4810    -7.9890 
  132.3750    60.8600    23.7200    23.3230    23.9120    23.5720     2.4820    -8.0120 
  132.5000    62.6720    24.3070    23.7380    24.8330    23.5180     2.4810    -8.0110 
  132.6250    62.3290    25.4260    24.6640    26.6680    23.4950     2.4760    -7.9870 
  132.7500    59.0080    26.3940    25.5280    28.5500    23.4970     2.4680    -7.9450 
  132.8750    54.1900    26.6080    25.7920    29.9110    23.5150     2.4630    -7.8770 
  133.0000    51.8930    25.6560    25.0480    29.8230    23.5470     2.4630    -7.7920 
  133.1250    54.9770    23.4280    23.1340    27.3470    23.5710     2.4740    -7.6820 
  133.2500    58.7070    20.7250    20.7250    23.7340    23.5930     2.4920    -7.5590 
  133.3750    60.0040    18.2610    18.4400    19.3410    23.6190     2.5100    -7.4440 
  133.5000    59.6640    16.5600    16.7450    16.5160    23.6470     2.5210    -7.3640 
  133.6250    58.2970    15.9370    15.9650    15.8400    23.6630     2.5150    -7.3370 
  133.7500    55.1730    16.0580    15.8950    16.6350    23.6670     2.4970    -7.3440 
  133.8750    51.3040    16.6230    16.3240    17.9180    23.6620     2.4740    -7.3890 
  134.0000    49.4740    17.3250    16.9830    18.7680    23.6460     2.4550    -7.4540 
  134.1250    51.3570    17.8770    17.5600    19.5400    23.6100     2.4500    -7.5300 
  134.2500    54.1720    18.1610    17.8700    20.1030    23.5570     2.4560    -7.6170 
  134.3750    57.0240    18.1740    17.8730    20.1960    23.4870     2.4680    -7.7040 
  134.5000    59.4430    17.9760    17.6220    19.4100    23.4040     2.4790    -7.7830 
  134.6250    59.9220    17.6180    17.1780    18.6930    23.3110     2.4860    -7.8510 
  134.7500    58.8230    17.1570    16.6290    17.8080    23.2340     2.4920    -7.9070 
  134.8750    58.4830    16.6100    16.0160    16.9460    23.1960     2.4990    -7.9600 
  135.0000    59.5990    16.0220    15.3950    16.5240    23.1810     2.5070    -8.0370 
  135.1250    59.8100    15.5390    14.8900    16.1500    23.1330     2.5150    -8.1180 
  135.2500    59.1830    15.3280    14.6170    15.8240    23.0740     2.5230    -8.1610 
  135.3750    59.7350    15.5160    14.6680    15.4110    23.0030     2.5290    -8.1740 
  135.5000    60.4410    16.1300    15.0670    15.5080    22.9110     2.5290    -8.1630 
  135.6250    58.8930    17.0770    15.7780    16.5900    22.8130     2.5220    -8.1290 
  135.7500    56.3990    18.0400    16.5620    17.8140    22.7370     2.5110    -8.1030 
  135.8750    55.1590    18.7520    17.1930    18.1700    22.6800     2.4990    -8.0920 
  136.0000    55.4300    19.0130    17.4680    17.7850    22.6180     2.4890    -8.0700 
  136.1250    56.7200    18.6830    17.2160    17.0240    22.5340     2.4830    -8.0380 
  136.2500    57.3410    17.9870    16.6060    16.1190    22.4380     2.4790    -8.0250 
  136.3750    56.8950    17.1580    15.8400    15.4350    22.3720     2.4760    -8.0360 
  136.5000    56.5640    16.4270    15.1240    14.8480    22.3740     2.4730    -8.0680 
  136.6250    56.5310    16.0130    14.6430    14.2910    22.4540     2.4710    -8.1330 
  136.7500    55.0570    15.9250    14.4080    14.4110    22.5960     2.4710    -8.2120 
  136.8750    52.3820    16.1230    14.3980    15.1030    22.7580     2.4730    -8.2980 
  137.0000    50.8990    16.5370    14.5750    15.8520    22.8960     2.4780    -8.4200 
  137.1250    51.2480    17.1050    14.9310    16.3210    23.0180     2.4850    -8.5960 
  137.2500    51.2810    17.7620    15.4280    16.8460    23.1270     2.4910    -8.8030 
  137.3750    50.9060    18.5060    16.0680    17.7900    23.2480     2.4940    -9.0290 
  137.5000    52.6150    19.3870    16.8700    19.3070    23.3930     2.4920    -9.2720 
  137.6250    57.3110    20.5630    17.9170    21.6470    23.5130     2.4870    -9.5340 
  137.7500    62.4490    22.1090    19.2360    23.9780    23.6030     2.4810    -9.8030 
  137.8750    66.9050    24.0220    20.8280    25.8090    23.6470     2.4760   -10.0630 
  138.0000    70.1890    26.0920    22.5580    27.6570    23.6450     2.4710   -10.2990 
  138.1250    71.0820    27.7010    23.9980    31.2380    23.6140     2.4660   -10.4920 
  138.2500    70.1400    28.2300    24.6570    35.0970    23.5780     2.4620   -10.6410 
  138.3750    68.9370    27.3200    24.2000    36.5450    23.5410     2.4580   -10.7400 
  138.5000    70.4070    25.1280    22.6750    34.1960    23.4930     2.4560   -10.8010 
  138.6250    75.0710    22.4240    20.6100    28.4910    23.4520     2.4520   -10.8300 
  138.7500    78.9030    20.3590    18.9100    22.4290    23.4200     2.4450   -10.8350 
  138.8750    79.0100    19.5890    18.1160    18.9280    23.4010     2.4370   -10.8310 
  139.0000    75.9220    20.2320    18.3990    19.1000    23.4030     2.4290   -10.8190 
  139.1250    74.4360    21.8390    19.5580    21.2320    23.3990     2.4290   -10.7990 
  139.2500    75.6430    23.1830    20.6880    23.4490    23.3740     2.4350   -10.7750 
  139.3750    78.4390    23.2760    20.9440    24.6420    23.3550     2.4430   -10.7550 
  139.5000    81.1530    21.5690    19.7170    24.2630    23.3590     2.4450   -10.7350 
  139.6250    81.0310    18.1680    16.9090    21.8230    23.3940     2.4320   -10.7030 
  139.7500    79.7680    14.4100    13.6550    17.2140    23.4550     2.4110   -10.6730 
  139.8750    80.8720    11.2330    10.8040    11.6810    23.5380     2.3910   -10.6610 
