~V
VERS. 2.00: Ver 2.00
~W
STRT.M 64.0000:
STOP.M 308.0000:
STEP.M 0.1250:
NULL. -999.2500:
UWI. F10040:
~C
DEPT.M :
GR.API :
RML.OHMM :
RI. :
RXO.OHMM :
CALI.CM :
DEN.GM/CC :
SP.MV :
~A
# ...
  131.5000    83.9400     5.5740     4.8190     5.5630    24.6080     2.3130     3.2410 
  131.6250    87.5530     5.4510     4.7210     5.0370    24.7100     2.3200     3.4650 
  131.7500    89.6240     5.3020     4.6050     4.8030    24.8340     2.3210     3.7900 
  131.8750    89.4130     5.1800     4.5060     4.7990    24.9060     2.3180     4.1380 
  132.0000    87.0790     5.1200     4.4450     4.9400    24.9290     2.3150     4.4250 
  132.1250    84.0740     5.1270     4.4310     5.0630    24.9170     2.3150     4.6750 
  132.2500    81.7150     5.1550     4.4500     5.2850    24.8900     2.3170     4.9040 
  132.3750    80.9890     5.1770     4.4940     5.1520    24.8640     2.3230     5.0830 
  132.5000    82.3470     5.1870     4.5570     4.8500    24.8550     2.3290     5.2670 
  132.6250    85.5370     5.1960     4.6270     4.7700    24.8510     2.3360     5.4720 
  132.7500    89.0300     5.2100     4.6840     4.9140    24.8490     2.3420     5.6240 
  132.8750    92.0260     5.2140     4.7070     5.0910    24.8500     2.3470     5.7630 
  133.0000    93.9180     5.1860     4.6800     5.0310    24.8660     2.3520     5.9390 
  133.1250    95.1940     5.1120     4.5960     4.6870    24.9140     2.3570     6.1750 
  133.2500    97.5030     5.0160     4.4800     4.4980    24.9610     2.3650     6.3930 
  133.3750    99.1570     4.9250     4.3570     4.3870    24.9530     2.3750     6.5700 
  133.5000    98.2670     4.8630     4.2530     4.3040    24.9250     2.3860     6.6830 
  133.6250    97.9370     4.8340     4.1850     4.3840    24.9210     2.3940     6.7200 
  133.7500   101.8520     4.8050     4.1430     4.5230    24.9480     2.3990     6.7570 
  133.8750   106.3140     4.7550     4.1180     4.4850    24.9880     2.4020     6.8120 
  134.0000   104.1740     4.6860     4.1000     4.3460    25.0100     2.4060     6.8540 
  134.1250    96.9530     4.6290     4.0890     4.2980    24.9960     2.4170     6.8270 
  134.2500    91.8700     4.6060     4.0890     4.3390    24.9650     2.4310     6.7720 
  134.3750    91.8320     4.6070     4.1010     4.4270    24.9360     2.4480     6.6800 
  134.5000    95.7630     4.6020     4.1160     4.5650    24.9230     2.4620     6.6100 
  134.6250    99.1950     4.5620     4.1170     4.4910    24.9270     2.4710     6.6090 
  134.7500    99.6950     4.4940     4.0880     4.3790    24.9440     2.4750     6.5800 
  134.8750    97.1270     4.4100     4.0210     4.3390    24.9790     2.4740     6.4910 
  135.0000    93.8680     4.3170     3.9170     4.2810    25.0030     2.4670     6.3840 
  135.1250    91.6770     4.2080     3.7880     4.2080    25.0340     2.4550     6.3170 
  135.2500    90.9450     4.0950     3.6620     4.0850    25.0670     2.4430     6.2500 
  135.3750    91.6450     4.0070     3.5660     3.9600    25.0550     2.4330     6.1600 
  135.5000    91.5110     3.9740     3.5220     3.9420    25.0030     2.4240     6.0060 
  135.6250    88.7820     4.0480     3.5740     4.4920    24.9190     2.4080     5.7860 
  135.7500    84.3990     4.2610     3.7430     5.4510    24.8750     2.3870     5.5880 
  135.8750    78.8550     4.6690     4.0760     5.8640    24.8590     2.3720     5.4170 
  136.0000    72.9810     5.3170     4.6190     6.0630    24.8510     2.3800     5.2180 
  136.1250    69.0000     6.2120     5.4120     7.1380    24.8450     2.4280     4.9360 
  136.2500    66.5020     7.1650     6.3230     9.8800    24.8210     2.4940     4.6260 
  136.3750    65.9910     7.9340     7.1470    12.7400    24.7540     2.5520     4.3210 
  136.5000    67.5560     8.2760     7.6320    13.0760    24.6530     2.5790     4.0280 
  136.6250    71.3470     7.9940     7.5200    10.0990    24.6080     2.5610     3.7110 
  136.7500    75.8450     7.3190     6.9700     7.5230    24.5860     2.5170     3.3110 
  136.8750    78.2270     6.5000     6.2080     6.2130    24.5410     2.4650     2.8290 
  137.0000    77.0300     5.7680     5.4740     5.6240    24.4140     2.4190     2.3250 
  137.1250    75.2350     5.3110     4.9700     5.4460    24.1760     2.3890     1.8590 
  137.2500    76.7220     5.1350     4.7140     5.3720    23.9850     2.3680     1.4100 
  137.3750    79.5400     5.2130     4.6850     5.3210    23.9390     2.3490     0.9430 
  137.5000    79.0560     5.4770     4.8360     5.6190    24.0550     2.3250     0.4700 
  137.6250    75.4810     5.8170     5.1060     6.2330    24.2900     2.3010     0.0950 
  137.7500    71.9210     6.0720     5.3710     6.8810    24.4360     2.2870    -0.1010 
  137.8750    70.5800     6.1370     5.5340     6.9980    24.5110     2.2930    -0.1170 
  138.0000    72.3940     5.9710     5.5210     6.6190    24.5590     2.3180    -0.0060 
  138.1250    76.5250     5.6030     5.2950     5.5780    24.6400     2.3540     0.1940 
  138.2500    79.8430     5.1820     4.9610     4.9000    24.6960     2.3830     0.3940 
  138.3750    81.8270     4.8170     4.6160     4.6110    24.7100     2.4010     0.5750 
  138.5000    83.7750     4.5890     4.3480     4.6120    24.6290     2.4040     0.6770 
  138.6250    84.2650     4.5760     4.2410     4.7590    24.5150     2.3940     0.5680 
  138.7500    82.3410     4.7400     4.2850     5.0870    24.4250     2.3740     0.2660 
  138.8750    80.1300     5.0320     4.4540     5.4590    24.3620     2.3480    -0.2060 
  139.0000    79.2800     5.3700     4.6910     5.7070    24.3030     2.3190    -0.8240 
  139.1250    78.6250     5.6410     4.9200     5.8980    24.1840     2.2960    -1.5700 
  139.2500    75.7020     5.7910     5.0800     6.2090    24.0420     2.2800    -2.3130 
  139.3750    71.8080     5.8230     5.1540     6.5140    23.9300     2.2690    -2.9560 
  139.5000    69.5160     5.7950     5.1680     6.4090    23.9060     2.2560    -3.4420 
  139.6250    69.2720     5.8210     5.1970     6.2520    24.0310     2.2350    -3.6960 
  139.7500    70.2790     6.0070     5.3290     6.5030    24.2630     2.2150    -3.7870 
  139.8750    71.8680     6.4370     5.6460     7.2910    24.4060     2.2120    -3.7370 
  140.0000    72.8310     7.1400     6.1870     8.1150    24.3980     2.2390    -3.5220 
  140.1250    71.5590     8.0260     6.9270     8.8780    24.3380     2.2980    -3.0720 
  140.2500    69.6250     8.7810     7.6390    10.6510    24.3180     2.3630    -2.4600 
  140.3750    67.6660     9.0950     8.0610    14.2270    24.3200     2.4070    -1.7470 
  140.5000    66.0320     8.7790     7.9860    15.2430    24.5440     2.4130    -1.0010 
  140.6250    67.5390     7.8520     7.3290    11.1760    24.7320     2.3810    -0.3070 
  140.7500    72.0630     6.7480     6.4110     6.7430    24.9040     2.3390     0.3540 
  140.8750    75.8340     5.7690     5.5000     5.2020    24.7660     2.3060     1.0010 
  141.0000    76.6610     5.0760     4.7820     4.7600    24.6090     2.2930     1.5870 
  141.1250    76.7240     4.7380     4.3730     4.7610    24.5620     2.2990     1.9870 
  141.2500    78.2710     4.6360     4.1980     4.8890    24.5560     2.3110     2.2370 
  141.3750    80.6400     4.6810     4.1790     5.1490    24.5660     2.3240     2.3860 
  141.5000    83.0880     4.7800     4.2320     4.8610    24.6700     2.3370     2.5150 
  141.6250    85.0300     4.8540     4.2920     4.5270    24.7800     2.3480     2.6630 
  141.7500    85.9560     4.8780     4.3460     4.4290    24.8360     2.3530     2.7650 
  141.8750    85.1340     4.8600     4.4070     4.3190    24.8450     2.3530     2.7800 
  142.0000    82.3430     4.8220     4.4860     4.3880    24.8140     2.3490     2.7400 
  142.1250    79.1760     4.7880     4.5810     4.7930    24.7790     2.3450     2.7620 
  142.2500    78.8840     4.7650     4.6590     5.1060    24.7500     2.3420     2.8470 
  142.3750    80.1960     4.7430     4.6890     4.7660    24.6910     2.3400     2.9420 
  142.5000    80.3490     4.7090     4.6490     4.4400    24.6930     2.3370     2.9910 
  142.6250    81.4090     4.6420     4.5280     4.3870    24.7550     2.3330     2.9620 
