~V
VERS. 2.00: Ver 2.00
~W
STRT.M 50.0000:
STOP.M 274.0000:
STEP.M 0.1250:
NULL. -999.2500:
UWI. F10029:
~C
DEPT.M :
DEN.GM/CC :
SP.MV :
GR.API :
CALI.CM :
RXO.OHMM :
RI. :
RML.OHMM :
~A
# ...
   95.0000     2.1430   -24.4060    79.7000    21.7720     9.7600     7.6050     8.9740 
   95.1250     2.1390   -24.2580    78.5990    21.8370     9.5120     7.4560     8.8140 
   95.2500     2.1350   -24.1290    81.8820    21.8110     9.2950     7.3600     8.7120 
   95.3750     2.1260   -23.9440    87.5350    21.7540     9.1850     7.3400     8.6910 
   95.5000     2.1140   -23.7050    90.3760    21.7240     9.1480     7.4010     8.7560 
   95.6250     2.1040   -23.4440    88.5400    21.8150     9.1240     7.5190     8.8820 
   95.7500     2.0980   -23.1340    86.5810    21.9350     9.1050     7.6150     8.9850 
   95.8750     2.0940   -22.7840    85.7290    22.0410     9.0170     7.6080     8.9780 
   96.0000     2.0910   -22.3630    85.0250    22.1390     8.6600     7.4420     8.8000 
   96.1250     2.1000   -21.9020    87.2300    22.2540     8.0100     7.1010     8.4340 
   96.2500     2.1200   -21.4870    92.5870    22.4490     7.2000     6.6860     7.9900 
   96.3750     2.1420   -21.1640    97.8080    22.5760     6.4220     6.2920     7.5690 
   96.5000     2.1590   -20.9600   101.6660    22.5500     5.9110     6.0000     7.2550 
   96.6250     2.1650   -20.8760   105.2910    22.3460     5.8820     5.8660     7.1120 
   96.7500     2.1640   -20.8860   108.3060    22.1530     6.0750     5.8550     7.1000 
   96.8750     2.1590   -20.9520   110.4850    22.0190     6.4460     5.9310     7.1810 
   97.0000     2.1540   -21.0330   111.4000    21.9870     6.8390     6.0550     7.3140 
   97.1250     2.1520   -21.2200   109.2610    22.0610     6.9910     6.2080     7.4780 
   97.2500     2.1480   -21.4080   106.3110    22.2000     6.9030     6.3870     7.6700 
   97.3750     2.1360   -21.5860   106.9710    22.3280     6.9470     6.5960     7.8930 
   97.5000     2.1160   -21.7650   109.0220    22.2270     7.2920     6.8140     8.1270 
   97.6250     2.0890   -21.8230   106.3840    22.0630     7.7230     6.9850     8.3110 
   97.7500     2.0690   -21.8720   101.1230    21.9210     7.9170     7.0630     8.3940 
   97.8750     2.0660   -21.9110    97.8430    21.8280     7.8330     7.0300     8.3580 
   98.0000     2.0810   -21.9480    97.0590    21.7970     7.5120     6.9090     8.2290 
   98.1250     2.1080   -21.9580    97.3860    21.8420     7.3240     6.7700     8.0800 
   98.2500     2.1320   -21.9080    98.4460    21.8270     7.1080     6.6980     8.0030 
   98.3750     2.1460   -21.7890   101.7440    21.6550     6.8240     6.7340     8.0410 
   98.5000     2.1460   -21.5450   105.3420    21.4790     6.6430     6.8620     8.1780 
   98.6250     2.1320   -21.2860   103.8410    21.3920     6.6940     6.9910     8.3170 
   98.7500     2.1160   -20.9290    97.9850    21.3460     6.9340     6.9990     8.3250 
   98.8750     2.1100   -20.5450    93.9740    21.3460     6.9010     6.8220     8.1360 
   99.0000     2.1240   -20.1730    96.0520    21.4400     6.4220     6.4850     7.7750 
   99.1250     2.1590   -19.7590   104.0750    21.7100     5.8640     6.0950     7.3570 
   99.2500     2.1890   -19.4290   114.4480    22.1440     5.4820     5.7830     7.0230 
   99.3750     2.1930   -19.1430   121.9020    22.4690     5.3860     5.6080     6.8350 
   99.5000     2.1700   -18.8860   122.1930    22.3910     5.4210     5.5740     6.7990 
   99.6250     2.1470   -18.6750   118.6040    21.9500     5.4990     5.6500     6.8810 
   99.7500     2.1440   -18.5230   117.7180    21.6210     5.4960     5.7460     6.9830 
   99.8750     2.1570   -18.4160   118.2380    21.5240     5.5010     5.7980     7.0390 
  100.0000     2.1720   -18.3730   117.5430    21.6550     5.5200     5.7730     7.0120 
  100.1250     2.1830   -18.3260   115.8560    21.9150     5.5120     5.6840     6.9170 
  100.2500     2.1930   -18.2300   113.2950    22.0650     5.4270     5.5930     6.8200 
  100.3750     2.2010   -18.1250   112.9880    22.1300     5.2720     5.5470     6.7700 
  100.5000     2.2080   -18.0800   116.2380    22.2290     5.1470     5.5700     6.7950 
  100.6250     2.2080   -18.0800   119.1650    22.4340     5.3030     5.6750     6.9070 
  100.7500     2.1990   -18.0960   115.1670    22.6280     5.6570     5.8140     7.0560 
  100.8750     2.1820   -18.1150   109.9850    22.7690     6.0040     5.9390     7.1900 
  101.0000     2.1660   -18.0800   112.9240    22.8090     6.1710     6.0010     7.2560 
  101.1250     2.1610   -18.0730   120.7640    22.7140     6.0680     5.9610     7.2130 
  101.2500     2.1710   -18.0650   123.5380    22.5260     5.7990     5.8540     7.0990 
  101.3750     2.1910   -18.1120   119.2910    22.3960     5.5190     5.7290     6.9640 
  101.5000     2.2080   -18.2330   112.0870    22.3500     5.4050     5.6340     6.8630 
  101.6250     2.2100   -18.3300   107.8480    22.3060     5.4970     5.6170     6.8450 
  101.7500     2.2010   -18.5010   107.0460    22.1800     5.6320     5.6790     6.9110 
  101.8750     2.1890   -18.6770   107.6560    21.9760     5.7630     5.8030     7.0440 
  102.0000     2.1810   -18.8550   105.1540    21.7030     5.8990     5.9560     7.2080 
  102.1250     2.1690   -19.0610   100.9370    21.5190     6.1160     6.0780     7.3390 
  102.2500     2.1520   -19.2240    98.9520    21.4750     6.4090     6.1370     7.4020 
  102.3750     2.1410   -19.3550    99.0490    21.5550     6.5660     6.1410     7.4060 
  102.5000     2.1460   -19.4040    99.2890    21.7290     6.3910     6.1300     7.3950 
  102.6250     2.1610   -19.3770    99.6220    21.8780     6.0740     6.1610     7.4280 
  102.7500     2.1630   -19.2670    99.3390    21.9010     6.0300     6.2460     7.5190 
  102.8750     2.1500   -19.1070    98.9030    21.7490     6.3180     6.3580     7.6380 
  103.0000     2.1360   -18.9410    98.9710    21.4360     6.6240     6.4400     7.7260 
  103.1250     2.1420   -18.7030    99.1700    21.2640     6.5120     6.4150     7.6990 
  103.2500     2.1650   -18.4650    98.1110    21.2330     6.1090     6.2810     7.5560 
  103.3750     2.1960   -18.1900    96.7380    21.2750     5.7680     6.0730     7.3340 
  103.5000     2.2210   -17.8670   100.7310    21.3250     5.6290     5.8510     7.0950 
  103.6250     2.2270   -17.6340   109.7980    21.4290     5.5560     5.6780     6.9100 
  103.7500     2.2220   -17.4430   113.8790    21.6110     5.5350     5.5730     6.7970 
  103.8750     2.2220   -17.2480   111.7500    21.8050     5.5610     5.5250     6.7460 
  104.0000     2.2360   -17.0680   107.6910    22.0180     5.5760     5.5050     6.7250 
  104.1250     2.2500   -16.9790   108.4810    22.3010     5.6160     5.4950     6.7140 
  104.2500     2.2490   -16.9460   112.3110    22.6250     5.7090     5.5010     6.7210 
  104.3750     2.2380   -16.9720   115.5110    22.7870     5.7540     5.5430     6.7660 
  104.5000     2.2350   -17.0980   113.7860    22.7870     5.7470     5.6380     6.8670 
  104.6250     2.2570   -17.2810   104.6980    22.6480     6.1270     5.7870     7.0270 
  104.7500     2.2950   -17.4830    99.1130    22.4120     7.0400     5.9520     7.2040 
  104.8750     2.3200   -17.7300   101.3230    22.0400     7.7140     6.0940     7.3560 
  105.0000     2.3070   -17.9890   104.8040    21.6610     7.5040     6.1850     7.4530 
  105.1250     2.2590   -18.2330   101.6590    21.4530     6.5400     6.2020     7.4710 
  105.2500     2.2120   -18.4680    94.8380    21.3280     5.9900     6.1590     7.4260 
  105.3750     2.1850   -18.6750    91.7160    21.2400     5.8520     6.0660     7.3260 
  105.5000     2.1740   -18.8310    94.8380    21.1580     5.9120     5.9370     7.1880 
  105.6250     2.1760   -18.8950   100.0530    21.1020     5.8210     5.8030     7.0440 
  105.7500     2.1940   -18.9560   103.3150    21.1160     5.5840     5.7060     6.9400 
  105.8750     2.2220   -19.0850   103.3000    21.1930     5.4560     5.6850     6.9180 
  106.0000     2.2480   -19.2330    99.9040    21.2790     5.5430     5.7620     7.0000 
  106.1250     2.2520   -19.3460    96.3110    21.3250     5.8710     5.9340     7.1840 
