~V
VERS. 2.00: Ver 2.00
~W
STRT.M 57.0000:
STOP.M 307.0000:
STEP.M 0.1250:
NULL. -999.2500:
UWI. F10042:
~C
DEPT.M :
GR.API :
RML.OHMM :
RI. :
RXO.OHMM :
CALI.CM :
DEN.GM/CC :
SP.MV :
~A
# ...
  124.5000    60.5090     7.2250     6.5590     8.6890    24.6580     2.1170   -19.2490 
  124.6250    62.6820     7.3260     6.5570     8.9180    24.6440     2.0950   -19.1480 
  124.7500    64.3550     7.4150     6.5610     9.1960    24.6540     2.0750   -19.1490 
  124.8750    64.4700     7.4690     6.5640     9.1360    24.7010     2.0620   -19.1560 
  125.0000    63.5970     7.4660     6.5440     8.8680    24.7610     2.0590   -19.1230 
  125.1250    61.9980     7.3750     6.4660     8.6380    24.8060     2.0670   -18.9580 
  125.2500    61.4260     7.1960     6.3340     8.5280    24.8110     2.0770   -18.7470 
  125.3750    63.9410     6.9520     6.1710     8.3840    24.7610     2.0830   -18.5650 
  125.5000    69.3090     6.7010     6.0220     8.1350    24.7010     2.0830   -18.3240 
  125.6250    74.3340     6.5590     5.9650     8.2910    24.6680     2.0820   -17.9280 
  125.7500    77.2560     6.5880     6.0230     8.6300    24.6730     2.0910   -17.4260 
  125.8750    77.8540     6.7950     6.1860     9.4340    24.7000     2.1240   -16.8640 
  126.0000    76.2720     7.1210     6.4040    11.4400    24.7270     2.1780   -16.2550 
  126.1250    74.4150     7.4380     6.5850    14.9500    24.7740     2.2350   -15.7400 
  126.2500    74.0970     7.6280     6.6620    14.9460    24.8800     2.2640   -15.4500 
  126.3750    74.0580     7.6390     6.6170    11.7890    25.0080     2.2510   -15.4350 
  126.5000    71.9430     7.4960     6.4870     9.0380    25.0910     2.2020   -15.6570 
  126.6250    68.0120     7.2960     6.3390     8.0690    25.1390     2.1390   -16.0310 
  126.7500    66.0960     7.1650     6.2300     7.8740    25.1740     2.0880   -16.5110 
  126.8750    67.2630     7.1550     6.1840     7.8200    25.2140     2.0590   -17.1170 
  127.0000    68.7830     7.2520     6.1960     7.7230    25.3100     2.0520   -17.8590 
  127.1250    67.7380     7.4000     6.2490     7.7980    25.4650     2.0620   -18.6990 
  127.2500    65.8740     7.5310     6.3190     7.7220    25.6480     2.0740   -19.4290 
  127.3750    64.9130     7.6230     6.4040     7.5280    25.7880     2.0800   -19.9090 
  127.5000    66.0070     7.6830     6.4970     7.4460    25.8750     2.0790   -20.2070 
  127.6250    66.8440     7.7210     6.5770     7.6780    25.9060     2.0750   -20.4860 
  127.7500    66.6260     7.7320     6.6210     8.0450    25.8920     2.0750   -20.7890 
  127.8750    67.1810     7.6940     6.6030     8.2920    25.8630     2.0800   -21.0670 
  128.0000    68.7060     7.5840     6.5140     8.3180    25.8570     2.0870   -21.2050 
  128.1250    69.3900     7.3910     6.3600     8.0930    25.8880     2.0910   -21.0720 
  128.2500    67.9800     7.1680     6.1910     7.9270    25.9440     2.0910   -20.7890 
  128.3750    67.7270     6.9810     6.0490     7.5560    25.9840     2.0900   -20.5060 
  128.5000    70.6650     6.8840     5.9640     6.9810    25.9800     2.0910   -20.2340 
  128.6250    74.6580     6.8970     5.9450     6.6710    25.9390     2.0950   -19.9190 
  128.7500    77.0960     6.9450     5.9490     6.8890    25.9110     2.1010   -19.5520 
  128.8750    77.9220     6.9540     5.9270     7.2100    25.9010     2.1070   -19.1040 
  129.0000    78.2680     6.8670     5.8450     7.5800    25.8770     2.1130   -18.6570 
  129.1250    78.0660     6.6620     5.6920     7.5440    25.8020     2.1190   -18.2810 
  129.2500    78.8580     6.4150     5.5160     7.0820    25.7500     2.1250   -17.9380 
  129.3750    81.3900     6.2100     5.3700     6.4960    25.7410     2.1280   -17.6060 
  129.5000    84.0710     6.1170     5.2920     6.3100    25.8020     2.1230   -17.3200 
  129.6250    82.4370     6.1700     5.3040     6.7710    25.9000     2.1070   -17.1330 
  129.7500    76.5690     6.2850     5.3750     7.4070    25.9760     2.0840   -17.0270 
  129.8750    71.8550     6.3870     5.4800     7.6900    26.0070     2.0620   -16.9800 
  130.0000    71.7950     6.4560     5.6210     7.8000    25.9990     2.0460   -16.9540 
  130.1250    72.5830     6.5970     5.8760     8.0090    25.9800     2.0380   -16.9850 
  130.2500    70.4510     6.9640     6.3080     8.3430    25.9570     2.0440   -16.9470 
  130.3750    67.1560     7.6390     6.9270     9.0870    25.9850     2.0740   -16.6940 
  130.5000    65.9540     8.5450     7.6310    11.7720    26.0340     2.1350   -16.1750 
  130.6250    66.2930     9.3560     8.1280    19.0490    26.1470     2.2160   -15.3190 
  130.7500    67.2700     9.6810     8.1590    24.5840    26.2160     2.2860   -14.2390 
  130.8750    70.3710     9.3090     7.6530    18.0930    26.2000     2.3170   -13.0550 
  131.0000    76.2890     8.3070     6.7890     8.8890    26.1540     2.3010   -11.8180 
  131.1250    84.0790     7.0070     5.8830     6.3280    26.1510     2.2500   -10.4720 
  131.2500    90.1300     5.8710     5.1640     5.5320    26.1960     2.2000    -9.1970 
  131.3750    93.4250     5.1130     4.7050     5.3170    26.2680     2.1650    -8.1410 
  131.5000    95.3370     4.7700     4.5000     5.0880    26.3090     2.1480    -7.3070 
  131.6250    95.2710     4.7900     4.5030     5.2030    26.3150     2.1440    -6.6390 
  131.7500    92.8860     4.9500     4.5740     5.1870    26.3250     2.1430    -6.0530 
  131.8750    90.6250     5.1110     4.6270     5.1430    26.3600     2.1420    -5.5480 
  132.0000    90.6700     5.1770     4.6150     5.1780    26.4020     2.1420    -5.1520 
  132.1250    92.5160     5.1060     4.5290     5.2670    26.4380     2.1480    -4.9340 
  132.2500    94.8330     4.9660     4.4180     5.1050    26.4500     2.1620    -4.7690 
  132.3750    96.3880     4.8340     4.3300     4.7060    26.4210     2.1810    -4.5800 
  132.5000    96.3060     4.7820     4.3030     4.5310    26.3490     2.2000    -4.4070 
  132.6250    94.9730     4.8670     4.3590     4.6740    26.2350     2.2130    -4.3520 
  132.7500    93.5850     5.0520     4.4610     4.8500    26.1280     2.2180    -4.3930 
  132.8750    91.5060     5.2860     4.5690     5.0360    26.0380     2.2170    -4.4750 
  133.0000    88.4410     5.5110     4.6500     5.1480    25.9560     2.2120    -4.6000 
  133.1250    87.6730     5.6590     4.6830     5.2240    25.9290     2.2040    -4.7940 
  133.2500    88.4750     5.7080     4.6830     5.1350    25.9960     2.1950    -5.0650 
  133.3750    88.8870     5.6600     4.6660     5.1120    26.1350     2.1890    -5.4010 
  133.5000    88.0850     5.5500     4.6430     5.4020    26.2450     2.1840    -5.7570 
  133.6250    88.0910     5.4430     4.6180     5.9240    26.3190     2.1820    -6.0750 
  133.7500    90.9580     5.4030     4.6020     5.8430    26.3880     2.1790    -6.3920 
  133.8750    95.3120     5.4550     4.6150     5.4940    26.3940     2.1740    -6.8000 
  134.0000    97.0960     5.5860     4.6710     5.3570    26.2880     2.1650    -7.2270 
  134.1250    94.7840     5.7520     4.7710     5.4200    26.1460     2.1520    -7.5430 
  134.2500    90.7630     5.8970     4.8800     5.6980    26.0640     2.1390    -7.7830 
  134.3750    87.0840     5.9890     4.9600     5.8100    26.0650     2.1320    -7.9780 
  134.5000    85.1690     6.0100     4.9780     5.7780    26.1440     2.1360    -8.0460 
  134.6250    84.9140     5.9420     4.9090     5.5740    26.3040     2.1530    -7.9540 
  134.7500    85.5390     5.8130     4.7810     5.3210    26.3960     2.1750    -7.7400 
  134.8750    87.4990     5.6480     4.6260     5.1260    26.4070     2.1980    -7.3600 
  135.0000    91.4940     5.4780     4.4750     5.1230    26.3890     2.2180    -6.8880 
  135.1250    93.9480     5.3440     4.3670     5.2390    26.3950     2.2370    -6.4470 
  135.2500    92.0990     5.2590     4.3060     5.1010    26.4240     2.2540    -6.0300 
  135.3750    88.9930     5.2230     4.2910     4.9430    26.4370     2.2690    -5.6120 
  135.5000    88.1710     5.2280     4.3140     4.8980    26.3940     2.2760    -5.3310 
  135.6250    87.6590     5.2750     4.3820     4.9270    26.2550     2.2720    -5.3130 
