~V
VERS. 2.00: Ver 2.00
~W
STRT.M 50.0000:
STOP.M 293.0000:
STEP.M 0.1250:
NULL. -999.2500:
UWI. F10045:
~C
DEPT.M :
DEN.GM/CC :
SP.MV :
GR.API :
CALI.CM :
RXO.OHMM :
RI. :
RML.OHMM :
~A
# ...
   61.2500     2.1010   -17.3000    79.3330    24.0810     9.9730     9.1090    30.6200 
   61.3750     2.1020   -17.3090    79.4630    24.0810    10.1200     9.1290    29.9090 
   61.5000     2.1000   -17.3540    81.9090    24.0810    10.1330     9.1480    28.9530 
   61.6250     2.0970   -17.4080    82.7100    24.0810    10.0310     9.1970    28.1040 
   61.7500     2.0970   -17.4550    82.2890    24.0780     9.9710     9.2870    27.5850 
   61.8750     2.1000   -17.4930    82.2670    24.0660    10.0290     9.4070    27.3540 
   62.0000     2.1090   -17.5440    79.9160    24.0550    10.1550     9.5250    27.1400 
   62.1250     2.1260   -17.6370    74.3000    24.0980    10.2720     9.5840    26.5070 
   62.2500     2.1420   -17.7810    73.3470    24.1750    10.2930     9.5640    25.3570 
   62.3750     2.1470   -17.9490    76.1620    24.2280    10.1920     9.4710    23.8380 
   62.5000     2.1390   -18.1470    78.2870    24.2620     9.9490     9.3310    22.2330 
   62.6250     2.1240   -18.3370    84.1510    24.3020     9.6070     9.1830    20.8410 
   62.7500     2.1100   -18.4620    91.8440    24.3510     9.3610     9.0590    19.7620 
   62.8750     2.0970   -18.5910    92.8140    24.3690     9.2920     8.9690    18.9520 
   63.0000     2.0870   -18.6780    84.1580    24.3360     9.3720     8.9030    18.2640 
   63.1250     2.0870   -18.6280    74.8030    24.2410     9.4870     8.8380    17.4740 
   63.2500     2.0970   -18.4950    71.8700    24.1570     9.5290     8.7430    16.4590 
   63.3750     2.1080   -18.3210    72.4830    24.1060     9.5090     8.5870    15.1920 
   63.5000     2.1140   -18.0930    75.9410    24.0860     9.4750     8.3470    13.7260 
   63.6250     2.1090   -17.8910    81.0850    24.0820     9.4990     8.0800    12.2940 
   63.7500     2.0990   -17.6990    83.9220    24.1010     9.6430     7.9830    11.2690 
   63.8750     2.0870   -17.5120    82.3620    24.1850     9.9720     8.3020    10.9730 
   64.0000     2.0830   -17.3910    84.2380    24.3710    10.3870     9.2860    11.6530 
   64.1250     2.1050   -17.2770    91.2370    24.4720    11.5870    11.2750    13.6240 
   64.2500     2.1630   -17.1410    91.1940    24.3190    15.8460    14.0210    16.4470 
   64.3750     2.2600   -16.9780    79.5210    24.0700    25.7030    16.7760    19.0160 
   64.5000     2.3760   -16.8240    67.0420    24.0260    33.1620    18.1250    19.4590 
   64.6250     2.4450   -16.6390    66.0490    24.0570    28.9430    16.7370    16.6150 
   64.7500     2.4260   -16.4330    67.9510    23.9270    18.5370    13.9460    12.7700 
   64.8750     2.3340   -16.1360    69.1760    23.7700    12.0670    11.0670     9.5150 
   65.0000     2.2240   -15.6950    72.4120    23.7200     9.7880     8.7630     7.3360 
   65.1250     2.1580   -15.3350    84.3780    23.7920     8.8560     7.2330     6.1990 
   65.2500     2.1450   -15.1070   100.5830    23.9070     7.7430     6.2410     5.6450 
   65.3750     2.1740   -14.9970   114.6990    23.9880     6.6680     5.6750     5.4630 
   65.5000     2.2210   -15.0060   123.3660    24.0160     6.1330     5.4600     5.5440 
   65.6250     2.2470   -15.1810   124.1570    23.9830     6.4990     5.5880     5.8950 
   65.7500     2.2390   -15.4360   117.3390    23.8940     7.3270     5.9460     6.4580 
   65.8750     2.2070   -15.7690   104.4640    23.7780     8.2420     6.4370     7.1300 
   66.0000     2.1740   -16.2020    91.4220    23.7130     8.7950     6.9190     7.7120 
   66.1250     2.1530   -16.5970    83.6510    23.7000     8.8650     7.2130     7.9290 
   66.2500     2.1420   -16.9000    81.6990    23.6990     8.7870     7.3170     7.8230 
   66.3750     2.1340   -17.0430    84.2550    23.6870     8.6710     7.3470     7.6170 
   66.5000     2.1270   -17.0070    87.8530    23.6590     8.5340     7.4570     7.5660 
   66.6250     2.1200   -16.7220    89.5800    23.6520     8.6150     7.7700     7.8290 
   66.7500     2.1170   -16.3420    87.8650    23.6850     9.6290     8.2110     8.2610 
   66.8750     2.1230   -15.8940    83.2080    23.7800    12.6880     8.6080     8.6380 
   67.0000     2.1450   -15.3600    77.9470    23.9670    15.6380     8.7280     8.7040 
   67.1250     2.1830   -14.7600    79.1770    24.1200    14.4270     8.3430     8.2520 
   67.2500     2.2150   -14.1640    88.6030    24.1750    10.3530     7.6340     7.5110 
   67.3750     2.2240   -13.6370   101.7490    24.1070     7.4770     6.8410     6.7510 
   67.5000     2.2160   -13.1520   111.7600    23.9880     6.4280     6.1690     6.1560 
   67.6250     2.2080   -12.7700   113.3360    23.9100     6.4350     5.7520     5.8300 
   67.7500     2.2060   -12.5260   112.3050    23.8870     6.4260     5.5430     5.6900 
   67.8750     2.2060   -12.4240   112.8860    23.8840     6.2470     5.4700     5.6480 
   68.0000     2.2080   -12.4750   114.9030    23.8780     6.0430     5.4560     5.6290 
   68.1250     2.2140   -12.6670   117.3800    23.8510     5.8990     5.4440     5.6120 
   68.2500     2.2220   -12.9720   118.9540    23.8050     5.9620     5.4190     5.6100 
   68.3750     2.2260   -13.4000   117.1960    23.7720     6.1580     5.3870     5.6280 
   68.5000     2.2270   -13.9870   114.0450    23.7610     6.3140     5.3720     5.6650 
   68.6250     2.2330   -14.7620   115.1000    23.7700     6.3190     5.4310     5.7850 
   68.7500     2.2450   -15.5670   118.8990    23.7930     6.3520     5.5980     6.0380 
   68.8750     2.2520   -16.4140   119.2520    23.8160     6.5140     5.8920     6.4550 
   69.0000     2.2420   -17.2930   114.0790    23.8260     7.0270     6.3050     7.0320 
   69.1250     2.2070   -18.1490   107.2050    23.8280     7.8550     6.8090     7.6820 
   69.2500     2.1650   -18.9560    99.4860    23.8380     8.6070     7.3090     8.2250 
   69.3750     2.1320   -19.6760    92.1720    23.8610     8.9420     7.7180     8.5340 
   69.5000     2.1170   -20.2890    88.3950    23.8860     9.0880     7.9680     8.5700 
   69.6250     2.1190   -20.7280    87.0830    23.9140     9.3650     8.0040     8.3570 
   69.7500     2.1220   -21.0570    85.8950    23.9430     9.6370     7.9040     8.0280 
   69.8750     2.1200   -21.2770    83.5490    23.9560     9.7410     7.7530     7.6990 
   70.0000     2.1140   -21.3740    81.6290    23.9580     9.7320     7.6450     7.4840 
   70.1250     2.1080   -21.3440    81.0020    23.9860     9.7570     7.6670     7.4970 
   70.2500     2.1010   -21.2710    82.3750    24.0680     9.9570     7.8050     7.7210 
   70.3750     2.0920   -21.1520    85.2210    24.1710    10.4130     8.0130     8.0820 
   70.5000     2.0940   -20.9350    86.8450    24.1940    11.1390     8.2060     8.4290 
   70.6250     2.1190   -20.6450    84.0470    24.1210    11.3540     8.2640     8.5590 
   70.7500     2.1490   -20.4080    80.3960    24.0950    10.8460     8.1580     8.4470 
   70.8750     2.1570   -20.1790    80.8480    24.1630    10.1110     7.9160     8.1620 
   71.0000     2.1360   -19.9230    84.9180    24.2560     9.6060     7.6080     7.8300 
   71.1250     2.1100   -19.7380    88.5780    24.3200     9.2010     7.3250     7.5720 
   71.2500     2.0980   -19.5470    88.7240    24.3360     8.8920     7.1230     7.3950 
   71.3750     2.0900   -19.3800    87.0590    24.3140     8.7340     7.0190     7.2620 
   71.5000     2.0740   -19.2330    84.9830    24.2430     8.6600     6.9880     7.1380 
   71.6250     2.0590   -19.0750    83.0310    24.1500     8.6730     6.9830     6.9920 
   71.7500     2.0560   -18.8340    84.5320    24.0980     8.7930     6.9500     6.8110 
   71.8750     2.0560   -18.5330    89.8820    24.0870     8.9270     6.8710     6.6020 
   72.0000     2.0530   -18.1480    94.9460    24.0990     8.9570     6.7900     6.4320 
   72.1250     2.0500   -17.5710    94.6250    24.1200     8.8760     6.8590     6.5050 
   72.2500     2.0540   -16.8820    92.4490    24.1100     8.9080     7.1830     6.9260 
   72.3750     2.0690   -16.0920    89.9170    24.0790     9.3970     7.7840     7.6770 
