~V
VERS. 2.00: Ver 2.00
~W
STRT.M 59.0000:
STOP.M 275.0000:
STEP.M 0.1250:
NULL. -999.2500:
UWI. F10021:
~C
DEPT.M :
GR.API :
RML.OHMM :
RI. :
RXO.OHMM :
CALI.CM :
DEN.GM/CC :
SP.MV :
~A
# ...
  239.0000    49.6030    99.2850    95.0590    76.4830    22.9130     2.2290   -19.3780 
  239.1250    51.6750    86.7760    84.0000    62.0180    22.9480     2.2190   -19.2130 
  239.2500    52.9120    76.2640    74.3230    53.3850    22.8260     2.2080   -19.0830 
  239.3750    53.7200    68.3710    66.8910    46.8060    22.4590     2.2020   -18.9510 
  239.5000    54.5270    62.8750    61.6840    40.9280    21.9260     2.2080   -18.8150 
  239.6250    54.6850    59.4110    58.4400    36.4370    21.4490     2.2270   -18.7360 
  239.7500    54.2020    57.0240    56.2490    33.5590    21.2900     2.2510   -18.6600 
  239.8750    53.5460    55.2550    54.6560    31.2420    21.3800     2.2720   -18.5780 
  240.0000    53.4290    53.8140    53.3520    28.4430    21.5350     2.2850   -18.5420 
  240.1250    53.7470    52.6470    52.2390    25.2690    21.5890     2.2860   -18.5620 
  240.2500    54.8400    51.8220    51.3540    23.2990    21.5570     2.2760   -18.5610 
  240.3750    56.6880    51.5270    50.8660    23.9620    21.5100     2.2580   -18.5820 
  240.5000    58.3530    51.9260    50.9580    27.3020    21.4940     2.2390   -18.6310 
  240.6250    58.0560    53.1320    51.8220    32.8280    21.5550     2.2300   -18.6500 
  240.7500    56.0900    54.7900    53.2110    39.6120    21.6830     2.2340   -18.6830 
  240.8750    54.3110    56.6000    54.8650    44.4910    21.7980     2.2490   -18.7270 
  241.0000    52.8430    58.3270    56.5360    46.3420    21.8190     2.2680   -18.7400 
  241.1250    51.6000    59.9130    58.0760    46.7880    21.7030     2.2860   -18.7580 
  241.2500    50.9340    61.5930    59.6170    43.2980    21.6460     2.2980   -18.7730 
  241.3750    50.8960    63.6660    61.4140    39.3160    21.7660     2.2980   -18.7420 
  241.5000    50.6490    66.3550    63.7130    40.8060    22.0980     2.2840   -18.7210 
  241.6250    50.3110    69.7790    66.7190    49.5430    22.6580     2.2520   -18.7160 
  241.7500    50.4290    73.6380    70.2330    61.4370    23.3140     2.2160   -18.6770 
  241.8750    49.9320    77.6800    74.0550    71.7510    23.7780     2.1880   -18.6420 
  242.0000    50.0270    81.6810    77.9580    77.1160    23.9460     2.1790   -18.6470 
  242.1250    50.3540    85.4220    81.7040    81.3650    23.9530     2.1910   -18.6490 
  242.2500    48.9620    88.7690    85.1340    85.8320    23.9450     2.2120   -18.6400 
  242.3750    46.4780    91.4390    87.9960    90.6250    23.9580     2.2340   -18.6600 
  242.5000    45.4260    92.9880    89.8810    95.7510    23.9950     2.2540   -18.6670 
  242.6250    48.0140    92.5770    89.9590   100.1290    24.0590     2.2730   -18.6290 
  242.7500    50.2350    90.1100    88.0360    99.9290    24.1350     2.2910   -18.5780 
  242.8750    48.9020    85.6180    84.0390    96.3230    24.2190     2.3080   -18.5060 
  243.0000    45.3250    79.5720    78.3440    89.9020    24.3030     2.3160   -18.3530 
  243.1250    45.8890    72.8810    71.7860    83.3170    24.3630     2.3160   -18.1430 
  243.2500    50.3670    66.7340    65.5950    77.2170    24.3730     2.3170   -17.9370 
  243.3750    52.7480    61.8700    60.5120    69.0380    24.3210     2.3340   -17.6830 
  243.5000    50.9530    58.7890    57.0090    59.6930    24.1820     2.3800   -17.4320 
  243.6250    50.0910    58.4560    56.0110    56.0120    23.9400     2.4500   -17.2350 
  243.7500    53.3600    61.6430    58.3810    53.9650    23.6310     2.5110   -17.0220 
  243.8750    57.1410    70.1530    66.0220    51.4030    23.2650     2.5250   -16.8110 
  244.0000    57.4480    85.6290    80.8330    47.8000    22.8600     2.4790   -16.6490 
  244.1250    54.1550   108.5520   103.7890    55.2740    22.6250     2.3990   -16.4870 
  244.2500    50.7120   132.8810   128.9530    90.2430    22.6360     2.3410   -16.3190 
  244.3750    48.1870   150.6870   148.2600   157.5760    22.8920     2.3390   -16.1570 
  244.5000    45.3610   153.6170   153.2080   229.6210    23.3140     2.4010   -15.9400 
  244.6250    43.3710   135.8880   137.5630   299.7800    23.6940     2.5140   -15.6620 
  244.7500    44.9460   109.1050   111.5380   295.5670    23.8890     2.6220   -15.4000 
  244.8750    48.1720    84.3830    85.7950   172.4170    23.9150     2.6830   -15.1430 
  245.0000    48.9390    66.9400    66.7920    81.9090    23.8500     2.6750   -14.8500 
  245.1250    47.0840    57.1940    56.1340    56.4970    23.6860     2.6060   -14.5580 
  245.2500    47.2620    51.7470    50.2820    50.3890    23.4100     2.5230   -14.2980 
  245.3750    51.1700    49.0910    47.4360    46.6530    23.0900     2.4590   -14.0590 
  245.5000    56.6140    48.3220    46.5450    43.2490    22.8440     2.4230   -13.8300 
  245.6250    60.8730    49.0630    47.1810    40.8820    22.8130     2.4130   -13.6000 
  245.7500    62.7170    50.6020    48.6280    42.3310    23.0270     2.4090   -13.3820 
  245.8750    62.3610    52.3690    50.3490    49.1910    23.3980     2.4030   -13.1690 
  246.0000    61.9950    53.6150    51.6420    58.6630    23.7120     2.4020   -12.9780 
  246.1250    63.1840    53.2400    51.4340    70.3480    23.8250     2.4180   -12.7850 
  246.2500    65.1480    51.0300    49.4310    75.3760    23.8370     2.4500   -12.5580 
  246.3750    66.7480    47.2900    45.8470    65.6650    23.8100     2.4850   -12.3470 
  246.5000    67.2600    42.9180    41.5000    50.2980    23.7520     2.5010   -12.2030 
  246.6250    66.8220    39.3150    37.6890    39.4550    23.6000     2.4880   -12.1240 
  246.7500    63.7210    37.2920    35.2130    32.3730    23.3710     2.4600   -12.0580 
  246.8750    59.0810    36.9490    34.1620    26.2590    23.1090     2.4320   -12.0030 
  247.0000    57.0310    37.5290    33.9320    23.4470    22.8950     2.4040   -11.9610 
  247.1250    58.8920    37.3140    33.1340    26.3360    22.8990     2.3700   -11.9400 
  247.2500    59.7880    34.8620    30.5990    36.7380    23.0420     2.3280   -11.9140 
  247.3750    56.7310    29.8290    26.0660    50.0370    23.2680     2.2900   -11.8610 
  247.5000    50.6730    23.1010    20.4440    61.6530    23.5270     2.2750   -11.7850 
  247.6250    43.0720    17.0030    15.5380    64.6750    23.7270     2.3000   -11.6800 
  247.7500    34.8550    13.1020    12.2960    49.8960    23.7450     2.3560   -11.5560 
  247.8750    28.9800    11.7620    10.7800    29.1750    23.6040     2.4220   -11.4260 
  248.0000    25.9980    11.9870    10.6330    27.2210    23.4240     2.4780   -11.2860 
  248.1250    24.3530    12.9660    11.3150    41.5740    23.3580     2.5160   -11.1380 
  248.2500    23.1230    13.6160    11.9250    58.9390    23.3350     2.5520   -11.0020 
  248.3750    22.3190    13.2960    11.8310    71.3310    23.2970     2.5930   -10.8660 
  248.5000    22.0660    11.8190    10.7300    64.5760    23.2830     2.6260   -10.7160 
  248.6250    22.2410     9.5610     8.8290    37.7560    23.3360     2.6200   -10.5460 
  248.7500    22.2690     7.3640     6.9240    17.0340    23.3690     2.5660   -10.3620 
  248.8750    22.7090     5.6570     5.4300     8.0490    23.2840     2.4800   -10.1680 
  249.0000    23.9550     4.5410     4.4550     4.5230    23.0500     2.3910    -9.9920 
  249.1250    25.4610     3.9860     3.9860     3.7360    22.6720     2.3300    -9.8480 
  249.2500    25.1840     3.9370     3.8100     3.6190    22.2230     2.3050    -9.7360 
  249.3750    23.4670     4.0280     3.8120     3.6850    21.8460     2.3110    -9.6570 
  249.5000    22.0960     4.1630     3.8980     3.6970    21.7250     2.3330    -9.5910 
  249.6250    21.9570     4.2700     3.9980     3.6790    21.9800     2.3520    -9.5530 
  249.7500    22.6340     4.3280     4.0690     3.7260    22.4230     2.3590    -9.5510 
  249.8750    24.6760     4.3390     4.0960     3.7720    22.8120     2.3540    -9.5760 
  250.0000    27.3860     4.3210     4.0820     3.7500    23.0190     2.3440    -9.6150 
  250.1250    28.7350     4.2920     4.0340     3.6950    23.0720     2.3410    -9.6680 
