~V
VERS. 2.00: Ver 2.00
~W
STRT.M 55.0000:
STOP.M 308.0000:
STEP.M 0.1250:
NULL. -999.2500:
UWI. F10053:
~C
DEPT.M :
GR.API :
RML.OHMM :
RI. :
RXO.OHMM :
CALI.CM :
DEN.GM/CC :
SP.MV :
~A
# ...
  122.5000    63.9110     9.3550     8.2880     9.9890    23.2680     2.1640   -17.2530 
  122.6250    68.6280     9.3450     8.3280    10.2160    23.1230     2.1720   -16.4880 
  122.7500    73.1370     9.2560     8.2860    10.2030    23.0240     2.1860   -15.7250 
  122.8750    73.2440     9.0930     8.1370     9.8350    23.0470     2.2040   -15.0580 
  123.0000    70.5190     8.8920     7.9070     9.2030    23.2160     2.2190   -14.4400 
  123.1250    70.9120     8.7180     7.6680     8.5800    23.4660     2.2220   -13.8120 
  123.2500    75.6240     8.6240     7.4950     8.2800    23.6430     2.2120   -13.2640 
  123.3750    79.5780     8.6340     7.4170     8.0290    23.6970     2.1940   -12.8360 
  123.5000    79.0030     8.7260     7.4190     7.0600    23.6370     2.1760   -12.5110 
  123.6250    76.0200     8.8200     7.4390     7.2110    23.5620     2.1680   -12.2690 
  123.7500    74.0940     8.8260     7.4090     7.7890    23.5010     2.1710   -12.0400 
  123.8750    73.5960     8.7170     7.3020     7.7290    23.4830     2.1810   -11.8250 
  124.0000    75.3800     8.5430     7.1600     6.9200    23.4940     2.1940   -11.6710 
  124.1250    79.4120     8.4510     7.0780     8.2220    23.5220     2.2060   -11.5060 
  124.2500    81.7570     8.5530     7.1130     9.2140    23.5360     2.2150   -11.3450 
  124.3750    80.1780     8.8800     7.2870     9.9150    23.5390     2.2210   -11.2260 
  124.5000    76.7650     9.3730     7.6060    10.5370    23.5370     2.2230   -11.1970 
  124.6250    76.3300     9.8880     8.0660    10.5720    23.5360     2.2190   -11.2950 
  124.7500    76.8430    10.2730     8.5650    10.2600    23.5260     2.2070   -11.5690 
  124.8750    75.1250    10.4640     8.9930     9.9640    23.4910     2.1890   -12.0640 
  125.0000    71.5920    10.4700     9.2670    10.0030    23.4250     2.1720   -12.6200 
  125.1250    69.8340    10.3380     9.3020    10.1890    23.4290     2.1630   -13.1680 
  125.2500    71.1730    10.1630     9.1410    10.7980    23.4680     2.1620   -13.6770 
  125.3750    73.2680    10.0010     8.8630    10.9210    23.5090     2.1640   -14.1290 
  125.5000    74.0970     9.9050     8.5790    10.5150    23.5290     2.1610   -14.5620 
  125.6250    73.3850     9.9380     8.4030    10.4300    23.5360     2.1530   -14.9510 
  125.7500    72.8550    10.0860     8.3720    10.4450    23.5340     2.1460   -15.3150 
  125.8750    73.4810    10.3090     8.4830    10.3710    23.5220     2.1450   -15.6210 
  126.0000    73.1790    10.5470     8.7020    11.4290    23.4950     2.1520   -15.8500 
  126.1250    70.0820    10.7380     8.9750    12.1290    23.4900     2.1610   -16.0310 
  126.2500    68.5380    10.8700     9.2400    12.3590    23.5030     2.1650   -16.1580 
  126.3750    70.5250    10.9460     9.4540    11.7860    23.5140     2.1630   -16.2500 
  126.5000    74.4380    10.9580     9.5690    11.6040    23.5200     2.1550   -16.2090 
  126.6250    77.1650    10.8840     9.5470    11.3500    23.5230     2.1500   -16.0420 
  126.7500    78.0180    10.7480     9.4230    10.9580    23.5200     2.1500   -15.7670 
  126.8750    78.1620    10.5870     9.2200    10.4900    23.5100     2.1560   -15.3320 
  127.0000    78.2650    10.4380     8.9650    10.1860    23.5370     2.1640   -14.9010 
  127.1250    77.8550    10.3190     8.7050    10.1370    23.6420     2.1670   -14.5200 
  127.2500    76.5030    10.2240     8.5010    10.1030    23.7370     2.1630   -14.2350 
  127.3750    75.3200    10.1540     8.3730     9.9540    23.7940     2.1550   -13.9980 
  127.5000    76.5780    10.1180     8.3070     9.7460    23.8190     2.1490   -13.7990 
  127.6250    78.0660    10.1000     8.2570     9.7460    23.8350     2.1490   -13.7050 
  127.7500    77.3600    10.0320     8.1650     9.8130    23.8340     2.1530   -13.7000 
  127.8750    76.5500     9.8580     8.0220     9.8220    23.8670     2.1580   -13.8340 
  128.0000    77.5120     9.6130     7.8820     9.7610    23.8800     2.1630   -14.0110 
  128.1250    77.3020     9.4840     7.8870     9.5110    23.8060     2.1730   -14.1580 
  128.2500    74.1090     9.6350     8.1250     9.2460    23.6680     2.1920   -14.2060 
  128.3750    70.7760    10.0900     8.6090     9.4490    23.5700     2.2140   -14.1000 
  128.5000    71.5030    10.6920     9.2460    11.5530    23.5390     2.2300   -13.8890 
  128.6250    76.1580    11.1150     9.7790    17.5100    23.6330     2.2270   -13.6240 
  128.7500    79.6740    11.1610     9.9630    20.5300    23.7930     2.2110   -13.3380 
  128.8750    79.4590    10.8200     9.7420    14.6750    23.9470     2.1910   -12.9740 
  129.0000    77.3810    10.2300     9.2660    10.0990    24.0520     2.1790   -12.5940 
  129.1250    76.7680     9.6120     8.7760     8.8230    24.1050     2.1790   -12.2310 
  129.2500    77.6130     9.1470     8.4210     8.6160    24.1380     2.1850   -11.9370 
  129.3750    79.1330     8.9060     8.2190     8.4770    24.1650     2.1920   -11.6830 
  129.5000    80.5680     8.8720     8.1350     8.4140    24.1790     2.1970   -11.4860 
  129.6250    79.7330     8.9470     8.1160     8.3940    24.1530     2.1980   -11.3770 
  129.7500    78.2060     8.9840     8.1070     8.4690    24.0830     2.1960   -11.3290 
  129.8750    78.4930     8.9350     8.0960     8.5100    24.0100     2.1910   -11.3330 
  130.0000    78.6470     8.8390     8.0700     8.5490    23.9730     2.1870   -11.3640 
  130.1250    75.5390     8.7860     8.0100     8.4570    23.9650     2.1860   -11.4230 
  130.2500    73.0400     8.7860     7.9200     8.3940    23.9710     2.1880   -11.5180 
  130.3750    75.1200     8.7870     7.8140     8.2880    23.9600     2.1900   -11.7280 
  130.5000    79.2770     8.7220     7.7210     8.2350    23.9350     2.1920   -12.0050 
  130.6250    79.7830     8.5730     7.6900     8.2490    23.9230     2.1900   -12.2000 
  130.7500    77.5140     8.4190     7.7340     8.3050    23.9190     2.1870   -12.3600 
  130.8750    75.8020     8.3330     7.8310     8.5020    23.9090     2.1820   -12.4730 
  131.0000    75.8160     8.3410     7.9240     8.8470    23.8800     2.1790   -12.5750 
  131.1250    75.7160     8.4170     7.9520     8.7800    23.8280     2.1790   -12.6870 
  131.2500    74.8100     8.5150     7.9320     8.5550    23.8050     2.1810   -12.7640 
  131.3750    74.3590     8.6410     7.9220     8.4650    23.8000     2.1820   -12.8170 
  131.5000    73.6890     8.8300     7.9780     8.4790    23.8000     2.1810   -12.8570 
  131.6250    69.9330     9.1090     8.1530     8.5960    23.8000     2.1750   -12.9960 
  131.7500    65.6300     9.4170     8.4080     8.8000    23.7990     2.1680   -13.2190 
  131.8750    64.1670     9.6750     8.6760     9.1130    23.7980     2.1620   -13.5240 
  132.0000    65.5230     9.8230     8.8790     9.4160    23.7950     2.1620   -13.8760 
  132.1250    67.1970     9.8490     8.9660     9.6100    23.7940     2.1640   -14.2960 
  132.2500    67.6440     9.8310     8.9870     9.7870    23.7940     2.1640   -14.7350 
  132.3750    67.6280     9.8330     9.0040     9.8730    23.7870     2.1620   -15.2030 
  132.5000    68.0380     9.8900     9.0820     9.9460    23.7430     2.1570   -15.7410 
  132.6250    69.1870    10.0110     9.2560    10.0810    23.5970     2.1520   -16.2890 
  132.7500    70.0220    10.1530     9.4830    10.0300    23.3950     2.1450   -16.7790 
  132.8750    69.7620    10.2840     9.7260    10.0310    23.2590     2.1360   -17.2450 
  133.0000    68.0950    10.3920     9.9650     9.9870    23.2100     2.1270   -17.7020 
  133.1250    65.7810    10.4940    10.1610    10.0610    23.1900     2.1210   -18.0610 
  133.2500    64.1280    10.6190    10.2640    10.2850    23.1590     2.1200   -18.3520 
  133.3750    64.2600    10.7620    10.2480    10.4850    23.1270     2.1250   -18.5480 
  133.5000    66.2110    10.8680    10.1150    10.4800    23.0820     2.1330   -18.5800 
  133.6250    68.9110    10.8100     9.8510    10.0990    23.0070     2.1460   -18.3880 
