~V
VERS. 2.00: Ver 2.00
~W
STRT.M 55.0000:
STOP.M 297.0000:
STEP.M 0.1250:
NULL. -999.2500:
UWI. F10076:
~C
DEPT.M :
DEN.GM/CC :
SP.MV :
GR.API :
CALI.CM :
RXO.OHMM :
RI. :
RML.OHMM :
~A
# ...
  100.0000     2.0770   -14.3470    78.5690    22.9420     7.0140     6.9010     9.2690 
  100.1250     2.0640   -14.4010    78.0560    22.6990     7.0230     6.9090     9.3180 
  100.2500     2.0820   -14.5450    77.3880    22.6950     7.4340     6.9400     9.3910 
  100.3750     2.1370   -14.7960    77.3340    23.0110     8.5900     6.9700     9.4480 
  100.5000     2.2010   -15.1280    77.1240    23.3790     9.5660     6.9700     9.4550 
  100.6250     2.2280   -15.4940    76.9780    23.7240     9.2800     6.9180     9.3850 
  100.7500     2.2170   -15.8780    75.7190    23.9340     8.2690     6.8270     9.2670 
  100.8750     2.1880   -16.2630    74.3320    24.2450     7.7370     6.7230     9.1410 
  101.0000     2.1540   -16.5860    74.1750    24.6620     7.6280     6.6500     9.0650 
  101.1250     2.1220   -16.7730    73.8810    24.9700     7.6120     6.6670     9.1110 
  101.2500     2.0910   -16.8540    71.8450    25.1170     7.7570     6.7810     9.2610 
  101.3750     2.0560   -16.8160    67.5320    25.2490     9.0230     6.9680     9.4630 
  101.5000     2.0140   -16.6770    61.7450    25.4410    14.0280     7.1700     9.6320 
  101.6250     1.9750   -16.4590    58.2770    25.8000    20.5800     7.3040     9.6560 
  101.7500     1.9590   -16.1440    58.6860    26.2240    20.7300     7.3270     9.5190 
  101.8750     1.9720   -15.7040    61.8410    26.1760    14.4390     7.2450     9.2650 
  102.0000     2.0060   -15.1650    63.8330    25.1540     8.8340     7.1060     8.9840 
  102.1250     2.0340   -14.5560    64.1220    24.1080     7.4320     6.9820     8.7820 
  102.2500     2.0420   -13.8320    65.6830    23.7930     7.0370     6.9150     8.6700 
  102.3750     2.0390   -13.0300    68.8290    24.0830     6.9050     6.8820     8.5820 
  102.5000     2.0430   -12.1150    71.6820    24.5910     6.8750     6.8150     8.4020 
  102.6250     2.0620   -11.0000    73.4640    25.0000     6.6980     6.5970     7.9970 
  102.7500     2.0950    -9.7660    78.2460    25.1360     6.2180     6.2210     7.4140 
  102.8750     2.1410    -8.5870    89.9730    25.0480     5.4970     5.7400     6.7630 
  103.0000     2.1980    -7.4850   106.8850    24.8650     4.7640     5.2460     6.1740 
  103.1250     2.2530    -6.4420   122.2260    24.6280     4.2760     4.8420     5.7700 
  103.2500     2.2890    -5.5450   133.3520    24.5360     3.9810     4.5610     5.5470 
  103.3750     2.3020    -4.7760   139.5150    24.5440     3.8140     4.3970     5.4670 
  103.5000     2.3010    -4.1970   140.2670    24.5670     3.7070     4.3100     5.4570 
  103.6250     2.2990    -3.9570   136.1890    24.5690     3.6150     4.2350     5.4120 
  103.7500     2.3010    -3.9590   131.3920    24.5450     3.5300     4.1150     5.2580 
  103.8750     2.3060    -4.0700   126.8970    24.4970     3.4220     3.9330     4.9870 
  104.0000     2.3110    -4.2940   123.0270    24.4870     3.3100     3.7200     4.6680 
  104.1250     2.3080    -4.7310   122.9220    24.5530     3.3150     3.5940     4.4950 
  104.2500     2.3000    -5.2980   125.6640    24.5940     3.4920     3.6930     4.6580 
  104.3750     2.3030    -6.0020   127.0370    24.5320     4.0840     4.1770     5.3430 
  104.5000     2.3340    -6.7950   124.6320    24.5310     5.8490     5.2250     6.7310 
  104.6250     2.3990    -7.5940   117.8490    24.6750    11.3570     7.1280     9.1050 
  104.7500     2.4700    -8.4150   107.3640    24.8270    19.2650     9.6480    12.0670 
  104.8750     2.5090    -9.3180    93.3500    24.8850    24.3250    12.0250    14.5460 
  105.0000     2.4890   -10.1990    80.1610    24.8210    22.1920    13.0350    15.0600 
  105.1250     2.3990   -10.9480    74.0330    24.6390    15.1280    12.0290    13.2870 
  105.2500     2.2880   -11.6110    74.2380    24.5400     9.8370    10.3430    11.1480 
  105.3750     2.1940   -12.1690    77.8970    24.5760     7.7000     8.8670     9.5920 
  105.5000     2.1340   -12.6640    80.1800    24.6330     7.3480     7.9320     8.8110 
  105.6250     2.1120   -13.0830    77.8650    24.7140     7.4520     7.6040     8.7300 
  105.7500     2.1120   -13.4290    74.2420    24.8930     7.4790     7.6400     8.9950 
  105.8750     2.1200   -13.6150    72.2360    25.1350     7.4720     7.8700     9.3880 
  106.0000     2.1260   -13.7550    71.6410    25.2560     7.5090     8.1450     9.7360 
  106.1250     2.1270   -13.9220    70.4610    25.2100     7.6630     8.3630     9.9350 
  106.2500     2.1330   -14.0420    70.4250    25.1090     7.8270     8.5130    10.0200 
  106.3750     2.1440   -14.1260    71.8910    25.0330     7.9270     8.5970    10.0310 
  106.5000     2.1530   -14.1340    72.7800    25.0020     7.9270     8.6180    10.0010 
  106.6250     2.1490   -14.1020    71.3690    25.0560     7.8620     8.5700     9.9550 
  106.7500     2.1390   -14.0300    70.4060    25.1410     7.8050     8.4820     9.9220 
  106.8750     2.1270   -13.9860    71.4470    25.2090     7.7990     8.3740     9.9120 
  107.0000     2.1190   -13.8840    73.1810    25.2580     7.8060     8.2640     9.9110 
  107.1250     2.1170   -13.6620    74.5550    25.3310     7.7360     8.1590     9.8860 
  107.2500     2.1160   -13.4470    76.3040    25.3380     7.6460     8.0650     9.8300 
  107.3750     2.1100   -13.2460    78.7300    25.1270     7.6580     7.9940     9.7690 
  107.5000     2.1050   -13.0780    80.5910    24.7290     7.6970     7.9660     9.7370 
  107.6250     2.1170   -12.9120    80.8340    24.5580     7.5680     8.0070     9.7760 
  107.7500     2.1440   -12.7760    79.1680    24.7090     7.4620     8.1030     9.8800 
  107.8750     2.1640   -12.6590    76.5240    24.9000     7.6460     8.2320    10.0200 
  108.0000     2.1580   -12.5480    74.0390    24.8840     8.0240     8.3570    10.1510 
  108.1250     2.1300   -12.4960    73.0800    24.6600     8.1830     8.4340    10.2290 
  108.2500     2.1070   -12.4410    72.5660    24.5370     8.2340     8.4510    10.2440 
  108.3750     2.0980   -12.3400    71.6780    24.5030     8.2530     8.4030    10.1890 
  108.5000     2.0990   -12.1880    70.3690    24.4970     8.2830     8.2950    10.0620 
  108.6250     2.1000   -11.9910    70.3710    24.4790     8.2530     8.1240     9.8640 
  108.7500     2.1020   -11.7820    71.7380    24.4500     8.1390     7.9150     9.6350 
  108.8750     2.1130   -11.5550    73.1740    24.4320     7.8920     7.6980     9.4240 
  109.0000     2.1330   -11.3640    74.9770    24.4130     7.5870     7.5220     9.2840 
  109.1250     2.1470   -11.2160    77.3910    24.3600     7.3470     7.4530     9.2770 
  109.2500     2.1450   -11.0930    78.0430    24.2800     7.3910     7.4890     9.3750 
  109.3750     2.1350   -11.0470    76.6620    24.2270     7.5820     7.6030     9.5290 
  109.5000     2.1250   -11.0840    76.2260    24.2100     7.6610     7.7430     9.6780 
  109.6250     2.1160   -11.2130    77.4050    24.2110     7.6170     7.8490     9.7620 
  109.7500     2.1060   -11.3460    77.2170    24.2130     7.5870     7.9050     9.7860 
  109.8750     2.0950   -11.4830    77.5970    24.2140     7.6140     7.9300     9.7850 
  110.0000     2.0920   -11.6080    79.4000    24.2140     7.6610     7.9580     9.8010 
  110.1250     2.0980   -11.7030    79.9450    24.2120     7.7510     8.0160     9.8650 
  110.2500     2.1050   -11.7850    78.1330    24.2100     7.8600     8.0880     9.9460 
  110.3750     2.1080   -11.8220    74.9400    24.2090     7.9880     8.1430     9.9950 
  110.5000     2.1080   -11.8040    72.2300    24.2100     8.0340     8.1390     9.9710 
  110.6250     2.1100   -11.7010    72.3470    24.2120     7.8550     8.0470     9.8510 
  110.7500     2.1150   -11.5810    74.6220    24.2100     7.5120     7.8980     9.6860 
  110.8750     2.1190   -11.4380    76.6120    24.1960     7.2330     7.7350     9.5340 
  111.0000     2.1200   -11.3160    76.5950    24.1580     7.1700     7.6130     9.4500 
  111.1250     2.1200   -11.2030    76.8960    24.0980     7.3620     7.5900     9.4790 
