~V
VERS. 2.00: Ver 2.00
~W
STRT.M 50.0000:
STOP.M 280.0000:
STEP.M 0.1250:
NULL. -999.2500:
UWI. F10023:
~C
DEPT.M :
SP.MV :
DEN.GM/CC :
GR.API :
CALI.CM :
RXO.OHMM :
RI. :
RML.OHMM :
~A
# ...
  196.2500   -27.8010     2.2820    89.6580    23.3500    17.5640    15.8890    15.4650 
  196.3750   -27.6770     2.2850    91.9470    22.9300    16.7790    15.2290    14.8310 
  196.5000   -27.5960     2.2880    91.8380    22.7180    15.9910    14.6410    14.2590 
  196.6250   -27.4770     2.2800    89.3990    22.5940    15.9000    14.0940    13.6950 
  196.7500   -27.3280     2.2670    88.9270    22.4800    15.6700    13.6560    13.2440 
  196.8750   -27.1560     2.2600    91.8530    22.4790    15.5520    13.5440    13.1910 
  197.0000   -26.9930     2.2700    95.5380    22.6700    16.0420    14.1150    13.9400 
  197.1250   -26.8610     2.3050    95.5610    22.9240    18.1630    16.3230    16.2930 
  197.2500   -26.7000     2.3650    93.9410    23.1690    24.8530    20.9090    20.6640 
  197.3750   -26.4420     2.4490    91.3270    23.3600    43.3630    28.1700    27.1780 
  197.5000   -26.0530     2.5460    85.3050    23.4940    88.7560    36.0160    33.5640 
  197.6250   -25.5420     2.6140    74.7970    23.6610   127.3120    36.7340    32.0280 
  197.7500   -24.9060     2.6290    65.6360    23.8860   107.2350    28.9320    23.5240 
  197.8750   -24.2020     2.5970    62.9850    24.0340    50.7590    18.7970    14.8900 
  198.0000   -23.4550     2.5370    66.1160    24.0600    15.6710    11.2330     9.2300 
  198.1250   -22.6830     2.4610    70.1080    24.0260     6.9130     7.2810     6.4570 
  198.2500   -21.9450     2.3850    70.5950    23.9640     4.7410     5.3060     5.1820 
  198.3750   -21.2250     2.3250    66.7880    23.8600     4.5210     4.5150     4.8730 
  198.5000   -20.5510     2.3000    59.8900    23.7160     4.8670     4.4880     5.1910 
  198.6250   -19.9650     2.3130    53.4940    23.6120     5.4320     5.0350     5.8820 
  198.7500   -19.5080     2.3380    51.6050    23.4720     5.9750     5.7800     6.5840 
  198.8750   -19.2100     2.3570    54.4990    23.2640     6.2940     6.4490     7.0720 
  199.0000   -19.0200     2.3620    58.1370    23.1400     6.3440     6.8580     7.2590 
  199.1250   -18.8840     2.3600    59.2330    23.1680     6.1870     6.9460     7.1720 
  199.2500   -18.7640     2.3590    59.3490    23.1840     5.9740     6.8570     6.9800 
  199.3750   -18.6710     2.3620    60.0050    23.0320     5.8300     6.6950     6.7930 
  199.5000   -18.5990     2.3700    59.9650    22.8720     5.8200     6.5490     6.6830 
  199.6250   -18.5740     2.3740    58.9120    22.8200     5.8980     6.4720     6.6960 
  199.7500   -18.6140     2.3680    58.2490    22.7840     5.9930     6.4460     6.7940 
  199.8750   -18.6630     2.3530    57.7450    22.7480     6.1300     6.4420     6.9330 
  200.0000   -18.6970     2.3380    56.0880    22.8280     6.2980     6.4290     7.0670 
  200.1250   -18.6570     2.3380    55.5950    23.0390     6.4190     6.3770     7.1450 
  200.2500   -18.5870     2.3530    56.9970    23.1750     6.4240     6.2940     7.1690 
  200.3750   -18.5490     2.3740    58.5350    23.1250     6.3690     6.1960     7.1670 
  200.5000   -18.5620     2.3880    58.7210    22.8710     6.3440     6.1080     7.1810 
  200.6250   -18.6220     2.3880    57.8640    22.7350     6.3560     6.0660     7.2560 
  200.7500   -18.6480     2.3830    56.1480    22.9920     6.4020     6.0830     7.3820 
  200.8750   -18.6280     2.3810    51.7430    23.4260     6.5420     6.1520     7.5410 
  201.0000   -18.6110     2.3840    47.1210    23.7960     6.8270     6.2620     7.7120 
  201.1250   -18.5930     2.3910    48.9320    23.9770     7.3750     6.3950     7.8700 
  201.2500   -18.6020     2.3910    54.3220    24.0730     7.8090     6.5210     7.9970 
  201.3750   -18.6390     2.3840    58.1260    24.1000     7.9820     6.6290     8.0720 
  201.5000   -18.6840     2.3760    59.0300    24.0910     8.0580     6.7050     8.0730 
  201.6250   -18.6520     2.3740    60.7880    24.0630     8.1600     6.7160     7.9690 
  201.7500   -18.5440     2.3780    63.2140    24.0340     8.1400     6.6560     7.7890 
  201.8750   -18.4130     2.3860    62.9050    23.9940     7.8020     6.5330     7.5730 
  202.0000   -18.2880     2.3950    59.5670    23.9350     7.2320     6.3730     7.3680 
  202.1250   -18.2630     2.4000    55.9010    23.9040     6.8110     6.2170     7.2280 
  202.2500   -18.2540     2.3970    53.5110    23.8940     6.6510     6.1010     7.1610 
  202.3750   -18.2270     2.3890    52.1100    23.8920     6.7780     6.0340     7.1450 
  202.5000   -18.1720     2.3810    51.1080    23.8910     6.9550     5.9950     7.1360 
  202.6250   -18.0990     2.3780    50.4250    23.8910     6.8170     5.9490     7.0820 
  202.7500   -18.0560     2.3790    50.3920    23.8910     6.4180     5.8740     6.9820 
  202.8750   -18.0590     2.3770    50.2210    23.8910     6.0570     5.7780     6.8720 
  203.0000   -18.0930     2.3690    49.2120    23.8900     5.9200     5.6900     6.7910 
  203.1250   -18.1220     2.3560    49.2130    23.8900     5.9620     5.6530     6.7740 
  203.2500   -18.1440     2.3480    50.7120    23.8920     6.0180     5.6720     6.8090 
  203.3750   -18.1350     2.3510    52.1120    23.9010     6.0490     5.7410     6.8790 
  203.5000   -18.0870     2.3660    51.5990    23.9110     6.0770     5.8400     6.9680 
  203.6250   -18.0710     2.3800    50.2810    23.9100     6.1560     5.9320     7.0570 
  203.7500   -18.0960     2.3820    50.1090    23.8990     6.2600     5.9900     7.1320 
  203.8750   -18.1470     2.3730    49.3600    23.8920     6.3250     6.0060     7.1820 
  204.0000   -18.1900     2.3650    46.7450    23.8890     6.2830     5.9840     7.2060 
  204.1250   -18.2120     2.3650    43.6140    23.8750     6.1630     5.9390     7.2080 
  204.2500   -18.2540     2.3610    41.8190    23.8240     6.0800     5.8920     7.2070 
  204.3750   -18.3060     2.3510    41.3640    23.7430     6.1030     5.8600     7.2210 
  204.5000   -18.4100     2.3430    42.6330    23.6890     6.2050     5.8550     7.2690 
  204.6250   -18.5780     2.3480    46.2040    23.6710     6.3180     5.9030     7.3840 
  204.7500   -18.8340     2.3630    51.0370    23.6860     6.4150     6.0110     7.5670 
  204.8750   -19.1450     2.3820    55.0090    23.7750     6.5680     6.1760     7.8060 
  205.0000   -19.5020     2.3980    58.1760    23.8970     6.8950     6.3800     8.0690 
  205.1250   -19.9040     2.3990    64.3890    23.9900     7.4200     6.5860     8.2980 
  205.2500   -20.3190     2.3850    73.6820    24.0090     7.8890     6.7700     8.4730 
  205.3750   -20.8070     2.3640    82.7880    23.9910     8.1080     6.9470     8.6290 
  205.5000   -21.3560     2.3460    89.4590    23.9810     8.1930     7.1690     8.8560 
  205.6250   -21.9460     2.3320    97.2250    23.9970     8.5680     7.5440     9.2930 
  205.7500   -22.4720     2.3160   106.7710    24.0210     9.3190     8.1090     9.9600 
  205.8750   -22.8570     2.3010   111.3900    24.0410    10.6160     8.8390    10.7790 
  206.0000   -23.0640     2.2900   108.1060    24.0070    12.2620     9.5850    11.5150 
  206.1250   -23.0150     2.2870   101.0750    23.7880    13.5040     9.9910    11.7280 
  206.2500   -22.7740     2.2920    94.9780    23.4670    13.5100     9.8690    11.3120 
  206.3750   -22.3600     2.3040    91.0100    23.2980    12.0790     9.2580    10.4270 
  206.5000   -21.8080     2.3180    88.8740    23.4320     9.7910     8.3940     9.3980 
  206.6250   -21.1140     2.3290    87.2630    23.7090     7.9190     7.5760     8.5620 
  206.7500   -20.3130     2.3450    81.4990    23.9960     7.1490     6.9640     8.0060 
  206.8750   -19.5120     2.3650    72.0190    24.2000     7.0890     6.5810     7.6920 
  207.0000   -18.8120     2.3800    62.7070    24.2670     7.1190     6.3800     7.5400 
  207.1250   -18.3150     2.3770    53.7530    24.2130     6.8850     6.3030     7.4730 
  207.2500   -17.9830     2.3620    46.6750    24.1260     6.5810     6.2710     7.4280 
  207.3750   -17.7880     2.3520    44.0360    24.0460     6.3880     6.2570     7.3980 
