~V
VERS. 2.00: Ver 2.00
~W
STRT.M 50.0000:
STOP.M 207.0000:
STEP.M 0.1250:
NULL. -999.2500:
UWI. F10009:
~C
DEPT.M :
GR.API :
RML.OHMM :
RI. :
RXO.OHMM :
CALI.CM :
DEN.GM/CC :
SP.MV :
~A
# ...
   72.5000    89.5580     7.3030     7.2560     7.2720    23.4560     2.3190   -22.4100 
   72.6250    86.7080     7.3770     7.2400     7.4250    23.3730     2.3220   -22.6750 
   72.7500    85.0000     7.3290     7.0990     7.5780    23.3150     2.3270   -22.9420 
   72.8750    83.9920     7.1220     6.8170     7.4660    23.3100     2.3340   -23.1500 
   73.0000    83.8170     6.7870     6.4230     7.1200    23.3460     2.3410   -23.1910 
   73.1250    84.9030     6.4640     6.0270     6.6210    23.3720     2.3450   -22.8450 
   73.2500    85.5080     6.3730     5.7960     6.3790    23.3510     2.3440   -22.0500 
   73.3750    84.8900     6.7140     5.8810     6.6470    23.2990     2.3360   -20.8040 
   73.5000    83.7270     7.6310     6.4100     7.8150    23.2550     2.3210   -19.1870 
   73.6250    81.2190     9.2850     7.5680    10.5590    23.2480     2.3100   -17.3680 
   73.7500    75.6570    11.5140     9.3000    14.5100    23.2610     2.3170   -15.5680 
   73.8750    68.4700    14.1880    11.5640    18.9220    23.2750     2.3490   -13.8530 
   74.0000    63.0170    17.1760    14.2680    23.0080    23.2570     2.4030   -12.3130 
   74.1250    62.0470    20.4650    17.3570    25.4800    23.1770     2.4620   -11.1340 
   74.2500    63.7480    24.0340    20.6950    29.0760    23.0870     2.5060   -10.3580 
   74.3750    65.5270    27.8120    24.1750    34.8670    23.0590     2.5320   -10.0020 
   74.5000    66.3010    31.4790    27.5440    40.6290    23.1250     2.5510    -9.9880 
   74.6250    66.1950    34.2160    30.1440    44.0890    23.2460     2.5650   -10.1390 
   74.7500    67.4570    35.4300    31.4540    44.6840    23.3350     2.5600   -10.2830 
   74.8750    71.9890    34.8530    31.1930    44.0350    23.3180     2.5180   -10.3930 
   75.0000    80.0150    32.7660    29.5660    39.4260    23.1850     2.4390   -10.4490 
   75.1250    85.9070    29.8450    27.1230    30.7410    22.9820     2.3480   -10.4620 
   75.2500    85.3600    26.9540    24.6210    23.9460    22.7860     2.2750   -10.4800 
   75.3750    79.0890    24.3900    22.3250    20.4410    22.6220     2.2320   -10.5180 
   75.5000    72.2620    22.1070    20.2280    18.3190    22.4660     2.2180   -10.5820 
   75.6250    70.9560    19.8430    18.1430    16.0660    22.2590     2.2280   -10.6860 
   75.7500    73.5180    17.3940    15.9240    13.9250    21.9540     2.2480   -10.8070 
   75.8750    76.4660    14.8160    13.6200    12.4180    21.4900     2.2740   -10.9580 
   76.0000    78.9280    12.3630    11.4290    11.0850    20.8100     2.2990   -11.1400 
   76.1250    82.6950    10.4790     9.6900     9.3510    19.9700     2.3160   -11.3320 
   76.2500    87.2480     9.3220     8.5190     7.7130    19.0560     2.3220   -11.5100 
   76.3750    89.7080     8.9440     7.9600     6.9760    18.1270     2.3190   -11.6500 
   76.5000    89.9210     9.2750     7.9730     6.8640    17.2930     2.3110   -11.7470 
   76.6250    88.7790    10.1750     8.4850     7.1980    16.7310     2.3000   -11.8020 
   76.7500    89.0800    11.2100     9.1830     7.5430    16.4250     2.2890   -11.8300 
   76.8750    92.1860    12.0190     9.7940     7.9030    16.2950     2.2780   -11.8410 
   77.0000    94.7510    12.2980    10.0750     8.2060    16.2490     2.2690   -11.8540 
   77.1250    94.2690    11.8420     9.8330     8.3730    16.2440     2.2660   -11.8900 
   77.2500    92.5380    10.9970     9.2700     8.2480    16.2430     2.2770   -11.9480 
   77.3750    91.3410    10.2060     8.6710     8.1370    16.2260     2.3150   -12.0350 
   77.5000    90.9250     9.9490     8.3540     8.2330    16.1900     2.3860   -12.1650 
   77.6250    91.6910    10.7750     8.7030     8.6510    16.1450     2.4820   -12.3390 
   77.7500    94.4030    12.6400     9.7730     9.4520    16.1090     2.5630   -12.5520 
   77.8750    98.1180    15.3240    11.5180    10.6240    16.0850     2.5870   -12.7580 
   78.0000   103.3090    18.3060    13.6740    11.8420    16.0750     2.5380   -12.9150 
   78.1250   105.8680    20.6550    15.6500    12.5110    16.1080     2.4370   -13.0030 
   78.2500    99.9460    21.6590    16.8070    12.4370    16.1870     2.3380   -13.0500 
   78.3750    87.4830    20.9830    16.7480    11.8970    16.3230     2.2650   -13.0650 
   78.5000    77.2970    18.8250    15.4730    11.3610    16.5160     2.2220   -13.0540 
   78.6250    74.5060    15.8300    13.3710    10.7850    16.7630     2.2120   -13.0250 
   78.7500    74.3510    13.0140    11.2520    10.2300    17.0390     2.2300   -12.9820 
   78.8750    75.2670    10.9720     9.5920     9.7570    17.3560     2.2780   -12.9520 
   79.0000    77.2400    10.0300     8.6650     9.9440    17.7370     2.3530   -12.9660 
   79.1250    76.9920    10.4570     8.7210    11.6420    18.2000     2.4360   -13.0270 
   79.2500    74.2590    11.8580     9.5680    13.9280    18.6920     2.4910   -13.1050 
   79.3750    72.0520    13.8130    10.9840    16.2600    19.1940     2.4920   -13.1900 
   79.5000    73.0890    15.6930    12.5610    17.6650    19.6920     2.4430   -13.2670 
   79.6250    76.6370    16.6050    13.6180    16.2890    20.2110     2.3720   -13.3270 
   79.7500    80.0900    16.2740    13.7690    14.3510    20.8180     2.3160   -13.3820 
   79.8750    81.7910    14.8780    13.0080    13.7140    21.5070     2.2900   -13.4340 
   80.0000    80.4870    12.9710    11.6890    12.9310    22.2010     2.2920   -13.4720 
   80.1250    78.8050    11.2300    10.3170    10.9450    22.7910     2.3130   -13.4930 
   80.2500    79.3610     9.9630     9.2070     9.2010    23.2100     2.3350   -13.5100 
   80.3750    80.8090     9.1570     8.4140     8.7560    23.4480     2.3490   -13.5260 
   80.5000    80.9990     8.6880     7.8950     8.7380    23.5370     2.3510   -13.5480 
   80.6250    81.4180     8.4620     7.6150     8.5230    23.5610     2.3440   -13.5840 
   80.7500    83.4420     8.3710     7.4880     8.0990    23.5970     2.3370   -13.6330 
   80.8750    85.5890     8.3950     7.4800     7.7940    23.6560     2.3400   -13.7010 
   81.0000    87.4640     8.5150     7.5590     7.7060    23.7340     2.3530   -13.7960 
   81.1250    88.7650     8.6570     7.6650     7.7030    23.8130     2.3740   -13.9460 
   81.2500    87.7880     8.6760     7.6870     7.9110    23.8660     2.3890   -14.1300 
   81.3750    85.2510     8.4670     7.5380     8.0750    23.8870     2.3920   -14.3270 
   81.5000    84.8010     8.0270     7.1940     7.9240    23.8930     2.3840   -14.5380 
   81.6250    88.3030     7.5280     6.7480     7.2310    23.8980     2.3720   -14.7430 
   81.7500    91.3200     7.2550     6.4180     6.6280    23.9000     2.3680   -14.9370 
   81.8750    92.0320     7.3930     6.3620     6.6260    23.8930     2.3750   -15.1050 
   82.0000    91.6480     7.9590     6.6320     7.3170    23.8650     2.3910   -15.2520 
   82.1250    89.4730     8.7600     7.1450     8.6970    23.8130     2.4090   -15.3570 
   82.2500    86.1470     9.3870     7.6160     9.9730    23.7480     2.4160   -15.4320 
   82.3750    83.1740     9.5420     7.8120    10.5320    23.6980     2.4140   -15.4940 
   82.5000    82.3970     9.1350     7.6130    10.2060    23.7100     2.4040   -15.5430 
   82.6250    84.1320     8.4070     7.1150     8.6830    23.7970     2.3900   -15.6050 
   82.7500    86.7430     7.9780     6.7320     7.6430    23.8690     2.3710   -15.6800 
   82.8750    89.8650     8.3510     6.8290     7.4890    23.8840     2.3380   -15.7700 
   83.0000    90.5890     9.8070     7.6620     8.6690    23.8540     2.2900   -15.8690 
   83.1250    85.9300    12.3580     9.3800    11.3000    23.8080     2.2380   -15.9770 
   83.2500    79.4490    15.1800    11.5050    15.0280    23.7770     2.1970   -16.0730 
   83.3750    74.0330    17.3670    13.4140    18.7870    23.7780     2.1800   -16.1560 
   83.5000    71.2870    18.0700    14.3840    20.4080    23.8050     2.1880   -16.2220 
   83.6250    71.9400    16.6850    13.7300    18.9280    23.8470     2.2200   -16.2680 
