~V
VERS. 2.00: Ver 2.00
~W
STRT.M 56.0000:
STOP.M 269.0000:
STEP.M 0.1250:
NULL. -999.2500:
UWI. F10026:
~C
DEPT.M :
GR.API :
RML.OHMM :
RI. :
RXO.OHMM :
CALI.CM :
DEN.GM/CC :
SP.MV :
~A
# ...
  213.5000    71.8160    10.5780     9.3590    13.6550    24.4170     2.4390   -24.3750 
  213.6250    74.7250    10.4600     9.2230    12.9580    24.4320     2.4420   -24.3120 
  213.7500    76.2050    10.4690     9.1600    11.7150    24.4440     2.4370   -24.2000 
  213.8750    78.7400    10.6770     9.2600    11.2670    24.4840     2.4300   -24.0740 
  214.0000    81.6580    11.1150     9.5740    12.0460    24.5140     2.4240   -23.9760 
  214.1250    80.8750    11.7700    10.1190    12.8310    24.5120     2.4250   -23.9210 
  214.2500    76.8080    12.4870    10.7650    13.9300    24.5050     2.4310   -23.8960 
  214.3750    73.6720    13.1090    11.3850    15.7050    24.4840     2.4420   -23.8580 
  214.5000    73.8670    13.4960    11.8670    18.2480    24.4720     2.4510   -23.7860 
  214.6250    75.3720    13.5610    12.1400    16.7140    24.4790     2.4470   -23.7520 
  214.7500    75.8360    13.4920    12.3180    14.8830    24.4750     2.4280   -23.7880 
  214.8750    75.0250    13.5370    12.5470    14.9580    24.5750     2.3960   -23.8700 
  215.0000    73.9180    13.9410    12.9860    15.9520    24.7190     2.3610   -23.9550 
  215.1250    71.4270    14.8670    13.7690    16.5360    24.9360     2.3350   -24.0190 
  215.2500    68.6420    16.0220    14.7300    16.7040    24.5270     2.3220   -24.0550 
  215.3750    67.9030    16.9700    15.5610    18.0240    24.2420     2.3200   -24.0910 
  215.5000    69.2990    17.2480    15.8780    21.9550    24.1190     2.3280   -24.1610 
  215.6250    72.0920    16.4880    15.3000    21.3690    24.1600     2.3460   -24.2340 
  215.7500    74.5160    15.0840    14.0910    15.7420    24.2800     2.3700   -24.2890 
  215.8750    75.6610    13.4930    12.6250    11.7980    24.3350     2.3920   -24.3200 
  216.0000    76.4200    12.1350    11.2870    10.6550    24.3540     2.4080   -24.3310 
  216.1250    77.5440    11.3560    10.4280    10.8650    24.3950     2.4140   -24.3330 
  216.2500    77.8360    11.1560    10.0970    11.6150    24.3840     2.4130   -24.3580 
  216.3750    76.3960    11.5400    10.3130    12.3040    24.3430     2.4090   -24.4090 
  216.5000    74.6680    12.4970    11.0590    12.7580    24.2830     2.4010   -24.4820 
  216.6250    74.0760    14.0410    12.3610    14.2450    24.2520     2.3900   -24.5380 
  216.7500    72.8880    15.8960    14.0190    17.6680    24.2390     2.3740   -24.5700 
  216.8750    70.0330    17.7680    15.8280    21.8400    24.2530     2.3530   -24.5920 
  217.0000    67.5730    19.3260    17.5100    24.8580    24.2570     2.3320   -24.6270 
  217.1250    68.8970    20.2340    18.7010    25.9500    24.2410     2.3170   -24.6940 
  217.2500    71.2840    20.6160    19.3660    25.6870    24.2480     2.3100   -24.7940 
  217.3750    71.4780    20.7090    19.6340    24.6260    24.2760     2.3090   -24.8850 
  217.5000    68.7260    20.7920    19.7370    24.2110    24.3220     2.3080   -24.9120 
  217.6250    65.3820    21.0880    19.9230    25.2950    24.3410     2.3020   -24.9110 
  217.7500    62.9210    21.5860    20.2860    26.1730    24.3440     2.2920   -24.9510 
  217.8750    60.7020    22.2110    20.8060    27.1660    24.3270     2.2860   -25.0330 
  218.0000    59.5550    22.8560    21.4000    28.3950    24.2890     2.2850   -25.1120 
  218.1250    61.3640    23.3850    21.9280    28.9930    24.2630     2.2910   -25.1590 
  218.2500    64.2140    23.7130    22.2880    28.4560    24.2690     2.2950   -25.1700 
  218.3750    64.5430    23.7850    22.4340    28.5460    24.2950     2.2940   -25.1850 
  218.5000    62.3990    23.6020    22.3740    28.9820    24.2940     2.2850   -25.2640 
  218.6250    63.0200    23.2540    22.1780    29.1880    24.2970     2.2740   -25.3610 
  218.7500    66.5030    22.9680    21.9990    28.2720    24.3160     2.2650   -25.4000 
  218.8750    69.2560    22.9120    21.9550    27.1540    24.3390     2.2590   -25.3980 
  219.0000    69.4490    23.1490    22.1070    26.4970    24.3500     2.2560   -25.4090 
  219.1250    67.9950    23.6000    22.4300    26.7740    24.3660     2.2560   -25.4420 
  219.2500    66.7000    23.9870    22.7420    28.2920    24.3990     2.2610   -25.4960 
  219.3750    66.1400    24.0930    22.8670    29.0580    24.3940     2.2710   -25.5420 
  219.5000    66.8370    23.8210    22.6910    28.4710    24.1680     2.2830   -25.5290 
  219.6250    66.9090    23.2060    22.1810    26.4040    24.0770     2.2910   -25.4950 
  219.7500    65.8450    22.4970    21.5200    24.5890    24.0490     2.2940   -25.4920 
  219.8750    64.2990    21.8480    20.8500    23.3120    24.0720     2.2950   -25.5210 
  220.0000    63.6930    21.3210    20.2660    23.8650    24.0790     2.2990   -25.5580 
  220.1250    66.1330    20.9080    19.8180    24.4090    24.0760     2.3080   -25.5610 
  220.2500    69.7510    20.5550    19.4710    23.1330    24.0380     2.3160   -25.4970 
  220.3750    72.8700    20.2720    19.2130    21.9920    24.0340     2.3180   -25.4180 
  220.5000    74.5870    20.1010    19.0450    21.6810    24.0410     2.3140   -25.3860 
  220.6250    74.9120    20.1080    19.0020    21.7520    24.0000     2.3080   -25.4100 
  220.7500    73.2230    20.2610    19.0850    21.9780    23.9600     2.3020   -25.4310 
  220.8750    69.0380    20.5270    19.2960    22.6900    23.9830     2.2960   -25.4150 
  221.0000    65.0530    20.8860    19.6270    22.9140    24.0070     2.2910   -25.3790 
  221.1250    63.9220    21.3730    20.0840    23.2400    23.9580     2.2880   -25.3860 
  221.2500    63.6810    21.9840    20.6260    24.1030    23.8550     2.2880   -25.4750 
  221.3750    63.4730    22.6840    21.2220    24.6890    23.7150     2.2930   -25.5970 
  221.5000    64.3170    23.3870    21.8170    24.8010    23.5560     2.3000   -25.7070 
  221.6250    66.8320    23.9630    22.3350    25.3280    23.4540     2.3040   -25.7690 
  221.7500    68.3130    24.3720    22.7280    26.7330    23.5210     2.3010   -25.8070 
  221.8750    68.1400    24.6360    22.9770    26.9860    23.7260     2.2890   -25.8670 
  222.0000    67.9900    24.8200    23.1090    27.3890    23.8180     2.2690   -25.9620 
  222.1250    68.2640    25.0240    23.1940    27.1220    23.8690     2.2480   -26.0680 
  222.2500    66.8650    25.3430    23.3640    26.4070    23.9380     2.2320   -26.1740 
  222.3750    63.6750    25.8820    23.7550    26.1550    24.0000     2.2270   -26.2670 
  222.5000    60.9040    26.7580    24.4980    27.5100    23.9740     2.2350   -26.3320 
  222.6250    60.4840    28.1390    25.7670    29.4270    23.9820     2.2550   -26.4070 
  222.7500    60.5640    29.9030    27.4690    31.8150    24.0530     2.2830   -26.5210 
  222.8750    60.3700    31.8060    29.4410    35.3210    24.1380     2.3130   -26.6630 
  223.0000    60.3960    33.4770    31.4090    40.5450    24.2070     2.3370   -26.8130 
  223.1250    60.0490    34.5110    33.0230    46.3880    24.2930     2.3460   -26.9440 
  223.2500    59.6720    35.0380    34.2240    48.8370    24.3910     2.3400   -26.9930 
  223.3750    59.8470    35.4020    35.1240    46.4610    24.4150     2.3250   -26.9910 
  223.5000    59.8310    35.9660    35.9000    39.6530    24.3570     2.3130   -26.9700 
  223.6250    59.3580    36.6760    36.4640    37.8560    24.2450     2.3300   -26.9230 
  223.7500    59.7510    36.6170    36.1820    43.7080    24.1490     2.3850   -26.8020 
  223.8750    61.3500    34.8460    34.1200    50.4330    24.0920     2.4730   -26.5480 
  224.0000    64.1050    30.9170    29.7730    44.1980    24.0890     2.5680   -26.1450 
  224.1250    67.7440    25.4480    23.6440    32.4630    24.0120     2.6290   -25.6790 
  224.2500    69.9090    19.0950    17.5690    20.9740    23.8420     2.6370   -25.2650 
  224.3750    67.5990    13.6100    12.6180    10.3350    23.6440     2.5970   -24.8880 
  224.5000    61.8340     9.8220     9.1490     5.9070    23.5290     2.5320   -24.5260 
  224.6250    58.2440     7.8490     7.1790     5.0360    23.4880     2.4750   -24.1920 
