~V
VERS. 2.00: Ver 2.00
~W
STRT.M 60.0000:
STOP.M 245.0000:
STEP.M 0.1250:
NULL. -999.2500:
UWI. F10050:
~C
DEPT.M :
SP.MV :
GR.API :
RML.OHMM :
RI. :
RXO.OHMM :
CALI.CM :
DEN.GM/CC :
~A
# ...
  228.7500   -22.1580    62.9130     6.4540     6.1980     7.9350    25.8980     2.4600 
  228.8750   -22.1850    63.2390     6.4160     6.1310     8.1700    25.4850     2.4520 
  229.0000   -22.2310    63.2200     6.4270     6.0640     8.1060    25.1090     2.4160 
  229.1250   -22.2490    62.6260     6.5400     6.0400     8.8920    24.5100     2.3690 
  229.2500   -22.2370    58.4650     6.7460     6.0870    10.3480    23.9250     2.3400 
  229.3750   -22.2240    53.9220     7.0270     6.2150    11.8950    23.4610     2.3450 
  229.5000   -22.2060    54.1350     7.3530     6.4100    12.7110    23.1420     2.3820 
  229.6250   -22.2190    57.8510     7.6630     6.6280    12.8160    23.2090     2.4320 
  229.7500   -22.2480    59.2320     7.8780     6.7970    12.4200    23.3960     2.4660 
  229.8750   -22.2540    58.8450     7.9450     6.8710    11.0300    23.4970     2.4730 
  230.0000   -22.2660    58.9080     7.8690     6.8350     9.9560    23.4910     2.4580 
  230.1250   -22.3100    60.3560     7.7350     6.7240     9.4810    23.5030     2.4320 
  230.2500   -22.3360    62.6970     7.6670     6.6250     9.6060    23.6830     2.4100 
  230.3750   -22.3340    63.6810     7.7240     6.5930    10.8740    23.9390     2.4010 
  230.5000   -22.3450    60.4930     7.9040     6.6480    12.8520    24.0430     2.4040 
  230.6250   -22.3880    54.2260     8.1530     6.7760    12.3070    23.9090     2.4170 
  230.7500   -22.4150    50.4720     8.3710     6.9130    10.5640    23.8170     2.4290 
  230.8750   -22.4650    51.5660     8.5000     7.0110     9.5870    23.7890     2.4360 
  231.0000   -22.4850    57.5620     8.5250     7.0460     9.2860    23.7890     2.4360 
  231.1250   -22.4430    63.8460     8.4730     7.0240     8.9080    23.7900     2.4300 
  231.2500   -22.4330    63.9170     8.4110     6.9860     8.6520    23.7900     2.4210 
  231.3750   -22.4630    58.2650     8.3730     6.9550     8.3300    23.7900     2.4130 
  231.5000   -22.4780    54.7530     8.3720     6.9450     8.0340    23.7900     2.4110 
  231.6250   -22.4760    56.3130     8.4060     6.9680     7.9690    23.7930     2.4140 
  231.7500   -22.4810    55.2120     8.4580     7.0240     8.2070    23.8100     2.4200 
  231.8750   -22.4530    50.0310     8.5350     7.1150     8.7420    23.8450     2.4270 
  232.0000   -22.4650    46.3270     8.6590     7.2430     9.4740    23.8700     2.4320 
  232.1250   -22.4830    48.7850     8.8510     7.3960    10.1370    23.8780     2.4340 
  232.2500   -22.4740    53.0460     9.0800     7.5440    10.5250    23.8780     2.4350 
  232.3750   -22.4470    55.9650     9.3000     7.6640    10.8280    23.8780     2.4410 
  232.5000   -22.4280    56.6930     9.4700     7.7460    11.2750    23.8770     2.4560 
  232.6250   -22.3810    56.8000     9.5610     7.7860    11.9690    23.8740     2.4800 
  232.7500   -22.3150    56.4010     9.6020     7.8050    11.9220    23.8710     2.5050 
  232.8750   -22.2950    55.1910     9.6270     7.8130    11.2390    23.8710     2.5210 
  233.0000   -22.2380    54.9630     9.6620     7.8200    10.5830    23.8740     2.5240 
  233.1250   -22.1970    58.0550     9.7160     7.8290    10.4660    23.8750     2.5120 
  233.2500   -22.1650    60.9610     9.7750     7.8380    10.8320    23.8750     2.4870 
  233.3750   -22.1510    61.0550     9.8150     7.8390    12.0810    23.8760     2.4510 
  233.5000   -22.1340    60.3370     9.8190     7.8260    13.6860    23.8750     2.4100 
  233.6250   -22.1140    61.7820     9.8010     7.8030    14.9810    23.8710     2.3740 
  233.7500   -22.1250    62.5260     9.8020     7.7920    15.6750    23.8690     2.3520 
  233.8750   -22.1400    62.3030     9.8490     7.8100    16.7790    23.8680     2.3490 
  234.0000   -22.1760    63.1540     9.9380     7.8600    17.7100    23.8700     2.3640 
  234.1250   -22.1870    62.2230    10.0210     7.9210    18.5610    23.8880     2.3890 
  234.2500   -22.2060    59.6590    10.0530     7.9550    18.4580    23.9210     2.4110 
  234.3750   -22.2260    58.1820    10.0200     7.9410    16.9990    23.9490     2.4220 
  234.5000   -22.2370    57.9200     9.9400     7.8890    15.1010    23.9600     2.4220 
  234.6250   -22.2490    57.9200     9.8350     7.8260    14.7660    23.9640     2.4190 
  234.7500   -22.2180    57.9200     9.7200     7.7800    15.8110    23.9640     2.4250 
  234.8750   -22.1420    57.9200     9.6070     7.7550    17.0230    23.9600     2.4410 
  235.0000   -22.0830    57.9200     9.5210     7.7360    16.1150    23.9570     2.4640 
  235.1250   -22.0590    57.9200     9.4870     7.6950    13.2430    23.9560     2.4810 
  235.2500   -22.0040    57.9200     9.4940     7.6240    11.1670    23.9560     2.4780 
  235.3750   -21.9030    57.9200     9.5080     7.5360    10.6020    23.9560     2.4520 
  235.5000   -21.8330    57.9200     9.4950     7.4530    10.5870    23.9560     2.4130 
  235.6250   -21.7710    57.9200     9.4360     7.3970    10.1730    23.9560     2.3850 
  235.7500   -21.7290    57.9200     9.3510     7.3620     9.8750    23.9560     2.3790 
  235.8750   -21.7040    57.9200     9.2600     7.3350     9.8680    23.9560     2.3880 
  236.0000   -21.6180    57.9200     9.1740     7.3010     9.8440    23.9560     2.3960 
  236.1250   -21.5140    57.9200     9.0890     7.2520     9.1740    23.9680     2.3910 
  236.2500   -21.4690    57.9200     9.0060     7.1960     8.6840    24.0090     2.3810 
  236.3750   -21.4590    57.9200     8.9290     7.1460     8.5330    24.0690     2.3770 
  236.5000   -21.4040    57.9200     8.8630     7.1060     8.6060    24.0830     2.3770 
  236.6250   -21.3380    57.9200     8.8080     7.0790     8.5630    24.0190     2.3710 
  236.7500   -21.2640    57.9200     8.7550     7.0590     8.4340    23.9370     2.3590 
  236.8750   -21.1750    57.9200     8.7030     7.0410     8.2580    23.8850     2.3460 
  237.0000   -21.1170    57.9200     8.6580     7.0230     8.0540    23.8680     2.3410 
  237.1250   -21.1120    57.9200     8.6430     7.0080     8.0290    23.8680     2.3470 
  237.2500   -21.0620    57.9200     8.6740     7.0080     8.0500    23.8680     2.3570 
  237.3750   -20.9930    57.9200     8.7560     7.0360     8.1430    23.8680     2.3680 
  237.5000   -20.9640    57.9200     8.8830     7.0980     8.2780    23.8680     2.3750 
  237.6250   -20.9440    57.9200     9.0420     7.1990     8.4290    23.8520     2.3650 
  237.7500   -20.9050    57.9200     9.2030     7.3160     8.3790    23.7960     2.3400 
  237.8750   -20.8850    57.9200     9.3370     7.4250     8.2000    23.7010     2.3140 
  238.0000   -20.8590    57.9200     9.4060     7.4960     7.9630    23.6370     2.3060 
  238.1250   -20.8090    57.9200     9.3640     7.4860     7.7120    23.6160     2.3310 
  238.2500   -20.7730    57.9200     9.2320     7.4040     7.5760    23.6140     2.3650 
  238.3750   -20.7340    57.9200     9.0510     7.2720     7.5350    23.6110     2.3860 
  238.5000   -20.6510    57.9200     8.8710     7.1300     7.4840    23.5990     2.3830 
  238.6250   -20.5530    57.9200     8.7390     7.0220     7.1460    23.5680     2.3690 
  238.7500   -20.4860    57.9200     8.6620     6.9570     6.9810    23.5380     2.3640 
  238.8750   -20.4140    57.9200     8.6290     6.9290     6.9850    23.5270     2.3650 
  239.0000   -20.3580    57.9200     8.6270     6.9210     7.0610    23.5250     2.3630 
  239.1250   -20.3070    57.9200     8.6390     6.9200     7.0920    23.5250     2.3420 
  239.2500   -20.2540    57.9200     8.6520     6.9210     7.2750    23.5250     2.3070 
  239.3750   -20.1910    57.9200     8.6640     6.9210     7.7130    23.5250     2.2700 
  239.5000   -20.1800    57.9200     8.6760     6.9210     8.3130    23.5250     2.2480 
  239.6250   -20.1860    57.9200     8.6850     6.9200     9.0590    23.5070     2.2570 
  239.7500   -20.1860    57.9200     8.6810     6.9190     8.7920    23.4580     2.2910 
  239.8750   -20.2040    57.9200     8.6590     6.9190     7.9730    23.3820     2.3290 
