~V
VERS. 2.00: Ver 2.00
~W
STRT.M 55.0000:
STOP.M 308.0000:
STEP.M 0.1250:
NULL. -999.2500:
UWI. F10053:
~C
DEPT.M :
GR.API :
RML.OHMM :
RI. :
RXO.OHMM :
CALI.CM :
DEN.GM/CC :
SP.MV :
~A
# ...
  167.5000    66.3430    20.2670    19.1210    22.3650    24.0390     2.1420   -15.0490 
  167.6250    66.0850    20.2100    19.1120    22.7320    24.0390     2.1540   -15.1450 
  167.7500    66.2590    20.1920    19.0910    22.3840    24.0390     2.1620   -15.2060 
  167.8750    65.7530    20.3090    19.2370    21.1730    24.0400     2.1630   -15.2230 
  168.0000    62.6210    20.6740    19.6690    21.5980    24.0410     2.1630   -15.1580 
  168.1250    59.4680    21.4590    20.5150    24.1490    24.0430     2.1670   -14.9750 
  168.2500    60.1110    22.5440    21.6680    26.0210    24.0530     2.1760   -14.6670 
  168.3750    63.2050    23.5920    22.8570    26.0430    24.0900     2.1870   -14.1770 
  168.5000    64.7320    24.0820    23.5860    25.7000    24.1480     2.1990   -13.5240 
  168.6250    63.7430    23.4270    23.1070    25.3800    24.1880     2.2090   -12.7080 
  168.7500    63.7800    21.9230    21.5910    28.0090    24.2100     2.2170   -11.8570 
  168.8750    65.4400    20.1640    19.6550    25.5780    24.2680     2.2170   -11.0450 
  169.0000    67.7930    18.8540    18.0440    19.4960    24.3210     2.2060   -10.4220 
  169.1250    69.9640    18.7000    17.4730    15.9160    24.2910     2.1850   -10.0870 
  169.2500    69.6190    19.6640    18.0100    20.1860    24.1990     2.1620    -9.9570 
  169.3750    65.4740    21.5050    19.5800    29.8460    24.1240     2.1470   -10.0340 
  169.5000    60.4990    23.7430    21.8350    37.3010    24.0880     2.1510   -10.2620 
  169.6250    58.0970    25.7500    24.0800    35.4030    24.0690     2.1770   -10.5880 
  169.7500    58.3010    27.2770    25.7870    33.4830    24.0520     2.2140   -10.9440 
  169.8750    58.4810    28.4270    27.0260    32.8150    24.0300     2.2480   -11.2800 
  170.0000    57.8300    29.3260    28.1190    32.5950    24.0190     2.2700   -11.4540 
  170.1250    58.6090    29.5540    28.8710    33.5060    24.0220     2.2760   -11.2930 
  170.2500    61.5810    28.4610    28.3280    35.6100    24.0260     2.2770   -10.8900 
  170.3750    66.3020    25.6130    25.6410    35.9730    24.0240     2.2820   -10.2890 
  170.5000    71.8210    21.3060    21.1270    26.9270    24.0250     2.2930    -9.4860 
  170.6250    77.8560    16.5910    16.3190    16.1570    24.1060     2.3040    -8.6080 
  170.7500    82.3570    12.6410    12.5080     8.7620    24.2400     2.3090    -7.7620 
  170.8750    84.5730     9.8950     9.9340     6.9250    24.3300     2.3100    -6.9110 
  171.0000    85.9210     8.3120     8.3970     7.2170    24.2850     2.3080    -6.0450 
  171.1250    86.1880     7.6860     7.6960     7.1900    24.2200     2.3070    -5.3410 
  171.2500    84.1380     7.5000     7.4430     6.9470    24.2700     2.3070    -4.8210 
  171.3750    82.4350     7.5030     7.4470     6.7240    24.3580     2.3040    -4.4730 
  171.5000    84.0590     7.5580     7.5640     6.5730    24.4190     2.2950    -4.3270 
  171.6250    87.9690     7.6610     7.7410     6.7690    24.4510     2.2800    -4.2600 
  171.7500    89.4230     7.8670     7.9910     7.1630    24.4070     2.2660    -4.1410 
  171.8750    88.4290     8.2170     8.3360     7.3810    24.4090     2.2580    -4.0760 
  172.0000    86.3300     8.7040     8.7900     7.3690    24.5000     2.2570    -4.1220 
  172.1250    83.7320     9.2590     9.3360     7.5490    24.5770     2.2590    -4.2120 
  172.2500    79.8990     9.7300     9.8610     8.1310    24.5140     2.2570    -4.3720 
  172.3750    76.4580     9.9810    10.2100     8.5710    24.3290     2.2530    -4.6810 
  172.5000    76.7740     9.9340    10.2430     8.7180    24.1400     2.2510    -5.0640 
  172.6250    81.4320     9.5900     9.8870     8.9440    23.9750     2.2560    -5.3680 
  172.7500    85.8580     9.1480     9.3340     8.7440    23.8400     2.2670    -5.6470 
  172.8750    87.2230     8.7570     8.7400     7.9960    23.7890     2.2790    -5.8680 
  173.0000    85.6700     8.4910     8.2130     7.3720    23.7830     2.2880    -6.0510 
  173.1250    83.7810     8.3130     7.7860     7.3120    23.7830     2.2910    -6.1310 
  173.2500    83.7540     8.0840     7.3860     7.3920    23.7830     2.2900    -6.1090 
  173.3750    85.9000     7.7380     6.9700     7.1120    23.7830     2.2890    -5.9230 
  173.5000    88.7270     7.3160     6.5580     6.6670    23.7820     2.2920    -5.6280 
  173.6250    92.4050     7.0000     6.2680     6.3470    23.7810     2.3110    -5.3860 
  173.7500    96.1290     7.0150     6.2340     6.1420    23.7800     2.3500    -5.1670 
  173.8750    96.6500     7.5920     6.6150     6.0650    23.7770     2.4070    -4.9900 
  174.0000    92.7390     8.9260     7.5770     7.8100    23.7770     2.4690    -4.7890 
  174.1250    87.2440    11.1880     9.3890    13.5820    23.8000     2.5130    -4.6400 
  174.2500    80.7690    13.9240    11.8870    22.7010    23.9200     2.5250    -4.5550 
  174.3750    72.8380    16.5160    14.6450    28.7570    24.1460     2.5100    -4.5270 
  174.5000    65.5130    18.2720    16.8400    30.0900    24.4260     2.4820    -4.5960 
  174.6250    64.2720    18.6340    17.5520    23.3290    24.4970     2.4610    -4.7580 
  174.7500    66.9400    18.1170    17.2440    16.6530    24.4190     2.4510    -4.9460 
  174.8750    68.2220    17.3200    16.6130    15.5990    24.3650     2.4470    -5.0900 
  175.0000    66.8580    16.7170    16.1520    18.6840    24.3590     2.4410    -5.2310 
  175.1250    65.4670    16.5270    16.0660    22.8760    24.3640     2.4340    -5.3280 
  175.2500    65.8880    16.6100    16.2090    20.6440    24.3650     2.4380    -5.3520 
  175.3750    66.3230    16.8830    16.4410    16.6480    24.3610     2.4590    -5.2800 
  175.5000    65.7580    17.3570    16.6920    14.4370    24.3870     2.4960    -5.0830 
  175.6250    63.6780    18.1990    17.1050    14.3090    24.4640     2.5330    -4.7640 
  175.7500    62.0440    19.4350    17.8900    16.3690    24.5650     2.5580    -4.4300 
  175.8750    62.7000    20.9700    19.1330    19.6770    24.6040     2.5650    -4.1040 
  176.0000    65.0570    22.5320    20.6950    23.6440    24.6460     2.5600    -3.8140 
  176.1250    65.9220    23.6640    22.1360    25.1180    24.6660     2.5520    -3.5550 
  176.2500    65.0880    24.1770    23.0410    24.2470    24.5550     2.5500    -3.3180 
  176.3750    64.2030    24.1370    23.2980    23.6460    24.3220     2.5520    -3.1090 
  176.5000    62.6200    23.8510    23.1340    23.5590    24.1830     2.5570    -2.9750 
  176.6250    59.0970    23.7750    22.9990    23.2460    24.1740     2.5610    -2.9250 
  176.7500    57.9140    24.1030    23.1770    23.0960    24.2430     2.5650    -2.8600 
  176.8750    59.6870    24.7560    23.6360    23.3320    24.3220     2.5690    -2.8420 
  177.0000    61.9910    25.4830    24.1720    25.2870    24.4320     2.5740    -2.8600 
  177.1250    62.6160    25.9470    24.5070    27.7500    24.5320     2.5790    -2.9200 
  177.2500    63.0550    26.0490    24.5840    26.6010    24.5610     2.5810    -3.0200 
  177.3750    63.8430    25.8770    24.5170    25.0490    24.4660     2.5810    -3.1860 
  177.5000    63.9070    25.6440    24.5130    26.5430    24.4560     2.5820    -3.3210 
  177.6250    63.9110    25.6200    24.7660    28.1270    24.5960     2.5850    -3.3980 
  177.7500    64.3050    25.8390    25.1900    26.8600    24.6080     2.5880    -3.5160 
  177.8750    63.6520    26.1190    25.5510    25.7480    24.4910     2.5900    -3.6250 
  178.0000    61.7710    26.1470    25.5750    25.6980    24.3810     2.5880    -3.7050 
  178.1250    61.4590    25.5990    25.0320    24.4630    24.3360     2.5860    -3.7580 
  178.2500    62.9160    24.6510    24.1230    23.8370    24.3490     2.5890    -3.7730 
  178.3750    63.8960    23.6300    23.1150    22.4690    24.3590     2.5960    -3.6960 
  178.5000    63.0710    22.8560    22.2490    21.2500    24.3530     2.6040    -3.6160 
  178.6250    62.0960    22.5280    21.6660    20.8120    24.3190     2.6030    -3.6110 
