~V
VERS. 2.00: Ver 2.00
~W
STRT.M 56.0000:
STOP.M 269.0000:
STEP.M 0.1250:
NULL. -999.2500:
UWI. F10026:
~C
DEPT.M :
GR.API :
RML.OHMM :
RI. :
RXO.OHMM :
CALI.CM :
DEN.GM/CC :
SP.MV :
~A
# ...
  236.0000    59.4770   140.0130   145.8950   100.2370    23.0630     2.1930   -35.2110 
  236.1250    60.5180   133.4200   137.2450    82.5940    23.0540     2.2030   -34.9420 
  236.2500    59.2550   134.5270   136.2800    70.9680    23.0340     2.2130   -34.6250 
  236.3750    57.1970   145.5360   145.6330    70.0700    22.9700     2.2210   -34.3110 
  236.5000    56.3210   169.0340   168.1920    76.7620    23.0890     2.2310   -34.0740 
  236.6250    54.9340   211.8630   210.8730    97.6920    23.5010     2.2590   -33.8960 
  236.7500    51.3690   275.7740   274.3380   139.8840    23.7930     2.3130   -33.6950 
  236.8750    46.8530   362.0990   358.1010   231.7540    23.5330     2.3950   -33.4580 
  237.0000    44.6180   464.1930   454.2260   359.1530    23.3610     2.4920   -33.1880 
  237.1250    45.6580   555.6980   539.0590   365.7200    23.3280     2.5830   -32.9690 
  237.2500    47.6540   601.9790   585.0880   286.9050    23.2780     2.6530   -32.8120 
  237.3750    49.1450   583.0040   575.6730   229.7890    23.1930     2.6980   -32.6730 
  237.5000    49.2920   506.5680   514.2870   222.8030    23.1800     2.7210   -32.4850 
  237.6250    49.2020   402.6170   421.3270   257.0920    23.1930     2.7240   -32.2510 
  237.7500    50.3880   306.3390   328.6130   276.2740    23.1890     2.7060   -32.0450 
  237.8750    52.8840   229.9780   250.3370   247.1790    23.1280     2.6620   -31.8790 
  238.0000    54.5360   174.7260   190.9930   179.9610    23.1980     2.5900   -31.7510 
  238.1250    55.1720   139.0150   151.2670   118.9220    23.4240     2.4990   -31.6240 
  238.2500    57.7410   116.5470   123.9960    91.5510    23.6050     2.4100   -31.4240 
  238.3750    61.1280   105.2090   105.9340    75.6740    23.4320     2.3410   -31.1910 
  238.5000    62.4800    99.0310    95.0290    68.6060    23.4350     2.3010   -30.9680 
  238.6250    61.8890    94.7540    91.2540    70.0070    23.7970     2.2900   -30.7690 
  238.7500    61.7630    94.5470    93.2590    66.3210    24.0080     2.2910   -30.5520 
  238.8750    61.2420   101.1670   100.6030    57.7110    23.9930     2.2910   -30.2710 
  239.0000    59.3990   112.5460   111.8000    52.0270    23.8250     2.2850   -29.9110 
  239.1250    57.1700   125.8970   123.1720    63.0920    23.9820     2.2680   -29.4880 
  239.2500    57.2600   135.5900   130.0350    79.4660    24.2440     2.2440   -29.0980 
  239.3750    60.0330   137.4330   129.8430    85.4550    24.2580     2.2170   -28.7320 
  239.5000    63.6230   132.0490   123.0820    75.5100    23.9520     2.1920   -28.3590 
  239.6250    64.0260   122.0540   112.6690    66.9150    23.5070     2.1790   -27.9380 
  239.7500    61.3800   111.1430   102.5290    70.1780    23.2050     2.1780   -27.4700 
  239.8750    59.2430   100.7360    93.8880    85.5390    23.2540     2.1890   -27.0210 
  240.0000    59.2530    92.3060    86.5840   102.4330    23.6470     2.2060   -26.6370 
  240.1250    61.0930    85.3850    80.2170   102.6700    23.9300     2.2200   -26.2580 
  240.2500    61.3730    78.8640    74.8750    87.2910    24.0390     2.2300   -25.8450 
  240.3750    58.8320    76.1550    71.6710    69.1380    24.0550     2.2340   -25.3830 
  240.5000    56.9090    82.7500    72.3370    59.7140    24.0630     2.2340   -24.8710 
  240.6250    58.5360   105.9320    80.4270    66.8130    24.1800     2.2380   -24.3700 
  240.7500    60.7300   132.6350    97.6290    90.6320    24.3750     2.2590   -23.9340 
  240.8750    59.4670   160.3270   125.8060   133.4480    24.3150     2.3070   -23.5240 
  241.0000    55.2280   187.7860   164.6730   235.9650    23.9680     2.3830   -23.0940 
  241.1250    50.9510   217.3880   209.0820   378.6030    23.7170     2.4710   -22.6770 
  241.2500    48.1130   252.5840   246.2530   435.2860    23.6680     2.5470   -22.2780 
  241.3750    48.1090   272.6190   264.5780   396.2860    23.7490     2.6020   -21.9120 
  241.5000    50.2640   263.4470   257.9460   330.0860    23.8970     2.6390   -21.6030 
  241.6250    52.6970   226.3930   227.4390   241.6980    23.9570     2.6680   -21.3540 
  241.7500    55.3370   183.1610   188.7000   176.7270    23.9750     2.6940   -21.1170 
  241.8750    59.5530   146.2000   152.3530   148.3740    23.9750     2.7080   -20.8760 
  242.0000    63.8240   120.7660   124.9250   129.4300    23.9810     2.7010   -20.6370 
  242.1250    63.6640   108.6300   110.3560   102.6760    23.9750     2.6730   -20.4140 
  242.2500    59.3700   105.0160   105.1180   104.3370    23.9750     2.6410   -20.2400 
  242.3750    52.0820   105.4740   104.9780   142.4660    23.9980     2.6230   -20.1300 
  242.5000    42.0110   103.5130   103.4270   217.2220    24.0140     2.6320   -20.0560 
  242.6250    32.1550    91.0780    92.0480   280.4240    23.9730     2.6750   -19.9660 
  242.7500    26.6350    70.1400    71.6470   257.6800    23.9030     2.7270   -19.8480 
  242.8750    26.3310    47.3910    48.4210   156.1510    23.8450     2.7630   -19.7480 
  243.0000    29.0980    28.9970    29.0340    56.8220    23.7760     2.7560   -19.7000 
  243.1250    34.7190    17.9030    17.1830    19.6700    23.6610     2.6840   -19.6920 
  243.2500    39.9730    11.5910    10.4230     7.9280    23.5310     2.5700   -19.6690 
  243.3750    40.0990     8.1830     6.8190     5.1850    23.4410     2.4450   -19.5960 
  243.5000    35.6940     6.2570     5.0070     4.3390    23.4090     2.3410   -19.4850 
  243.6250    32.0040     4.9280     4.3080     3.8140    23.4770     2.2830   -19.4070 
  243.7500    30.7460     4.4440     4.1110     3.6250    23.6320     2.2610   -19.4050 
  243.8750    29.1830     4.3740     4.1730     3.6260    23.7980     2.2620   -19.4310 
  244.0000    26.4580     4.4610     4.3290     3.6840    23.9450     2.2680   -19.4230 
  244.1250    25.7770     4.6050     4.4790     3.7180    24.1850     2.2690   -19.3980 
  244.2500    27.0720     4.6980     4.5900     3.7060    24.1850     2.2620   -19.4100 
  244.3750    28.4240     4.7410     4.6580     3.7380    23.8120     2.2540   -19.4680 
  244.5000    28.5600     4.7470     4.6860     3.8320    23.7170     2.2480   -19.5800 
  244.6250    28.0320     4.7370     4.6650     3.9750    23.8760     2.2470   -19.6760 
  244.7500    27.6690     4.7280     4.6080     4.0680    23.8140     2.2500   -19.7140 
  244.8750    27.0430     4.7230     4.5300     4.0840    23.8800     2.2560   -19.7290 
  245.0000    26.8030     4.7130     4.4580     4.1450    23.8310     2.2620   -19.7620 
  245.1250    27.9680     4.6850     4.4260     4.2260    23.7340     2.2670   -19.8230 
  245.2500    29.2100     4.6570     4.4430     4.5190    23.6050     2.2730   -19.8740 
  245.3750    28.4480     4.6650     4.4990     5.2970    23.4320     2.2830   -19.8750 
  245.5000    26.2630     4.7180     4.5690     6.3490    23.2330     2.3030   -19.7970 
  245.6250    25.2730     4.7630     4.6100     7.4200    23.1520     2.3350   -19.6980 
  245.7500    25.6330     4.7740     4.6030     6.1850    23.3330     2.3700   -19.6380 
  245.8750    25.3530     4.7650     4.5510     4.9430    23.7830     2.3940   -19.5870 
  246.0000    23.9910     4.7580     4.4770     4.5320    23.6050     2.4010   -19.5270 
  246.1250    24.3430     4.7670     4.4220     4.5820    23.4650     2.3910   -19.4290 
  246.2500    26.6630     4.8020     4.4090     4.5670    23.2240     2.3790   -19.3190 
  246.3750    29.7720     4.8740     4.4420     4.5530    23.3140     2.3750   -19.2680 
  246.5000    32.3160     4.9920     4.5070     4.7640    23.6960     2.3800   -19.2820 
  246.6250    34.7530     5.1340     4.5800     4.8810    24.3560     2.3890   -19.3060 
  246.7500    37.6080     5.2490     4.6340     4.9370    24.3200     2.3990   -19.2990 
  246.8750    39.9270     5.2990     4.6580     4.9120    24.0500     2.4060   -19.2930 
  247.0000    40.0250     5.2820     4.6480     4.8000    23.9350     2.4090   -19.3230 
  247.1250    37.0000     5.2350     4.6120     4.6830    23.9860     2.4060   -19.4110 
