~V
VERS. 2.00: Ver 2.00
~W
STRT.M 55.0000:
STOP.M 279.0000:
STEP.M 0.1250:
NULL. -999.2500:
UWI. F10072:
~C
DEPT.M :
GR.API :
RML.OHMM :
RI. :
RXO.OHMM :
CALI.CM :
DEN.GM/CC :
SP.MV :
~A
# ...
  257.5000    85.9200    11.7280    11.0420    12.8210    24.1540     2.3400   -21.0710 
  257.6250    84.9550    11.9360    11.2690    14.5450    24.1270     2.3370   -21.2740 
  257.7500    89.0640    12.0700    11.4110    14.8620    24.1290     2.3210   -21.4300 
  257.8750    94.6300    12.1500    11.4770    13.5570    24.1040     2.3010   -21.6370 
  258.0000    95.3110    12.2180    11.5120    12.5200    24.0680     2.2880   -21.8300 
  258.1250    90.7130    12.3360    11.5990    12.4320    24.0720     2.2870   -21.9810 
  258.2500    87.7870    12.5250    11.7640    13.2140    24.0670     2.2920   -22.0410 
  258.3750    88.5360    12.7770    11.9980    14.2400    24.0440     2.2990   -22.0820 
  258.5000    89.6730    13.0580    12.2680    14.8330    24.0080     2.3050   -22.0920 
  258.6250    88.5310    13.3130    12.5300    14.9840    23.9140     2.3130   -21.9560 
  258.7500    87.0730    13.4860    12.7440    15.5820    23.7600     2.3240   -21.7730 
  258.8750    88.3600    13.5360    12.8420    15.8230    23.6660     2.3320   -21.5650 
  259.0000    92.5580    13.4480    12.7760    14.6890    23.7490     2.3330   -21.4140 
  259.1250    94.4750    13.2460    12.5580    13.0090    23.8940     2.3210   -21.3780 
  259.2500    93.3740    13.0160    12.3000    13.1660    24.0530     2.3010   -21.3560 
  259.3750    91.4120    12.7900    12.0730    14.6860    24.1710     2.2820   -21.2690 
  259.5000    90.0200    12.5490    11.8870    14.3990    24.2260     2.2690   -21.1110 
  259.6250    91.2060    12.2200    11.6380    13.2710    24.2260     2.2670   -20.9340 
  259.7500    94.6630    11.7040    11.2030    12.4730    24.1870     2.2710   -20.6450 
  259.8750    97.5530    10.9920    10.5430    12.1190    24.1470     2.2770   -20.0940 
  260.0000    95.8630    10.0660     9.7300    11.2900    24.1010     2.2860   -19.2050 
  260.1250    89.4770     9.1280     8.9040     9.4800    24.0510     2.3010   -18.0420 
  260.2500    83.4390     8.2320     8.1760     7.9070    24.0000     2.3220   -16.8410 
  260.3750    79.1610     7.5330     7.5980     6.8660    23.9780     2.3430   -15.7520 
  260.5000    77.4160     7.3410     7.1970     6.7600    23.9320     2.3580   -14.8680 
  260.6250    79.0660     7.3760     7.0270     7.2590    23.8740     2.3600   -14.2500 
  260.7500    83.1500     7.4610     7.0760     7.4340    23.8670     2.3470   -13.8910 
  260.8750    87.7750     7.6120     7.3210     7.3310    23.8450     2.3250   -13.9650 
  261.0000    90.4620     7.8810     7.6960     7.2480    23.7480     2.2990   -14.5320 
  261.1250    91.5180     8.2990     8.1330     7.5820    23.6110     2.2770   -15.4600 
  261.2500    93.4090     8.7830     8.5820     8.2960    23.5050     2.2630   -16.6400 
  261.3750    96.5550     9.2640     9.0390     9.2350    23.4310     2.2560   -17.9000 
  261.5000    99.6940     9.7020     9.4810    10.7760    23.4160     2.2540   -19.1110 
  261.6250   100.1180    10.0640     9.8060    12.4570    23.5040     2.2540   -20.1560 
  261.7500    96.3310    10.3510     9.9340    13.0930    23.6170     2.2530   -21.0480 
  261.8750    90.9990    10.5560     9.8330    11.7700    23.7440     2.2540   -21.7430 
  262.0000    89.5580    10.6760     9.5670     9.9930    23.7820     2.2590   -22.2330 
  262.1250    92.8740    10.6800     9.2520     9.9050    23.8310     2.2650   -22.5180 
  262.2500    94.5360    10.5790     8.9890    10.3270    23.9470     2.2700   -22.4810 
  262.3750    92.3780    10.3920     8.8030    10.0470    24.0440     2.2690   -22.2780 
  262.5000    90.1370    10.1580     8.6760     9.4120    24.0940     2.2620   -21.9840 
  262.6250    90.4010     9.9360     8.5700     9.0910    24.1350     2.2540   -21.7120 
  262.7500    92.2170     9.7740     8.4820     9.2120    24.2010     2.2520   -21.5550 
  262.8750    93.6780     9.6910     8.4500     9.5540    24.2820     2.2570   -21.5280 
  263.0000    93.6250     9.7030     8.5260     9.8700    24.2960     2.2650   -21.5880 
  263.1250    94.4310     9.9020     8.7840    10.0350    24.2590     2.2690   -21.8380 
  263.2500    97.8090    10.3620     9.2240    10.2160    24.2650     2.2700   -22.3370 
  263.3750   101.7800    11.1260     9.8480    11.0100    24.3000     2.2730   -22.9660 
  263.5000   102.1100    12.1070    10.6140    12.7140    24.2750     2.2840   -23.6760 
  263.6250    97.7970    13.0290    11.3840    14.0070    24.2580     2.3030   -24.3560 
  263.7500    95.2720    13.5620    11.9320    14.5340    24.2930     2.3180   -24.9110 
  263.8750    97.4670    13.5060    12.0660    14.7330    24.3200     2.3220   -25.3460 
  264.0000   101.0660    12.8660    11.7420    15.7900    24.2670     2.3120   -25.5560 
  264.1250   100.4200    11.8780    11.1120    14.1170    24.2070     2.2940   -25.4800 
  264.2500    97.1540    10.9890    10.4760    11.8140    24.1730     2.2770   -25.2200 
  264.3750    93.7150    10.4580     9.9780     9.8650    24.1960     2.2640   -24.8950 
  264.5000    90.7420    10.3610     9.6570     9.9660    24.3090     2.2560   -24.6700 
  264.6250    88.5490    10.6500     9.4970    10.9270    24.3750     2.2530   -24.4730 
  264.7500    87.9060    11.0760     9.4290    11.2980    24.3990     2.2510   -24.3210 
  264.8750    88.0260    11.4780     9.4440    10.0760    24.3600     2.2490   -24.2480 
  265.0000    87.0580    11.7730     9.5760     9.1040    24.1740     2.2480   -24.3340 
  265.1250    87.4180    11.9670     9.8940     9.5090    23.9520     2.2470   -24.6830 
  265.2500    90.3330    12.1450    10.3500    11.0980    23.8590     2.2490   -25.1730 
  265.3750    93.7930    12.3560    10.8450    12.5540    23.9850     2.2520   -25.6630 
  265.5000    95.1510    12.6060    11.2490    13.9140    24.1220     2.2560   -26.0190 
  265.6250    93.2760    12.8610    11.4500    13.6650    24.1220     2.2620   -26.3250 
  265.7500    92.2020    13.0880    11.5580    13.4780    24.0800     2.2710   -26.7110 
  265.8750    93.4730    13.3140    11.7180    14.1310    24.1040     2.2840   -27.0720 
  266.0000    95.1230    13.6130    12.0330    14.9890    24.1320     2.2980   -27.4430 
  266.1250    93.5100    14.0560    12.4890    15.4670    24.0810     2.3080   -27.6670 
  266.2500    89.5450    14.5500    12.9270    16.0320    24.0210     2.3090   -27.7610 
  266.3750    87.7080    14.9110    13.2250    16.1420    24.0040     2.3020   -27.7600 
  266.5000    90.0800    14.9400    13.3150    15.6020    24.0260     2.2900   -27.6840 
  266.6250    94.2550    14.4670    13.1180    15.5800    24.1340     2.2790   -27.5970 
  266.7500    97.1810    13.6510    12.6440    15.8350    24.3570     2.2720   -27.3720 
  266.8750    96.9880    12.6390    11.8900    14.0100    24.3170     2.2710   -27.0160 
  267.0000    94.6820    11.5570    10.9360    11.7890    24.0720     2.2760   -26.4620 
  267.1250    92.4820    10.5210     9.9500     9.2430    23.8550     2.2830   -25.7760 
  267.2500    91.9060     9.6380     9.1240     8.0340    23.7260     2.2880   -25.0990 
  267.3750    92.5670     9.0100     8.5660     8.1320    23.7120     2.2880   -24.4940 
  267.5000    92.6860     8.7120     8.3200     9.3760    23.8490     2.2820   -24.0390 
  267.6250    92.4950     8.7740     8.3930    11.6460    24.1330     2.2750   -23.6170 
  267.7500    91.6540     9.0090     8.6340    13.2780    24.3400     2.2720   -23.2300 
  267.8750    90.4580     9.2610     8.9120    12.3230    24.3970     2.2720   -22.9280 
  268.0000    90.4710     9.4240     9.0890     9.8510    24.3880     2.2700   -22.7500 
  268.1250    90.5740     9.4600     9.0470     8.8020    24.3950     2.2600   -22.7600 
  268.2500    90.5740     9.4120     8.8460     8.9480    24.4110     2.2460   -22.7230 
  268.3750    90.5740     9.2860     8.5610     9.3660    24.4180     2.2330   -22.5900 
  268.5000    90.5740     9.0630     8.2460     9.1770    24.4240     2.2290   -22.2390 
  268.6250    90.5740     8.7210     7.9210     8.7340    24.4360     2.2370   -21.8260 
