~V
VERS. 2.00: Ver 2.00
~W
STRT.M 55.0000:
STOP.M 292.0000:
STEP.M 0.1250:
NULL. -999.2500:
UWI. F10078:
~C
DEPT.M :
GR.API :
RML.OHMM :
RI. :
RXO.OHMM :
CALI.CM :
DEN.GM/CC :
SP.MV :
~A
# ...
  100.0000    71.1260     7.8260     6.7920     8.8360    23.4080     2.1650   -17.5110 
  100.1250    66.0550     8.0330     6.9580     9.2830    23.4280     2.1660   -17.6010 
  100.2500    64.5660     8.2770     7.1470     9.5270    23.4550     2.1690   -17.6700 
  100.3750    66.3120     8.5400     7.3510     9.8740    23.4790     2.1720   -17.6970 
  100.5000    68.1630     8.7900     7.5500    10.6250    23.5040     2.1730   -17.6940 
  100.6250    68.7730     8.9630     7.7040    11.6710    23.5480     2.1700   -17.6820 
  100.7500    70.4930     9.0130     7.7820    12.4380    23.5800     2.1650   -17.6820 
  100.8750    72.9130     8.9010     7.7530    12.6050    23.5230     2.1600   -17.6410 
  101.0000    73.5780     8.6220     7.5990    11.8290    23.3730     2.1540   -17.5290 
  101.1250    70.1240     8.2070     7.3240    10.0160    23.2860     2.1490   -17.4270 
  101.2500    66.5250     7.7740     7.0070     9.0980    23.2590     2.1450   -17.3950 
  101.3750    67.1400     7.4280     6.7210     8.5650    23.2550     2.1430   -17.3950 
  101.5000    70.7980     7.2600     6.5370     8.1380    23.2520     2.1450   -17.3710 
  101.6250    71.7260     7.3540     6.5240     8.0570    23.2440     2.1520   -17.3060 
  101.7500    70.1620     7.6270     6.6470     8.3940    23.2410     2.1600   -17.2640 
  101.8750    67.7270     7.9570     6.8380     9.0110    23.2420     2.1670   -17.2030 
  102.0000    65.1560     8.1810     7.0010     9.7260    23.2400     2.1700   -17.0710 
  102.1250    62.3000     8.1050     7.0050    10.1700    23.2200     2.1690   -16.7940 
  102.2500    62.6670     7.7590     6.8390    10.2130    23.1760     2.1640   -16.4150 
  102.3750    67.1260     7.3210     6.5840     9.7440    23.1030     2.1530   -15.9550 
  102.5000    71.6070     7.1390     6.4390     8.8860    22.9710     2.1390   -15.4170 
  102.6250    73.2360     7.8090     6.8000     8.3480    22.7390     2.1430   -14.8380 
  102.7500    74.6150     9.5070     7.8710     9.2390    22.4990     2.1840   -14.2730 
  102.8750    76.1140    12.1060     9.6870    12.5190    22.4010     2.2700   -13.7860 
  103.0000    75.2020    15.0300    11.9690    18.7700    22.4500     2.3880   -13.4220 
  103.1250    71.7560    17.1050    13.9580    27.4180    22.6350     2.4860   -13.2370 
  103.2500    71.4930    17.4990    14.8460    34.7760    22.8500     2.5130   -13.1620 
  103.3750    75.6050    16.0410    14.2460    36.8600    22.9410     2.4600   -13.1560 
  103.5000    81.0890    13.3860    12.4610    31.4740    22.8450     2.3610   -13.1650 
  103.6250    84.1060    10.7140    10.3470    20.3020    22.6210     2.2670   -13.0550 
  103.7500    82.4810     8.7570     8.6190    12.5110    22.4090     2.2030   -12.7870 
  103.8750    77.3410     7.5470     7.4100     9.1150    22.3150     2.1760   -12.3440 
  104.0000    71.1890     6.8590     6.6260     7.9050    22.3770     2.1810   -11.7130 
  104.1250    70.8210     6.4550     6.1430     7.2940    22.5890     2.2110   -10.8920 
  104.2500    77.0040     6.1290     5.7870     6.6000    22.8680     2.2470    -9.9760 
  104.3750    84.3910     5.8430     5.5050     5.9060    23.0840     2.2780    -9.0790 
  104.5000    87.8710     5.6260     5.2970     5.3720    23.1950     2.2960    -8.3430 
  104.6250    85.3890     5.5430     5.1990     5.2510    23.2480     2.2970    -7.8550 
  104.7500    81.6850     5.5790     5.2020     5.3950    23.2900     2.2880    -7.4980 
  104.8750    80.8200     5.6980     5.2810     5.6050    23.3070     2.2750    -7.3010 
  105.0000    82.5790     5.8400     5.3910     5.7520    23.3110     2.2630    -7.3300 
  105.1250    83.6550     5.9390     5.4790     5.9550    23.3160     2.2570    -7.5520 
  105.2500    82.2870     5.9780     5.5180     5.9920    23.3300     2.2550    -7.8430 
  105.3750    79.7810     5.9750     5.5150     5.8990    23.3580     2.2570    -8.1250 
  105.5000    76.7090     5.9770     5.4990     5.9030    23.4050     2.2580    -8.3920 
  105.6250    72.9680     6.0440     5.5160     6.0190    23.4510     2.2560    -8.7140 
  105.7500    70.9040     6.1980     5.5950     6.3300    23.4820     2.2510    -9.0880 
  105.8750    73.5650     6.4490     5.7460     6.8900    23.5040     2.2440    -9.4990 
  106.0000    78.5640     6.7890     5.9690     7.5220    23.5220     2.2380    -9.9550 
  106.1250    81.3480     7.2130     6.2630     7.9910    23.5320     2.2310   -10.4860 
  106.2500    78.8370     7.6790     6.5960     8.3430    23.5380     2.2220   -11.0440 
  106.3750    73.1550     8.1530     6.9450     8.8290    23.5420     2.2130   -11.6300 
  106.5000    67.7710     8.5850     7.2800     9.6620    23.5450     2.2040   -12.2010 
  106.6250    65.2880     8.9000     7.5510    10.7970    23.5450     2.1980   -12.7120 
  106.7500    64.2810     9.0710     7.7320    11.5260    23.5410     2.1970   -13.1770 
  106.8750    64.9490     9.0890     7.8060    11.8180    23.5350     2.1980   -13.5700 
  107.0000    67.0970     8.9820     7.7770    11.4910    23.5320     2.2010   -13.8180 
  107.1250    67.6890     8.7980     7.6620    10.2160    23.5320     2.2030   -13.9620 
  107.2500    65.1500     8.6070     7.5180     9.6130    23.5340     2.2030   -14.0930 
  107.3750    62.2120     8.4340     7.3770     9.4360    23.5390     2.2010   -14.1880 
  107.5000    61.9260     8.2810     7.2580     9.4330    23.5500     2.1970   -14.1970 
  107.6250    63.5390     8.1470     7.1740     9.5040    23.5690     2.1920   -14.0730 
  107.7500    62.7220     8.0390     7.1260     9.6070    23.5900     2.1890   -13.9130 
  107.8750    60.5000     7.9760     7.1170     9.6740    23.6020     2.1870   -13.7440 
  108.0000    60.6490     7.9760     7.1510     9.6380    23.6120     2.1870   -13.5310 
  108.1250    62.3610     8.0410     7.2290     9.5420    23.6350     2.1880   -13.1940 
  108.2500    62.3210     8.1180     7.3130     9.4660    23.6780     2.1870   -12.7200 
  108.3750    62.1040     8.1390     7.3460     9.4060    23.7350     2.1840   -12.1440 
  108.5000    63.9280     8.0260     7.2600     9.2250    23.7890     2.1810   -11.4560 
  108.6250    65.6110     7.6780     6.9630     8.8810    23.8100     2.1840   -10.6430 
  108.7500    65.0610     7.1100     6.4770     8.2360    23.8160     2.1940    -9.7630 
  108.8750    66.1050     6.3750     5.8520     7.2750    23.8210     2.2110    -8.8870 
  109.0000    69.5040     5.5840     5.1840     6.1510    23.8320     2.2300    -8.1480 
  109.1250    72.3560     4.9560     4.6290     5.1960    23.8500     2.2470    -7.6310 
  109.2500    74.7970     4.6930     4.3230     4.7180    23.8730     2.2650    -7.3700 
  109.3750    77.8500     4.9500     4.3790     4.7860    23.8620     2.2870    -7.3970 
  109.5000    79.3460     5.7770     4.8640     5.4600    23.7350     2.3120    -7.7330 
  109.6250    74.7520     7.1000     5.7950     6.9270    23.5220     2.3330    -8.4440 
  109.7500    66.5140     8.4940     6.9060     8.8380    23.3110     2.3380    -9.3480 
  109.8750    58.8450     9.5480     7.9000    10.5700    23.1470     2.3220   -10.3010 
  110.0000    53.7270     9.9300     8.4780    10.8440    23.0690     2.2890   -11.1880 
  110.1250    53.2170     9.4680     8.3850    10.0670    23.0720     2.2500   -11.8850 
  110.2500    55.8860     8.5910     7.8610     9.3740    23.1450     2.2190   -12.3690 
  110.3750    58.7170     7.6840     7.1860     8.9170    23.1720     2.1990   -12.6420 
  110.5000    60.4440     7.0060     6.5880     8.5380    23.1380     2.1900   -12.7200 
  110.6250    61.8220     6.6560     6.1910     8.1530    23.0820     2.1890   -12.5590 
  110.7500    62.8210     6.4870     5.9400     7.7770    23.0440     2.1910   -12.2500 
  110.8750    63.0890     6.4000     5.7820     7.4740    23.0290     2.1920   -11.9030 
  111.0000    63.3730     6.3470     5.6810     7.2260    23.0260     2.1940   -11.6090 
  111.1250    66.2960     6.3440     5.6380     7.0030    23.0250     2.1940   -11.4320 
