~V
VERS. 2.00: Ver 2.00
~W
STRT.M 60.0000:
STOP.M 245.0000:
STEP.M 0.1250:
NULL. -999.2500:
UWI. F10050:
~C
DEPT.M :
SP.MV :
GR.API :
RML.OHMM :
RI. :
RXO.OHMM :
CALI.CM :
DEN.GM/CC :
~A
# ...
  150.0000   -22.8900    63.9900    13.8760    12.7780    13.8190    23.4030     2.5740 
  150.1250   -22.8940    60.8630    14.0140    12.7950    13.5850    23.3170     2.5730 
  150.2500   -22.8650    58.8350    14.4820    13.1600    14.3720    23.2550     2.5800 
  150.3750   -22.8310    60.6210    15.1830    13.7940    15.8990    23.2330     2.5920 
  150.5000   -22.8160    61.5960    15.9540    14.5590    17.1250    23.2310     2.6020 
  150.6250   -22.7470    58.5890    16.5890    15.2930    18.3320    23.2310     2.5980 
  150.7500   -22.6970    58.5000    16.8560    15.7790    20.6090    23.2290     2.5840 
  150.8750   -22.7010    62.2320    16.5870    15.6690    19.4570    23.2110     2.5670 
  151.0000   -22.6810    65.5970    16.2130    15.4260    17.4340    23.1550     2.5530 
  151.1250   -22.6320    68.5710    15.9790    15.2470    16.6190    23.0670     2.5440 
  151.2500   -22.6410    70.1790    16.0230    15.2510    16.2170    23.0540     2.5420 
  151.3750   -22.6460    70.3410    16.3760    15.4720    15.9970    23.1600     2.5470 
  151.5000   -22.6320    71.3240    16.9540    15.8780    16.8600    23.3170     2.5570 
  151.6250   -22.6740    72.3730    17.5540    16.3780    18.7720    23.3830     2.5670 
  151.7500   -22.7170    70.4240    17.9840    16.8370    19.8780    23.3910     2.5710 
  151.8750   -22.7180    67.5290    18.1880    17.1870    19.7040    23.3520     2.5680 
  152.0000   -22.7100    66.3620    18.2050    17.4040    18.9990    23.2530     2.5630 
  152.1250   -22.7420    64.3830    18.1330    17.5030    18.4140    23.1400     2.5660 
  152.2500   -22.7220    62.2830    18.0920    17.5780    18.9110    23.0780     2.5730 
  152.3750   -22.6980    64.3500    18.1340    17.6980    19.1240    23.0740     2.5790 
  152.5000   -22.7040    70.0730    18.2630    17.8920    20.0380    23.1140     2.5770 
  152.6250   -22.6640    71.9180    18.4270    18.1310    19.7830    23.1250     2.5650 
  152.7500   -22.6180    68.4870    18.5420    18.3440    18.4110    22.9760     2.5490 
  152.8750   -22.5860    65.9970    18.5410    18.4780    17.6240    22.7210     2.5360 
  153.0000   -22.5570    66.8270    18.3820    18.4900    17.5220    22.5250     2.5290 
  153.1250   -22.5310    66.7540    18.0770    18.3530    16.5070    22.4670     2.5270 
  153.2500   -22.5260    64.5430    17.7650    18.1640    15.1050    22.4570     2.5280 
  153.3750   -22.5350    63.0140    17.5790    18.0420    14.0250    22.4570     2.5290 
  153.5000   -22.5440    65.0770    17.6270    18.0970    13.4070    22.4570     2.5240 
  153.6250   -22.5680    68.6380    17.9910    18.4290    13.8500    22.4570     2.5080 
  153.7500   -22.5990    70.3310    18.5560    18.9490    14.3040    22.4570     2.4860 
  153.8750   -22.6610    70.3390    19.1670    19.5250    14.5610    22.4570     2.4640 
  154.0000   -22.7450    70.1650    19.6580    20.0100    14.2630    22.4570     2.4430 
  154.1250   -22.7930    70.9820    19.9730    20.3340    14.4760    22.4570     2.4310 
  154.2500   -22.8630    70.8850    20.3670    20.6800    14.6090    22.4580     2.4270 
  154.3750   -22.9470    68.6620    21.2510    21.3730    14.9530    22.4760     2.4280 
  154.5000   -23.0070    66.6720    23.1200    22.8450    15.9780    22.5340     2.4280 
  154.6250   -23.0550    68.4350    26.7790    25.8840    17.8390    22.7050     2.4130 
  154.7500   -23.1010    70.7070    32.4730    30.8910    21.4720    22.9600     2.3790 
  154.8750   -23.1050    68.9160    40.6270    38.4720    28.7180    23.2280     2.3350 
  155.0000   -23.0850    64.2460    51.6210    49.1090    39.6580    23.3700     2.2950 
  155.1250   -23.0840    61.5140    79.2190    63.2610    51.2200    23.3980     2.2760 
  155.2500   -23.0420    61.5410    99.1530    79.5330    61.2680    23.3980     2.2720 
  155.3750   -22.9550    61.6180   120.1720    96.6370    73.5630    23.3980     2.2720 
  155.5000   -22.9020    60.8500   140.7500   113.4580    86.2720    23.3970     2.2660 
  155.6250   -22.8450    60.6270   160.5940   129.6880    89.8510    23.3800     2.2530 
  155.7500   -22.7820    60.6390   181.4710   146.4420    83.9050    23.3350     2.2400 
  155.8750   -22.7750    59.7800   205.4960   165.2290    76.7870    23.2650     2.2300 
  156.0000   -22.7970    58.2330   234.3630   187.4380    72.3090    23.1990     2.2240 
  156.1250   -22.8160    58.1830   270.3230   214.8290    72.2380    23.1520     2.2210 
  156.2500   -22.8890    59.8740   312.2660   246.5520    74.5560    23.0990     2.2190 
  156.3750   -22.9750    60.1700   357.7530   280.9350    74.8580    22.9880     2.2190 
  156.5000   -23.0650    57.8450   402.5160   315.2090    72.8750    22.8470     2.2200 
  156.6250   -23.1990    54.5220   441.7550   346.2270    75.6800    22.7970     2.2210 
  156.7500   -23.3120    52.7430   475.6060   373.6810    82.5350    23.0040     2.2200 
  156.8750   -23.4300    53.0400   505.9170   398.5170    96.2570    23.3980     2.2160 
  157.0000   -23.5590    54.2450   535.2320   422.4820   114.8900    23.7840     2.2090 
  157.1250   -23.6800    54.0300   566.7080   448.1010   138.1850    24.0420     2.2030 
  157.2500   -23.8030    51.7920   602.9160   477.5250   159.0630    24.2260     2.1970 
  157.3750   -23.9630    50.7460   646.2920   512.8090   179.3280    24.3570     2.1910 
  157.5000   -24.0830    52.6100   697.8220   555.0640   196.7840    24.4210     2.1830 
  157.6250   -24.1780    54.4500   754.1290   603.0550   209.3280    24.4370     2.1750 
  157.7500   -24.3060    53.7880   802.4280   649.0730   214.1860    24.4370     2.1670 
  157.8750   -24.3930    51.9010   823.3880   682.2040   213.2460    24.4370     2.1600 
  158.0000   -24.4310    52.1880   792.2480   687.1560   212.2480    24.4370     2.1550 
  158.1250   -24.5070    53.9620   684.6090   639.8660   211.7540    24.4370     2.1500 
  158.2500   -24.5860    53.8050   557.1990   548.1020   208.6310    24.4370     2.1450 
  158.3750   -24.6200    51.1990   427.4300   433.6810   201.5610    24.4370     2.1460 
  158.5000   -24.6990    50.0320   307.0460   324.3150   177.7280    24.4370     2.1550 
  158.6250   -24.7930    53.5090   229.8540   242.4170   135.1270    24.4370     2.1750 
  158.7500   -24.8820    57.3430   180.9820   186.8320   100.9260    24.4390     2.2020 
  158.8750   -25.0250    61.5450   152.3710   153.0570    84.6920    24.4420     2.2310 
  159.0000   -25.2110    66.6230   138.2210   135.7060    80.0660    24.4450     2.2520 
  159.1250   -25.4300    67.8060   136.1460   131.9430    81.3770    24.4460     2.2600 
  159.2500   -25.6290    64.6480   141.7330   136.4750    88.7800    24.4470     2.2580 
  159.3750   -25.8310    61.5450   152.8580   146.7940   101.8160    24.4500     2.2520 
  159.5000   -26.0460    63.2340   166.9410   160.1330   113.4900    24.4660     2.2460 
  159.6250   -26.2360    66.6480   180.4560   173.0290   118.6870    24.5550     2.2430 
  159.7500   -26.4000    68.1540   190.6880   182.8160   119.9640    24.7240     2.2410 
  159.8750   -26.5330    67.4780   196.8530   188.5340   120.6300    24.8730     2.2400 
  160.0000   -26.6380    65.1760   199.7790   190.6910   121.6800    24.9340     2.2380 
  160.1250   -26.7340    62.0720   201.2130   190.7500   122.5090    24.9360     2.2350 
  160.2500   -26.8480    61.1270   203.1810   190.9410   121.7990    24.9360     2.2280 
  160.3750   -26.9530    62.5500   206.5780   192.4470   119.3100    24.9360     2.2200 
  160.5000   -27.0280    64.5800   211.6320   195.8220   117.1560    24.9360     2.2110 
  160.6250   -27.1700    62.1090   217.9520   201.1550   122.8180    24.9370     2.2050 
  160.7500   -27.3300    56.9810   223.9420   207.1250   130.9800    24.9380     2.2060 
  160.8750   -27.4350    54.1260   227.9910   212.3110   136.2610    24.9420     2.2130 
  161.0000   -27.5770    54.1780   228.9610   215.4310   130.4510    24.9470     2.2210 
  161.1250   -27.7000    54.5210   226.3180   215.5240   122.7750    24.9640     2.2190 
