~V
VERS. 2.00: Ver 2.00
~W
STRT.M 56.0000:
STOP.M 268.0000:
STEP.M 0.1250:
NULL. -999.2500:
UWI. F10027:
~C
DEPT.M :
GR.API :
RML.OHMM :
RI. :
RXO.OHMM :
CALI.CM :
DEN.GM/CC :
SP.MV :
~A
# ...
  247.2500    49.9460     4.5360     4.0260     5.1960    23.8340     2.3370    -4.5930 
  247.3750    53.7530     5.0130     4.3220     5.6710    23.8770     2.3340    -4.6070 
  247.5000    54.9250     5.8460     4.8850     6.5470    23.9100     2.3400    -4.6570 
  247.6250    52.9920     6.9500     5.7360     8.7710    23.9670     2.3560    -4.7270 
  247.7500    51.3070     8.0080     6.6730    12.0260    24.0700     2.3790    -4.8400 
  247.8750    52.2770     8.6920     7.4350    14.7720    24.1610     2.3990    -4.9440 
  248.0000    53.6890     8.7560     7.7610    14.2640    24.1300     2.4080    -5.0350 
  248.1250    51.9460     8.1320     7.4820    11.1870    23.9660     2.3990    -5.1450 
  248.2500    50.8730     7.2370     6.8690     8.3060    23.7770     2.3760    -5.2610 
  248.3750    53.2630     6.3860     6.1750     6.6730    23.6760     2.3470    -5.3220 
  248.5000    55.1680     5.7620     5.5880     6.4330    23.7620     2.3200    -5.3100 
  248.6250    50.3010     5.4210     5.2010     6.7080    23.8220     2.3070    -5.2670 
  248.7500    41.8740     5.2260     4.9390     6.4650    23.8340     2.3090    -5.1940 
  248.8750    34.9940     5.0780     4.7320     5.5330    23.8540     2.3220    -5.0930 
  249.0000    30.2030     4.9230     4.5280     4.6100    23.9360     2.3380    -4.9740 
  249.1250    26.4410     4.7780     4.3270     4.2810    23.9870     2.3450    -4.8420 
  249.2500    25.0150     4.6850     4.1590     4.2570    23.9510     2.3430    -4.6910 
  249.3750    25.4370     4.6570     4.0530     4.2390    23.8760     2.3360    -4.5580 
  249.5000    26.3800     4.6700     4.0120     4.1720    23.8340     2.3290    -4.4860 
  249.6250    27.5610     4.6820     4.0290     4.1840    23.8580     2.3240    -4.4110 
  249.7500    28.9110     4.6730     4.0710     4.2450    23.8940     2.3200    -4.3180 
  249.8750    29.6180     4.6530     4.1220     4.2330    23.8890     2.3140    -4.2530 
  250.0000    29.1460     4.6490     4.1780     4.2620    23.8240     2.3090    -4.1990 
  250.1250    28.7930     4.6690     4.2340     4.3640    23.7450     2.3060    -4.1210 
  250.2500    28.9060     4.6910     4.2840     4.4500    23.7100     2.3090    -4.0440 
  250.3750    30.0100     4.6940     4.3210     4.4860    23.7580     2.3160    -3.9700 
  250.5000    32.3360     4.6760     4.3430     4.6020    23.8630     2.3270    -3.8880 
  250.6250    34.1640     4.6540     4.3470     4.6990    23.9530     2.3390    -3.8540 
  250.7500    34.1130     4.6570     4.3380     4.6790    24.0350     2.3490    -3.8790 
  250.8750    33.6840     4.6980     4.3260     4.6410    24.0830     2.3570    -3.9170 
  251.0000    34.7040     4.7750     4.3210     4.6360    24.0990     2.3620    -3.9790 
  251.1250    36.7890     4.8670     4.3400     4.6970    24.1000     2.3690    -4.1120 
  251.2500    38.7420     4.9490     4.3810     4.8120    24.1080     2.3780    -4.3030 
  251.3750    40.1600     5.0060     4.4340     4.9560    24.1260     2.3870    -4.5260 
  251.5000    41.0630     5.0280     4.4770     5.0600    24.1450     2.3910    -4.7670 
  251.6250    42.0880     5.0070     4.4830     5.1060    24.1400     2.3830    -5.0430 
  251.7500    44.2310     4.9590     4.4490     5.0370    24.0870     2.3670    -5.3250 
  251.8750    48.0170     4.9000     4.3860     4.8910    23.9630     2.3510    -5.6030 
  252.0000    51.3130     4.8560     4.3190     4.8480    23.8080     2.3430    -5.8590 
  252.1250    51.1850     4.8580     4.2870     4.9380    23.7390     2.3450    -6.1100 
  252.2500    49.2430     4.9180     4.3070     5.0770    23.7910     2.3500    -6.3420 
  252.3750    48.7140     5.0510     4.3940     5.1840    23.8700     2.3530    -6.5600 
  252.5000    51.2090     5.2790     4.5560     5.3820    23.9180     2.3500    -6.7870 
  252.6250    54.2960     5.6360     4.8170     5.8600    23.9860     2.3450    -6.9500 
  252.7500    56.1420     6.0680     5.1560     6.4460    24.1170     2.3410    -7.0620 
  252.8750    56.6200     6.5000     5.5390     7.0580    24.2490     2.3390    -7.1910 
  253.0000    57.0270     6.8450     5.9080     7.6170    24.3210     2.3370    -7.3240 
  253.1250    56.6980     6.9990     6.1630     8.2030    24.3270     2.3350    -7.3440 
  253.2500    55.6180     6.9720     6.2610     8.2080    24.3210     2.3310    -7.3270 
  253.3750    56.5130     6.8080     6.1960     7.4850    24.3140     2.3250    -7.3010 
  253.5000    59.0090     6.5770     6.0030     6.6590    24.3050     2.3160    -7.2020 
  253.6250    59.3670     6.3350     5.7360     6.5830    24.3090     2.3070    -7.0240 
  253.7500    57.1280     6.1080     5.4630     6.8770    24.2750     2.3000    -6.8390 
  253.8750    56.3900     5.8930     5.2110     6.1370    24.2250     2.2990    -6.6590 
  254.0000    57.9920     5.6810     4.9910     5.4520    24.1910     2.3070    -6.4880 
  254.1250    58.7220     5.4870     4.8130     5.2740    24.1920     2.3290    -6.3930 
  254.2500    56.7550     5.3430     4.6790     5.3610    24.1780     2.3580    -6.3170 
  254.3750    54.2160     5.2830     4.6080     5.1890    24.1770     2.3870    -6.2770 
  254.5000    53.3030     5.3210     4.6200     5.0860    24.2100     2.4050    -6.3290 
  254.6250    55.0680     5.4700     4.7460     5.5750    24.2460     2.3990    -6.4940 
  254.7500    58.7990     5.7090     4.9640     6.6800    24.2730     2.3750    -6.7020 
  254.8750    61.6340     6.0220     5.2530     7.8860    24.2980     2.3460    -6.8630 
  255.0000    60.5080     6.3860     5.5820     8.4060    24.3040     2.3240    -6.9580 
  255.1250    56.8510     6.7660     5.9210     8.2950    24.2830     2.3190    -7.0220 
  255.2500    56.1570     7.1110     6.2570     8.4780    24.2540     2.3230    -7.0980 
  255.3750    59.0410     7.3760     6.5900     9.2370    24.2520     2.3280    -7.1430 
  255.5000    61.3080     7.5210     6.9030    10.4810    24.2720     2.3270    -7.1040 
  255.6250    59.8390     7.4720     7.1240    10.5720    24.3320     2.3250    -6.9520 
  255.7500    58.3220     7.2440     7.1850     9.7610    24.3770     2.3270    -6.7260 
  255.8750    59.5460     6.8760     7.0370     8.6380    24.3480     2.3380    -6.4870 
  256.0000    62.0530     6.4480     6.6880     7.4510    24.2500     2.3520    -6.2620 
  256.1250    62.6400     6.0640     6.2020     6.5380    24.1650     2.3610    -6.0290 
  256.2500    61.7870     5.7740     5.7110     5.5010    24.1350     2.3590    -5.7770 
  256.3750    61.7870     5.5830     5.2990     5.3250    24.1300     2.3470    -5.5300 
  256.5000    61.7870     5.4730     5.0130     5.5520    24.1370     2.3300    -5.3160 
  256.6250    61.7870     5.4410     4.8850     5.5720    24.1590     2.3170    -5.2020 
  256.7500    61.7870     5.4770     4.8730     5.4480    24.1870     2.3140    -5.1700 
  256.8750    61.7870     5.5730     4.9440     5.5090    24.2010     2.3210    -5.1880 
  257.0000    61.7870     5.7000     5.0600     5.4850    24.2070     2.3350    -5.2250 
  257.1250    61.7870     5.8060     5.1770     5.5230    24.2170     2.3480    -5.2280 
  257.2500    61.7870     5.8560     5.2580     5.5980    24.2170     2.3550    -5.2090 
  257.3750    61.7870     5.8330     5.2820     5.3840    24.2150     2.3560    -5.1770 
  257.5000    61.7870     5.7440     5.2410     5.1570    24.2040     2.3580    -5.1330 
  257.6250    61.7870     5.6060     5.1370     5.1530    24.1650     2.3670    -5.0920 
  257.7500    61.7870     5.4530     5.0040     5.1600    24.1330     2.3840    -5.0720 
  257.8750    61.7870     5.3060     4.8690     5.0450    24.1150     2.4060    -5.0700 
  258.0000    61.7870     5.1850     4.7560     4.9840    24.1210     2.4270    -5.1030 
  258.1250    61.7870     5.1330     4.7050     5.0330    24.1290     2.4420    -5.2250 
  258.2500    61.7870     5.1820     4.7390     5.2240    24.1390     2.4450    -5.4170 
  258.3750    61.7870     5.3620     4.8820     5.5470    24.1490     2.4320    -5.6500 
