~V
VERS. 2.00: Ver 2.00
~W
STRT.M 50.0000:
STOP.M 274.0000:
STEP.M 0.1250:
NULL. -999.2500:
UWI. F10029:
~C
DEPT.M :
DEN.GM/CC :
SP.MV :
GR.API :
CALI.CM :
RXO.OHMM :
RI. :
RML.OHMM :
~A
# ...
  218.7500     2.1940   -16.6900    78.7330    23.4230    41.9790    35.7390    38.6950 
  218.8750     2.1920   -16.7480    77.0560    23.4330    44.2010    36.9590    40.0020 
  219.0000     2.1940   -16.7750    74.8920    23.4350    46.2820    37.8210    40.9250 
  219.1250     2.1950   -16.8270    73.5060    23.3990    46.8230    38.1960    41.3280 
  219.2500     2.1960   -16.9180    73.1430    23.2890    46.2980    38.1330    41.2600 
  219.3750     2.2010   -17.0010    73.1480    23.2080    46.3550    37.7020    40.7990 
  219.5000     2.2130   -17.0370    72.2460    23.2650    47.3310    37.0790    40.1310 
  219.6250     2.2230   -17.1260    72.3440    23.3220    46.1970    36.5690    39.5850 
  219.7500     2.2210   -17.2020    74.7010    23.2880    43.0440    36.4660    39.4740 
  219.8750     2.2100   -17.2970    77.4460    23.2860    42.0210    36.9580    40.0010 
  220.0000     2.1980   -17.3850    82.4290    23.2610    45.2350    38.0720    41.1950 
  220.1250     2.1930   -17.4690    87.4100    23.1040    49.7610    39.6610    42.8970 
  220.2500     2.1940   -17.5280    85.8170    23.0010    52.5610    41.1810    44.5250 
  220.3750     2.1980   -17.5700    79.5500    23.0370    53.1740    41.9880    45.3900 
  220.5000     2.2060   -17.6230    76.1900    23.0870    51.2020    41.4360    44.7980 
  220.6250     2.2200   -17.5830    78.3420    23.0350    48.3850    39.1330    42.3310 
  220.7500     2.2420   -17.5010    78.8560    22.8790    45.7480    36.0310    39.0080 
  220.8750     2.2830   -17.4090    78.5990    22.7080    41.9550    33.0370    35.8010 
  221.0000     2.3550   -17.2570    79.7240    22.6460    35.8310    30.8450    33.4530 
  221.1250     2.4490   -16.9780    82.6710    22.7450    31.3940    29.8090    32.3430 
  221.2500     2.5280   -16.6930    86.3270    22.8610    33.2390    29.1420    31.6290 
  221.3750     2.5710   -16.3660    88.5460    22.8060    43.6950    27.6640    30.0460 
  221.5000     2.5810   -15.9580    86.0000    22.6330    51.6880    24.3910    26.5400 
  221.6250     2.5680   -15.6040    84.7730    22.7440    41.4990    19.4950    21.2950 
  221.7500     2.5380   -15.2230    90.1560    22.8330    23.6250    14.6960    16.1550 
  221.8750     2.4900   -14.8500    93.4380    22.8390    11.7090    10.9300    12.1200 
  222.0000     2.4310   -14.5910    86.7090    22.7980     6.9690     8.4070     9.4180 
  222.1250     2.3800   -14.4070    78.4260    22.7510     6.2870     7.0740     7.9900 
  222.2500     2.3520   -14.2340    76.3150    22.7370     6.1230     6.4620     7.3340 
  222.3750     2.3520   -14.1580    74.0900    22.7650     6.0260     6.3390     7.2020 
  222.5000     2.3720   -14.1640    67.3630    22.8090     6.0610     6.4750     7.3480 
  222.6250     2.3900   -14.1370    64.3270    22.8360     6.1280     6.6120     7.4950 
  222.7500     2.3910   -14.1430    64.5540    22.8410     6.2290     6.6010     7.4830 
  222.8750     2.3790   -14.1630    63.8770    22.8330     6.1990     6.4690     7.3420 
  223.0000     2.3630   -14.1340    64.4320    22.8470     5.9740     6.3340     7.1960 
  223.1250     2.3490   -14.1470    72.0310    22.9020     5.7860     6.3620     7.2270 
  223.2500     2.3380   -14.1760    82.2980    22.9790     6.2110     6.6120     7.4940 
  223.3750     2.3360   -14.1690    90.1400    23.1250     7.3160     7.0670     7.9820 
  223.5000     2.3450   -14.1520    96.4390    23.3090     8.5560     7.6310     8.5860 
  223.6250     2.3620   -14.2110   103.2370    23.3180     8.9860     8.1180     9.1080 
  223.7500     2.3760   -14.2770   112.6880    23.1790     8.9680     8.3830     9.3920 
  223.8750     2.3890   -14.3060   123.9110    23.0890     8.7720     8.4180     9.4290 
  224.0000     2.4040   -14.3720   130.7510    23.2540     8.6770     8.3680     9.3760 
  224.1250     2.4150   -14.4570   127.5690    23.5880     8.8950     8.5040     9.5220 
  224.2500     2.4160   -14.5360   121.4710    23.8840     9.2840     8.9690    10.0200 
  224.3750     2.4080   -14.6060   121.7260    24.0120    10.2000     9.7820    10.8900 
  224.5000     2.3950   -14.6950   126.7110    23.9740    12.5710    10.8080    11.9900 
  224.6250     2.3770   -14.7830   125.7920    23.7570    15.1190    11.6620    12.9040 
  224.7500     2.3560   -14.8960   119.7140    23.4120    15.3500    11.9620    13.2260 
  224.8750     2.3340   -15.0180   120.1250    23.1290    13.0820    11.6220    12.8620 
  225.0000     2.3160   -15.0910   128.7870    22.9630    10.6590    10.8920    12.0800 
  225.1250     2.3110   -15.1070   132.1810    22.9260     9.6380    10.1690    11.3050 
  225.2500     2.3180   -15.1160   126.3720    23.0010     9.4540     9.6780    10.7790 
  225.3750     2.3290   -15.0970   120.8330    23.1850     9.5110     9.4260    10.5090 
  225.5000     2.3300   -15.0850   122.2670    23.3740     9.8170     9.3160    10.3920 
  225.6250     2.3230   -15.0290   124.7280    23.4830    10.1580     9.2440    10.3140 
  225.7500     2.3260   -14.8930   123.4740    23.5230     9.7360     9.2270    10.2960 
  225.8750     2.3430   -14.7800   124.6540    23.5230     9.0030     9.4120    10.4940 
  226.0000     2.3640   -14.7250   134.2180    23.4950     9.3260     9.9840    11.1070 
  226.1250     2.3690   -14.6430   140.5190    23.4310    11.8190    11.1980    12.4070 
  226.2500     2.3620   -14.5550   130.5380    23.3650    15.9030    12.9970    14.3350 
  226.3750     2.3520   -14.5030   113.3710    23.2660    19.0390    15.2080    16.7030 
  226.5000     2.3430   -14.4390   106.0550    23.1120    19.4320    17.3620    19.0100 
  226.6250     2.3400   -14.4100   112.1450    22.9710    18.3640    18.5010    20.2300 
  226.7500     2.3340   -14.4660   115.1260    22.9080    17.6010    18.1780    19.8840 
  226.8750     2.3190   -14.5130   110.9410    22.8880    16.8780    16.5200    18.1080 
  227.0000     2.2960   -14.5300   103.5420    22.8810    15.3260    14.1570    15.5770 
  227.1250     2.2800   -14.6570   100.9630    22.9350    12.7940    11.8950    13.1540 
  227.2500     2.2800   -14.7890   104.7230    22.9700     9.8840    10.2250    11.3660 
  227.3750     2.2910   -14.9400   110.2920    22.9530     8.0210     9.3250    10.4010 
  227.5000     2.3040   -15.1580   114.9920    22.9250     8.0970     9.2310    10.3010 
  227.6250     2.3220   -15.3520   116.4760    22.9390    10.6920    10.0570    11.1850 
  227.7500     2.3560   -15.5460   113.5170    23.0240    16.0400    11.6140    12.8530 
  227.8750     2.3960   -15.8080   105.7850    23.1630    22.3650    13.7650    15.1570 
  228.0000     2.4160   -16.0920    95.9950    23.2540    24.8760    16.2840    17.8560 
  228.1250     2.3870   -16.3620    89.9170    23.2010    22.5450    19.0220    22.7400 
  228.2500     2.3370   -16.7410    89.3440    23.0550    22.4200    21.9850    26.1680 
  228.3750     2.3000   -17.1490    91.5280    22.9230    28.6970    25.2560    29.9520 
  228.5000     2.2880   -17.4890    91.2810    22.8470    40.9990    28.6960    33.9320 
  228.6250     2.2930   -17.8780    87.9760    22.8670    51.3620    31.7990    37.5210 
  228.7500     2.2960   -18.2690    85.8720    22.9320    51.9150    34.3200    40.4380 
  228.8750     2.2910   -18.6160    88.7600    22.9590    44.5790    36.7040    43.1960 
  229.0000     2.2870   -18.9770    93.3130    22.9310    38.5940    40.1540    47.1870 
  229.1250     2.2920   -19.2840    92.3030    22.9090    47.7730    47.0640    55.1820 
  229.2500     2.2980   -19.5050    84.2780    22.9050    84.4930    58.5540    68.4750 
  229.3750     2.2840   -19.6710    73.9560    22.9080   150.9340    74.5260    86.9530 
  229.5000     2.2450   -19.8620    68.4190    22.9050   201.6080    91.8090   106.9470 
  229.6250     2.1960   -20.0200    69.5620    22.8850   178.5710   101.8800   118.5970 
  229.7500     2.1650   -20.1120    71.8840    22.8460   123.3820   100.5330   117.0400 
  229.8750     2.1570   -20.1990    72.6880    22.8100    84.2610    90.2940   105.1940 
