~V
VERS. 2.00: Ver 2.00
~W
STRT.M 50.0000:
STOP.M 300.0000:
STEP.M 0.1250:
NULL. -999.2500:
UWI. F10041:
~C
DEPT.M :
DEN.GM/CC :
GR.API :
RML.OHMM :
RI. :
RXO.OHMM :
CALI.CM :
SP.MV :
~A
# ...
  140.0000     2.2390    74.0560     5.7060     5.1910     5.0980    22.2750    -7.3160 
  140.1250     2.2530    75.4670     5.7890     5.2670     4.9970    22.5620    -7.3410 
  140.2500     2.2660    76.5460     5.7910     5.2690     5.0870    22.7800    -7.3090 
  140.3750     2.2800    76.0680     5.7220     5.2050     4.9410    22.9210    -7.2540 
  140.5000     2.2950    75.1120     5.6010     5.0940     4.6890    23.0020    -7.2280 
  140.6250     2.3060    78.8020     5.4520     4.9560     4.6760    23.0220    -7.0590 
  140.7500     2.3140    85.3930     5.3040     4.8190     4.7020    23.0270    -6.7810 
  140.8750     2.3200    90.7400     5.1760     4.7000     4.6220    23.0270    -6.5460 
  141.0000     2.3260    92.7220     5.0800     4.6120     4.5990    23.0270    -6.3410 
  141.1250     2.3280    92.3290     5.0310     4.5660     4.6680    23.0270    -6.1680 
  141.2500     2.3210    90.5200     5.0250     4.5600     4.8190    23.0270    -6.1120 
  141.3750     2.3020    87.0230     5.0770     4.6090     4.9670    23.0270    -6.1210 
  141.5000     2.2720    82.0170     5.2170     4.7380     5.1470    23.0440    -6.2910 
  141.6250     2.2370    75.1150     5.5010     5.0010     5.5810    23.1370    -6.7620 
  141.7500     2.2010    67.3850     5.9170     5.3860     6.4050    23.3230    -7.5170 
  141.8750     2.1680    61.5930     6.4310     5.8620     7.4340    23.5160    -8.5020 
  142.0000     2.1430    58.4010     6.9710     6.3620     8.4980    23.6760    -9.6920 
  142.1250     2.1300    56.0280     7.4180     6.7760     8.8010    23.7610   -11.0750 
  142.2500     2.1280    54.0020     7.7010     7.0380     8.5120    23.7840   -12.4640 
  142.3750     2.1330    53.9410     7.8010     7.1310     8.0280    23.7610   -13.8400 
  142.5000     2.1440    55.2320     7.7650     7.0970     7.8100    23.6920   -15.0360 
  142.6250     2.1600    55.4430     7.7280     7.0630     7.7610    23.6140   -15.9750 
  142.7500     2.1820    55.4260     7.8760     7.2010     7.6060    23.5020   -16.6540 
  142.8750     2.2100    55.7520     8.3680     7.6590     7.8160    23.3790   -16.9800 
  143.0000     2.2390    54.7120     9.3340     8.5370     9.4310    23.2970   -17.0280 
  143.1250     2.2620    52.5000    10.8280     9.8620    14.7280    23.3860   -16.8020 
  143.2500     2.2710    51.1340    12.3920    11.2810    24.7420    23.5920   -16.3530 
  143.3750     2.2670    51.8050    13.3830    12.3150    35.2160    23.7450   -15.7290 
  143.5000     2.2560    54.1420    13.1760    12.4710    35.8360    23.7840   -15.0290 
  143.6250     2.2520    59.9380    11.5690    11.3910    22.5450    23.7260   -14.1820 
  143.7500     2.2660    69.1810     9.5680     9.6070    11.5260    23.6300   -13.1970 
  143.8750     2.2950    78.2370     7.8170     7.6620     6.6330    23.5720   -12.1740 
  144.0000     2.3290    83.5040     6.4560     5.9930     5.2280    23.5910   -11.0690 
  144.1250     2.3460    85.1370     5.4040     4.8940     4.7630    23.7060    -9.9360 
  144.2500     2.3360    86.5630     4.6710     4.2860     4.5220    23.8420    -8.9280 
  144.3750     2.2980    87.3270     4.3990     4.0870     4.5830    23.9390    -8.0240 
  144.5000     2.2480    85.2910     4.5410     4.1980     4.9350    23.8660    -7.3220 
  144.6250     2.2210    80.9790     5.0020     4.5640     6.0160    23.6930    -6.9790 
  144.7500     2.2390    75.9870     5.5800     5.0700     7.1190    23.5660    -6.8720 
  144.8750     2.3000    72.0110     6.1860     5.6340     6.9930    23.6600    -6.9160 
  145.0000     2.3770    71.2230     6.7370     6.1460     6.1420    23.9190    -7.0260 
  145.1250     2.4240    74.6600     7.0670     6.4510     7.5930    24.0040    -7.1580 
  145.2500     2.4260    79.2720     7.1430     6.5220     9.2270    23.9310    -7.2430 
  145.3750     2.3950    80.7710     6.9960     6.3860     7.2020    23.8180    -7.3230 
  145.5000     2.3560    77.8530     6.7120     6.1220     5.3300    23.7280    -7.3220 
  145.6250     2.3340    73.9110     6.3910     5.8250     5.3200    23.6650    -7.2070 
  145.7500     2.3250    72.8000     6.1160     5.5710     5.6630    23.7440    -7.0890 
  145.8750     2.3180    74.8020     5.9260     5.3940     5.5810    23.9520    -6.9530 
  146.0000     2.3050    77.3510     5.8340     5.3090     5.5110    24.1170    -6.9130 
  146.1250     2.2860    79.5180     5.8380     5.3130     5.5570    24.0810    -6.9570 
  146.2500     2.2690    80.7820     5.8830     5.3540     5.7580    23.9700    -7.1270 
  146.3750     2.2600    80.8770     5.9380     5.4050     5.7800    23.8650    -7.3530 
  146.5000     2.2570    80.3610     5.9930     5.4570     5.8230    23.7980    -7.5860 
  146.6250     2.2570    78.9560     6.0570     5.5160     5.9340    23.7570    -7.7480 
  146.7500     2.2530    77.8210     6.1350     5.5880     6.1990    23.7090    -7.7900 
  146.8750     2.2410    78.2080     6.2250     5.6710     6.2160    23.6350    -7.8090 
  147.0000     2.2250    79.6140     6.3180     5.7570     6.1440    23.5830    -7.7870 
  147.1250     2.2120    81.5640     6.3910     5.8250     6.7160    23.6220    -7.7130 
  147.2500     2.2100    82.8420     6.4160     5.8480     6.7590    23.7160    -7.5480 
  147.3750     2.2190    82.5290     6.3760     5.8110     6.1480    23.7750    -7.3550 
  147.5000     2.2340    82.0100     6.2760     5.7190     5.8000    23.8190    -7.1020 
  147.6250     2.2480    83.9640     6.1470     5.5990     5.6610    23.9760    -6.8830 
  147.7500     2.2580    85.8260     6.0170     5.4790     5.2150    24.2520    -6.6840 
  147.8750     2.2630    84.1210     5.8890     5.3600     5.1620    24.4060    -6.4800 
  148.0000     2.2630    79.7230     5.7480     5.2300     5.5300    24.3960    -6.3220 
  148.1250     2.2550    79.6840     5.5840     5.0770     5.7530    24.4190    -6.2580 
  148.2500     2.2390    83.7470     5.4200     4.9260     5.2590    24.5210    -6.2500 
  148.3750     2.2140    88.8140     5.3000     4.8150     4.9270    24.6310    -6.2330 
  148.5000     2.1850    91.9050     5.2730     4.7890     4.9290    24.6910    -6.2590 
  148.6250     2.1620    89.3130     5.4080     4.9150     5.5560    24.7360    -6.4010 
  148.7500     2.1550    82.0190     5.6940     5.1790     6.2620    24.7690    -6.6840 
  148.8750     2.1660    74.1890     6.0880     5.5440     7.2350    24.6730    -7.1550 
  149.0000     2.1900    70.8380     6.5050     5.9300     7.6940    24.4210    -7.7370 
  149.1250     2.2090    73.9970     6.8230     6.2250     7.3540    24.2190    -8.2770 
  149.2500     2.2170    79.0300     7.0080     6.3960     6.3870    24.0370    -8.6580 
  149.3750     2.2140    81.8010     7.0840     6.4670     5.6670    23.8870    -8.8450 
  149.5000     2.2100    80.0850     7.1120     6.4920     5.6760    23.7870    -8.8620 
  149.6250     2.2120    76.4410     7.1340     6.5130     6.0770    23.7580    -8.7570 
  149.7500     2.2180    75.3660     7.1480     6.5260     6.2030    23.7840    -8.5160 
  149.8750     2.2230    76.0650     7.1280     6.5070     6.0030    23.8210    -8.1490 
  150.0000     2.2260    75.5360     7.0490     6.4350     5.9850    23.8300    -7.6870 
  150.1250     2.2300    75.7450     6.9010     6.2970     6.1320    23.8200    -7.2290 
  150.2500     2.2370    77.2550     6.7100     6.1200     6.1680    23.8400    -6.9380 
  150.3750     2.2450    79.2870     6.4960     5.9230     5.8790    23.8910    -6.8080 
  150.5000     2.2540    81.2460     6.2780     5.7210     5.4890    23.9790    -6.7620 
  150.6250     2.2610    82.5640     6.0720     5.5300     5.0680    24.0710    -6.6070 
  150.7500     2.2680    83.8550     5.8940     5.3650     4.8920    24.1690    -6.4510 
  150.8750     2.2740    85.4140     5.7630     5.2440     4.8890    24.2590    -6.2150 
  151.0000     2.2780    87.0130     5.6910     5.1760     5.0010    24.3540    -5.9640 
  151.1250     2.2820    90.4380     5.6700     5.1580     5.1720    24.4300    -5.7490 
