~V
VERS. 2.00: Ver 2.00
~W
STRT.M 50.0000:
STOP.M 250.0000:
STEP.M 0.1250:
NULL. -999.2500:
UWI. F10033:
~C
DEPT.M :
SP.MV :
GR.API :
RML.OHMM :
RI. :
RXO.OHMM :
CALI.CM :
DEN.GM/CC :
~A
# ...
  117.5000    -4.0000    77.6410     9.0940     8.0790     9.5870    25.1560     2.3330 
  117.6250    -3.8310    76.5960     9.1320     8.3030    10.0870    24.9410     2.3310 
  117.7500    -3.7620    79.1570     8.7740     8.1840     8.3610    24.8020     2.3240 
  117.8750    -3.7760    82.9590     8.1980     7.8190     7.2150    24.7450     2.3220 
  118.0000    -3.8560    84.9020     7.6160     7.3810     6.8890    24.7030     2.3290 
  118.1250    -3.9440    87.6170     7.2160     7.0400     6.8740    24.6520     2.3410 
  118.2500    -3.9700    93.1300     7.0240     6.8500     7.0620    24.7190     2.3470 
  118.3750    -3.9380    97.4740     6.9990     6.7940     7.1550    24.9270     2.3410 
  118.5000    -3.8730    96.5780     7.0690     6.8180     7.0650    25.0790     2.3270 
  118.6250    -3.7960    91.5340     7.1510     6.8520     6.8990    25.1070     2.3110 
  118.7500    -3.7200    88.2390     7.1750     6.8380     7.0540    25.0740     2.3000 
  118.8750    -3.6310    86.4000     7.0950     6.7460     7.1350    25.0500     2.2970 
  119.0000    -3.5120    86.0190     6.9170     6.5820     6.9510    25.0520     2.3030 
  119.1250    -3.3710    90.3070     6.7260     6.4090     6.6700    25.0300     2.3160 
  119.2500    -3.2730    96.6310     6.6430     6.3150     6.4520    24.9780     2.3310 
  119.3750    -3.2160   101.4310     6.7390     6.3530     6.3870    24.9280     2.3400 
  119.5000    -3.1510   100.8050     7.0200     6.5320     6.8670    24.8930     2.3410 
  119.6250    -3.0220    93.8680     7.4230     6.8230     7.8090    24.8520     2.3300 
  119.7500    -2.8730    87.2360     7.7940     7.1210     8.6220    24.7920     2.3130 
  119.8750    -2.7160    85.1780     8.0320     7.3500     8.3510    24.8190     2.2920 
  120.0000    -2.5620    86.1170     8.1380     7.4920     7.9340    25.0130     2.2680 
  120.1250    -2.4520    85.7510     8.2470     7.6290     8.2630    24.9330     2.2450 
  120.2500    -2.3810    84.0580     8.5590     7.9010     8.8670    24.5260     2.2230 
  120.3750    -2.3230    82.1580     9.2560     8.4430     9.2780    24.2230     2.2060 
  120.5000    -2.2900    80.6740    10.4570     9.3590     9.9040    24.2370     2.1970 
  120.6250    -2.3230    79.5310    12.5670    10.7150    11.7320    24.3510     2.2050 
  120.7500    -2.3900    77.7890    14.3700    12.2180    13.5940    24.3920     2.2240 
  120.8750    -2.4860    75.6870    15.7040    13.4560    15.6610    24.3850     2.2450 
  121.0000    -2.5840    74.4110    16.1220    14.0110    18.2180    24.4810     2.2570 
  121.1250    -2.6440    75.3510    15.4960    13.6930    18.4050    24.7310     2.2570 
  121.2500    -2.6480    76.6490    14.5890    13.0690    15.0410    25.0200     2.2550 
  121.3750    -2.5940    76.5890    14.0750    12.6400    12.9760    25.2600     2.2540 
  121.5000    -2.4680    74.6420    14.3820    12.7460    13.1830    25.4220     2.2480 
  121.6250    -2.2560    70.9720    15.7130    13.6300    15.1340    25.5060     2.2240 
  121.7500    -1.9950    68.1740    17.6090    15.0830    18.5090    25.5310     2.1840 
  121.8750    -1.7220    66.5220    19.5690    16.8010    21.6530    25.5090     2.1400 
  122.0000    -1.4730    65.1170    21.0770    18.3500    21.8010    25.4750     2.1090 
  122.1250    -1.2320    62.8540    21.7140    19.2580    20.2160    25.4590     2.1010 
  122.2500    -0.9980    61.3810    21.6770    19.5450    18.5290    25.4690     2.1070 
  122.3750    -0.7780    62.8460    21.1760    19.3350    19.2040    25.4940     2.1180 
  122.5000    -0.5850    65.0490    20.4050    18.8000    21.7750    25.5220     2.1310 
  122.6250    -0.4530    65.9200    19.5640    18.1330    21.5480    25.4620     2.1440 
  122.7500    -0.3930    67.3460    18.9310    17.5940    18.5930    25.3140     2.1570 
  122.8750    -0.3460    69.2600    18.7850    17.4080    16.0970    25.1010     2.1660 
  123.0000    -0.2460    69.4050    19.3320    17.7510    16.3620    25.0300     2.1650 
  123.1250    -0.1150    65.2030    20.6490    18.7560    20.6950    25.2810     2.1550 
  123.2500    -0.0040    60.0070    22.2660    20.1310    24.5440    25.6210     2.1430 
  123.3750     0.0490    56.5750    23.6890    21.5090    26.5650    25.8030     2.1370 
  123.5000     0.0370    56.0340    24.4990    22.4840    27.4070    25.8390     2.1400 
  123.6250     0.0050    58.7890    24.5080    22.7680    26.4030    25.7710     2.1470 
  123.7500     0.0430    61.7780    24.1850    22.6680    24.3890    25.7230     2.1470 
  123.8750     0.1470    63.9260    23.9180    22.5090    24.1010    25.7230     2.1350 
  124.0000     0.2600    63.6500    23.9070    22.5020    25.2010    25.7600     2.1140 
  124.1250     0.3540    61.2950    24.1820    22.7230    27.1550    25.7670     2.0970 
  124.2500     0.4350    60.0690    24.6410    23.1190    28.3940    25.7430     2.0930 
  124.3750     0.5320    60.8350    25.2690    23.6810    28.9380    25.7080     2.1060 
  124.5000     0.6760    60.9210    26.0800    24.4110    28.6640    25.6820     2.1270 
  124.6250     0.8710    59.4410    27.0980    25.3310    28.8680    25.7160     2.1440 
  124.7500     1.0450    59.4010    28.1740    26.3310    29.9430    25.7850     2.1510 
  124.8750     1.1620    60.0700    29.0680    27.2250    31.7930    25.8530     2.1490 
  125.0000     1.2320    58.3460    29.5040    27.7760    33.1620    25.8590     2.1430 
  125.1250     1.2590    54.5100    29.2430    27.7390    33.0910    25.8150     2.1380 
  125.2500     1.2510    53.5320    28.5520    27.2930    31.7050    25.7760     2.1400 
  125.3750     1.2340    56.0880    27.8030    26.7220    30.0400    25.7330     2.1470 
  125.5000     1.2370    57.8550    27.3960    26.3610    28.9540    25.6780     2.1580 
  125.6250     1.2290    55.6270    27.7350    26.5740    29.1270    25.6580     2.1670 
  125.7500     1.2180    52.2430    28.7430    27.3690    30.5010    25.6670     2.1700 
  125.8750     1.2020    51.0360    30.1400    28.5810    32.7650    25.7050     2.1650 
  126.0000     1.1700    53.3070    31.3780    29.7840    34.6490    25.7820     2.1540 
  126.1250     1.1190    56.5570    31.6010    30.2070    35.8450    25.9090     2.1360 
  126.2500     1.0450    57.8820    30.5570    29.5030    35.9970    25.9900     2.1190 
  126.3750     0.9090    58.7420    28.4210    27.7420    33.8980    25.9730     2.1070 
  126.5000     0.6540    60.7920    25.7540    25.3900    28.0660    25.8300     2.1040 
  126.6250     0.3010    63.6290    23.3230    23.1350    23.6500    25.6320     2.1130 
  126.7500    -0.0710    65.7660    21.5690    21.4260    22.1510    25.5220     2.1300 
  126.8750    -0.4180    68.0620    20.6140    20.3970    21.6290    25.4760     2.1490 
  127.0000    -0.7290    69.4660    20.4040    20.0250    21.2660    25.4600     2.1690 
  127.1250    -0.9830    68.0290    20.8340    20.2590    21.2620    25.4370     2.1870 
  127.2500    -1.1790    65.7170    21.5390    20.8020    22.6110    25.4830     2.1990 
  127.3750    -1.3000    64.9870    22.2920    21.4620    23.8550    25.5700     2.2000 
  127.5000    -1.3070    66.5170    22.9420    22.0890    23.9010    25.6400     2.1900 
  127.6250    -1.2190    67.7360    23.3890    22.5660    23.8200    25.7130     2.1730 
  127.7500    -1.1120    67.5230    23.6860    22.9010    24.4140    25.7370     2.1600 
  127.8750    -0.9970    64.8340    23.9210    23.1540    25.3820    25.7160     2.1580 
  128.0000    -0.8900    59.3440    24.1710    23.3990    26.0880    25.6470     2.1670 
  128.1250    -0.8150    53.9370    24.4350    23.6540    25.8840    25.5420     2.1760 
  128.2500    -0.7570    52.4900    24.6290    23.8480    27.8060    25.5160     2.1750 
  128.3750    -0.7440    55.7130    24.6730    23.9030    35.8860    25.5790     2.1610 
  128.5000    -0.7740    60.6620    24.5180    23.7720    46.3350    25.5500     2.1420 
  128.6250    -0.7990    63.1340    24.1500    23.4400    35.0910    25.5720     2.1320 
