~V
VERS. 2.00: Ver 2.00
~W
STRT.M 50.0000:
STOP.M 280.0000:
STEP.M 0.1250:
NULL. -999.2500:
UWI. F10023:
~C
DEPT.M :
SP.MV :
DEN.GM/CC :
GR.API :
CALI.CM :
RXO.OHMM :
RI. :
RML.OHMM :
~A
   50.0000    44.2920     1.8470    59.9000    25.2940  2000.0000     0.3040     2.4910 
   50.1250    43.5620     1.8500    62.4920    25.2960  2000.0000     0.2840     2.6060 
   50.2500    42.9260     1.8550    60.0790    25.2960  2000.0000     0.2590     2.7510 
   50.3750    42.4960     1.8570    55.2470    25.2960  1552.3050     0.2300     2.8890 
   50.5000    42.2910     1.8500    53.0350    25.2960   776.4620     0.2030     2.9900 
   50.6250    42.1080     1.8320    54.2740    25.2940   118.8890     0.1880     3.0480 
   50.7500    41.9070     1.8160    55.3140    25.2850    69.2070     0.1860     3.0840 
   50.8750    41.7560     1.8130    55.3760    25.2690    50.0440     0.1940     3.0810 
   51.0000    41.6260     1.8250    57.3080    25.2590    39.2820     0.2100     2.9920 
   51.1250    41.3580     1.8390    61.3170    25.2610    45.1730     0.2320     2.7690 
   51.2500    40.8910     1.8450    63.6930    25.2740   134.1950     0.2540     2.5050 
   51.3750    40.2420     1.8470    62.3020    25.2880   699.0900     0.2690     2.2960 
   51.5000    39.5340     1.8570    58.6680    25.2940  1499.9500     0.2710     2.2010 
   51.6250    38.9670     1.9000    53.6860    25.2930  2000.0000     0.2570     2.2430 
   51.7500    38.5280     1.9660    47.2180    25.2930  2000.0000     0.2440     2.3500 
   51.8750    38.0980     2.0230    42.8530    25.2940  2000.0000     0.2490     2.4450 
   52.0000    37.5820     2.0400    43.5990    25.2950  2000.0000     0.2750     2.4770 
   52.1250    37.0560     2.0160    47.6470    25.2940  2000.0000     0.3080     2.4170 
   52.2500    36.6490     1.9940    50.6720    25.2860  2000.0000     0.3340     2.3250 
   52.3750    36.4340     2.0060    51.3410    25.2700  2000.0000     0.3450     2.2570 
   52.5000    36.4350     2.0580    50.1940    25.2570  2000.0000     0.3450     2.2400 
   52.6250    36.6270     2.1260    48.7920    25.2490  2000.0000     0.3440     2.2750 
   52.7500    36.9260     2.1670    47.9890    25.2450  1667.4630     0.3500     2.3460 
   52.8750    37.4950     2.1730    46.8050    25.2280   835.2370     0.3550     2.4680 
   53.0000    38.5210     2.1630    44.9510    25.1020     2.3390     0.3500     2.6380 
   53.1250    40.1550     2.1570    45.9960    24.7410     1.0160     0.3220     2.8390 
   53.2500    42.2330     2.1550    49.4420    24.2960     0.8840     0.2810     3.0350 
   53.3750    44.6410     2.1650    51.9950    24.1380     0.8270     0.2400     3.1600 
   53.5000    47.2200     2.2030    51.9490    24.3360     0.8440     0.2120     3.1540 
   53.6250    49.8710     2.2820    49.7640    24.6570     0.9580     0.2050     2.9830 
   53.7500    52.5420     2.3550    47.6110    24.7140     1.0080     0.2120     2.7440 
   53.8750    55.0490     2.3720    46.6520    24.4640     0.9680     0.2270     2.5310 
   54.0000    57.0840     2.3160    47.3120    24.1360     0.9070     0.2460     2.4200 
   54.1250    58.1880     2.2420    48.9480    23.9910     0.8820     0.2620     2.4180 
   54.2500    58.3530     2.2210    49.6550    23.9270     0.9420     0.2730     2.4110 
   54.3750    57.6070     2.2600    48.1930    23.7950     1.0840     0.2780     2.3490 
   54.5000    56.0710     2.3210    46.5440    23.5170     1.2470     0.2800     2.2630 
   54.6250    53.7880     2.3660    49.0470    23.2950     1.3280     0.2790     2.2310 
   54.7500    50.9500     2.3930    54.1410    23.1410     1.3430     0.2810     2.2660 
   54.8750    47.6590     2.4090    57.5030    23.0400     1.3290     0.2870     2.3210 
   55.0000    44.1090     2.4160    58.3720    22.9560     1.3150     0.3000     2.3320 
   55.1250    40.7130     2.4130    59.3440    22.8730     1.3240     0.3170     2.2720 
   55.2500    37.7740     2.4110    60.0950    22.7880     1.3520     0.3250     2.2030 
   55.3750    35.5220     2.4200    58.4200    22.6900     1.3890     0.3150     2.1570 
   55.5000    34.0750     2.4350    54.5750    22.5440     1.4050     0.2820     2.1100 
   55.6250    33.4720     2.4370    52.5620    22.4040     1.4160     0.2260     1.9310 
   55.7500    33.3940     2.4230    53.3880    22.3120     1.4220     0.1590     1.5370 
   55.8750    33.7650     2.4060    53.9840    22.2750     1.4430     0.0960     1.0550 
   56.0000    34.4830     2.4030    53.2120    22.2430     1.4790     0.0480     0.6810 
   56.1250    35.0350     2.4000    53.7360    22.1670     1.5080     0.0200     0.4970 
   56.2500    34.6570     2.3770    57.2980    22.1070     1.5810     0.0050     0.4340 
   56.3750    32.6870     2.3330    60.4890    22.1340     1.8630     0.0130     0.4610 
   56.5000    28.8650     2.2740    61.3330    22.2480     2.7030     0.0690     0.5700 
   56.6250    23.2580     2.1960    63.0070    22.5470     4.2750     0.2680     0.8140 
   56.7500    16.6800     2.1040    65.9060    23.0820     5.8370     0.7150     1.2790 
   56.8750     9.4810     2.0260    68.8080    23.6990     6.6690     1.5150     2.0820 
   57.0000     1.9830     1.9940    70.4120    24.2060     6.6990     2.6360     3.1610 
   57.1250    -5.2890     2.0160    70.3980    24.6510     6.4050     3.7720     4.0890 
   57.2500   -11.7420     2.0480    70.2060    24.9090     6.2740     4.6450     4.6600 
   57.3750   -16.9340     2.0660    70.9650    24.6910     6.5200     5.2620     5.0100 
   57.5000   -20.7950     2.0780    74.1740    23.9890     6.9460     5.7290     5.2880 
   57.6250   -23.4060     2.0960    78.5220    23.5060     7.1080     6.0900     5.5390 
   57.7500   -25.3240     2.1160    81.0320    23.5740     7.0930     6.3540     5.7380 
   57.8750   -26.8030     2.1280    80.2310    23.8900     7.0740     6.5250     5.8660 
   58.0000   -28.0600     2.1340    76.5460    24.0440     7.0720     6.6560     5.9670 
   58.1250   -29.1660     2.1370    74.4080    24.0180     7.1210     6.8750     6.1670 
   58.2500   -30.1100     2.1470    75.3870    23.9380     7.1340     7.2720     6.5380 
   58.3750   -30.8570     2.1700    75.1840    23.8160     7.2540     7.8490     7.0730 
   58.5000   -31.4330     2.2100    70.8780    23.7140     7.8800     8.4940     7.6490 
   58.6250   -31.9550     2.2450    66.7310    23.5660     9.1620     8.9400     7.9860 
   58.7500   -32.4520     2.2510    66.1300    23.3190     9.3960     8.9930     7.9430 
   58.8750   -32.9170     2.2290    67.8860    23.0470     8.1230     8.6320     7.5980 
   59.0000   -33.3490     2.1940    71.5260    22.9340     6.5730     8.0260     7.1640 
   59.1250   -33.7860     2.1590    75.4760    22.8970     5.9210     7.4220     6.8470 
   59.2500   -34.2480     2.1340    76.5960    22.8350     5.7920     6.9880     6.7010 
   59.3750   -34.7150     2.1190    74.5780    22.8570     5.9160     6.7640     6.7080 
   59.5000   -35.1480     2.1100    72.1130    23.1630     6.0840     6.7160     6.8240 
   59.6250   -35.4750     2.0970    72.3510    23.6510     6.2240     6.7640     7.0010 
   59.7500   -35.7400     2.0810    74.3930    24.1900     6.3630     6.8160     7.1690 
   59.8750   -35.9460     2.0690    76.8340    24.6000     6.5130     6.8410     7.2610 
   60.0000   -36.0820     2.0660    76.8050    24.6320     6.6210     6.8300     7.2170 
   60.1250   -36.1330     2.0670    74.1100    24.3440     6.6420     6.8030     7.0480 
   60.2500   -36.1640     2.0580    73.8550    24.0450     6.6080     6.8210     6.9100 
   60.3750   -36.1620     2.0430    77.0310    23.8480     6.5570     6.9490     6.9270 
   60.5000   -36.0940     2.0400    80.3760    23.8040     6.5440     7.2230     7.1540 
   60.6250   -35.8920     2.0610    80.9250    23.8770     6.6990     7.6150     7.5690 
   60.7500   -35.5600     2.0880    81.6980    23.8800     7.1170     7.9720     7.9780 
   60.8750   -35.1360     2.1130    83.2140    23.7600     7.5560     8.1320     8.1920 
   61.0000   -34.6050     2.1430    82.1250    23.6180     7.5260     7.9860     8.0930 
   61.1250   -33.9110     2.1800    78.4170    23.5850     6.9840     7.5310     7.7200 
