~V
VERS. 2.00: Ver 2.00
~W
STRT.M 64.0000:
STOP.M 260.0000:
STEP.M 0.1250:
NULL. -999.2500:
UWI. F10016:
~C
DEPT.M :
GR.API :
RML.OHMM :
RI. :
RXO.OHMM :
CALI.CM :
DEN.GM/CC :
SP.MV :
~A
# ...
  232.7500    78.5190     9.2470     8.7800    10.1610    23.8070     2.3260   -13.5930 
  232.8750    72.4230     8.8740     8.1360     7.8750    23.8150     2.3220   -13.2920 
  233.0000    62.3290     8.0870     7.3070     6.0790    23.7690     2.3160   -13.0000 
  233.1250    50.5220     7.2010     6.4650     5.1080    23.7100     2.3120   -12.6740 
  233.2500    41.1850     6.5430     5.7530     4.9370    23.6190     2.3150   -12.3870 
  233.3750    34.5040     6.2170     5.2540     5.0270    23.5260     2.3230   -12.2100 
  233.5000    28.7700     6.1580     5.0120     5.1970    23.5300     2.3350   -12.1030 
  233.6250    25.4910     6.2980     5.0670     5.5100    23.6030     2.3530   -12.0650 
  233.7500    25.5630     6.5220     5.3020     5.6520    23.6840     2.3800   -12.1580 
  233.8750    26.8070     6.7420     5.5990     5.5430    23.7820     2.4210   -12.3060 
  234.0000    27.0640     6.8770     5.8410     5.7070    23.8430     2.4690   -12.4210 
  234.1250    26.3490     6.8220     5.9310     5.8320    23.8280     2.5010   -12.5820 
  234.2500    26.0990     6.7020     5.8970     5.5100    23.7670     2.5030   -12.7720 
  234.3750    27.2020     6.4800     5.7900     5.0580    23.7250     2.4770   -12.9200 
  234.5000    29.8580     6.1720     5.6640     5.0000    23.7540     2.4390   -13.0610 
  234.6250    31.7940     5.8790     5.5510     5.1840    23.8450     2.4130   -13.2460 
  234.7500    31.6240     5.7280     5.4720     5.1830    23.8990     2.4060   -13.3820 
  234.8750    30.6840     5.7990     5.4690     5.1700    23.9240     2.4150   -13.4990 
  235.0000    30.5460     6.1070     5.5960     5.3930    23.9170     2.4320   -13.6960 
  235.1250    30.2970     6.5970     5.8860     6.5030    23.9340     2.4520   -13.9210 
  235.2500    29.6690     7.0720     6.2220     8.2950    23.9480     2.4660   -14.1330 
  235.3750    29.3620     7.3560     6.4550     9.1260    23.9490     2.4670   -14.4090 
  235.5000    29.3050     7.3250     6.4620     7.1630    23.9420     2.4510   -14.7830 
  235.6250    29.4810     6.9500     6.2070     5.9930    23.9430     2.4240   -15.1870 
  235.7500    30.5750     6.4540     5.8600     5.5790    23.9250     2.4040   -15.7160 
  235.8750    33.3860     6.0380     5.5620     5.6680    23.8870     2.3990   -16.4060 
  236.0000    38.5140     5.8510     5.4030     5.9270    23.8580     2.4010   -17.1870 
  236.1250    46.3390     6.0130     5.4660     6.9330    23.8570     2.3960   -18.1120 
  236.2500    56.6820     6.4520     5.7480     7.9880    23.8650     2.3760   -19.2200 
  236.3750    68.5820     7.1040     6.2490     8.7080    23.8680     2.3450   -20.4190 
  236.5000    79.9290     7.8920     6.9290     9.5590    23.8700     2.3130   -21.5940 
  236.6250    89.7790     8.7600     7.7190    10.8590    23.8650     2.2910   -22.7580 
  236.7500    96.7100     9.6450     8.5310    11.6080    23.8720     2.2790   -23.8190 
  236.8750    98.9880    10.4930     9.3200    12.3300    23.8800     2.2760   -24.6780 
  237.0000    97.9290    11.2150    10.0270    13.3790    23.9060     2.2810   -25.3300 
  237.1250    97.9830    11.6170    10.4880    14.4920    23.8960     2.2920   -25.7610 
  237.2500    99.5720    11.6370    10.6080    14.1200    23.8770     2.3040   -25.9980 
  237.3750    99.2720    11.3080    10.3880    12.0950    23.8570     2.3130   -26.0740 
  237.5000    97.3950    10.8010     9.9820    10.0510    23.8480     2.3140   -26.0680 
  237.6250    96.8880    10.4090     9.6510     9.5740    23.8500     2.3100   -26.0940 
  237.7500    97.2450    10.3140     9.5530    10.5700    23.8450     2.3100   -26.1750 
  237.8750    96.5920    10.5080     9.7000    11.9010    23.8190     2.3180   -26.3060 
  238.0000    96.2340    10.8270    10.0110    13.1280    23.7570     2.3310   -26.5140 
  238.1250    99.0680    11.1150    10.3760    13.3780    23.6610     2.3430   -26.7520 
  238.2500   101.8200    11.3180    10.7070    13.0040    23.6140     2.3490   -26.9440 
  238.3750   101.9380    11.4700    10.9900    12.7750    23.5990     2.3510   -27.1000 
  238.5000    99.9580    11.6210    11.2460    12.8680    23.6080     2.3540   -27.2520 
  238.6250    99.0830    11.8000    11.5070    13.2670    23.5630     2.3640   -27.2870 
  238.7500    98.7940    11.9870    11.7830    14.1950    23.4990     2.3780   -27.1970 
  238.8750    96.9940    12.1940    12.0690    16.2090    23.4420     2.3870   -27.0710 
  239.0000    94.5140    12.4470    12.3580    16.8390    23.4540     2.3860   -26.9100 
  239.1250    94.4650    12.7140    12.6290    15.6220    23.5380     2.3730   -26.6600 
  239.2500    95.5050    12.8470    12.8500    14.5770    23.5840     2.3540   -26.3980 
  239.3750    95.7020    12.9370    12.9800    14.4280    23.6130     2.3350   -26.1440 
  239.5000    95.5320    13.0030    12.9850    14.2180    23.5370     2.3190   -25.8360 
  239.6250    98.0470    12.9850    12.8510    14.2470    23.4660     2.3100   -25.4780 
  239.7500    99.6580    12.8420    12.6610    14.9180    23.4870     2.3070   -25.1130 
  239.8750    97.6700    12.5780    12.4930    15.6780    23.6160     2.3100   -24.6890 
  240.0000    94.2850    12.2580    12.4040    15.5300    23.7770     2.3190   -24.1760 
  240.1250    92.3700    12.3050    12.4130    15.0260    23.8270     2.3320   -23.6830 
  240.2500    89.5790    12.5330    12.4540    15.3180    23.8450     2.3450   -23.1810 
  240.3750    86.0310    12.6820    12.4500    16.0650    23.8640     2.3580   -22.6200 
  240.5000    84.1830    12.5990    12.3230    16.0880    23.8770     2.3650   -22.0280 
  240.6250    83.5630    12.2840    11.9840    14.6270    23.8630     2.3660   -21.4480 
  240.7500    82.4360    11.8400    11.4860    14.0150    23.8180     2.3620   -20.8590 
  240.8750    80.4490    11.3300    10.9290    12.6210    23.7450     2.3570   -20.2790 
  241.0000    78.9890    10.8470    10.4340    11.4020    23.7000     2.3570   -19.7690 
  241.1250    79.2720    10.4520    10.0970    11.1940    23.7100     2.3620   -19.3070 
  241.2500    82.0520    10.0890     9.8410    12.0820    23.7670     2.3700   -18.8600 
  241.3750    84.9310     9.6730     9.5490    11.3340    23.7680     2.3760   -18.4450 
  241.5000    85.6280     9.1680     9.1330     9.3320    23.7290     2.3800   -18.1090 
  241.6250    87.7100     8.6620     8.6340     7.5530    23.7640     2.3790   -17.8180 
  241.7500    91.0620     8.3210     8.2350     7.4800    23.8330     2.3760   -17.5900 
  241.8750    92.3830     8.2460     8.0670     8.5770    23.8690     2.3730   -17.4680 
  242.0000    91.5810     8.4120     8.1440    10.0960    23.8830     2.3700   -17.3640 
  242.1250    90.8270     8.6500     8.3450    10.8370    23.8920     2.3620   -17.1770 
  242.2500    88.6940     8.7220     8.4540     9.5560    23.9130     2.3470   -16.9980 
  242.3750    83.0250     8.5170     8.3560     8.0300    23.9810     2.3270   -16.8790 
  242.5000    75.9840     8.0740     8.0540     7.3010    24.0700     2.3060   -16.7720 
  242.6250    70.6340     7.5630     7.6410     7.2480    24.1260     2.2880   -16.7770 
  242.7500    68.1470     7.1590     7.2590     7.3470    24.1060     2.2790   -16.8700 
  242.8750    69.6760     6.9230     6.9820     7.4810    24.0120     2.2770   -16.9950 
  243.0000    74.3200     6.8470     6.8490     7.5260    23.9300     2.2830   -17.2300 
  243.1250    79.6560     6.9040     6.8770     7.3990    23.8860     2.2920   -17.7170 
  243.2500    84.4410     7.0280     6.9960     7.5260    23.8800     2.3000   -18.3440 
  243.3750    87.1940     7.1900     7.1480     8.0180    23.8590     2.3050   -19.0540 
  243.5000    88.0810     7.3760     7.3070     8.5370    23.7870     2.3050   -19.8490 
  243.6250    90.1090     7.6060     7.5140     8.5670    23.7380     2.3020   -20.6210 
  243.7500    94.5190     7.9140     7.8280     8.6220    23.7620     2.2970   -21.3260 
  243.8750    99.4190     8.3380     8.2750     9.2880    23.8380     2.2930   -21.9940 
