~V
VERS. 2.00: Ver 2.00
~W
STRT.M 50.0000:
STOP.M 313.0000:
STEP.M 0.1250:
NULL. -999.2500:
UWI. F10034:
~C
DEPT.M :
GR.API :
RML.OHMM :
RI. :
RXO.OHMM :
CALI.CM :
DEN.GM/CC :
SP.MV :
~A
# ...
  162.5000    65.7940     7.9340     6.7280     7.5110    23.0610     2.2320   -21.3110 
  162.6250    64.7170     7.5440     6.3700     7.2400    23.0730     2.2440   -20.4470 
  162.7500    64.7650     7.2310     6.0670     6.9220    23.1200     2.2600   -19.5570 
  162.8750    69.0030     7.0880     5.8900     6.7060    23.1800     2.2730   -18.7480 
  163.0000    73.6790     7.1310     5.8620     6.7400    23.2350     2.2750   -18.0830 
  163.1250    73.0250     7.2830     5.9580     6.9760    23.2770     2.2610   -17.5370 
  163.2500    67.8400     7.3810     6.0660     7.1240    23.3200     2.2430   -16.9820 
  163.3750    62.0790     7.3230     6.1010     7.0770    23.3800     2.2350   -16.3820 
  163.5000    60.5710     7.0880     6.0200     6.7620    23.3970     2.2430   -15.7470 
  163.6250    66.2380     6.7520     5.8360     6.3490    23.3670     2.2650   -15.1420 
  163.7500    73.7550     6.4710     5.6550     6.1110    23.3130     2.2860   -14.5760 
  163.8750    77.8110     6.3350     5.5480     6.1850    23.2480     2.2980   -13.9690 
  164.0000    79.8070     6.3570     5.5470     6.3970    23.1640     2.2980   -13.3010 
  164.1250    81.7310     6.4850     5.6380     6.6590    23.0460     2.2940   -12.6260 
  164.2500    79.3360     6.6070     5.7440     6.7730    22.9260     2.2920   -12.0170 
  164.3750    72.6170     6.6590     5.8080     6.7290    22.8820     2.2970   -11.5100 
  164.5000    68.5100     6.6220     5.7990     6.5770    22.9350     2.3060   -11.1000 
  164.6250    71.6760     6.5060     5.7050     6.3920    22.9980     2.3200   -10.7350 
  164.7500    75.0170     6.3590     5.5620     6.2550    23.0270     2.3320   -10.3770 
  164.8750    74.5400     6.2060     5.3960     6.2580    23.0340     2.3390   -10.0460 
  165.0000    72.5090     6.0730     5.2400     6.2910    23.0350     2.3420    -9.7220 
  165.1250    74.0950     6.0210     5.1600     6.2520    23.0980     2.3430    -9.3710 
  165.2500    78.0340     6.0860     5.1960     6.1890    23.2950     2.3510    -9.0270 
  165.3750    81.7650     6.2770     5.3590     6.4240    23.6040     2.3710    -8.7370 
  165.5000    83.0030     6.5460     5.6080     7.0640    23.8790     2.4020    -8.5270 
  165.6250    80.1440     6.7760     5.8470     8.0870    23.9000     2.4310    -8.4180 
  165.7500    74.9770     6.8600     5.9720     8.8110    23.7420     2.4430    -8.3600 
  165.8750    69.8920     6.7580     5.9380     8.3730    23.5480     2.4340    -8.3300 
  166.0000    69.0300     6.5170     5.7700     6.8770    23.5130     2.4070    -8.3390 
  166.1250    73.3360     6.2450     5.5530     6.1930    23.6040     2.3760    -8.4020 
  166.2500    76.6880     6.0400     5.3840     6.1510    23.6880     2.3510    -8.5080 
  166.3750    76.7220     5.9200     5.2960     6.3070    23.6700     2.3330    -8.6320 
  166.5000    75.3050     5.8570     5.2800     6.4440    23.6490     2.3230    -8.7500 
  166.6250    75.0400     5.8100     5.2990     6.4450    23.7020     2.3190    -8.8480 
  166.7500    73.4600     5.7640     5.3120     6.2640    23.7540     2.3190    -8.9370 
  166.8750    69.6420     5.7420     5.3170     6.2060    23.7580     2.3210    -9.0300 
  167.0000    66.9790     5.7700     5.3320     6.3000    23.7490     2.3220    -9.1240 
  167.1250    69.4250     5.8620     5.3830     6.3940    23.7290     2.3220    -9.2520 
  167.2500    75.3920     5.9910     5.4720     6.3710    23.6630     2.3210    -9.4020 
  167.3750    80.0310     6.1290     5.5830     6.4440    23.5910     2.3190    -9.5570 
  167.5000    80.1790     6.2460     5.6840     6.5020    23.5240     2.3170    -9.7170 
  167.6250    78.4380     6.3050     5.7290     6.4510    23.4710     2.3170    -9.9010 
  167.7500    78.9950     6.3000     5.7090     6.5190    23.4240     2.3190   -10.0600 
  167.8750    80.5850     6.2390     5.6300     6.4560    23.4010     2.3250   -10.1640 
  168.0000    80.7180     6.1440     5.5150     6.2640    23.4150     2.3330   -10.2130 
  168.1250    81.4450     6.0530     5.3950     6.1170    23.4670     2.3370   -10.1940 
  168.2500    85.0360     5.9860     5.2940     6.1380    23.5490     2.3350   -10.1440 
  168.3750    87.9510     5.9550     5.2240     6.2210    23.6530     2.3290   -10.1030 
  168.5000    87.1000     5.9860     5.2050     6.3970    23.6990     2.3240   -10.1170 
  168.6250    84.5880     6.2130     5.3270     6.7440    23.5290     2.3240   -10.1790 
  168.7500    83.0880     6.7840     5.7030     7.2830    23.3640     2.3310   -10.2830 
  168.8750    81.8450     7.8450     6.4630     8.3820    23.2730     2.3430   -10.4460 
  169.0000    77.7740     9.4100     7.6620    11.0050    23.2400     2.3580   -10.6560 
  169.1250    71.2160    11.2370     9.1980    15.1750    23.3030     2.3710   -10.8790 
  169.2500    65.2910    12.7380    10.6270    19.8170    23.3880     2.3730   -11.1020 
  169.3750    61.5840    13.3890    11.4920    23.3770    23.3550     2.3640   -11.2980 
  169.5000    62.1810    12.9150    11.4610    21.9490    23.1330     2.3450   -11.4080 
  169.6250    67.3020    11.4210    10.4750    15.7830    22.8470     2.3250   -11.4150 
  169.7500    72.9790     9.7160     9.1720    10.6090    22.6980     2.3140   -11.3690 
  169.8750    75.5070     8.3320     8.0050     8.3640    22.7010     2.3130   -11.3060 
  170.0000    75.1290     7.5070     7.2090     7.7520    22.7600     2.3190   -11.2330 
  170.1250    74.6210     7.2900     6.8750     7.8790    22.7560     2.3280   -11.1510 
  170.2500    73.9750     7.4130     6.8460     8.0250    22.7410     2.3360   -11.0660 
  170.3750    72.8260     7.6950     7.0090     7.9160    22.7560     2.3390   -10.9990 
  170.5000    71.6930     7.9810     7.2500     7.6400    22.7950     2.3340   -10.9900 
  170.6250    70.3650     8.1150     7.4440     7.7130    22.8160     2.3200   -11.0550 
  170.7500    68.2150     8.0400     7.5060     7.9910    22.8220     2.3000   -11.1470 
  170.8750    66.6070     7.7640     7.4100     8.1180    22.8450     2.2820   -11.2020 
  171.0000    66.3520     7.3840     7.2010     7.8910    22.9100     2.2700   -11.2480 
  171.1250    67.6000     7.1250     7.0230     7.4810    23.0050     2.2680   -11.3280 
  171.2500    70.6560     7.1900     7.0450     7.2940    23.0420     2.2700   -11.4230 
  171.3750    74.3050     7.6730     7.3550     7.5720    23.0130     2.2730   -11.5360 
  171.5000    75.8980     8.5010     7.9220     8.5080    22.9360     2.2740   -11.6400 
  171.6250    72.8520     9.3600     8.5410     9.8540    22.8690     2.2740   -11.6960 
  171.7500    68.6530     9.8210     8.8880    10.9520    22.9000     2.2740   -11.7140 
  171.8750    66.4540     9.6140     8.7410    10.9250    23.0460     2.2760   -11.6960 
  172.0000    67.5590     8.7240     8.0680     9.7980    23.2510     2.2800   -11.6110 
  172.1250    72.9840     7.5080     7.0990     8.3650    23.4830     2.2860   -11.4670 
  172.2500    77.2000     6.6560     6.3220     7.4720    23.6890     2.2930   -11.3130 
  172.3750    77.0790     6.7820     6.1540     7.7180    23.8070     2.3100   -11.1550 
  172.5000    74.0260     8.3310     7.0100    10.2770    23.8410     2.3460   -11.0330 
  172.6250    71.3000    11.8270     9.4780    17.2020    23.7930     2.4100   -10.9750 
  172.7500    66.9800    16.5270    13.2940    27.4610    23.6570     2.4900   -10.9910 
  172.8750    59.7070    21.3030    17.8180    38.9750    23.4790     2.5610   -11.1300 
  173.0000    52.2440    24.7500    21.8320    47.3470    23.3340     2.5950   -11.3820 
  173.1250    49.0650    25.2080    23.4080    43.3440    23.2270     2.5660   -11.7320 
  173.2500    50.4960    23.0460    22.2570    31.1670    23.0950     2.4950   -12.1370 
  173.3750    53.6780    19.4350    19.2520    20.7760    22.9850     2.4100   -12.5190 
  173.5000    55.7520    15.7300    15.7720    15.1280    22.9610     2.3360   -12.8240 
  173.6250    58.4420    12.8140    12.8040    12.9200    23.0130     2.2960   -13.0700 
