~V
VERS. 2.00: Ver 2.00
~W
STRT.M 57.0000:
STOP.M 255.0000:
STEP.M 0.1250:
NULL. -999.2500:
UWI. F10046:
~C
DEPT.M :
GR.API :
RML.OHMM :
RI. :
RXO.OHMM :
CALI.CM :
DEN.GM/CC :
SP.MV :
~A
# ...
  237.0000    56.4240    16.3680    14.3180    15.2360    24.0260     2.5320    -3.0400 
  237.1250    59.9890    16.2240    14.3320    17.4740    24.4850     2.5430    -3.0380 
  237.2500    63.5350    15.9850    14.2030    21.4890    24.6730     2.5380    -3.0550 
  237.3750    63.2810    15.7140    14.0020    25.2530    24.6350     2.5250    -3.0350 
  237.5000    60.8030    15.4100    13.7560    26.4420    24.4430     2.5170    -2.9850 
  237.6250    61.3480    15.0200    13.4450    21.7180    24.0300     2.5180    -2.9450 
  237.7500    63.6990    14.5400    13.0620    13.4280    23.6910     2.5200    -2.8810 
  237.8750    65.1080    13.9990    12.6200     8.7560    23.6710     2.5150    -2.7980 
  238.0000    64.8140    13.4470    12.1550     7.2580    24.0140     2.5010    -2.7530 
  238.1250    63.5360    12.9400    11.7210     7.2560    24.3790     2.4840    -2.6730 
  238.2500    62.3420    12.4890    11.3420     7.6470    24.6180     2.4750    -2.5850 
  238.3750    60.8150    12.0960    11.0250     7.9840    24.6800     2.4800    -2.4960 
  238.5000    59.0310    11.7560    10.7630     8.0860    24.6660     2.4970    -2.3930 
  238.6250    57.6670    11.4660    10.5420     8.1960    24.6450     2.5190    -2.2540 
  238.7500    57.7150    11.1940    10.3320     8.3920    24.5870     2.5340    -2.1150 
  238.8750    57.8920    10.9120    10.1110     8.5180    24.5080     2.5350    -1.9710 
  239.0000    56.5270    10.6010     9.8660     8.7360    24.4890     2.5180    -1.8010 
  239.1250    54.1910    10.2770     9.6060     9.1420    24.4540     2.4870    -1.6720 
  239.2500    53.2750    10.0200     9.3920     9.5840    24.4510     2.4570    -1.5900 
  239.3750    53.9730     9.9280     9.3010     9.9990    24.5440     2.4410    -1.5300 
  239.5000    55.0940    10.0870     9.4050    10.4190    24.5430     2.4470    -1.4950 
  239.6250    57.1280    10.5600     9.7780    11.1220    24.2800     2.4710    -1.5150 
  239.7500    59.4180    11.2140    10.3340    13.2470    23.9850     2.4930    -1.5440 
  239.8750    60.9400    11.9020    10.9670    16.2460    23.9580     2.4960    -1.5590 
  240.0000    61.8830    12.4650    11.5410    19.0820    24.2000     2.4750    -1.5990 
  240.1250    61.8020    12.7570    11.9070    18.7880    24.5480     2.4390    -1.6010 
  240.2500    60.2400    12.8290    12.0680    15.9290    24.7490     2.4080    -1.5380 
  240.3750    58.9040    12.7730    12.0840    12.6210    24.8360     2.3910    -1.4570 
  240.5000    59.5500    12.6940    12.0380    10.7050    24.8480     2.3880    -1.3980 
  240.6250    60.3910    12.6540    11.9900    10.4750    24.8180     2.3960    -1.3730 
  240.7500    59.2840    12.6130    11.9240    10.7330    24.7400     2.4090    -1.3580 
  240.8750    56.7520    12.4900    11.7820    10.7890    24.6900     2.4300    -1.3930 
  241.0000    55.0410    12.2140    11.5090    10.3410    24.6180     2.4580    -1.4530 
  241.1250    56.2010    11.7510    11.0730     9.6670    24.5380     2.4920    -1.5500 
  241.2500    58.2850    11.2000    10.5600     9.4430    24.5460     2.5220    -1.6780 
  241.3750    58.6740    10.6750    10.0650     9.9400    24.6360     2.5400    -1.8250 
  241.5000    56.5450    10.2860     9.6830    10.9000    24.7040     2.5450    -1.9470 
  241.6250    55.2200    10.1550     9.5200    10.8320    24.7220     2.5360    -2.0030 
  241.7500    55.9340    10.2660     9.5740    10.7690    24.7230     2.5190    -2.0840 
  241.8750    57.3700    10.5880     9.8310    10.3130    24.7240     2.4900    -2.1610 
  242.0000    58.6460    11.0510    10.2440     9.7990    24.7170     2.4540    -2.1730 
  242.1250    59.4180    11.5380    10.7300     9.5630    24.6510     2.4250    -2.1350 
  242.2500    60.0960    11.9200    11.1630     9.4820    24.4760     2.4150    -2.0970 
  242.3750    60.0720    12.1120    11.4480     9.7080    24.1670     2.4280    -2.0580 
  242.5000    58.8660    12.0890    11.5320    10.3570    23.7570     2.4580    -2.0450 
  242.6250    57.1940    11.8800    11.3990    12.0300    23.6470     2.4910    -2.0970 
  242.7500    56.7400    11.6370    11.1700    14.7690    23.6220     2.5110    -2.1210 
  242.8750    57.2510    11.4770    10.9530    17.7790    23.6890     2.5140    -2.1090 
  243.0000    57.1390    11.4750    10.8440    21.0960    23.9360     2.5070    -2.1120 
  243.1250    55.9820    11.6670    10.9260    22.6300    24.3930     2.4980    -2.1240 
  243.2500    55.1340    11.9610    11.1560    20.0970    24.6110     2.4920    -2.1330 
  243.3750    55.4960    12.2780    11.4760    15.8430    24.5690     2.4850    -2.1610 
  243.5000    56.7120    12.5460    11.8120    13.5300    24.4340     2.4690    -2.1550 
  243.6250    57.5310    12.7170    12.0900    12.7080    24.4080     2.4410    -2.1030 
  243.7500    58.5780    12.8290    12.3110    12.1520    24.4450     2.4090    -2.0690 
  243.8750    59.4280    12.9380    12.5130    12.1680    24.4380     2.3910    -2.0720 
  244.0000    59.3270    13.1030    12.7480    12.6360    24.2680     2.3960    -2.1000 
  244.1250    57.0590    13.3720    13.0600    13.4520    23.8900     2.4240    -2.1580 
  244.2500    55.2030    13.6940    13.4110    14.6150    23.5790     2.4560    -2.2160 
  244.3750    55.3130    13.9850    13.7240    15.7170    23.6830     2.4810    -2.2190 
  244.5000    56.0310    14.1470    13.9080    15.9770    23.9610     2.4930    -2.2090 
  244.6250    56.5790    14.0740    13.8580    14.1900    24.0690     2.4910    -2.2050 
  244.7500    57.6280    13.8150    13.6220    13.1820    24.0820     2.4790    -2.2280 
  244.8750    58.8910    13.4560    13.2820    12.9800    24.4160     2.4570    -2.2690 
  245.0000    58.8280    13.1220    12.9580    13.6720    24.7980     2.4280    -2.2710 
  245.1250    58.8280    12.9680    12.7950    15.1760    24.9200     2.3960    -2.2420 
  245.2500    58.8280    13.0280    12.8360    16.9950    24.9440     2.3750    -2.2370 
  245.3750    58.8280    13.2800    13.0690    18.6200    24.9680     2.3730    -2.3010 
  245.5000    58.8280    13.6430    13.4290    18.9940    24.9350     2.3970    -2.4050 
  245.6250    58.8280    13.9950    13.8080    18.5270    24.7680     2.4420    -2.5120 
  245.7500    58.8280    14.2400    14.1000    18.4290    24.6340     2.4870    -2.5970 
  245.8750    58.8280    14.3420    14.2590    18.5390    24.7830     2.5130    -2.6550 
  246.0000    58.8280    14.3150    14.2920    18.9850    24.9760     2.5110    -2.7710 
  246.1250    58.8280    14.2160    14.2500    18.9090    24.9930     2.4880    -2.9010 
  246.2500    58.8280    14.1340    14.2180    18.5930    24.9030     2.4670    -3.0360 
  246.3750    58.8280    14.1220    14.2370    17.9160    24.8730     2.4600    -3.1540 
  246.5000    58.8280    14.1970    14.3200    17.3400    24.8860     2.4670    -3.2290 
  246.6250    58.8280    14.3500    14.4560    16.9590    24.9060     2.4810    -3.2850 
  246.7500    58.8280    14.5220    14.6090    16.7270    24.9190     2.4930    -3.3360 
  246.8750    58.8280    14.6730    14.7600    17.0790    24.9010     2.5020    -3.4130 
  247.0000    58.8280    14.7830    14.9060    17.8180    24.8350     2.5100    -3.4550 
  247.1250    58.8280    14.8510    15.0440    20.2670    24.6950     2.5210    -3.4480 
  247.2500    58.8280    14.9090    15.1650    23.0310    24.6260     2.5370    -3.4120 
  247.3750    58.8280    14.9870    15.2490    24.5180    24.6150     2.5560    -3.3890 
  247.5000    58.8280    15.0950    15.2720    23.4180    24.6060     2.5690    -3.4120 
  247.6250    58.8280    15.2060    15.2130    20.8220    24.6280     2.5580    -3.4270 
  247.7500    58.8280    15.2690    15.1060    18.2370    24.5550     2.5220    -3.3940 
  247.8750    58.8280    15.2620    14.9930    17.7660    24.3340     2.4690    -3.3190 
  248.0000    58.8280    15.2050    14.9170    17.6580    24.1170     2.4220    -3.2710 
  248.1250    58.8280    15.1440    14.9110    17.0560    23.8980     2.4040    -3.3020 
