~V
VERS. 2.00: Ver 2.00
~W
STRT.M 64.0000:
STOP.M 260.0000:
STEP.M 0.1250:
NULL. -999.2500:
UWI. F10016:
~C
DEPT.M :
GR.API :
RML.OHMM :
RI. :
RXO.OHMM :
CALI.CM :
DEN.GM/CC :
SP.MV :
~A
# ...
  221.5000    74.1650    88.3830    86.2240    82.9630    24.0530     2.3030   -28.7290 
  221.6250    73.3420    89.7810    86.7960    85.0070    24.0420     2.3090   -28.7640 
  221.7500    69.7850    91.2200    87.6610    99.5560    23.9790     2.3040   -28.7600 
  221.8750    67.3800    92.5970    89.0960   114.1880    23.9120     2.2930   -28.7320 
  222.0000    66.9190    93.6020    90.7990   121.5940    23.8730     2.2840   -28.5890 
  222.1250    67.2400    93.7070    91.6730   111.3290    23.8950     2.2840   -28.2930 
  222.2500    68.4450    92.5950    90.8470   115.8750    23.9340     2.2870   -27.9050 
  222.3750    71.3380    90.1910    88.0550   109.7900    24.0030     2.2890   -27.3990 
  222.5000    74.5220    86.9740    83.7760    83.9490    24.0960     2.2930   -26.7640 
  222.6250    74.7770    83.6150    79.0830    71.5960    24.1260     2.3130   -25.9750 
  222.7500    73.2970    80.1970    75.1520    67.6860    24.1060     2.3610   -25.0880 
  222.8750    73.3870    77.8460    72.6010    69.9360    23.9830     2.4340   -24.1470 
  223.0000    75.0190    77.2580    71.7030    76.2770    23.8040     2.5110   -23.1810 
  223.1250    74.1650    78.7090    72.6810    88.0870    23.6920     2.5630   -22.2050 
  223.2500    70.9970    81.1560    74.7840    91.0190    23.7380     2.5800   -21.2920 
  223.3750    69.7910    83.4630    77.0880    84.3320    23.8110     2.5710   -20.4480 
  223.5000    71.6600    84.3440    78.3560    68.4500    23.8790     2.5520   -19.6230 
  223.6250    73.0040    82.3850    77.0440    61.0730    23.9360     2.5420   -18.9240 
  223.7500    73.6780    77.9710    73.2600    62.0110    23.9550     2.5430   -18.3110 
  223.8750    75.3070    71.5060    67.6830    66.3880    23.9260     2.5520   -17.7840 
  224.0000    76.7720    63.6900    61.3600    55.1530    23.8930     2.5660   -17.4130 
  224.1250    75.2970    55.1970    55.2810    41.8660    23.8760     2.5800   -17.1420 
  224.2500    72.8980    49.0440    49.8860    40.7420    23.8840     2.5870   -16.9040 
  224.3750    70.6880    44.7350    45.3650    43.7820    23.8720     2.5770   -16.7750 
  224.5000    68.6550    41.8160    41.9110    39.9760    23.8240     2.5430   -16.7790 
  224.6250    68.5270    40.4290    40.0160    34.2390    23.7740     2.4930   -16.8010 
  224.7500    71.7690    40.4940    39.6520    31.7990    23.7670     2.4540   -16.8330 
  224.8750    76.1210    41.9580    40.7970    35.2670    23.7490     2.4450   -16.8700 
  225.0000    77.9560    44.5500    43.2090    40.2240    23.7160     2.4690   -16.8880 
  225.1250    78.5190    47.8340    46.5070    44.8840    23.6970     2.5110   -16.8960 
  225.2500    79.6520    51.1370    49.9630    58.7730    23.7680     2.5460   -16.9040 
  225.3750    79.9270    54.1420    53.1370    72.0140    23.8070     2.5600   -16.8880 
  225.5000    77.5720    56.7080    55.7170    71.6650    23.7910     2.5510   -16.8210 
  225.6250    74.7730    58.2960    57.0440    64.0120    23.8030     2.5250   -16.7750 
  225.7500    73.4490    57.8520    56.4170    48.5860    23.8470     2.4970   -16.8090 
  225.8750    72.4890    53.9850    52.9830    34.0080    23.8560     2.4800   -16.8520 
  226.0000    71.3930    46.0710    46.5220    31.8080    23.8370     2.4800   -16.8700 
  226.1250    71.1640    36.6730    37.8040    36.9030    23.7980     2.4900   -16.9770 
  226.2500    71.1960    27.7880    29.0570    27.4240    23.8100     2.4930   -17.1450 
  226.3750    71.4310    20.5300    21.6740    18.0070    23.8530     2.4770   -17.3030 
  226.5000    73.6060    15.2550    16.2740    11.2250    23.8800     2.4430   -17.4930 
  226.6250    79.4230    12.2520    13.0940     9.3500    23.9160     2.4050   -17.7440 
  226.7500    85.5460    10.8220    11.4200    10.9990    23.8680     2.3800   -17.9350 
  226.8750    87.9150    10.5410    10.8540    15.6740    23.7880     2.3690   -18.0850 
  227.0000    86.8560    10.9390    11.0050    20.3970    23.6940     2.3650   -18.2370 
  227.1250    87.2650    11.4990    11.4850    21.5080    23.5550     2.3520   -18.2560 
  227.2500    90.1180    11.7810    11.8780    18.9850    23.4820     2.3300   -18.1340 
  227.3750    91.8800    11.6410    11.9800    13.2990    23.5590     2.3110   -17.9610 
  227.5000    88.7440    11.1570    11.7270    10.5190    23.6910     2.3100   -17.7490 
  227.6250    80.5630    10.5350    11.1530     9.0830    23.7370     2.3330   -17.4070 
  227.7500    72.1490     9.9670    10.4540     9.6870    23.6910     2.3640   -17.0590 
  227.8750    65.4860     9.4750     9.7480    12.1560    23.6010     2.3870   -16.7340 
  228.0000    62.3870     9.0110     9.1040    10.4300    23.5480     2.3890   -16.3820 
  228.1250    64.9680     8.5380     8.5580     8.3880    23.6710     2.3720   -16.0480 
  228.2500    71.2320     8.1020     8.0880     7.0270    23.7530     2.3480   -15.8170 
  228.3750    76.8980     7.7870     7.6950     7.0460    23.7740     2.3270   -15.6420 
  228.5000    79.3780     7.6620     7.4030     7.3860    23.7650     2.3110   -15.4600 
  228.6250    79.2320     7.7810     7.2910     7.2900    23.7900     2.3020   -15.3460 
  228.7500    79.1240     8.0540     7.3690     7.3830    23.8060     2.2970   -15.2500 
  228.8750    79.4050     8.3950     7.6090     7.8080    23.7770     2.2960   -15.1030 
  229.0000    79.7150     8.7040     7.9170     8.4640    23.7390     2.2960   -14.9230 
  229.1250    79.8330     8.8770     8.1360     8.2110    23.7470     2.2970   -14.7630 
  229.2500    78.8660     8.9080     8.1880     8.2000    23.8100     2.3020   -14.5350 
  229.3750    77.6600     8.8380     8.0970     8.1100    23.8740     2.3120   -14.2440 
  229.5000    76.6530     8.7460     7.9650     7.8880    23.8880     2.3270   -13.9710 
  229.6250    76.9730     8.7260     7.9200     7.9820    23.8880     2.3410   -13.6610 
  229.7500    80.7620     8.7820     7.9630     8.2450    23.8870     2.3490   -13.3060 
  229.8750    83.7320     8.8550     8.0060     9.0310    23.8900     2.3460   -13.0050 
  230.0000    81.3370     8.8490     7.9360     8.4840    23.9020     2.3330   -12.7810 
  230.1250    75.4090     8.6430     7.6610     7.3570    23.9280     2.3160   -12.5530 
  230.2500    72.0170     8.2540     7.2560     6.4710    23.9580     2.3020   -12.3630 
  230.3750    70.7740     7.7580     6.8110     6.0390    23.9720     2.2950   -12.2590 
  230.5000    68.9450     7.2770     6.4090     5.7380    23.9760     2.2950   -12.1950 
  230.6250    68.8840     6.9770     6.1140     5.7190    23.9450     2.3010   -12.1800 
  230.7500    71.2690     6.9200     5.9320     6.1020    23.9190     2.3070   -12.2500 
  230.8750    73.2680     7.1210     5.8880     6.6300    23.9180     2.3110   -12.3700 
  231.0000    74.9530     7.5260     6.0050     7.1210    23.9150     2.3130   -12.5120 
  231.1250    77.7560     8.0060     6.2940     7.3850    23.8930     2.3120   -12.6680 
  231.2500    80.1600     8.3730     6.6360     7.8100    23.8680     2.3110   -12.8420 
  231.3750    81.2720     8.5030     6.8950     7.7940    23.8460     2.3120   -13.0110 
  231.5000    80.1080     8.3690     6.9600     7.3330    23.8460     2.3200   -13.1410 
  231.6250    77.3600     8.0520     6.7960     7.0750    23.8440     2.3330   -13.2780 
  231.7500    74.7540     7.7790     6.5830     6.7760    23.8480     2.3450   -13.4430 
  231.8750    72.5880     7.7250     6.4970     6.9550    23.9020     2.3520   -13.5760 
  232.0000    70.7030     7.9600     6.6690     7.8220    23.9980     2.3490   -13.6900 
  232.1250    71.8090     8.3920     7.1670     9.4730    24.0070     2.3410   -13.8490 
  232.2500    76.8750     8.7590     7.8390    11.4110    23.9680     2.3320   -13.9680 
  232.3750    82.2640     9.0420     8.5190    13.9700    23.9190     2.3270   -13.9860 
  232.5000    83.7400     9.2570     9.0130    14.5990    23.8470     2.3260   -13.9530 
  232.6250    81.8390     9.3440     9.0970    12.6420    23.7920     2.3270   -13.8430 
