~V
VERS. 2.00: Ver 2.00
~W
STRT.M 64.0000:
STOP.M 287.0000:
STEP.M 0.1250:
NULL. -999.2500:
UWI. F10052:
~C
DEPT.M :
SP.MV :
DEN.GM/CC :
GR.API :
RML.OHMM :
RI. :
RXO.OHMM :
CALI.CM :
~A
# ...
  221.5000   -31.8530     2.3530    64.4070    11.9290    10.8200    13.6330    22.5870 
  221.6250   -31.7430     2.3620    67.9710    11.5710    10.5070    13.0580    22.5100 
  221.7500   -31.6910     2.3670    73.1970    11.2970    10.1890    11.5060    22.4260 
  221.8750   -31.6760     2.3600    76.3490    11.1620     9.9450    10.3060    22.3500 
  222.0000   -31.6520     2.3380    76.8610    11.1870     9.8330    10.4980    22.2940 
  222.1250   -31.6280     2.3040    76.4010    11.3660     9.8810    11.6210    22.2670 
  222.2500   -31.6220     2.2730    75.5090    11.6020    10.0190    12.5190    22.2620 
  222.3750   -31.6390     2.2540    72.1510    11.8070    10.1790    12.9140    22.2710 
  222.5000   -31.6770     2.2490    66.1360    11.9330    10.3040    13.1240    22.2890 
  222.6250   -31.7010     2.2550    62.1470    11.9790    10.3550    13.2210    22.3120 
  222.7500   -31.6680     2.2640    63.0440    11.9830    10.3570    13.1810    22.3360 
  222.8750   -31.5840     2.2690    67.2110    11.9550    10.3340    13.1750    22.3550 
  223.0000   -31.4760     2.2700    70.0260    11.9000    10.3020    13.2650    22.3710 
  223.1250   -31.3760     2.2710    67.5160    11.8470    10.2800    13.2280    22.3910 
  223.2500   -31.2930     2.2720    62.4070    11.8340    10.2790    12.9120    22.4220 
  223.3750   -31.2160     2.2720    58.4240    11.8610    10.3000    12.6650    22.4640 
  223.5000   -31.1110     2.2690    59.0120    11.8970    10.3330    12.6670    22.5140 
  223.6250   -30.9930     2.2650    62.1720    11.9050    10.3620    12.6830    22.5660 
  223.7500   -30.9340     2.2650    62.4650    11.8890    10.3810    12.6750    22.6050 
  223.8750   -30.9070     2.2700    60.8420    11.8790    10.3910    12.7310    22.6100 
  224.0000   -30.8550     2.2790    60.7620    11.8890    10.3990    12.7460    22.5600 
  224.1250   -30.7560     2.2910    60.7660    11.8700    10.4000    12.5380    22.4400 
  224.2500   -30.6450     2.3090    57.9960    11.7740    10.3890    12.2270    22.2710 
  224.3750   -30.5470     2.3400    57.3920    11.6320    10.3720    12.0840    22.0710 
  224.5000   -30.5020     2.3790    62.3070    11.5300    10.3570    12.1390    21.8690 
  224.6250   -30.5020     2.3970    66.9410    11.5660    10.3530    12.1500    21.7260 
  224.7500   -30.4770     2.3760    66.5240    11.7190    10.3570    11.9450    21.6700 
  224.8750   -30.4260     2.3170    63.4290    11.9270    10.3730    11.7010    21.6990 
  225.0000   -30.3740     2.2430    60.4840    12.1250    10.4170    11.4980    21.7850 
  225.1250   -30.3380     2.1910    57.4320    12.2890    10.5200    11.1530    21.8810 
  225.2500   -30.2920     2.1860    55.6280    12.4610    10.6870    10.6600    21.9450 
  225.3750   -30.2420     2.2320    56.4680    12.6760    10.9180    10.1000    21.9680 
  225.5000   -30.1790     2.3070    57.6940    12.9600    11.2090     9.7600    21.9720 
  225.6250   -30.1190     2.3730    58.5830    13.3990    11.5910    10.1640    21.9820 
  225.7500   -30.0760     2.4080    59.7100    14.0500    12.1090    11.3640    22.0000 
  225.8750   -30.0430     2.4150    61.9560    14.9430    12.8140    13.2740    22.0220 
  226.0000   -30.0270     2.4060    63.6000    16.0240    13.7110    16.1400    22.0490 
  226.1250   -30.0220     2.3930    63.5000    17.0870    14.6940    20.6420    22.0870 
  226.2500   -30.0000     2.3800    64.5890    17.8160    15.4950    25.7810    22.1310 
  226.3750   -29.9520     2.3680    66.9700    17.9160    15.8400    27.2800    22.1810 
  226.5000   -29.8760     2.3570    68.6770    17.2570    15.5600    23.1000    22.2300 
  226.6250   -29.7890     2.3490    67.8120    15.9340    14.6560    18.0620    22.2580 
  226.7500   -29.7170     2.3500    66.9320    14.4560    13.5160    15.4570    22.2740 
  226.8750   -29.6550     2.3610    67.2500    13.1710    12.4150    13.7530    22.3230 
  227.0000   -29.5770     2.3760    66.6470    12.2950    11.5470    13.0340    22.4630 
  227.1250   -29.5100     2.3810    66.7030    11.9540    11.0610    12.9090    22.7360 
  227.2500   -29.4830     2.3740    69.6790    11.9710    10.8920    13.0640    23.0720 
  227.3750   -29.4920     2.3580    71.0460    12.1880    10.9620    13.6110    23.3780 
  227.5000   -29.5110     2.3370    67.7410    12.4390    11.1550    13.7770    23.5570 
  227.6250   -29.4890     2.3210    63.1970    12.5660    11.3310    13.5010    23.5320 
  227.7500   -29.4220     2.3160    63.4420    12.5390    11.4130    13.2400    23.3720 
  227.8750   -29.3550     2.3260    65.7450    12.3960    11.4010    13.1150    23.1370 
  228.0000   -29.3280     2.3480    65.2370    12.2120    11.3390    12.9070    22.8820 
  228.1250   -29.3040     2.3660    64.4550    12.0710    11.2840    12.7690    22.6700 
  228.2500   -29.2550     2.3650    66.7180    12.0110    11.2750    12.5110    22.5480 
  228.3750   -29.1930     2.3440    69.9940    12.0260    11.3140    12.8250    22.5190 
  228.5000   -29.1400     2.3130    68.8670    12.0830    11.3850    13.5110    22.5310 
  228.6250   -29.1140     2.2940    63.4740    12.1310    11.4610    14.1140    22.5150 
  228.7500   -29.0850     2.2970    60.3200    12.1290    11.5130    14.2770    22.4570 
  228.8750   -29.0240     2.3200    62.2350    12.0660    11.5300    14.0310    22.3730 
  229.0000   -28.9330     2.3510    73.4200    11.7980    11.4580    13.6530    22.2840 
  229.1250   -28.8220     2.3710    74.8240    11.6180    11.3560    13.6470    22.2020 
  229.2500   -28.7070     2.3770    72.4700    11.5120    11.2370    13.2870    22.1270 
  229.3750   -28.5980     2.3730    70.2510    11.5190    11.1460    12.4520    22.0560 
  229.5000   -28.5120     2.3650    71.1620    11.6220    11.1290    11.3170    22.0010 
  229.6250   -28.4480     2.3580    73.6450    11.7500    11.2260    10.4790    22.0040 
  229.7500   -28.3910     2.3520    73.8500    11.8340    11.3980    11.2560    22.0810 
  229.8750   -28.3330     2.3440    71.4780    11.8520    11.5850    12.9260    22.2300 
  230.0000   -28.2810     2.3330    69.1960    11.7910    11.7070    14.0670    22.4340 
  230.1250   -28.2550     2.3140    68.2450    11.6090    11.6570    14.2900    22.6700 
  230.2500   -28.2290     2.2900    64.9810    11.3280    11.4550    14.3230    22.8990 
  230.3750   -28.1580     2.2620    60.0460    11.0860    11.2300    14.1650    23.0610 
  230.5000   -28.0130     2.2320    57.1600    11.1630    11.2210    13.7910    23.0690 
  230.6250   -27.8270     2.2100    55.9630    12.0160    11.8430    13.1860    22.8220 
  230.7500   -27.6590     2.2030    52.5940    14.5680    13.3680    13.7660    22.4670 
  230.8750   -27.5150     2.2150    47.4790    20.4180    16.1590    17.5800    22.2280 
  231.0000   -27.3670     2.2480    43.9360    27.5660    20.5330    30.1320    22.2590 
  231.1250   -27.1810     2.3030    46.6470    35.9840    26.7090    37.3350    22.5570 
  231.2500   -26.9640     2.3700    50.7040    44.4600    33.7540    34.1900    22.9410 
  231.3750   -26.7430     2.4380    51.4670    52.9220    40.9240    32.7410    23.3130 
  231.5000   -26.5370     2.4970    49.0860    61.2510    48.2730    36.2330    23.6030 
  231.6250   -26.3320     2.5430    47.5800    72.1240    58.0580    38.9050    23.7630 
  231.7500   -26.1100     2.5780    48.6340    88.8860    73.8000    42.2840    23.8600 
  231.8750   -25.8990     2.6070    50.1390   116.2700    99.8660    57.1640    23.9640 
  232.0000   -25.7140     2.6390    50.5650   160.3920   139.6430    96.5290    24.1050 
  232.1250   -25.5360     2.6740    49.3500   228.2230   192.3640   141.8450    24.2660 
  232.2500   -25.3760     2.6960    46.9170   298.3610   240.2160   153.6460    24.4060 
  232.3750   -25.2570     2.6950    45.3740   331.7810   261.3870   137.3670    24.4990 
  232.5000   -25.1780     2.6720    46.7890   314.2590   248.2670   112.3310    24.5230 
  232.6250   -25.1290     2.6430    52.0100   266.6740   214.8050    89.9080    24.4490 
