~V
VERS. 2.00: Ver 2.00
~W
STRT.M 51.0000:
STOP.M 262.0000:
STEP.M 0.1250:
NULL. -999.2500:
UWI. F10019:
~C
DEPT.M :
DEN.GM/CC :
SP.MV :
GR.API :
CALI.CM :
RXO.OHMM :
RI. :
RML.OHMM :
~A
# ...
  208.5000     2.2300    -4.2020    67.0200    23.9770    29.9910    24.9050    27.2040 
  208.6250     2.2280    -4.2370    65.4860    23.8890    29.8330    24.6600    27.1410 
  208.7500     2.2200    -4.3270    67.3250    23.8580    29.5390    24.4030    27.0240 
  208.8750     2.2120    -4.3980    70.1910    23.8820    29.3430    24.2180    26.9340 
  209.0000     2.2060    -4.4910    71.7740    23.9990    29.3650    24.3600    27.1860 
  209.1250     2.2060    -4.5600    72.2440    24.1740    29.1880    25.0290    28.0670 
  209.2500     2.2230    -4.6100    72.4410    24.2880    29.3350    26.4200    29.8280 
  209.3750     2.2590    -4.6790    71.8250    24.2300    30.9730    28.6680    32.6130 
  209.5000     2.2940    -4.7080    68.9030    24.0590    35.8510    31.8410    36.4200 
  209.6250     2.3030    -4.7430    65.2260    23.9390    42.5480    35.3600    40.5090 
  209.7500     2.2910    -4.7190    61.6890    23.9480    48.4900    38.5280    44.0520 
  209.8750     2.2730    -4.6790    59.5390    23.9710    51.3550    40.6460    46.2710 
  210.0000     2.2620    -4.5580    59.9440    23.9360    50.8390    41.1400    46.5850 
  210.1250     2.2550    -4.4290    62.2280    23.9040    48.2300    40.5150    45.6470 
  210.2500     2.2480    -4.2950    64.2060    23.9370    45.7380    39.2560    44.0050 
  210.3750     2.2360    -4.1600    64.2750    23.9690    44.4040    37.7120    42.0280 
  210.5000     2.2220    -4.0400    63.5910    23.9720    42.4390    36.0340    39.9190 
  210.6250     2.2110    -3.8770    63.8500    23.9980    40.2710    34.4310    37.9840 
  210.7500     2.2030    -3.7460    64.2160    24.1140    38.3500    33.1940    36.5990 
  210.8750     2.1900    -3.6360    63.3710    24.2610    37.0160    32.6480    36.1400 
  211.0000     2.1730    -3.6210    60.5980    24.4470    36.4310    33.2180    37.0360 
  211.1250     2.1640    -3.5810    59.2420    24.5910    38.2650    34.6860    38.9010 
  211.2500     2.1680    -3.5320    60.7720    24.5620    43.4620    36.5340    41.0340 
  211.3750     2.1860    -3.4890    62.5670    24.2570    50.7860    37.8580    42.3300 
  211.5000     2.2180    -3.4240    60.4930    23.9310    53.8710    37.4670    41.4110 
  211.6250     2.2520    -3.3770    57.6240    23.7770    49.3250    35.4980    38.6430 
  211.7500     2.2770    -3.2790    58.7810    23.9500    40.3280    32.6820    35.0540 
  211.8750     2.2860    -3.1780    63.3620    24.2110    32.8920    29.9480    31.7780 
  212.0000     2.2830    -3.0110    66.2460    24.3230    30.7940    28.0790    29.6550 
  212.1250     2.2780    -2.8460    67.4390    24.3340    31.4470    27.0930    28.5660 
  212.2500     2.2720    -2.6540    68.7960    24.3480    32.7330    26.8120    28.2250 
  212.3750     2.2630    -2.4950    70.3460    24.3530    33.4170    26.9220    28.2360 
  212.5000     2.2510    -2.3910    69.3100    24.3280    33.0740    27.0460    28.2040 
  212.6250     2.2380    -2.3000    67.4410    24.2960    32.3120    26.9590    27.9820 
  212.7500     2.2290    -2.2590    66.9090    24.2830    31.7550    26.6740    27.6330 
  212.8750     2.2220    -2.2450    67.9480    24.2790    31.9000    26.3030    27.2870 
  213.0000     2.2160    -2.3500    70.0030    24.2780    32.0080    25.9580    27.0730 
  213.1250     2.2130    -2.4920    71.2980    24.2850    31.9100    25.6830    27.0110 
  213.2500     2.2170    -2.6800    70.5850    24.3150    31.5950    25.4750    27.0760 
  213.3750     2.2300    -2.8550    67.5590    24.3790    30.9670    25.3080    27.1810 
  213.5000     2.2490    -3.0650    64.2690    24.4210    30.1760    25.1420    27.1640 
  213.6250     2.2680    -3.2580    63.7900    24.4670    29.4850    24.9280    26.9300 
  213.7500     2.2820    -3.4220    65.7200    24.5400    28.9800    24.6150    26.4680 
  213.8750     2.2820    -3.6240    67.0460    24.6540    28.3050    24.1600    25.8490 
  214.0000     2.2630    -3.7440    64.4180    24.7390    27.3610    23.5420    25.1900 
  214.1250     2.2360    -3.8430    62.3520    24.7840    26.3020    22.8350    24.5770 
  214.2500     2.2130    -3.8870    64.1400    24.8160    25.0910    22.1140    24.0020 
  214.3750     2.2020    -3.9410    67.6450    24.8370    23.7000    21.4570    23.4290 
  214.5000     2.2030    -3.9330    69.1630    24.8380    22.4250    20.9670    22.8990 
  214.6250     2.2160    -3.9220    71.0980    24.8030    21.8320    20.6770    22.5200 
  214.7500     2.2360    -3.8980    73.7990    24.7070    22.1900    20.6070    22.3980 
  214.8750     2.2560    -3.7760    74.1920    24.5870    23.2660    20.7430    22.5720 
  215.0000     2.2640    -3.6720    71.6360    24.4300    24.2950    21.0570    23.0220 
  215.1250     2.2610    -3.5600    70.4690    24.3900    25.0480    21.4570    23.5880 
  215.2500     2.2520    -3.4560    71.4770    24.4130    25.6200    21.8950    24.1750 
  215.3750     2.2400    -3.2640    71.3740    24.3890    26.1670    22.3400    24.7360 
  215.5000     2.2290    -3.0940    69.3600    24.3180    26.8190    22.7600    25.2720 
  215.6250     2.2270    -2.9190    68.0780    24.2760    27.5270    23.1380    25.7940 
  215.7500     2.2320    -2.7300    69.0420    24.3240    28.2680    23.4620    26.2880 
  215.8750     2.2360    -2.5930    71.0420    24.4530    28.9690    23.7350    26.7320 
  216.0000     2.2320    -2.3990    71.7470    24.6360    29.4430    23.9640    27.0980 
  216.1250     2.2260    -2.2210    70.7020    24.7830    29.7570    24.1740    27.4110 
  216.2500     2.2190    -2.0380    69.1770    24.8390    30.0430    24.3750    27.7080 
  216.3750     2.2140    -1.9160    68.1220    24.8450    30.3640    24.5670    28.0140 
  216.5000     2.2150    -1.7430    67.6520    24.8070    30.6060    24.7710    28.3390 
  216.6250     2.2190    -1.5800    65.6180    24.7110    30.7800    25.0380    28.6740 
  216.7500     2.2190    -1.4170    62.2900    24.5790    31.0840    25.4060    29.0010 
  216.8750     2.2140    -1.1770    60.8070    24.4170    31.7350    25.8420    29.2800 
  217.0000     2.2160    -0.9720    64.2430    24.2400    33.6620    26.2110    29.4100 
  217.1250     2.2380    -0.7930    67.8710    24.0360    37.2370    26.3980    29.3640 
  217.2500     2.2840    -0.6880    67.7430    23.8860    41.2420    26.3580    29.1550 
  217.3750     2.3480    -0.5980    65.7730    23.8110    42.6140    26.1440    28.9050 
  217.5000     2.4140    -0.6680    65.1000    23.8260    39.6880    25.9860    28.9340 
  217.6250     2.4670    -0.8540    65.0120    23.7530    37.2260    26.0540    29.2840 
  217.7500     2.4990    -1.1410    63.8250    23.4210    37.5400    26.1320    29.4780 
  217.8750     2.5150    -1.5440    62.0660    22.7600    39.5060    25.4430    28.4570 
  218.0000     2.5270    -1.9860    63.4060    22.7030    47.1300    22.7000    24.8490 
  218.1250     2.5380    -2.4740    66.4970    23.2340    49.3820    18.3580    19.5670 
  218.2500     2.5270    -2.9110    68.2980    23.7100    37.2920    13.6840    14.1930 
  218.3750     2.4770    -3.3370    68.0440    23.8950    18.2860     9.8070     9.9530 
  218.5000     2.3950    -3.5890    69.5880    23.9610     8.2010     7.3160     7.4120 
  218.6250     2.3230    -3.7300    72.6110    24.0240     5.1940     5.8560     6.0450 
  218.7500     2.2830    -3.8040    73.9090    24.0210     4.6740     5.1950     5.5290 
  218.8750     2.2830    -3.8130    72.1500    24.0090     5.1640     5.1560     5.6230 
  219.0000     2.3130    -3.7320    69.7100    23.9960     6.4090     5.6570     6.1900 
  219.1250     2.3450    -3.5780    69.8610    23.9890     7.9160     6.4230     6.9430 
  219.2500     2.3640    -3.4470    74.4290    23.9830     8.8890     7.2170     7.6450 
  219.3750     2.3690    -3.3000    82.7280    24.0150     8.9160     7.8130     8.0920 
  219.5000     2.3700    -3.2300    90.6160    24.0300     8.7870     8.0770     8.1760 
  219.6250     2.3740    -3.1360    94.6740    24.0220     8.8040     8.1570     8.0830 
