~V
VERS. 2.00: Ver 2.00
~W
STRT.M 57.0000:
STOP.M 177.0000:
STEP.M 0.1250:
NULL. -999.2500:
UWI. F10011:
~C
DEPT.M :
DEN.GM/CC :
SP.MV :
GR.API :
CALI.CM :
RXO.OHMM :
RI. :
RML.OHMM :
~A
# ...
  113.2500     2.4710   -14.0760    78.2670    23.5820    33.5030    23.0070    26.3580 
  113.3750     2.4860   -14.1520    74.4810    23.5680    35.7650    28.5920    31.7550 
  113.5000     2.4880   -14.1820    72.5970    23.5560    40.1840    33.1100    35.7900 
  113.6250     2.4940   -14.2400    70.2270    23.5270    42.9050    35.7570    37.8730 
  113.7500     2.5020   -14.2920    68.5730    23.5000    42.2060    37.1420    38.8870 
  113.8750     2.4960   -14.3170    69.8420    23.5250    40.3440    37.8860    39.5740 
  114.0000     2.4660   -14.3230    73.1040    23.5680    39.6780    38.5180    40.4450 
  114.1250     2.4310   -14.3620    73.3470    23.5760    40.3760    39.5190    41.9430 
  114.2500     2.4150   -14.4690    70.5950    23.5030    42.2860    41.1210    44.0900 
  114.3750     2.4190   -14.5810    67.1460    23.3970    46.3770    43.3740    46.7050 
  114.5000     2.4340   -14.7190    65.1310    23.2600    48.2110    46.0880    49.4670 
  114.6250     2.4450   -14.8230    66.8720    23.0810    44.9540    48.8500    52.0640 
  114.7500     2.4500   -14.9390    68.7170    22.7460    40.8610    51.2370    54.3980 
  114.8750     2.4530   -15.0230    66.9010    22.3230    41.4280    52.9350    56.2590 
  115.0000     2.4590   -15.1160    62.8270    22.0980    45.2230    53.6560    57.1650 
  115.1250     2.4740   -15.1190    61.4680    22.1130    45.6760    53.0940    56.4160 
  115.2500     2.4910   -15.1220    63.2170    22.1800    43.1970    51.6560    54.4030 
  115.3750     2.5010   -15.1160    65.5580    22.2430    42.0910    49.7640    51.8370 
  115.5000     2.5000   -15.0970    66.8670    22.4860    44.9810    47.8940    49.5210 
  115.6250     2.4950   -15.1080    66.3600    23.0290    46.4160    46.5670    48.0990 
  115.7500     2.4940   -15.1310    65.2360    23.4480    46.1920    45.8790    47.4550 
  115.8750     2.4860   -15.2130    66.7200    23.6180    44.8260    45.7420    47.3150 
  116.0000     2.4520   -15.2680    70.5320    23.6300    43.5050    45.9760    47.3840 
  116.1250     2.3960   -15.3630    70.5010    23.4590    42.2740    46.4070    47.5070 
  116.2500     2.3470   -15.4760    66.9150    22.9760    39.4690    46.8250    47.6380 
  116.3750     2.3230   -15.6340    64.2310    22.1800    36.1110    47.0980    47.7570 
  116.5000     2.3220   -15.7750    63.6310    21.4560    33.7750    47.1620    47.8340 
  116.6250     2.3440   -15.9190    63.4490    21.0520    34.2210    46.9870    47.8250 
  116.7500     2.3830   -16.0670    63.8760    20.9880    36.1070    46.7080    47.8100 
  116.8750     2.4260   -16.1920    63.9120    21.4560    39.1910    46.5020    47.9310 
  117.0000     2.4490   -16.3300    62.4330    22.3970    41.4090    46.5670    48.3480 
  117.1250     2.4370   -16.4320    61.7050    23.3110    41.0050    47.2130    49.3250 
  117.2500     2.4230   -16.4790    64.1580    23.7890    41.0920    48.4520    50.8290 
  117.3750     2.4390   -16.4720    68.5850    23.8680    44.1550    50.0580    52.5880 
  117.5000     2.4910   -16.4700    70.9740    23.8090    47.9650    51.5550    54.1030 
  117.6250     2.5450   -16.4150    69.3200    23.8150    48.7320    52.3880    54.7890 
  117.7500     2.5640   -16.3540    66.4730    23.8680    48.2020    52.5020    54.6210 
  117.8750     2.5440   -16.2890    64.4940    23.9200    46.0020    51.9510    53.7040 
  118.0000     2.5100   -16.2750    64.1360    23.9210    44.3420    50.9190    52.3040 
  118.1250     2.4870   -16.2460    63.0560    23.8320    49.3130    49.6440    50.7210 
  118.2500     2.4770   -16.2080    61.0360    23.6990    51.6790    48.2590    49.0750 
  118.3750     2.4730   -16.1790    58.8270    23.6320    47.9230    46.7300    47.3280 
  118.5000     2.4640   -16.1890    58.2930    23.6330    42.5490    45.0580    45.4790 
  118.6250     2.4480   -16.1880    61.3460    23.6870    41.3130    43.3150    43.6050 
  118.7500     2.4350   -16.1310    64.6340    23.7510    41.8380    41.6890    41.9060 
  118.8750     2.4320   -16.0890    65.8750    23.7990    41.0410    40.4430    40.6530 
  119.0000     2.4350   -16.0310    65.7390    23.8600    38.5100    39.8150    40.0780 
  119.1250     2.4310   -16.0200    66.1450    23.8090    37.1650    39.8770    40.2470 
  119.2500     2.4250   -16.0030    65.7680    23.6900    39.6480    40.2140    40.6970 
  119.3750     2.4390   -15.9960    63.6380    23.6800    44.7420    40.4580    40.9790 
  119.5000     2.4940   -15.9450    61.9210    23.7270    47.2510    40.2820    40.7100 
  119.6250     2.5710   -15.9680    61.6600    23.7110    42.7630    39.4160    39.6420 
  119.7500     2.6180   -16.0030    60.5850    23.8400    37.2430    38.0700    38.1170 
  119.8750     2.6130   -16.0380    59.7440    23.9690    34.4770    36.5140    36.4790 
  120.0000     2.5710   -16.0800    61.1700    23.9460    34.2590    35.0250    34.9880 
  120.1250     2.5210   -16.1240    63.0560    23.8460    32.8580    33.8890    33.8590 
  120.2500     2.4910   -16.2020    63.3450    23.7610    28.2120    33.2210    33.1900 
  120.3750     2.4930   -16.2610    63.5240    23.5910    23.6430    33.0840    33.0760 
  120.5000     2.5230   -16.3600    65.1010    23.3600    23.4460    33.4510    33.5070 
  120.6250     2.5510   -16.4140    65.8790    23.4410    27.4660    34.1990    34.3400 
  120.7500     2.5530   -16.4970    63.8130    23.6000    32.4590    34.9080    35.0800 
  120.8750     2.5330   -16.5360    59.8200    23.6170    34.2020    35.1100    35.1840 
  121.0000     2.5050   -16.5250    56.2190    23.4470    32.1590    34.4150    34.2960 
  121.1250     2.4820   -16.4440    55.4560    23.3240    29.0030    32.7860    32.5500 
  121.2500     2.4730   -16.3570    54.9440    23.3270    26.7590    30.9610    30.7660 
  121.3750     2.4820   -16.2470    53.6400    23.4520    25.6640    29.4850    29.4720 
  121.5000     2.5020   -16.1280    53.4260    23.6490    25.3880    28.6100    28.8710 
  121.6250     2.5150   -16.0660    56.9640    23.7130    26.3870    28.3430    28.8870 
  121.7500     2.5160   -15.9880    61.8420    23.5110    28.8920    28.3230    29.0420 
  121.8750     2.5140   -15.9470    65.3350    23.2720    31.2980    28.2850    29.0040 
  122.0000     2.5190   -15.8780    66.2200    23.2250    30.7990    28.0550    28.6220 
  122.1250     2.5310   -15.8840    65.9680    23.2480    27.1550    27.5920    27.9800 
  122.2500     2.5320   -15.8870    66.8160    23.2360    25.3950    27.1110    27.4460 
  122.3750     2.5120   -15.9360    67.7480    23.2160    25.8370    26.8120    27.2710 
  122.5000     2.4770   -15.9700    66.5370    23.2510    26.6390    26.8140    27.5100 
  122.6250     2.4580   -16.0080    62.5010    23.3980    26.8900    27.1160    28.0310 
  122.7500     2.4690   -16.1010    59.0550    23.5110    27.9540    27.4540    28.4820 
  122.8750     2.4990   -16.1990    58.0940    23.5520    29.0250    27.5890    28.6100 
  123.0000     2.5260   -16.3240    58.7920    23.6000    28.9110    27.3860    28.3220 
  123.1250     2.5360   -16.4330    61.2940    23.7140    27.6710    26.8410    27.6980 
  123.2500     2.5380   -16.5770    64.8430    23.8250    26.4270    26.1390    27.0000 
  123.3750     2.5380   -16.6880    67.3350    23.7980    25.1450    25.4160    26.3770 
  123.5000     2.5310   -16.8120    67.0270    23.7680    24.3380    24.8260    25.9640 
  123.6250     2.5130   -16.8890    63.7790    23.7830    23.8380    24.5430    25.8780 
  123.7500     2.4930   -16.9820    62.1420    23.8190    22.8460    24.5090    26.0080 
  123.8750     2.4750   -17.0890    63.2490    23.8330    22.4940    24.6180    26.2270 
  124.0000     2.4570   -17.2510    64.4150    23.8710    23.3350    24.7390    26.4040 
  124.1250     2.4440   -17.3910    63.3710    23.8400    23.7950    24.6920    26.3330 
  124.2500     2.4400   -17.5370    61.9500    23.6720    22.9630    24.3720    25.9100 
  124.3750     2.4400   -17.7070    62.8880    23.5480    22.0320    23.7940    25.2040 
