~V
VERS. 2.00: Ver 2.00
~W
STRT.M 57.0000:
STOP.M 307.0000:
STEP.M 0.1250:
NULL. -999.2500:
UWI. F10042:
~C
DEPT.M :
GR.API :
RML.OHMM :
RI. :
RXO.OHMM :
CALI.CM :
DEN.GM/CC :
SP.MV :
~A
# ...
   90.7500   104.0170     6.3020     5.2630     5.3530    25.2510     2.2240    -6.6820 
   90.8750   105.5470     6.1930     5.1810     5.0350    25.0790     2.2390    -6.5720 
   91.0000   105.1270     6.2950     5.2230     5.1040    24.7730     2.2460    -6.5890 
   91.1250    98.2320     6.6180     5.3910     5.5490    24.5760     2.2400    -6.8150 
   91.2500    88.4700     7.0520     5.6320     6.5270    24.6220     2.2240    -7.2710 
   91.3750    80.8650     7.5020     5.9030     7.7650    24.8720     2.2050    -7.9810 
   91.5000    76.8380     7.8740     6.1660     8.0470    25.0490     2.1880    -8.8640 
   91.6250    74.1620     8.0850     6.3690     7.5550    25.0430     2.1760    -9.7650 
   91.7500    71.7470     8.1570     6.4870     7.2040    24.9370     2.1670   -10.5900 
   91.8750    70.4380     8.1340     6.5130     7.1060    24.8400     2.1540   -11.3500 
   92.0000    69.2200     8.0770     6.4720     7.1400    24.8640     2.1370   -12.0310 
   92.1250    68.7370     8.0830     6.4370     7.1320    25.1140     2.1210   -12.6110 
   92.2500    73.2100     8.2300     6.4980     7.0420    25.3420     2.1140   -13.0490 
   92.3750    81.2250     8.5670     6.7090     7.1340    25.4130     2.1200   -13.3160 
   92.5000    86.3100     9.0860     7.0700     8.2850    25.3620     2.1370   -13.5480 
   92.6250    83.2770     9.6950     7.5140     9.1820    25.3240     2.1500   -13.8590 
   92.7500    77.7240    10.2060     7.8920     9.3500    25.3700     2.1490   -14.2290 
   92.8750    74.7410    10.4690     8.0810     8.7310    25.4080     2.1330   -14.6150 
   93.0000    74.4040    10.4070     8.0290     8.1860    25.4510     2.1080   -14.9310 
   93.1250    75.1020    10.0340     7.7630     7.8740    25.4570     2.0870   -15.1640 
   93.2500    75.5190     9.5660     7.4420     7.6650    25.4140     2.0780   -15.4240 
   93.3750    73.4990     9.1590     7.1660     7.6870    25.3490     2.0790   -15.7330 
   93.5000    68.5930     8.9060     6.9860     7.8710    25.3390     2.0870   -15.9960 
   93.6250    66.0140     8.8230     6.9150     7.8600    25.3910     2.0930   -16.1850 
   93.7500    68.2040     8.8170     6.8960     7.6410    25.4480     2.0970   -16.3750 
   93.8750    70.4370     8.8230     6.8960     7.6270    25.4690     2.1030   -16.6000 
   94.0000    68.8340     8.8060     6.8900     7.7390    25.4410     2.1160   -16.9270 
   94.1250    64.9230     8.7500     6.8700     7.7100    25.3610     2.1390   -17.3300 
   94.2500    62.9680     8.6620     6.8440     7.7010    25.2830     2.1600   -17.6890 
   94.3750    62.9400     8.5510     6.8200     7.6290    25.2550     2.1690   -17.9830 
   94.5000    64.1870     8.4370     6.8060     7.7840    25.2460     2.1590   -18.2580 
   94.6250    67.2300     8.3640     6.8010     7.8760    25.2260     2.1280   -18.4970 
   94.7500    70.1540     8.3550     6.8050     7.8630    25.2370     2.0890   -18.6770 
   94.8750    71.1340     8.4090     6.8140     7.7610    25.3400     2.0530   -18.8020 
   95.0000    70.0600     8.4960     6.8260     7.7600    25.5440     2.0300   -18.8960 
   95.1250    68.4270     8.5650     6.8390     7.9600    25.6800     2.0300   -19.0360 
   95.2500    67.4050     8.5780     6.8480     8.2500    25.7060     2.0490   -19.1790 
   95.3750    65.6750     8.5300     6.8480     8.5020    25.6240     2.0830   -19.2370 
   95.5000    63.9140     8.4300     6.8420     8.6740    25.5210     2.1200   -19.1960 
   95.6250    64.0900     8.2930     6.8350     8.4410    25.4560     2.1470   -19.1060 
   95.7500    65.3900     8.1510     6.8310     8.2020    25.4190     2.1600   -19.0300 
   95.8750    67.0500     8.0330     6.8260     7.9780    25.3720     2.1580   -18.9480 
   96.0000    69.5430     7.9670     6.8120     7.9050    25.2350     2.1430   -18.7900 
   96.1250    71.2090     7.9790     6.7750     7.9580    24.9700     2.1210   -18.5210 
   96.2500    69.9270     8.0420     6.7210     8.0580    24.8410     2.0960   -18.2910 
   96.3750    67.4730     8.1210     6.6720     8.2310    24.9470     2.0750   -18.2110 
   96.5000    66.8410     8.1820     6.6480     8.2450    25.1920     2.0610   -18.1910 
   96.6250    67.5980     8.2150     6.6740     8.0730    25.3960     2.0620   -18.1400 
   96.7500    67.1550     8.2570     6.7490     8.0750    25.4730     2.0760   -18.0250 
   96.8750    67.2430     8.3510     6.8630     8.3390    25.5030     2.1010   -17.8450 
   97.0000    70.4090     8.5180     7.0030     8.7050    25.5360     2.1300   -17.6460 
   97.1250    74.2040     8.7390     7.1440     9.1370    25.4950     2.1520   -17.5030 
   97.2500    74.2350     8.9340     7.2490     9.3120    25.3750     2.1650   -17.3760 
   97.3750    69.8870     9.0280     7.2830     9.1700    25.2140     2.1670   -17.2550 
   97.5000    65.5100     8.9740     7.2380     8.9810    25.1130     2.1640   -17.2200 
   97.6250    63.6470     8.7680     7.1340     8.8770    25.0970     2.1620   -17.3150 
   97.7500    62.2510     8.5000     7.0220     8.7340    25.1280     2.1610   -17.5030 
   97.8750    61.3150     8.2430     6.9310     8.6200    25.1340     2.1580   -17.7210 
   98.0000    61.9630     8.0460     6.8700     8.5890    24.9910     2.1500   -17.9580 
   98.1250    62.9730     7.9390     6.8360     8.5840    24.6300     2.1340   -18.1500 
   98.2500    63.7370     7.9020     6.8160     8.7100    24.3760     2.1120   -18.2740 
   98.3750    66.8950     7.9160     6.8080     8.9180    24.3740     2.0890   -18.2640 
   98.5000    70.9860     7.9670     6.8050     9.0080    24.4030     2.0710   -18.1250 
   98.6250    72.0730     8.0310     6.7920     8.7290    24.2080     2.0630   -17.8950 
   98.7500    70.7760     8.0770     6.7710     8.5950    23.8830     2.0660   -17.6690 
   98.8750    69.8900     8.0860     6.7480     8.5860    23.7830     2.0750   -17.5230 
   99.0000    69.8290     8.0570     6.7270     8.6260    23.9420     2.0890   -17.4660 
   99.1250    67.3730     8.0040     6.7170     8.5900    24.4310     2.1050   -17.4640 
   99.2500    65.1300     7.9570     6.7220     8.6310    25.1220     2.1220   -17.4830 
   99.3750    65.3940     7.9270     6.7430     8.6210    25.5950     2.1400   -17.6210 
   99.5000    67.4350     7.9160     6.7790     8.4290    25.7030     2.1560   -17.8720 
   99.6250    68.6830     7.9200     6.8280     8.1850    25.5930     2.1610   -18.1900 
   99.7500    68.1040     7.9330     6.8770     8.0850    25.4840     2.1510   -18.4840 
   99.8750    67.3710     7.9570     6.9110     8.2210    25.4310     2.1280   -18.6790 
  100.0000    66.8610     7.9900     6.9230     8.3260    25.4240     2.0980   -18.7570 
  100.1250    65.8690     8.0170     6.9000     8.2090    25.4550     2.0730   -18.7950 
  100.2500    64.2390     8.0130     6.8460     8.1060    25.4910     2.0630   -18.8530 
  100.3750    63.8390     7.9610     6.7710     8.0400    25.5180     2.0690   -18.8860 
  100.5000    65.9600     7.8710     6.6950     8.1470    25.5090     2.0860   -18.8430 
  100.6250    67.3740     7.7870     6.6390     8.2010    25.4520     2.1050   -18.7250 
  100.7500    66.0490     7.7510     6.6040     8.1850    25.4060     2.1170   -18.5700 
  100.8750    65.5620     7.7740     6.5810     8.2000    25.3910     2.1220   -18.4310 
  101.0000    68.1420     7.8370     6.5530     8.2520    25.4100     2.1200   -18.2780 
  101.1250    71.1510     7.9030     6.5100     8.1670    25.4210     2.1190   -18.0420 
  101.2500    72.3640     7.9420     6.4550     8.0180    25.3900     2.1210   -17.7550 
  101.3750    73.1920     7.9380     6.3970     7.8940    25.3370     2.1250   -17.4690 
  101.5000    73.9200     7.8890     6.3370     7.9200    25.2970     2.1270   -17.1730 
  101.6250    72.8690     7.8080     6.2780     7.8170    25.2510     2.1250   -16.8570 
  101.7500    71.2180     7.7370     6.2270     7.7740    25.2020     2.1180   -16.6110 
  101.8750    70.9560     7.7180     6.1930     7.7130    25.1660     2.1130   -16.4900 
