~V
VERS. 2.00: Ver 2.00
~W
STRT.M 60.0000:
STOP.M 217.0000:
STEP.M 0.1250:
NULL. -999.2500:
UWI. F10010:
~C
DEPT.M :
DEN.GM/CC :
GR.API :
RML.OHMM :
RI. :
RXO.OHMM :
CALI.CM :
SP.MV :
~A
   60.0000  -999.2500    40.2100     0.8370     0.1250     0.9390    24.8050    98.8960 
   60.1250  -999.2500    38.7730     0.8220     0.1220     1.0140    24.7970    99.4310 
   60.2500  -999.2500    38.1180     0.7970     0.1190     1.1520    24.7850   100.0190 
   60.3750  -999.2500    39.6490     0.7680     0.1200     1.2650    24.7860   100.6440 
   60.5000  -999.2500    42.2010     0.7450     0.1240     1.4960    24.7850   101.2650 
   60.6250  -999.2500    42.3660     0.7330     0.1290     1.3300    24.7500   101.8070 
   60.7500  -999.2500    40.9150     0.7290     0.1300     0.9670    24.6620   102.2330 
   60.8750  -999.2500    40.5760     0.7210     0.1270     0.9780    24.5930   102.4350 
   61.0000  -999.2500    42.0490     0.7010     0.1220     0.9930    24.5610   102.3040 
   61.1250  -999.2500    43.8900     0.6630     0.1200     0.8960    24.5930   101.7840 
   61.2500  -999.2500    44.9890     0.6200     0.1190     0.7530    24.6570   100.9190 
   61.3750  -999.2500    45.5250     0.5860     0.1170     0.6620    24.7180    99.6830 
   61.5000  -999.2500    46.2690     0.5740     0.1170     0.6810    24.8270    98.1120 
   61.6250  -999.2500    46.3520     0.5910     0.1170     0.7450    24.8890    96.1960 
   61.7500  -999.2500    45.6920     0.6250     0.1210     0.8270    24.9070    93.9990 
   61.8750  -999.2500    44.6600     0.6610     0.1260     1.0770    24.8880    91.5460 
   62.0000  -999.2500    44.3390     0.6900     0.1330     1.7500    24.8780    88.8670 
   62.1250  -999.2500    44.4440     0.7090     0.1410     3.0490    24.8960    85.9040 
   62.2500  -999.2500    44.7850     0.7220     0.1470     3.2410    24.9330    82.7120 
   62.3750  -999.2500    45.5390     0.7320     0.1540     1.4960    25.0100    79.3920 
   62.5000  -999.2500    46.2260     0.7430     0.1590     0.3000    25.0930    76.0380 
   62.6250     1.9500    45.4540     0.7590     0.1600     0.7820    25.1220    72.7290 
   62.7500     1.9500    43.7830     0.7780     0.1570     0.7870    25.1290    69.5840 
   62.8750     1.9500    42.2620     0.7970     0.1540     0.6860    25.1480    66.6460 
   63.0000     1.9500    41.5170     0.8170     0.1560     0.6390    25.2060    63.9730 
   63.1250     1.9480    40.5930     0.8390     0.1620     0.6170    25.2370    61.7130 
   63.2500     1.9480    39.2700     0.8610     0.1690     0.6250    25.2470    59.8050 
   63.3750     1.9510    39.0480     0.8820     0.1780     0.6440    25.2480    58.1570 
   63.5000     1.9610    40.2900     0.8990     0.1870     0.6870    25.2500    56.6260 
   63.6250     1.9800    40.9170     0.9070     0.2000     0.7770    25.2490    55.1170 
   63.7500     2.0060    39.9070     0.9090     0.2120     0.8040    25.2510    53.5130 
   63.8750     2.0370    39.1580     0.9080     0.2200     0.7400    25.2520    51.8000 
   64.0000     2.0690    38.9970     0.9110     0.2240     0.6870    25.2520    49.9860 
   64.1250     2.0960    38.3040     0.9170     0.2190     0.7980    25.2530    48.0240 
   64.2500     2.1160    38.0550     0.9000     0.2080     0.9160    25.2550    45.8970 
   64.3750     2.1300    38.0770     0.7980     0.1880     0.7250    25.2540    43.5690 
   64.5000     2.1380    36.8140     0.5820     0.1560     0.3660    25.2530    41.0760 
   64.6250     2.1450    34.7830     0.3480     0.1160     0.3230    25.2520    38.4410 
   64.7500     2.1620    34.8470     0.1880     0.0800     0.5100    25.2530    35.6910 
   64.8750     2.2010    36.0520     0.1000     0.0550     0.8070    25.2560    32.7700 
   65.0000     2.2710    36.4190     0.0600     0.0400     1.1710    25.2640    29.5970 
   65.1250     2.3620    37.0910     0.0510     0.0360     0.4610    25.2590    26.0470 
   65.2500     2.4340    39.6930     0.0630     0.0450     1.5760    25.1270    22.1730 
   65.3750     2.4470    42.7820     0.1030     0.0790     3.1680    24.7390    18.0200 
   65.5000     2.3750    45.1760     0.1860     0.1650     4.9040    23.9950    13.6500 
   65.6250     2.2110    47.5420     0.3740     0.3810     6.3850    23.6660     9.1170 
   65.7500     2.0010    49.7110     2.5600     2.7300     6.5170    23.6970     4.5010 
   65.8750     1.7880    51.0070     6.9980     6.6960     5.5970    24.4510    -0.0820 
   66.0000     1.6050    51.0010     9.8130     9.4800     5.8490    25.9550    -4.4700 
   66.1250     1.4910    50.4500    11.6260    11.0930     8.9180    28.1950    -8.4770 
   66.2500     1.4530    50.4580    13.0960    11.8780    12.2790    30.3250   -12.0840 
   66.3750     1.4930    51.2980    14.0400    12.4440    12.8890    31.7600   -15.3060 
   66.5000     1.6000    53.1850    14.4560    13.1010    11.9560    31.3470   -18.2080 
   66.6250     1.7500    57.6310    14.6040    13.7260    11.9440    28.9200   -20.8000 
   66.7500     1.9010    64.6200    14.7190    14.0410    12.2350    26.7700   -23.0930 
   66.8750     2.0250    72.3150    14.4540    13.9500    11.3960    25.7570   -25.0840 
   67.0000     2.1060    76.5110    14.0210    13.5900     9.6000    25.4500   -26.8680 
   67.1250     2.1400    74.8610    13.7000    13.2070     8.7620    25.3290   -28.5000 
   67.2500     2.1450    72.1720    13.3760    12.8990     9.7190    25.3030   -30.0410 
   67.3750     2.1370    71.8640    13.0220    12.6140    12.3310    25.3600   -31.4810 
   67.5000     2.1290    73.4260    12.7090    12.2610    14.0860    25.4250   -32.7740 
   67.6250     2.1400    74.5980    12.4980    11.8360    11.6930    25.3140   -33.8790 
   67.7500     2.1780    76.1410    12.2830    11.5200     8.8880    25.0570   -34.8980 
   67.8750     2.2460    77.8710    12.2280    11.4570     8.2770    24.8360   -35.8530 
   68.0000     2.3330    77.2610    12.4450    11.7040    10.3740    24.5970   -36.6980 
   68.1250     2.4170    74.5770    12.6250    12.1820    14.4600    24.3250   -37.3580 
   68.2500     2.4680    72.9610    12.5880    12.5700    16.4880    24.1560   -37.8630 
   68.3750     2.4710    72.8330    12.3910    12.6210    14.8170    24.1090   -38.2260 
   68.5000     2.4270    72.2940    11.9280    12.2480    11.8250    24.1830   -38.4970 
   68.6250     2.3530    69.6340    11.2880    11.6050     9.7990    24.4150   -38.6950 
   68.7500     2.2770    66.2750    10.7990    11.0340     8.8530    24.6770   -38.7950 
   68.8750     2.2150    64.7880    10.5820    10.6930     8.6280    24.8010   -38.8000 
   69.0000     2.1830    66.1170    10.6280    10.6250     8.6230    24.8480   -38.7520 
   69.1250     2.1940    69.0190    10.8450    10.7510     8.6460    24.8240   -38.7090 
   69.2500     2.2360    70.6340    11.0600    10.8780     9.1300    24.6660   -38.6870 
   69.3750     2.2870    70.2300    11.1560    10.8940     9.7120    24.3020   -38.6700 
   69.5000     2.3220    70.2760    11.0210    10.6990     9.5910    23.8420   -38.6170 
   69.6250     2.3240    74.2530    10.5410    10.2000     8.7660    23.4950   -38.4960 
   69.7500     2.3070    79.2460     9.8570     9.5110     8.1540    23.3180   -38.3020 
   69.8750     2.2880    80.4820     9.1860     8.7850     7.7020    23.0960   -38.0570 
   70.0000     2.2790    78.3820     8.7410     8.2040     6.9520    22.8580   -37.7730 
   70.1250     2.2820    77.0510     8.7440     7.9920     6.6830    22.7550   -37.4550 
   70.2500     2.2850    77.9400     9.2070     8.2070     7.6890    22.7640   -37.1040 
   70.3750     2.2800    78.8720    10.1430     8.8820     9.7250    22.9420   -36.7160 
   70.5000     2.2630    79.4740    11.4920     9.9640    11.1780    23.2920   -36.2950 
   70.6250     2.2320    78.4840    13.0790    11.3210    11.4920    23.9790   -35.8470 
   70.7500     2.1920    76.1350    14.5480    12.6600    12.6370    24.5660   -35.4790 
   70.8750     2.1540    73.0950    15.6490    13.7470    14.5860    25.3350   -35.2160 
   71.0000     2.1280    70.6780    16.3170    14.4840    15.9510    26.0210   -35.0240 
   71.1250     2.1220    68.4690    16.6430    14.8700    15.9330    26.3160   -34.8860 
