~V
VERS. 2.00: Ver 2.00
~W
STRT.M 55.0000:
STOP.M 297.0000:
STEP.M 0.1250:
NULL. -999.2500:
UWI. F10076:
~C
DEPT.M :
DEN.GM/CC :
SP.MV :
GR.API :
CALI.CM :
RXO.OHMM :
RI. :
RML.OHMM :
~A
# ...
  246.2500     2.2860    -8.2530    67.0110    23.2080     5.8670     7.1420     7.3790 
  246.3750     2.2840    -8.4300    63.6710    23.2550     4.5660     5.8870     6.4690 
  246.5000     2.3210    -8.6440    60.7250    23.5360     4.3910     5.4250     6.3180 
  246.6250     2.3880    -8.8790    61.9490    23.9520     4.7110     5.5370     6.6460 
  246.7500     2.4390    -9.1440    65.3050    24.2860     5.1800     5.9170     7.1270 
  246.8750     2.4590    -9.4550    68.1820    24.4790     5.6190     6.3860     7.5890 
  247.0000     2.4590    -9.7420    68.6610    24.6300     6.0470     6.8030     7.9330 
  247.1250     2.4430   -10.0560    65.6250    24.8600     6.9770     7.0780     8.1300 
  247.2500     2.4160   -10.3330    62.8050    25.0460     8.1390     7.2430     8.2370 
  247.3750     2.3900   -10.6060    62.8620    25.1900     8.5910     7.3280     8.2810 
  247.5000     2.3770   -10.8640    65.9860    25.5650     8.0170     7.3590     8.2890 
  247.6250     2.3720   -11.1080    67.5250    25.5750     7.3440     7.3330     8.2910 
  247.7500     2.3700   -11.3220    66.3630    25.1330     6.9000     7.2690     8.3150 
  247.8750     2.3740   -11.4890    66.3280    24.6250     6.6260     7.1870     8.3730 
  248.0000     2.3800   -11.6020    68.9340    24.5410     6.4060     7.1050     8.4500 
  248.1250     2.3770   -11.6250    69.2390    24.8670     6.3510     7.0260     8.4990 
  248.2500     2.3730   -11.6690    65.2470    25.0840     6.4010     6.9370     8.4800 
  248.3750     2.3800   -11.6590    60.9920    25.1160     6.4470     6.8320     8.3950 
  248.5000     2.3930   -11.6140    59.7920    25.0130     6.4320     6.7230     8.2760 
  248.6250     2.3940   -11.5140    59.5620    24.8680     6.3420     6.6270     8.1610 
  248.7500     2.3830   -11.3730    63.0780    24.6880     6.3230     6.5520     8.0700 
  248.8750     2.3700   -11.2010    71.7970    24.5350     6.4740     6.4980     8.0090 
  249.0000     2.3590   -11.0410    77.4850    24.4590     6.6900     6.4620     7.9700 
  249.1250     2.3510   -10.9300    71.3920    24.4420     6.6890     6.4490     7.9580 
  249.2500     2.3440   -10.7970    63.2690    24.4500     6.4530     6.4570     7.9660 
  249.3750     2.3410   -10.6730    61.4100    24.4830     6.2180     6.4730     7.9720 
  249.5000     2.3400   -10.5290    62.5430    24.5070     6.1200     6.4600     7.9270 
  249.6250     2.3350   -10.4250    62.3440    24.4400     6.0600     6.3600     7.7690 
  249.7500     2.3290   -10.4040    62.9540    24.2920     5.9060     6.1770     7.5170 
  249.8750     2.3240   -10.4230    64.0840    24.1320     5.5240     5.9430     7.2190 
  250.0000     2.3170   -10.4980    66.0410    23.9720     4.9940     5.7020     6.9280 
  250.1250     2.3040   -10.5620    67.5630    23.8010     4.5960     5.4870     6.6660 
  250.2500     2.2900   -10.6140    66.4580    23.6130     4.5240     5.2970     6.4090 
  250.3750     2.2830   -10.7070    61.3720    23.4710     4.7050     5.1280     6.1630 
  250.5000     2.2930   -10.9190    55.2870    23.3220     4.7620     4.9940     5.9730 
  250.6250     2.3170   -11.1540    56.8300    23.2290     4.5010     4.9510     5.9390 
  250.7500     2.3400   -11.3310    66.7990    23.3120     4.4550     5.0430     6.0990 
  250.8750     2.3500   -11.5260    80.5790    23.5220     5.1740     5.3040     6.4570 
  251.0000     2.3470   -11.6940    90.6910    23.7930     6.3630     5.7250     6.9510 
  251.1250     2.3390   -11.9030    94.8630    24.0760     7.0680     6.2280     7.4410 
  251.2500     2.3340   -12.0810    99.9620    24.3800     7.0250     6.6570     7.7850 
  251.3750     2.3320   -12.2640   107.9310    24.5780     6.7550     6.9140     7.9270 
  251.5000     2.3310   -12.4500   116.4700    24.5480     6.6340     6.9850     7.9040 
  251.6250     2.3340   -12.5920   120.5400    24.4080     6.7340     6.9490     7.8350 
  251.7500     2.3370   -12.7180   120.5460    24.3160     6.8650     6.9360     7.8480 
  251.8750     2.3380   -12.8630   118.8920    24.2400     6.9100     7.0170     7.9970 
  252.0000     2.3380   -13.0420   117.3420    24.1820     6.9070     7.2270     8.3070 
  252.1250     2.3360   -13.2130   115.4080    24.1320     7.0970     7.6360     8.8520 
  252.2500     2.3270   -13.4540   111.2970    24.0760     7.6490     8.2660     9.6600 
  252.3750     2.3140   -13.7130   107.0470    24.0130     8.5840     9.1630    10.7700 
  252.5000     2.3060   -13.9380   105.2730    23.9760     9.8240    10.3440    12.1770 
  252.6250     2.3020   -14.2540   104.9800    23.9640    11.8210    11.8370    13.8930 
  252.7500     2.2820   -14.6250   103.1650    23.9440    15.2340    13.6130    15.9140 
  252.8750     2.2440   -15.0090    99.4030    23.8630    19.2310    15.7780    18.3950 
  253.0000     2.2100   -15.3600    95.2000    23.6990    22.1680    18.5580    21.6280 
  253.1250     2.1990   -15.7030    92.4060    23.5650    25.7070    22.6630    26.3500 
  253.2500     2.2010   -16.0580    89.1410    23.4590    37.6180    28.5810    32.9220 
  253.3750     2.1990   -16.3590    84.2560    23.3400    55.0060    36.5200    41.5090 
  253.5000     2.1890   -16.6830    80.5150    23.2510    63.6280    45.7550    51.4010 
  253.6250     2.1710   -16.9760    80.0860    23.2010    59.2680    54.1480    60.2900 
  253.7500     2.1580   -17.2450    79.1990    23.2000    51.6810    60.0080    66.2360 
  253.8750     2.1530   -17.4860    76.3230    23.2230    46.3990    63.4680    69.5220 
  254.0000     2.1500   -17.7750    74.0580    23.2430    42.4680    66.3160    72.3280 
  254.1250     2.1390   -18.0900    75.7410    23.2500    44.5710    71.1820    77.4140 
  254.2500     2.1320   -18.3950    79.0710    23.2500    50.7630    78.3480    84.5820 
  254.3750     2.1400   -18.7270    80.6540    23.2500    56.6840    85.4620    89.3840 
  254.5000     2.1560   -19.0320    76.8800    23.2550    59.2830    89.3450    87.5390 
  254.6250     2.1650   -19.3060    70.5980    23.2650    58.8830    88.8580    82.1530 
  254.7500     2.1650   -19.5810    69.2500    23.2740    58.1280    87.1200    78.4620 
  254.8750     2.1590   -19.8420    71.8280    23.2800    56.9280    86.4910    77.8020 
  255.0000     2.1500   -20.0690    72.5980    23.3120    55.2670    88.1300    80.6250 
  255.1250     2.1410   -20.2820    72.6440    23.3610    53.4400    91.8910    87.5040 
  255.2500     2.1320   -20.4410    74.6640    23.3830    53.2320    95.8540    95.5240 
  255.3750     2.1190   -20.5630    75.4670    23.3870    55.1660    99.2400   101.1160 
  255.5000     2.1090   -20.6910    71.9530    23.3830    58.5280   103.0180   104.9950 
  255.6250     2.1140   -20.8090    66.5710    23.3440    58.7970   108.0630   109.5970 
  255.7500     2.1260   -20.8560    66.0800    23.2640    55.8870   113.6640   114.5430 
  255.8750     2.1290   -20.8710    70.4750    23.1440    48.7220   119.7600   119.8880 
  256.0000     2.1190   -20.8800    75.4090    22.9560    40.8860   126.8790   126.2050 
  256.1250     2.1170   -20.8480    73.9130    22.7600    42.7470   135.4100   134.9190 
  256.2500     2.1310   -20.7710    67.0740    22.9510    62.5740   143.4120   146.1640 
  256.3750     2.1470   -20.6700    62.2630    23.5850    98.5390   150.9750   155.2810 
  256.5000     2.1500   -20.5570    62.0390    24.5030   135.0760   154.2260   160.6240 
  256.6250     2.1450   -20.4090    64.1870    24.9580   145.4580   151.6370   160.1040 
  256.7500     2.1410   -20.2580    66.2020    25.0900   133.1280   146.7450   156.3780 
  256.8750     2.1390   -20.1390    68.3420    25.0670   114.3080   142.8890   152.7100 
  257.0000     2.1390   -20.0390    69.7670    25.0540   106.4680   142.1420   151.8150 
  257.1250     2.1440   -19.9820    67.9470    25.1190   118.0830   144.6280   154.6080 
  257.2500     2.1530   -19.9500    65.9200    25.2180   139.5900   147.3650   158.2850 
  257.3750     2.1720   -19.9410    64.8450    25.3050   163.6450   147.8470   160.1230 
