~V
VERS. 2.00: Ver 2.00
~W
STRT.M 57.0000:
STOP.M 208.0000:
STEP.M 0.1250:
NULL. -999.2500:
UWI. F10012:
~C
DEPT.M :
DEN.GM/CC :
SP.MV :
GR.API :
CALI.CM :
RXO.OHMM :
RI. :
RML.OHMM :
~A
# ...
   90.7500     1.9560   -17.6440    86.1210    23.3930    17.6140    17.0150    20.3100 
   90.8750     1.9420   -17.5570    81.7150    23.3080    17.1770    18.0730    21.5360 
   91.0000     1.9130   -17.5010    75.8940    23.1410    18.7520    19.6710    23.6730 
   91.1250     1.8770   -17.4200    74.6720    22.8080    24.3250    22.1600    26.9660 
   91.2500     1.8480   -17.3640    78.2930    22.2560    30.1690    25.4820    31.0510 
   91.3750     1.8380   -17.3120    81.2600    22.1770    31.4240    29.5560    35.6750 
   91.5000     1.8420   -17.1840    81.7670    22.8020    28.9810    34.3140    40.7610 
   91.6250     1.8580   -16.9690    81.5320    23.5670    31.9520    40.0640    46.7260 
   91.7500     1.8830   -16.7660    80.0770    24.0330    42.1080    46.9470    53.8420 
   91.8750     1.9110   -16.5900    76.6250    24.1100    55.3200    54.9420    62.1290 
   92.0000     1.9310   -16.4210    72.3730    24.0500    65.3030    63.4260    70.8890 
   92.1250     1.9400   -16.3110    68.9160    23.8720    68.4660    70.8230    78.1750 
   92.2500     1.9360   -16.2230    67.6030    23.6540    68.1890    76.0660    82.8960 
   92.3750     1.9190   -16.1390    69.2790    23.3790    66.8390    79.1830    85.4570 
   92.5000     1.9000   -16.0610    72.1900    22.9830    63.8660    81.1200    87.1540 
   92.6250     1.8880   -16.0160    75.4850    22.3710    56.2290    83.1150    89.2990 
   92.7500     1.8860   -16.0130    77.7900    21.8410    44.6230    85.8350    92.3610 
   92.8750     1.8960   -16.0370    76.8410    21.8760    35.6570    89.2260    96.1370 
   93.0000     1.9120   -16.0670    72.7070    22.6060    35.7930    92.7660    99.9330 
   93.1250     1.9200   -16.1570    69.2790    23.5850    47.8570    95.5070   102.5640 
   93.2500     1.9150   -16.2200    69.5410    24.1670    62.9060    96.9120   103.4760 
   93.3750     1.9020   -16.2690    72.8260    24.2660    71.9920    96.8870   102.6780 
   93.5000     1.8950   -16.3780    75.3000    24.2080    73.0170    95.8090   100.8530 
   93.6250     1.9000   -16.5890    75.8360    24.1570    73.1810    94.2150    98.8480 
   93.7500     1.9160   -16.8570    75.4890    24.1310    73.4990    92.5040    96.9650 
   93.8750     1.9450   -17.1530    74.2930    24.1190    75.8900    90.6220    94.9590 
   94.0000     1.9800   -17.4520    72.6090    24.1150    79.4670    88.3670    92.4830 
   94.1250     2.0110   -17.7040    71.4260    24.1250    77.9040    85.5480    89.3150 
   94.2500     2.0260   -18.0100    69.9050    24.1310    71.9190    82.5310    86.0290 
   94.3750     2.0230   -18.3440    67.8790    24.1330    66.2090    79.8940    83.4010 
   94.5000     2.0170   -18.6230    68.1610    24.1360    64.0810    78.1610    81.9990 
   94.6250     2.0150   -18.7820    70.7990    24.1420    64.3940    77.6110    81.9540 
   94.7500     2.0160   -18.8580    73.6560    24.1160    63.8760    77.7090    82.4710 
   94.8750     2.0200   -18.8930    74.8920    23.9820    61.1010    77.9510    82.8250 
   95.0000     2.0310   -18.9340    76.0700    23.6570    56.6500    77.8590    82.3840 
   95.1250     2.0480   -18.9730    76.9490    23.1880    51.9390    76.9420    80.6620 
   95.2500     2.0650   -18.9340    76.6850    22.5280    50.8290    75.1760    78.0610 
   95.3750     2.0680   -18.8780    76.5370    22.0200    51.5000    72.5560    74.8870 
   95.5000     2.0610   -18.8670    76.6700    21.6970    51.0860    69.0630    71.0790 
   95.6250     2.0550   -18.9280    76.3770    21.5640    47.6820    64.5580    66.1230 
   95.7500     2.0590   -18.9830    75.3170    21.5700    42.7590    59.3730    60.1230 
   95.8750     2.0710   -19.0240    76.1050    21.6910    37.8990    53.9160    53.6420 
   96.0000     2.0770   -19.0080    79.3620    21.9180    33.5950    48.7460    47.6790 
   96.1250     2.0760   -18.9420    81.4980    22.2950    29.7170    44.6420    43.4880 
   96.2500     2.0780   -18.9160    80.3820    22.8050    27.0910    41.7830    41.1000 
   96.3750     2.0940   -18.8490    77.9540    23.3340    26.4110    40.0350    40.0400 
   96.5000     2.1180   -18.7820    76.7690    23.7120    27.4540    38.9380    39.4920 
   96.6250     2.1370   -18.7820    76.7120    23.7090    28.4460    37.7950    38.5080 
   96.7500     2.1420   -18.7670    77.3760    23.4480    27.7060    36.0930    36.6400 
   96.8750     2.1270   -18.7470    78.8510    23.4490    24.5120    33.7790    33.9970 
   97.0000     2.1030   -18.8310    79.1750    23.6760    20.6760    31.1890    31.1100 
   97.1250     2.0790   -18.9740    76.7280    23.8350    18.9890    28.9830    28.8080 
   97.2500     2.0710   -19.1330    72.6110    23.3830    19.4110    27.6930    27.6750 
   97.3750     2.1030   -19.3600    69.6830    22.5090    19.6110    27.8390    28.2450 
   97.5000     2.1740   -19.5690    69.3710    21.8030    18.6170    30.1270    31.0630 
   97.6250     2.2720   -19.7400    70.0330    21.4290    17.9570    35.8560    37.0480 
   97.7500     2.3750   -20.0200    71.1380    21.2380    19.9670    44.1740    45.1490 
   97.8750     2.4470   -20.3370    74.2800    21.1390    24.6990    52.0390    52.0540 
   98.0000     2.4620   -20.6000    78.6720    21.1610    28.8530    53.7930    51.7720 
   98.1250     2.4200   -20.8600    84.6460    21.3030    26.4870    44.9710    41.3430 
   98.2500     2.3430   -21.0940    92.4990    21.6090    19.7980    32.4450    29.1260 
   98.3750     2.2690   -21.3410   100.0240    22.0160    13.0210    21.8920    19.8280 
   98.5000     2.2180   -21.6060   104.4500    22.3020     9.0170    15.0960    14.1630 
   98.6250     2.1940   -21.8360   105.3780    22.3740     7.9720    11.7000    11.5630 
   98.7500     2.1920   -21.9810   104.4460    22.2750     7.7000    10.0130    10.5320 
   98.8750     2.2010   -22.0390   106.2540    21.9510     7.7460     9.3300    10.3390 
   99.0000     2.2140   -22.0090   112.0440    21.5060     7.6980     9.1560    10.3680 
   99.1250     2.2280   -21.8940   117.8210    21.1430     7.3240     9.0390    10.0880 
   99.2500     2.2430   -21.7220   119.9530    21.0810     6.9470     8.7260     9.4520 
   99.3750     2.2520   -21.4860   118.5620    21.3340     6.8050     8.2580     8.6780 
   99.5000     2.2560   -21.2590   115.9240    21.6510     6.8630     7.8020     8.0450 
   99.6250     2.2590   -21.0650   111.6920    22.0370     6.8540     7.6190     7.8680 
   99.7500     2.2620   -20.9080   106.8430    22.5790     7.1760     7.8640     8.2460 
   99.8750     2.2540   -20.8150   104.4720    23.0580     8.5240     8.6530     9.2430 
  100.0000     2.2240   -20.7950   103.8870    23.3170    10.8440    10.0200    10.8330 
  100.1250     2.1840   -20.8440   103.8370    23.4070    12.8760    11.8660    12.8400 
  100.2500     2.1610   -20.9500   103.5570    23.4090    13.9230    13.6060    14.6510 
  100.3750     2.1750   -21.0850   106.7760    23.3530    13.9210    14.5330    15.5870 
  100.5000     2.2040   -21.2220   113.3040    23.2530    12.6240    14.1810    15.2350 
  100.6250     2.2240   -21.3380   117.3910    23.1230    10.7140    12.6940    13.7810 
  100.7500     2.2280   -21.3680   114.6010    22.9370     9.1090    10.9650    12.1370 
  100.8750     2.2350   -21.3530   109.6340    22.8020     7.9460     9.4550    10.7880 
  101.0000     2.2480   -21.3500   109.6340    22.8010     7.0610     8.3520     9.9130 
  101.1250     2.2530   -21.3390   112.5360    22.7560     6.7720     7.7370     9.5480 
  101.2500     2.2430   -21.3130   113.4300    22.5740     6.8130     7.4670     9.4890 
  101.3750     2.2220   -21.2460   112.1050    22.4230     6.9530     7.4620     9.6280 
  101.5000     2.2000   -21.0880   111.9580    22.3690     7.0820     7.6820     9.9380 
  101.6250     2.1760   -20.9180   112.4600    22.3290     7.4210     8.2210    10.5860 
  101.7500     2.1500   -20.7610   110.8680    22.1800     8.1940     9.1920    11.7760 
  101.8750     2.1220   -20.5590   106.0030    21.8860     9.3860    10.8050    13.8070 
