~V
VERS. 2.00: Ver 2.00
~W
STRT.M 50.0000:
STOP.M 244.0000:
STEP.M 0.1250:
NULL. -999.2500:
UWI. F10003:
~C
DEPT.M :
GR.API :
RML.OHMM :
RI. :
RXO.OHMM :
CALI.CM :
DEN.GM/CC :
SP.MV :
~A
# ...
  196.2500    64.6620    72.3220    68.2450    61.0890    24.4840     2.3090   -19.6070 
  196.3750    63.5840    75.1390    70.6720    60.5040    24.4970     2.2950   -19.5290 
  196.5000    61.2820    79.5960    74.7820    62.7630    24.5280     2.2810   -19.4620 
  196.6250    58.8590    84.6790    79.7620    65.7120    24.5310     2.2710   -19.4170 
  196.7500    57.9680    89.1130    84.3480    66.4650    24.5120     2.2640   -19.3240 
  196.8750    58.0490    92.2300    87.7850    67.3950    24.4960     2.2610   -19.2480 
  197.0000    58.4070    94.0540    89.9140    69.3540    24.5050     2.2600   -19.2400 
  197.1250    59.1420    95.4640    91.3630    71.2010    24.5340     2.2610   -19.1590 
  197.2500    59.4820    97.8750    93.4920    72.8090    24.5420     2.2630   -19.0280 
  197.3750    58.1160   102.1890    97.2760    75.3130    24.5290     2.2650   -18.9530 
  197.5000    56.2740   108.6670   103.1370    77.7450    24.4920     2.2670   -18.9080 
  197.6250    57.2850   117.1000   111.0510    77.8440    24.4380     2.2700   -18.8080 
  197.7500    58.6210   125.9860   119.8070    77.0560    24.3440     2.2730   -18.7050 
  197.8750    58.1430   134.0560   128.2850    73.1780    24.1820     2.2770   -18.6210 
  198.0000    56.8730   140.2140   135.2340    65.8170    23.8790     2.2800   -18.5640 
  198.1250    56.4800   142.5450   138.7050    62.5390    23.4470     2.2820   -18.5340 
  198.2500    56.3870   141.1020   137.9580    61.4380    23.2780     2.2810   -18.4950 
  198.3750    55.2450   135.5130   132.4950    62.0890    23.5720     2.2760   -18.4470 
  198.5000    55.0560   126.1620   122.7930    63.5260    24.1150     2.2680   -18.3840 
  198.6250    55.8820   114.5670   110.4300    61.6340    24.3760     2.2620   -18.3260 
  198.7500    57.3170   101.1120    98.5200    58.0420    24.4780     2.2610   -18.2670 
  198.8750    59.5310    91.1550    89.1770    53.5920    24.5330     2.2630   -18.1950 
  199.0000    61.2790    85.6030    83.5840    51.8710    24.5990     2.2680   -18.0460 
  199.1250    60.5180    84.5820    82.2770    55.8880    24.6260     2.2720   -17.9190 
  199.2500    58.4680    85.7880    83.3830    62.1450    24.6090     2.2730   -17.8460 
  199.3750    58.0520    87.2900    85.1850    69.0650    24.5860     2.2700   -17.7240 
  199.5000    60.2810    87.2830    85.9190    75.6940    24.5650     2.2660   -17.5370 
  199.6250    61.0660    84.2240    83.8740    76.0420    24.5410     2.2630   -17.4270 
  199.7500    57.1350    78.9650    79.5090    70.3150    24.5940     2.2620   -17.3650 
  199.8750    51.3780    73.1450    74.1760    65.1730    24.6530     2.2640   -17.2440 
  200.0000    50.3550    68.9730    69.9030    61.0750    24.6800     2.2680   -17.1500 
  200.1250    56.3540    69.1480    69.3860    61.0000    24.6610     2.2720   -17.0910 
  200.2500    61.4380    73.7330    73.1250    66.1330    24.6110     2.2720   -16.9930 
  200.3750    61.6900    81.8710    80.4070    83.3110    24.5700     2.2630   -16.9040 
  200.5000    58.0650    90.8130    88.8920   112.0490    24.5650     2.2460   -16.8790 
  200.6250    54.9790    96.7330    94.1330   143.4240    24.5920     2.2240   -16.7780 
  200.7500    55.0650    96.4580    93.2370   164.0820    24.6120     2.2050   -16.6060 
  200.8750    57.3690    90.3470    85.9380   151.4300    24.6190     2.1970   -16.4940 
  201.0000    58.4060    81.3210    75.0620   105.5670    24.6200     2.2040   -16.4190 
  201.1250    57.0570    71.2480    65.5150    72.8320    24.6200     2.2220   -16.2820 
  201.2500    57.2900    66.2640    60.1930    60.7030    24.6190     2.2440   -16.1700 
  201.3750    59.9220    66.7760    59.7030    62.4520    24.6180     2.2620   -16.1270 
  201.5000    61.5310    71.8380    63.5080    71.2080    24.6160     2.2730   -16.0740 
  201.6250    59.3150    79.9070    70.6400    82.4720    24.5970     2.2750   -16.0310 
  201.7500    55.6330    88.1500    78.5910    92.3610    24.5280     2.2730   -16.0300 
  201.8750    54.4750    94.5760    85.4200    97.7290    24.4230     2.2670   -16.0530 
  202.0000    55.4340    97.9100    89.6620    95.9130    24.3910     2.2610   -16.0660 
  202.1250    54.6230    97.6300    90.4880    95.8320    24.3600     2.2560   -16.0700 
  202.2500    51.5730    95.4560    89.2830    96.6680    24.3170     2.2560   -16.0740 
  202.3750    49.5070    92.7210    87.2050    94.9600    24.3220     2.2620   -16.0230 
  202.5000    51.3750    90.2870    85.0640    89.6490    24.4280     2.2710   -15.9050 
  202.6250    55.3950    88.1410    82.9140    84.3070    24.4900     2.2790   -15.8480 
  202.7500    56.8230    85.3580    80.0760    83.4030    24.4850     2.2810   -15.8000 
  202.8750    53.7020    81.1280    75.8820    82.9340    24.4440     2.2760   -15.6600 
  203.0000    48.9530    75.2850    70.2180    81.9190    24.4190     2.2690   -15.4990 
  203.1250    49.8230    68.6660    63.8290    77.4500    24.4660     2.2710   -15.3840 
  203.2500    55.0820    62.9900    58.2220    67.6490    24.5390     2.2840   -15.2480 
  203.3750    58.4600    59.5040    54.4660    54.4530    24.6190     2.3060   -15.1340 
  203.5000    57.7890    58.8710    53.1610    46.3840    24.6220     2.3300   -15.0940 
  203.6250    56.2490    61.6680    54.9320    49.1470    24.5450     2.3420   -14.9810 
  203.7500    55.8280    67.1910    59.2950    52.0420    24.4710     2.3390   -14.8060 
  203.8750    54.7730    75.2740    66.1940    58.1690    24.4820     2.3230   -14.6770 
  204.0000    52.7390    85.9380    75.6490    71.2690    24.5350     2.3010   -14.5730 
  204.1250    50.2430   100.0140    88.2980    97.3260    24.5370     2.2830   -14.4200 
  204.2500    46.9680   117.3240   103.7960   129.0620    24.5370     2.2770   -14.2510 
  204.3750    44.5730   137.2180   121.5260   162.1580    24.5080     2.2820   -14.0780 
  204.5000    45.9880   157.3570   139.4860   188.0170    24.4520     2.2940   -13.9050 
  204.6250    50.4840   172.0320   152.7450   193.7510    24.4510     2.2990   -13.7380 
  204.7500    52.9990   176.0110   157.0490   195.9190    24.5440     2.2870   -13.6140 
  204.8750    52.8520   166.3050   149.7530   203.0880    24.5170     2.2600   -13.5220 
  205.0000    51.7870   143.7250   131.6250   194.3270    24.3120     2.2280   -13.4260 
  205.1250    52.0440   114.7540   107.0680   156.6160    24.2280     2.2140   -13.3280 
  205.2500    55.0310    87.5860    83.7340   107.0890    24.3230     2.2260   -13.2330 
  205.3750    62.0280    66.5240    65.4650    66.0810    24.3990     2.2670   -13.1470 
  205.5000    70.9550    54.1310    53.3120    46.3940    24.3990     2.3260   -13.0150 
  205.6250    74.9270    48.3760    47.1760    44.8340    24.3510     2.3880   -12.8880 
  205.7500    72.9950    46.3360    44.7260    50.3690    24.3390     2.4370   -12.7910 
  205.8750    69.4410    46.9350    44.9020    57.0810    24.3310     2.4690   -12.6530 
  206.0000    67.2010    49.3300    46.9080    58.2980    24.3030     2.4870   -12.4330 
  206.1250    66.7040    52.9080    50.1670    59.1240    24.2190     2.4970   -12.2920 
  206.2500    67.8330    56.7990    53.7840    57.1230    24.2070     2.5050   -12.2000 
  206.3750    69.9960    60.4630    57.1860    55.3990    24.2310     2.5140   -12.0620 
  206.5000    70.3650    63.5090    59.9380    55.2560    24.2340     2.5280   -11.9660 
  206.6250    68.4780    65.6900    61.7220    59.8900    24.2030     2.5550   -11.9140 
  206.7500    69.3740    67.3740    62.8610    63.7860    24.1410     2.5870   -11.8130 
  206.8750    73.4350    68.9830    63.7520    64.9160    24.1470     2.6120   -11.7300 
  207.0000    75.6790    70.9060    64.8200    67.0570    24.1740     2.6180   -11.7320 
  207.1250    72.5260    73.4340    66.4560    76.6450    24.0740     2.5980   -11.6750 
  207.2500    68.6330    76.4920    68.6950    88.6040    23.9660     2.5650   -11.5750 
  207.3750    67.5680    80.1160    71.5890   103.4620    24.0290     2.5360   -11.5260 
