~V
VERS. 2.00: Ver 2.00
~W
STRT.M 60.0000:
STOP.M 262.0000:
STEP.M 0.1250:
NULL. -999.2500:
UWI. F10018:
~C
DEPT.M :
GR.API :
RML.OHMM :
RI. :
RXO.OHMM :
CALI.CM :
DEN.GM/CC :
SP.MV :
~A
# ...
  127.5000    87.7890     7.9410     6.9280     6.8770    24.3090     2.3350    -2.4420 
  127.6250    88.6790     7.8140     6.7870     7.1550    24.3950     2.3520    -2.3390 
  127.7500    89.6600     7.7100     6.6760     7.3860    24.4960     2.3590    -2.3060 
  127.8750    92.3620     7.5820     6.5630     7.2490    24.5370     2.3580    -2.2800 
  128.0000    95.6870     7.4220     6.4330     7.2410    24.5390     2.3520    -2.2540 
  128.1250    95.0260     7.2700     6.3100     7.2820    24.5670     2.3440    -2.2070 
  128.2500    90.9990     7.2170     6.2530     7.3090    24.6150     2.3390    -2.0960 
  128.3750    87.9710     7.3620     6.3390     7.4380    24.6520     2.3330    -1.9400 
  128.5000    88.1010     7.7520     6.6190     7.9290    24.6450     2.3210    -1.8140 
  128.6250    88.4230     8.3580     7.1010     8.6520    24.6330     2.2990    -1.7080 
  128.7500    85.7210     8.9890     7.6530     9.1700    24.6350     2.2760    -1.5570 
  128.8750    81.5540     9.4920     8.1470     9.9950    24.6670     2.2640    -1.3430 
  129.0000    79.0140     9.7650     8.4790    10.5470    24.6840     2.2670    -1.0620 
  129.1250    80.1030     9.7770     8.5790     9.7960    24.6150     2.2810    -0.8080 
  129.2500    81.6160     9.6740     8.5370     8.7720    24.4540     2.2900    -0.6130 
  129.3750    81.9850     9.5520     8.4290     9.0950    24.3030     2.2880    -0.4470 
  129.5000    81.8570     9.4500     8.3020     9.8140    24.2840     2.2780    -0.3110 
  129.6250    81.4980     9.3950     8.1960     9.7320    24.3190     2.2720    -0.1750 
  129.7500    80.9220     9.4170     8.1470     9.0920    24.3450     2.2710    -0.0140 
  129.8750    81.0290     9.5380     8.1740     8.7690    24.3220     2.2690     0.1430 
  130.0000    81.2500     9.7410     8.2640     9.0140    24.2670     2.2600     0.3120 
  130.1250    80.6200     9.9430     8.3690     9.5340    24.2510     2.2440     0.5220 
  130.2500    79.3680    10.0350     8.4210     9.9810    24.2050     2.2320     0.7520 
  130.3750    77.5780    10.0060     8.4140    10.2880    24.0110     2.2300     0.9630 
  130.5000    75.9140    10.0030     8.4370     9.8690    23.6980     2.2350     1.2020 
  130.6250    76.1750    10.4110     8.7320     9.8490    23.5190     2.2340     1.5160 
  130.7500    74.9680    11.5100     9.4940    11.3680    23.7040     2.2210     1.9160 
  130.8750    69.8160    13.4800    10.9020    15.3920    24.2330     2.1960     2.4540 
  131.0000    62.3090    16.3080    13.0600    23.0160    24.7490     2.1670     3.1050 
  131.1250    59.5090    19.7040    15.9380    26.9520    24.9400     2.1460     3.7800 
  131.2500    61.3630    22.9130    18.9460    29.4920    24.9660     2.1380     4.4350 
  131.3750    62.8220    25.3720    21.5150    31.2530    25.0400     2.1410     5.0900 
  131.5000    60.9490    26.9100    23.3110    31.2760    25.1540     2.1510     5.7300 
  131.6250    56.5330    27.7540    24.3420    30.7580    25.1630     2.1600     6.3430 
  131.7500    53.6160    28.4340    25.0550    30.8440    25.0810     2.1630     6.8650 
  131.8750    53.0910    29.1010    25.6440    31.4390    25.0210     2.1580     7.2160 
  132.0000    53.5750    29.7030    26.1430    31.8060    25.0250     2.1490     7.3820 
  132.1250    53.6550    30.1030    26.4860    31.2550    25.0620     2.1400     7.4570 
  132.2500    51.9900    30.2710    26.6440    31.1340    25.1440     2.1350     7.5470 
  132.3750    50.1960    30.1920    26.6010    30.9800    25.3090     2.1360     7.6710 
  132.5000    50.9260    29.8850    26.3710    30.9240    25.4560     2.1420     7.8020 
  132.6250    55.1810    29.3610    25.9770    30.0030    25.4340     2.1540     7.8380 
  132.7500    60.5150    28.7400    25.5150    29.4890    25.3790     2.1670     7.8070 
  132.8750    64.5730    28.1690    25.0940    29.5680    25.3300     2.1790     7.7390 
  133.0000    65.7130    27.8390    24.8540    29.9920    25.3510     2.1850     7.6630 
  133.1250    63.1930    27.9570    24.9770    29.3950    25.4810     2.1810     7.6580 
  133.2500    58.7100    28.3990    25.4000    28.2390    25.7260     2.1700     7.6810 
  133.3750    53.6300    28.9000    25.9410    29.1760    25.9180     2.1580     7.6990 
  133.5000    49.5110    29.0750    26.2890    32.0180    26.0080     2.1500     7.7230 
  133.6250    49.2740    28.4580    26.0110    32.5990    25.8560     2.1490     7.7640 
  133.7500    52.7490    27.1650    25.1210    29.7050    25.6540     2.1520     7.8140 
  133.8750    56.7550    25.5530    23.8620    25.4170    25.4490     2.1550     7.8390 
  134.0000    58.6860    24.0800    22.6030    22.5660    25.2300     2.1530     7.8170 
  134.1250    60.2180    23.1790    21.7120    21.7500    25.0000     2.1470     7.7250 
  134.2500    62.5410    22.8190    21.2420    22.1090    24.8780     2.1410     7.6210 
  134.3750    64.5550    22.8020    21.0920    23.4960    24.8380     2.1390     7.5440 
  134.5000    64.9920    22.8020    21.0340    25.4240    24.8380     2.1400     7.4660 
  134.6250    63.9140    22.4720    20.7810    26.5480    24.8550     2.1410     7.3410 
  134.7500    63.1860    21.8430    20.2930    26.0650    24.8670     2.1450     7.1810 
  134.8750    62.8680    21.1610    19.7320    24.0530    24.8600     2.1540     7.0550 
  135.0000    62.8530    20.7860    19.3740    21.8660    24.8660     2.1720     7.0500 
  135.1250    61.8310    21.1870    19.6060    21.7440    24.9570     2.1950     7.1730 
  135.2500    59.5610    22.4160    20.5150    23.2090    25.1090     2.2070     7.3520 
  135.3750    58.0320    24.3720    22.0730    25.5980    25.3800     2.1940     7.5650 
  135.5000    56.8300    26.7250    24.0610    27.3920    25.8450     2.1540     7.8170 
  135.6250    54.7080    28.8220    25.9790    28.8920    26.4510     2.0950     8.1290 
  135.7500    52.1720    30.0720    27.2620    29.9750    26.7620     2.0420     8.4910 
  135.8750    50.5560    30.2170    27.6070    30.2800    26.6380     2.0130     8.8390 
  136.0000    50.5100    29.4120    27.0670    28.2270    26.2310     2.0160     9.0820 
  136.1250    52.2760    28.1000    25.9560    26.0750    25.8160     2.0490     9.1640 
  136.2500    54.5770    26.8970    24.8220    27.1240    25.6700     2.0920     9.1090 
  136.3750    55.4120    26.1350    23.9750    26.9700    25.6330     2.1360     8.9440 
  136.5000    54.0520    25.9920    23.6050    25.6900    25.5950     2.1720     8.7460 
  136.6250    53.8980    26.5950    23.8800    25.1720    25.5510     2.1910     8.6100 
  136.7500    56.2950    27.6600    24.6450    26.7270    25.5370     2.1880     8.5190 
  136.8750    57.8390    28.8740    25.7100    29.5290    25.5650     2.1620     8.4980 
  137.0000    55.9810    29.8810    26.8050    33.2050    25.6030     2.1190     8.5530 
  137.1250    53.1730    30.3490    27.6300    34.6630    25.5360     2.0780     8.6550 
  137.2500    52.4620    30.3810    28.1460    30.6050    25.3820     2.0570     8.7610 
  137.3750    53.0030    30.2170    28.4640    27.5150    25.2140     2.0590     8.8260 
  137.5000    54.3800    30.1390    28.7640    27.2190    25.1080     2.0760     8.7810 
  137.6250    56.1570    30.2160    29.1020    28.5200    25.1510     2.0970     8.5940 
  137.7500    57.3810    29.9430    29.0800    30.1780    25.2420     2.1130     8.3560 
  137.8750    56.8020    28.5860    28.0030    30.4550    25.2980     2.1270     8.0130 
  138.0000    55.8310    25.6960    25.3870    28.5850    25.2690     2.1400     7.5150 
  138.1250    57.3420    21.5330    21.4500    25.8530    25.1460     2.1550     6.8560 
  138.2500    61.6860    17.3720    17.4650    20.1280    24.9270     2.1670     6.1140 
  138.3750    68.8230    14.0350    14.2020    12.9030    24.6190     2.1720     5.3600 
  138.5000    75.8380    11.8730    11.9580     9.4920    24.4750     2.1710     4.7070 
  138.6250    77.2580    11.0120    10.8440     9.3390    24.5520     2.1650     4.1790 
