~V
VERS. 2.00: Ver 2.00
~W
STRT.M 50.0000:
STOP.M 313.0000:
STEP.M 0.1250:
NULL. -999.2500:
UWI. F10034:
~C
DEPT.M :
GR.API :
RML.OHMM :
RI. :
RXO.OHMM :
CALI.CM :
DEN.GM/CC :
SP.MV :
~A
# ...
  252.5000    50.6700    70.9480    62.4050    71.5160    24.0870     2.2840   -14.7560 
  252.6250    50.4150    72.2510    63.4490    74.5830    24.0340     2.3020   -14.7940 
  252.7500    50.0850    72.7780    63.9340    77.9130    23.9890     2.3070   -14.7750 
  252.8750    51.1160    71.8250    63.3670    78.0030    23.9610     2.2960   -14.7050 
  253.0000    51.9130    68.8760    61.3100    71.7140    23.9280     2.2730   -14.5990 
  253.1250    50.2130    63.8260    57.5500    64.9280    23.9080     2.2490   -14.4420 
  253.2500    48.5110    58.0350    53.0620    58.7960    23.9010     2.2330   -14.2510 
  253.3750    49.8810    52.8760    48.9260    52.6460    23.9020     2.2230   -14.0430 
  253.5000    53.7310    49.7800    46.3680    49.1230    23.9040     2.2210   -13.8310 
  253.6250    55.2850    50.7910    47.2240    50.2850    23.9090     2.2370   -13.5840 
  253.7500    53.7610    56.0380    51.7880    57.1890    23.9140     2.2850   -13.3190 
  253.8750    52.6170    64.7030    59.5080    71.7960    23.9160     2.3740   -13.0490 
  254.0000    53.9330    74.1140    68.1350    93.1780    23.8940     2.5080   -12.7710 
  254.1250    54.6040    78.6750    72.6890   114.8740    23.8340     2.6420   -12.5160 
  254.2500    51.8210    74.4790    69.4320   124.1990    23.7820     2.7220   -12.2860 
  254.3750    47.4220    60.9670    57.5520   114.2590    23.7330     2.7160   -12.0840 
  254.5000    46.3430    42.6690    40.8870    84.9800    23.6500     2.6970   -11.8810 
  254.6250    51.2550    27.1220    26.3770    45.0770    23.5600     2.6660   -11.6910 
  254.7500    58.3130    16.8130    16.6240    21.1560    23.5260     2.6220   -11.4880 
  254.8750    62.6570    10.8790    10.8780    10.1050    23.5450     2.5670   -11.2860 
  255.0000    60.0860     7.8720     7.7850     6.6230    23.5780     2.5110   -11.1260 
  255.1250    52.2060     6.7970     6.4670     6.1470    23.5670     2.4730   -10.9930 
  255.2500    47.5510     6.5690     6.0030     6.2390    23.5650     2.4540   -10.8820 
  255.3750    48.2360     6.7560     6.0340     6.4370    23.5780     2.4480   -10.8040 
  255.5000    50.1630     7.0860     6.2980     6.6410    23.6150     2.4480   -10.7610 
  255.6250    49.4580     7.3860     6.5910     6.7750    23.6400     2.4500   -10.7690 
  255.7500    47.5220     7.6120     6.8010     6.8160    23.6430     2.4510   -10.8530 
  255.8750    45.7580     7.7640     6.9140     6.8320    23.6040     2.4520   -10.9790 
  256.0000    45.6140     7.8310     6.9590     6.8840    23.5240     2.4530   -11.0860 
  256.1250    46.9110     7.8270     6.9700     6.9430    23.4820     2.4530   -11.1450 
  256.2500    46.8130     7.8060     6.9790     7.0860    23.4610     2.4500   -11.1660 
  256.3750    43.9030     7.7680     6.9910     7.3700    23.4810     2.4470   -11.1420 
  256.5000    40.3480     7.7130     6.9960     7.6200    23.5470     2.4430   -11.1000 
  256.6250    39.9240     7.6620     6.9740     7.6920    23.6780     2.4420   -11.0240 
  256.7500    42.0630     7.5830     6.9190     7.6960    23.7770     2.4440   -10.8960 
  256.8750    44.3970     7.4730     6.8330     7.6710    23.8260     2.4490   -10.7360 
  257.0000    43.8030     7.3810     6.7310     7.6080    23.8360     2.4530   -10.5710 
  257.1250    42.8400     7.3710     6.6390     7.5250    23.7900     2.4560   -10.4320 
  257.2500    44.5350     7.4070     6.5780     7.4890    23.7030     2.4560   -10.3210 
  257.3750    47.8460     7.4870     6.5540     7.5210    23.5960     2.4560   -10.2330 
  257.5000    50.4250     7.6000     6.5630     7.5800    23.4990     2.4570   -10.1570 
  257.6250    50.2450     7.7330     6.5860     7.5100    23.4850     2.4620   -10.1390 
  257.7500    47.9810     7.7760     6.5930     7.4280    23.5770     2.4690   -10.1760 
  257.8750    45.7520     7.7710     6.5630     7.4280    23.6370     2.4750   -10.2450 
  258.0000    46.6940     7.7100     6.4840     7.5420    23.5010     2.4790   -10.3480 
  258.1250    48.4430     7.5910     6.3560     7.7390    23.3420     2.4810   -10.4700 
  258.2500    46.6200     7.4360     6.2040     7.9000    23.2480     2.4820   -10.5840 
  258.3750    44.0060     7.2590     6.0490     7.7800    23.0380     2.4820   -10.6830 
  258.5000    44.6380     7.0860     5.9160     7.0910    22.7770     2.4780   -10.7710 
  258.6250    46.8970     6.9800     5.8510     6.5320    22.6940     2.4710   -10.8270 
  258.7500    45.6660     7.0040     5.8910     6.3710    22.8000     2.4690   -10.8570 
  258.8750    44.1250     7.2180     6.0740     6.5940    22.9380     2.4760   -10.8720 
  259.0000    47.9470     7.6510     6.4310     7.1030    23.0200     2.4950   -10.8450 
  259.1250    58.5150     8.2990     6.9760     7.8180    23.0700     2.5190   -10.7390 
  259.2500    68.9990     9.0020     7.6030     8.4990    23.1180     2.5360   -10.5840 
  259.3750    73.5600     9.5900     8.1820     9.0420    23.1380     2.5400   -10.4010 
  259.5000    73.0400     9.8940     8.5640     9.6090    23.1330     2.5270   -10.1940 
  259.6250    73.4530     9.7490     8.5780     9.8500    23.1060     2.4990    -9.9410 
  259.7500    76.8540     9.2760     8.2830     9.4780    23.0990     2.4650    -9.6670 
  259.8750    79.9500     8.6380     7.7940     8.5410    23.1910     2.4300    -9.3650 
  260.0000    80.8010     8.0240     7.2690     7.6380    23.4050     2.3990    -9.0600 
  260.1250    82.7020     7.6090     6.8600     7.1860    23.6450     2.3800    -8.8030 
  260.2500    85.1350     7.4090     6.6110     7.0340    23.8570     2.3740    -8.5880 
  260.3750    85.4030     7.3850     6.5070     6.9690    23.9770     2.3810    -8.4100 
  260.5000    83.0230     7.4600     6.4930     6.9100    24.0060     2.3970    -8.2740 
  260.6250    78.8130     7.5160     6.4810     6.8420    23.9840     2.4200    -8.2080 
  260.7500    77.0140     7.4540     6.3860     6.7780    23.9720     2.4410    -8.1900 
  260.8750    78.9470     7.2280     6.1680     6.7370    23.9690     2.4520    -8.2270 
  261.0000    82.0290     6.8680     5.8410     6.5700    23.9690     2.4470    -8.3000 
  261.1250    81.1480     6.5350     5.5080     6.3400    23.9680     2.4260    -8.4200 
  261.2500    78.0550     6.4840     5.3480     6.4520    23.9660     2.4060    -8.6030 
  261.3750    78.4810     6.9520     5.5400     7.5000    23.9640     2.3990    -8.8420 
  261.5000    81.1410     8.0850     6.2270    10.1580    23.9610     2.4140    -9.1380 
  261.6250    77.8550     9.9570     7.5610    14.4630    23.9580     2.4450    -9.4700 
  261.7500    68.5880    12.2060     9.3590    19.3800    23.9470     2.4690    -9.8190 
  261.8750    60.8040    14.4920    11.4060    23.1630    23.9270     2.4680   -10.2010 
  262.0000    59.2480    16.5210    13.4320    23.0690    23.9200     2.4370   -10.6230 
  262.1250    60.1610    18.1930    15.2060    21.0210    23.9430     2.3860   -11.0820 
  262.2500    62.6420    19.8370    16.8380    21.5200    23.9560     2.3380   -11.5360 
  262.3750    67.7120    21.7940    18.5680    24.7350    23.9590     2.3010   -11.9710 
  262.5000    70.9000    24.2660    20.6210    29.3680    23.9590     2.2750   -12.3580 
  262.6250    67.1540    27.2550    23.1070    34.0450    23.9590     2.2590   -12.6820 
  262.7500    60.8630    30.4030    25.7980    37.5570    23.9590     2.2470   -12.9600 
  262.8750    56.3870    33.4540    28.4670    39.3250    23.9590     2.2400   -13.1740 
  263.0000    53.9490    36.2640    30.9540    39.9360    23.9590     2.2370   -13.3240 
  263.1250    53.7660    38.7430    33.1540    41.0860    23.9590     2.2360   -13.4090 
  263.2500    55.6480    40.8580    35.0670    43.1570    23.9590     2.2360   -13.4500 
  263.3750    57.4770    42.4530    36.5960    45.4110    23.9590     2.2370   -13.4440 
  263.5000    58.1170    43.4190    37.6460    46.5280    23.9590     2.2380   -13.4110 
  263.6250    57.6140    43.8640    38.2500    45.5040    23.9390     2.2400   -13.3760 
