~V
VERS. 2.00: Ver 2.00
~W
STRT.M 63.0000:
STOP.M 195.0000:
STEP.M 0.1250:
NULL. -999.2500:
UWI. F10020:
~C
DEPT.M :
GR.API :
CALI.CM :
RXO.OHMM :
RI. :
RML.OHMM :
DEN.GM/CC :
SP.MV :
~A
# ...
   96.7500   105.6280    24.1180     8.8690     8.7150    10.9130     2.2750   -25.7570 
   96.8750   103.6210    24.1630    10.7750    10.2010    13.0210     2.2490   -25.6700 
   97.0000   101.0120    24.2730    14.7510    12.9230    16.7310     2.2160   -25.5470 
   97.1250    94.2080    24.4740    22.7790    18.1260    23.1880     2.1840   -25.4310 
   97.2500    84.6640    24.7770    35.2330    26.4550    32.7950     2.1610   -25.3580 
   97.3750    78.1030    25.0800    52.2790    38.0210    45.6760     2.1430   -25.2570 
   97.5000    76.5490    25.2240    69.9360    51.0820    60.1400     2.1240   -25.1930 
   97.6250    75.4110    25.2020    80.2990    61.2420    70.8930     2.1040   -25.1240 
   97.7500    72.3880    25.1030    82.8390    66.1610    74.8950     2.0900   -25.0770 
   97.8750    71.0610    25.0070    79.7840    66.3730    73.4470     2.0770   -25.0620 
   98.0000    72.3130    24.9580    72.1270    63.9300    69.7960     2.0630   -25.0830 
   98.1250    72.4350    24.9170    63.1730    60.8240    66.3900     2.0550   -25.1170 
   98.2500    71.3100    24.8370    57.8070    58.0430    63.6570     2.0620   -25.0980 
   98.3750    71.6220    24.7500    56.1500    55.4950    61.1240     2.0750   -25.0570 
   98.5000    75.8540    24.7090    55.0560    52.8430    58.2960     2.0820   -25.0220 
   98.6250    81.9580    24.6950    50.6770    49.9040    54.9780     2.0840   -25.0450 
   98.7500    82.5690    24.6630    43.5690    46.9460    51.5680     2.0910   -25.0370 
   98.8750    77.6460    24.5900    37.9230    44.3470    48.5110     2.1030   -25.0160 
   99.0000    74.7230    24.5190    37.0910    42.4850    46.2510     2.1160   -24.9550 
   99.1250    78.8390    24.4870    39.8020    41.8380    45.4230     2.1210   -24.9200 
   99.2500    83.3710    24.4660    41.9090    42.3710    46.0460     2.1260   -24.9340 
   99.3750    84.7940    24.4210    41.0520    44.0360    48.0100     2.1420   -25.0250 
   99.5000    84.4060    24.3290    38.3170    46.5790    50.8710     2.1780   -25.0530 
   99.6250    80.9410    24.1520    39.6390    49.4660    53.8430     2.2260   -25.0660 
   99.7500    73.9480    23.8950    42.9970    51.8110    56.0040     2.2720   -25.1440 
   99.8750    66.4530    23.6710    44.8110    52.8460    56.6720     2.3110   -25.2540 
  100.0000    62.1690    23.6330    42.7710    52.0960    55.5760     2.3500   -25.3330 
  100.1250    62.3120    23.7390    39.8980    49.5240    52.9040     2.3840   -25.3380 
  100.2500    63.0930    23.9170    37.0950    46.2760    49.7110     2.3990   -25.3000 
  100.3750    62.0000    24.0500    34.5220    43.2770    46.7680     2.3930   -25.1980 
  100.5000    59.9740    24.0860    32.4030    41.2560    44.6990     2.3820   -25.0650 
  100.6250    60.0450    23.9890    30.3290    41.0020    44.3490     2.3900   -24.8420 
  100.7500    61.8580    23.8680    29.0580    42.7840    46.1320     2.4090   -24.6070 
  100.8750    64.7360    23.8530    28.5060    47.2820    50.7610     2.4060   -24.3090 
  101.0000    67.4180    23.9170    29.8810    55.2360    58.9880     2.3620   -24.0400 
  101.1250    66.6300    23.9430    39.9140    67.0650    71.5720     2.2880   -23.8360 
  101.2500    63.5660    24.1770    54.3180    79.7260    85.5340     2.2170   -23.6680 
  101.3750    61.8630    24.6740    67.8280    89.0680    95.5710     2.1660   -23.5640 
  101.5000    61.7310    25.1660    74.9690    91.4620    96.6660     2.1370   -23.5520 
  101.6250    60.2530    25.2030    67.4880    85.8150    89.0330     2.1360   -23.5950 
  101.7500    58.2050    24.9710    52.6320    77.3490    80.1190     2.1550   -23.6040 
  101.8750    59.2620    24.7130    41.6890    70.1470    73.6820     2.1890   -23.6910 
  102.0000    63.1790    24.4960    42.2340    66.6080    70.9610     2.2310   -23.8450 
  102.1250    65.3330    24.3540    52.3470    67.8880    72.4790     2.2780   -24.0340 
  102.2500    65.0960    24.2560    63.7300    72.4470    77.0660     2.3260   -24.2050 
  102.3750    64.6360    24.2220    70.8010    78.9460    83.7410     2.3600   -24.3660 
  102.5000    65.6500    24.2250    74.2790    85.4630    90.4730     2.3610   -24.5460 
  102.6250    66.4390    24.2200    78.1420    88.6860    92.8230     2.3310   -24.8250 
  102.7500    64.7850    24.2600    83.7280    86.9140    87.9260     2.3050   -25.1590 
  102.8750    62.4410    24.2870    84.6640    77.5210    78.5550     2.3110   -25.4800 
  103.0000    61.7010    24.2820    72.8140    63.6080    66.7600     2.3490   -25.7660 
  103.1250    62.9100    24.2150    51.9020    51.1100    54.4280     2.4010   -26.0790 
  103.2500    64.6400    24.1400    36.5160    41.8490    44.6540     2.4360   -26.4010 
  103.3750    66.9290    24.0760    30.9560    36.0230    38.4190     2.4400   -26.7410 
  103.5000    68.5480    23.9820    32.9810    33.3320    35.5980     2.4190   -27.0350 
  103.6250    67.7360    23.9150    42.5890    33.7230    36.1090     2.4080   -27.3080 
  103.7500    66.5210    23.8730    54.7060    35.9720    38.7260     2.4310   -27.5630 
  103.8750    65.7460    23.8560    59.8080    38.7810    42.2470     2.4860   -27.7990 
  104.0000    63.9800    23.7950    54.6270    40.3070    44.7840     2.5490   -28.0050 
  104.1250    62.7410    23.7970    45.9330    38.3560    43.7480     2.5740   -28.1990 
  104.2500    65.2460    23.8330    36.1150    33.5380    39.1740     2.5410   -28.4080 
  104.3750    70.3840    23.9910    26.8640    27.4490    32.5330     2.4620   -28.5300 
  104.5000    75.6180    24.1440    20.7460    21.7040    25.8400     2.3780   -28.6700 
  104.6250    78.7470    24.1510    18.2760    17.3660    20.6290     2.3290   -28.7600 
  104.7500    82.7120    24.0780    16.0680    14.3610    16.9410     2.3170   -28.8500 
  104.8750    89.6390    24.0370    13.8130    12.6490    14.6670     2.3310   -28.9030 
  105.0000    96.8270    23.9790    12.2610    12.1920    13.6910     2.3570   -28.9260 
  105.1250    99.3190    23.9000    12.7010    13.0440    14.0920     2.3840   -28.8510 
  105.2500    96.3170    23.8640    14.1210    14.7870    15.5520     2.4170   -28.7340 
  105.3750    90.1500    23.8080    18.4120    17.1210    17.8990     2.4560   -28.6070 
  105.5000    83.1830    23.7580    25.2340    19.6170    20.7630     2.4880   -28.3890 
  105.6250    78.3750    23.6860    27.8960    21.6210    23.3590     2.4930   -28.0910 
  105.7500    78.9810    23.6220    24.3390    22.9060    25.1100     2.4730   -27.7520 
  105.8750    82.2830    23.6170    21.5420    23.7250    26.1130     2.4380   -27.4230 
  106.0000    83.4840    23.6460    24.2620    24.5810    26.8820     2.3970   -27.0960 
  106.1250    79.9920    23.6090    30.7630    25.9520    28.0020     2.3620   -26.7520 
  106.2500    75.8740    23.4930    32.3930    27.8290    29.6400     2.3400   -26.4190 
  106.3750    75.1190    23.3800    30.7210    29.9680    31.6400     2.3320   -26.1460 
  106.5000    75.6150    23.3600    31.2990    31.9530    33.5620     2.3340   -25.9250 
  106.6250    73.5280    23.3640    35.5480    33.3550    34.8760     2.3410   -25.7590 
  106.7500    69.8590    23.3390    39.5680    34.2440    35.6410     2.3540   -25.6080 
  106.8750    66.5370    23.3010    41.5510    34.7240    36.0280     2.3760   -25.4980 
  107.0000    64.9760    23.2880    40.7200    34.9060    36.1680     2.4080   -25.4370 
  107.1250    66.6470    23.3690    38.8100    35.0430    36.2600     2.4440   -25.4520 
  107.2500    69.6400    23.4850    39.4940    35.4850    36.5900     2.4730   -25.4580 
  107.3750    71.6010    23.4650    45.3360    36.3470    37.2720     2.4920   -25.4780 
  107.5000    71.4490    23.3510    52.9760    37.5110    38.2420     2.5050   -25.5220 
  107.6250    69.2460    23.2740    56.9770    38.7650    39.3650     2.5210   -25.5620 
  107.7500    66.2860    23.2430    54.1570    39.9300    40.4610     2.5300   -25.5990 
  107.8750    64.5430    23.2030    49.9680    40.9790    41.4620     2.5190   -25.6310 
