~V
VERS. 2.00: Ver 2.00
~W
STRT.M 55.0000:
STOP.M 308.0000:
STEP.M 0.1250:
NULL. -999.2500:
UWI. F10053:
~C
DEPT.M :
GR.API :
RML.OHMM :
RI. :
RXO.OHMM :
CALI.CM :
DEN.GM/CC :
SP.MV :
~A
# ...
   66.2500    60.1360     5.5090     7.9450     9.2850    23.6380     2.1370    -9.4890 
   66.3750    58.7600     5.8030     8.4280     9.4160    23.6370     2.1480   -12.0300 
   66.5000    57.6740     6.2080     8.9060     9.9650    23.5880     2.1610   -13.9850 
   66.6250    59.7460     6.6820     9.3380    10.7680    23.6270     2.1720   -15.5210 
   66.7500    63.9690     7.1470     9.6640    11.4130    23.7220     2.1790   -16.7150 
   66.8750    66.4120     7.5560     9.8380    11.6550    23.7940     2.1860   -17.6400 
   67.0000    64.3600     7.8870     9.8570    11.6540    23.8190     2.1960   -18.3810 
   67.1250    61.4680     8.1280     9.7570    11.4330    23.7330     2.2120   -19.0430 
   67.2500    61.8230     8.3110     9.6400    11.4150    23.5400     2.2220   -19.6370 
   67.3750    62.7040     8.4700     9.5930    11.6690    23.2710     2.2140   -20.1260 
   67.5000    61.5690     8.6560     9.6960    12.0150    23.0780     2.1810   -20.6050 
   67.6250    60.6160     8.9390    10.0180    12.3920    23.1720     2.1310   -20.9690 
   67.7500    61.3060     9.3250    10.4820    12.3330    23.7290     2.0890   -21.2620 
   67.8750    61.4800     9.7600    10.9630    12.0310    24.6680     2.0690   -21.4930 
   68.0000    59.5830    10.1380    11.2900    11.9500    25.3640     2.0720   -21.6950 
   68.1250    58.0430    10.2890    11.2630    11.9190    25.3260     2.0880   -21.8560 
   68.2500    59.0720    10.1780    10.9410    11.9480    25.0290     2.1040   -21.9930 
   68.3750    60.3730     9.8550    10.4680    11.7560    24.7950     2.1110   -22.1050 
   68.5000    61.2730     9.4510    10.0070    11.5940    24.6390     2.1080   -22.1880 
   68.6250    64.0330     9.1660     9.6980    11.5340    24.3920     2.0970   -22.3580 
   68.7500    66.9230     9.1100     9.5600    11.6070    24.6870     2.0870   -22.5790 
   68.8750    67.0210     9.2820     9.5800    11.9660    25.4010     2.0870   -22.8390 
   69.0000    63.4200     9.5780     9.7060    12.1870    26.0910     2.1010   -23.1110 
   69.1250    59.4580     9.8290     9.8620    12.3650    26.1720     2.1220   -23.3140 
   69.2500    56.8440     9.9450     9.9660    12.2860    25.9350     2.1380   -23.5080 
   69.3750    56.3680     9.9380     9.9810    12.1760    25.6740     2.1420   -23.6440 
   69.5000    58.4530     9.8670     9.9130    12.1530    25.5380     2.1370   -23.7840 
   69.6250    61.1100     9.7940     9.8110    12.3450    25.5920     2.1310   -23.8350 
   69.7500    62.4130     9.7590     9.7420    12.2860    25.6590     2.1290   -23.8540 
   69.8750    61.3320     9.7910     9.7330    12.0630    25.5850     2.1300   -23.8540 
   70.0000    58.4820     9.9160     9.7870    11.8660    25.4430     2.1360   -23.8800 
   70.1250    56.1450    10.1490     9.8890    11.8060    25.3680     2.1500   -23.9150 
   70.2500    56.9460    10.4260     9.9960    11.6970    25.2730     2.1670   -23.9890 
   70.3750    59.3140    10.6790    10.0710    11.8990    24.9880     2.1790   -24.1060 
   70.5000    60.6540    10.8400    10.0920    12.2540    24.5490     2.1750   -24.2260 
   70.6250    59.7400    10.8510    10.0600    12.5770    24.6480     2.1470   -24.3940 
   70.7500    58.1700    10.7400     9.9980    12.5580    25.4990     2.1120   -24.5820 
   70.8750    56.5770    10.5380     9.9140    12.5690    26.5660     2.0880   -24.7600 
   71.0000    55.8380    10.2950     9.8100    12.6180    27.1440     2.0860   -24.8670 
   71.1250    57.1800    10.0870     9.6940    12.5180    26.7660     2.1050   -24.9630 
   71.2500    59.3980     9.9660     9.5920    12.3170    25.8850     2.1220   -25.0010 
   71.3750    60.5600     9.9370     9.5280    12.0750    25.3460     2.1270   -25.0690 
   71.5000    59.9570     9.9650     9.5190    11.9700    25.4150     2.1210   -25.1490 
   71.6250    58.2400     9.9800     9.5560    11.9670    25.9060     2.1150   -25.2160 
   71.7500    57.5280     9.9350     9.5890    12.0830    26.1930     2.1220   -25.2450 
   71.8750    57.7710     9.8210     9.5830    12.2990    26.0820     2.1420   -25.2500 
   72.0000    58.2920     9.6580     9.5290    12.4860    25.7610     2.1620   -25.2830 
   72.1250    59.1430     9.4970     9.4520    12.2570    25.6190     2.1620   -25.3920 
   72.2500    59.2220     9.3890     9.3960    12.1660    25.6600     2.1290   -25.4950 
   72.3750    57.9640     9.3650     9.3840    12.3480    25.6730     2.0700   -25.5300 
   72.5000    57.2890     9.4370     9.4110    12.5450    25.8080     2.0040   -25.5080 
   72.6250    58.4040     9.5980     9.4450    12.6370    26.3200     1.9690   -25.4600 
   72.7500    59.0940     9.7820     9.4560    12.5870    26.6690     1.9790   -25.3090 
   72.8750    57.2560     9.9340     9.4090    12.4560    26.2710     2.0270   -25.0580 
   73.0000    56.3130    10.0020     9.2680    12.2100    25.1520     2.0910   -24.7070 
   73.1250    59.0730     9.9240     8.9960    11.8490    24.3830     2.1430   -24.1720 
   73.2500    63.0000     9.6890     8.6390    11.3340    24.1140     2.1720   -23.5180 
   73.3750    66.5160     9.2970     8.2400    10.2030    24.0160     2.1820   -22.7440 
   73.5000    69.6850     8.8030     7.8410     8.6950    23.8430     2.1790   -21.8740 
   73.6250    71.0120     8.3770     7.5150     7.5200    23.6370     2.1630   -21.0910 
   73.7500    70.5380     8.2470     7.3500     8.4080    23.5090     2.1410   -20.4030 
   73.8750    70.8480     8.6190     7.4810     9.2230    23.4270     2.1330   -19.8310 
   74.0000    72.7770     9.6060     8.0490     9.5570    23.4840     2.1600   -19.3870 
   74.1250    72.6480    11.2000     9.2160    10.3130    23.7300     2.2320   -19.1490 
   74.2500    70.6060    12.9160    10.7650    12.6280    23.9340     2.3120   -19.0800 
   74.3750    68.6830    14.1920    12.2550    16.4560    24.0070     2.3620   -19.2220 
   74.5000    66.9500    14.5160    13.0280    20.7160    24.1100     2.3580   -19.6310 
   74.6250    65.3330    13.5990    12.5150    16.8820    24.3100     2.3030   -20.1160 
   74.7500    64.3920    12.0850    11.3040    13.3800    24.5340     2.2430   -20.7270 
   74.8750    64.6180    10.5870    10.0200    12.0350    24.6390     2.2050   -21.3760 
   75.0000    66.3280     9.5560     9.0500    12.2050    24.6450     2.1950   -22.0210 
   75.1250    70.6120     9.2230     8.5710    12.5270    24.5890     2.2020   -22.6620 
   75.2500    73.3900     9.3300     8.4370    12.5830    24.4800     2.2070   -23.2740 
   75.3750    72.5110     9.6330     8.5080    12.5480    24.5040     2.1990   -23.8330 
   75.5000    70.5710     9.9140     8.6450    12.3940    24.7080     2.1780   -24.3090 
   75.6250    69.3880    10.0370     8.7570    12.0810    25.0340     2.1500   -24.7640 
   75.7500    66.2650    10.0430     8.8430    12.0400    25.3710     2.1220   -25.2160 
   75.8750    60.4480     9.9980     8.9250    12.3130    25.6900     2.0980   -25.6920 
   76.0000    55.6970     9.9490     9.0120    12.3980    25.8910     2.0830   -26.1230 
   76.1250    55.5340     9.9100     9.0790    12.3350    26.0000     2.0810   -26.5440 
   76.2500    56.4750     9.8700     9.1030    12.4730    26.1180     2.0880   -26.9790 
   76.3750    57.1480     9.8370     9.0860    12.5790    26.1760     2.0970   -27.3790 
   76.5000    57.4930     9.8290     9.0620    12.7420    26.0790     2.1010   -27.6550 
   76.6250    58.4370     9.8700     9.0800    12.8770    26.0050     2.0970   -27.8200 
   76.7500    58.1250     9.9410     9.1290    12.7700    26.1530     2.0890   -27.9110 
   76.8750    56.0820    10.0150     9.1680    12.5820    26.4380     2.0860   -27.8970 
   77.0000    55.2440    10.0580     9.1550    12.6260    26.5820     2.0930   -27.7960 
   77.1250    57.8980    10.0180     9.0830    13.0580    26.4650     2.1090   -27.6950 
   77.2500    60.6080     9.8870     8.9980    13.1660    26.2710     2.1210   -27.5780 
   77.3750    60.7940     9.6970     8.9210    13.1460    26.1470     2.1150   -27.3940 
