~V
VERS. 2.00: Ver 2.00
~W
STRT.M 56.0000:
STOP.M 261.0000:
STEP.M 0.1250:
NULL. -999.2500:
UWI. F10028:
~C
DEPT.M :
GR.API :
RML.OHMM :
RI. :
RXO.OHMM :
CALI.CM :
DEN.GM/CC :
SP.MV :
~A
# ...
  134.7500    63.5710    10.8180     9.0650    10.8290    22.4300     2.1580    -6.9040 
  134.8750    61.0260    11.1560     9.3650    11.1270    22.2350     2.1590    -6.9010 
  135.0000    62.5530    11.7730     9.8480    10.9260    22.0270     2.1730    -6.8090 
  135.1250    61.3130    12.7130    10.5590    10.9840    22.0120     2.1960    -6.6290 
  135.2500    58.4770    13.6300    11.2860    12.2380    22.1320     2.2220    -6.3290 
  135.3750    58.4660    14.0480    11.6940    16.0830    22.2630     2.2480    -5.8720 
  135.5000    60.6470    13.5630    11.4500    23.3980    22.3450     2.2680    -5.2420 
  135.6250    61.9580    12.0860    10.4050    20.1140    22.3540     2.2790    -4.4550 
  135.7500    64.6310    10.3200     9.0580    11.7810    22.2950     2.2820    -3.6050 
  135.8750    69.3680     8.7780     7.8000     8.1850    22.2290     2.2810    -2.8020 
  136.0000    73.4510     7.7120     6.8500     7.3490    22.1790     2.2810    -2.1140 
  136.1250    74.6460     7.2200     6.3290     7.4650    22.1890     2.2880    -1.5530 
  136.2500    76.6400     7.1210     6.1500     7.5060    22.3130     2.2990    -1.0870 
  136.3750    79.3090     7.3190     6.2610     7.4320    22.4800     2.3030    -0.7470 
  136.5000    79.8470     7.7430     6.5970     7.2040    22.6190     2.2900    -0.5980 
  136.6250    76.9320     8.3340     7.0950     7.3750    22.8410     2.2530    -0.7540 
  136.7500    74.0660     8.9130     7.6140     8.4300    23.1410     2.2130    -1.0360 
  136.8750    72.2470     9.2790     8.0100     9.7800    23.3950     2.1920    -1.2890 
  137.0000    71.6480     9.2780     8.1540    10.4030    23.4740     2.2070    -1.3850 
  137.1250    74.8030     8.8840     7.9890     9.7340    23.4930     2.2550    -1.2670 
  137.2500    80.4020     8.3820     7.6830     8.5620    23.5380     2.3070    -1.0480 
  137.3750    83.9830     7.9860     7.3830     7.6580    23.5860     2.3430    -0.8030 
  137.5000    82.9760     7.7920     7.1860     7.7080    23.6190     2.3540    -0.5700 
  137.6250    82.7200     7.7730     7.1220     7.9710    23.6240     2.3410    -0.2640 
  137.7500    86.9930     7.7730     7.1120     8.2010    23.6350     2.3180     0.0750 
  137.8750    90.6510     7.7050     7.0870     8.1460    23.6310     2.2930     0.3560 
  138.0000    89.1770     7.5500     6.9990     7.6820    23.6030     2.2750     0.5470 
  138.1250    86.9320     7.3510     6.8470     7.2400    23.5390     2.2700     0.6260 
  138.2500    87.8540     7.1710     6.6850     6.9400    23.4600     2.2760     0.6400 
  138.3750    88.6830     7.0250     6.5490     6.7170    23.3880     2.2870     0.6500 
  138.5000    86.4960     6.9120     6.4580     6.5160    23.3200     2.2960     0.7210 
  138.6250    85.9620     6.8420     6.4250     6.3500    23.2670     2.3000     0.8660 
  138.7500    87.9960     6.8190     6.4310     6.3290    23.3090     2.3000     1.0360 
  138.8750    90.0600     6.8340     6.4570     6.4380    23.3980     2.2970     1.2270 
  139.0000    90.5890     6.8620     6.4740     6.5430    23.4500     2.2950     1.3890 
  139.1250    89.4220     6.8550     6.4380     6.5450    23.4140     2.2950     1.5140 
  139.2500    88.3650     6.7930     6.3360     6.5100    23.2380     2.2960     1.6360 
  139.3750    87.9020     6.6970     6.1870     6.3270    22.9470     2.2990     1.7590 
  139.5000    88.1200     6.6190     6.0450     6.0970    22.7480     2.3050     1.8440 
  139.6250    90.2200     6.6330     5.9900     6.1390    22.7300     2.3120     1.8860 
  139.7500    93.5310     6.7330     6.0320     6.3130    22.8320     2.3160     1.9310 
  139.8750    95.3150     6.8840     6.1510     6.6140    22.9560     2.3160     1.9720 
  140.0000    92.1050     7.0700     6.3260     7.1700    23.0570     2.3070     2.0070 
  140.1250    86.9980     7.3320     6.5790     7.4470    23.2470     2.2960     2.0280 
  140.2500    84.1270     7.7240     6.9350     7.5090    23.5430     2.2910     2.0490 
  140.3750    82.9780     8.3090     7.4360     7.6770    23.6800     2.2960     2.0450 
  140.5000    82.0620     9.1380     8.1240     9.3110    23.4730     2.3090     1.9900 
  140.6250    79.9650    10.5590     9.0470    12.3110    23.1970     2.3150     1.8880 
  140.7500    77.5270    11.7170    10.0750    14.0860    23.0900     2.3030     1.7710 
  140.8750    75.0270    12.6890    11.0220    12.4440    23.0780     2.2750     1.6880 
  141.0000    72.6930    13.2870    11.6950    11.6640    23.0850     2.2420     1.6700 
  141.1250    70.8730    13.4490    11.9860    13.5030    23.1120     2.2210     1.7330 
  141.2500    70.7360    13.5200    12.1380    14.2730    23.1840     2.2120     1.8270 
  141.3750    72.0680    13.8840    12.4360    13.7630    23.2970     2.2080     1.9640 
  141.5000    72.0250    14.8580    13.1300    12.4790    23.3950     2.1960     2.2040 
  141.6250    69.2650    16.6760    14.4310    15.0960    23.4310     2.1690     2.5570 
  141.7500    65.9010    19.0290    16.1930    19.5030    23.4750     2.1400     2.9480 
  141.8750    63.3280    21.4510    18.1530    24.2420    23.6330     2.1220     3.3000 
  142.0000    64.3610    23.2860    19.8510    25.5180    23.9450     2.1220     3.5630 
  142.1250    70.1600    23.8780    20.7000    22.7160    24.3130     2.1350     3.7110 
  142.2500    75.0660    23.6840    20.8740    20.1640    24.4100     2.1450     3.8400 
  142.3750    75.4720    23.4000    20.8410    19.5640    24.3680     2.1480     3.9570 
  142.5000    72.3750    23.5720    21.0570    21.3040    24.3250     2.1530     4.0450 
  142.6250    70.0210    24.4330    21.7910    23.5610    24.4640     2.1730     4.0790 
  142.7500    67.3780    25.6170    22.8470    24.9800    24.5470     2.2070     4.0820 
  142.8750    63.5830    26.6910    23.9120    28.0320    24.4360     2.2430     4.0970 
  143.0000    59.9360    27.2560    24.6350    33.4130    24.2080     2.2610     4.1580 
  143.1250    58.5280    27.0860    24.7300    29.6540    24.1330     2.2450     4.2730 
  143.2500    58.1190    26.5280    24.4020    24.5900    24.2160     2.2030     4.3510 
  143.3750    58.1340    25.8250    23.8430    21.8150    24.3340     2.1430     4.3880 
  143.5000    60.1360    25.0430    23.1370    20.9090    24.3600     2.0820     4.3770 
  143.6250    62.5410    24.0750    22.2450    21.8120    24.3470     2.0420     4.2760 
  143.7500    61.9300    22.9300    21.2210    22.8950    24.4280     2.0290     4.1270 
  143.8750    61.1630    21.7770    20.2050    21.3470    24.6080     2.0420     3.9650 
  144.0000    64.9740    20.9280    19.4250    17.8000    24.7430     2.0680     3.7980 
  144.1250    71.0490    20.8540    19.2420    16.1210    24.7520     2.0910     3.6780 
  144.2500    72.0430    21.5890    19.7230    18.2710    24.7670     2.1070     3.6380 
  144.3750    66.8870    22.9580    20.8060    22.3380    24.8340     2.1190     3.6710 
  144.5000    59.9990    24.5370    22.2180    25.7100    24.8970     2.1330     3.7370 
  144.6250    56.4600    25.5970    23.4010    26.8900    24.8690     2.1460     3.8710 
  144.7500    57.2020    25.7710    23.9250    26.4030    24.7010     2.1500     4.0430 
  144.8750    60.2230    25.1550    23.7460    24.3760    24.4560     2.1420     4.2220 
  145.0000    62.9100    24.1900    23.1570    21.7160    24.4050     2.1250     4.3880 
  145.1250    63.8450    23.4050    22.5960    19.8040    24.5680     2.1100     4.4740 
  145.2500    63.7680    23.0190    22.3310    19.7100    24.7420     2.1040     4.5370 
  145.3750    63.1780    23.0270    22.4150    22.9290    24.8320     2.1070     4.6040 
  145.5000    62.2140    23.3120    22.7770    26.9580    24.8700     2.1160     4.6910 
  145.6250    60.0000    23.7240    23.2650    28.4080    24.9940     2.1290     4.7850 
  145.7500    57.0930    24.1070    23.6780    28.2820    25.1950     2.1410     4.8570 
  145.8750    55.2450    24.3480    23.8880    27.4390    25.2940     2.1470     4.9120 
