~V
VERS. 2.00: Ver 2.00
~W
STRT.M 50.0000:
STOP.M 279.0000:
STEP.M 0.1250:
NULL. -999.2500:
UWI. F10075:
~C
DEPT.M :
GR.API :
RML.OHMM :
RI. :
RXO.OHMM :
CALI.CM :
DEN.GM/CC :
SP.MV :
~A
# ...
  207.5000    56.7880    82.6280    72.2780    96.9740    24.7970     2.2680   -18.8400 
  207.6250    55.7850    76.7860    67.8360    85.5420    24.7790     2.3220   -18.2440 
  207.7500    52.8410    69.3160    61.9290    78.0550    24.7550     2.3800   -17.6020 
  207.8750    52.9850    60.7430    54.9100    68.2620    24.7470     2.4300   -16.9240 
  208.0000    57.2200    52.0480    47.5730    47.9180    24.7530     2.4580   -16.1820 
  208.1250    61.0770    44.4020    40.9300    34.0420    24.6890     2.4540   -15.3170 
  208.2500    62.3640    38.1960    35.4340    26.9820    24.6850     2.4220   -14.4230 
  208.3750    61.4970    33.5870    31.2620    24.4560    24.9080     2.3690   -13.5630 
  208.5000    59.5570    30.5470    28.4020    23.5100    25.1610     2.3110   -12.7980 
  208.6250    58.0790    29.0310    26.8260    20.2800    25.2180     2.2720   -12.1480 
  208.7500    57.7770    28.4050    26.0120    18.1500    25.1710     2.2630   -11.5730 
  208.8750    58.4510    28.2760    25.6580    18.4460    25.0720     2.2790   -11.0570 
  209.0000    59.2210    28.3440    25.5540    21.2330    24.9200     2.3100   -10.6090 
  209.1250    58.4230    28.5300    25.6660    23.9620    24.8060     2.3350   -10.2700 
  209.2500    56.7040    29.1270    26.1620    24.7810    24.8470     2.3390   -10.0080 
  209.3750    54.8900    30.8520    27.5280    23.0360    24.8830     2.3080    -9.7970 
  209.5000    53.6660    34.7110    30.5830    23.7180    24.8800     2.2480    -9.5750 
  209.6250    52.9050    42.4760    37.0070    30.7790    24.8710     2.1920    -9.2730 
  209.7500    51.5000    54.2930    47.1430    41.6690    24.8990     2.1880    -8.8870 
  209.8750    49.2400    69.4950    60.4580    61.3450    24.8740     2.2600    -8.4760 
  210.0000    46.6180    85.3500    74.5460   126.3180    24.7330     2.3910    -8.0440 
  210.1250    45.7780    95.0970    83.9620   322.6420    24.7620     2.5290    -7.5530 
  210.2500    47.9860    93.2570    84.1330   300.3440    24.8350     2.6220    -7.0340 
  210.3750    52.0540    78.2660    72.4150   115.4960    24.8870     2.6650    -6.5000 
  210.5000    56.8190    55.4140    51.9180    49.1540    24.8960     2.6830    -5.9430 
  210.6250    59.5480    34.4680    32.0720    50.8200    24.8340     2.7080    -5.4390 
  210.7500    59.5620    19.8740    18.3250    46.1460    24.7200     2.7420    -5.0000 
  210.8750    58.1800    11.1980    10.2690    26.1140    24.5400     2.7630    -4.5100 
  211.0000    56.7700     6.7170     6.0520     8.9300    24.3270     2.7480    -3.9290 
  211.1250    55.9160     4.1800     4.2860     6.1930    24.0510     2.6880    -3.2890 
  211.2500    55.0980     3.8790     3.6290     5.5450    23.9330     2.6080    -2.6360 
  211.3750    53.1050     4.2970     3.6990     5.7470    24.0730     2.5320    -1.9630 
  211.5000    50.0330     5.0530     4.2630     5.8810    24.4090     2.4750    -1.3240 
  211.6250    48.3480     5.7270     5.0410     5.9280    24.5780     2.4380    -0.7400 
  211.7500    49.2700     6.0570     5.6610     6.0130    24.6430     2.4110    -0.2030 
  211.8750    50.1050     6.0690     5.9860     6.0020    24.6520     2.3890     0.1980 
  212.0000    49.2300     5.9600     6.0880     5.9620    24.6330     2.3740     0.4420 
  212.1250    49.5600     5.9170     6.1120     6.0140    24.6180     2.3660     0.5510 
  212.2500    51.0650     6.0090     6.1840     6.2620    24.6150     2.3660     0.5560 
  212.3750    52.8840     6.2640     6.3540     6.6010    24.6180     2.3750     0.4600 
  212.5000    56.2770     6.6840     6.6210     6.9960    24.6270     2.3920     0.2670 
  212.6250    63.6800     7.2530     6.9490     7.4470    24.6470     2.4190    -0.0160 
  212.7500    73.2730     7.8740     7.2660     7.8970    24.6530     2.4510    -0.3340 
  212.8750    81.0910     8.4670     7.5250     8.2840    24.6370     2.4810    -0.6460 
  213.0000    85.8480     8.9580     7.7010     8.6000    24.6270     2.5020    -0.9480 
  213.1250    88.9670     9.3170     7.7960     8.9430    24.6400     2.5060    -1.2890 
  213.2500    92.6090     9.6390     7.8780     9.4190    24.6640     2.4990    -1.6630 
  213.3750    96.6840    10.0330     8.0160    10.0460    24.6700     2.4850    -2.0880 
  213.5000   100.0110    10.5980     8.2770    10.2770    24.6860     2.4680    -2.5390 
  213.6250   103.0970    11.4350     8.7360    10.5970    24.7520     2.4540    -2.9740 
  213.7500   103.4420    12.4980     9.3580    11.6820    24.8620     2.4430    -3.4050 
  213.8750    98.8740    13.7110    10.1020    13.1880    24.9200     2.4370    -3.8620 
  214.0000    92.0730    14.9320    10.8930    14.9100    24.9330     2.4370    -4.3120 
  214.1250    87.3260    15.8610    11.5700    16.1730    24.9310     2.4440    -4.6910 
  214.2500    85.8250    16.2680    11.9620    16.0460    24.9220     2.4520    -5.0160 
  214.3750    85.7690    16.0530    11.9590    16.1980    24.9020     2.4570    -5.2410 
  214.5000    87.6390    15.3220    11.5720    17.4410    24.8850     2.4530    -5.3320 
  214.6250    90.0520    14.3920    10.9690    14.9870    24.8680     2.4380    -5.3610 
  214.7500    91.3320    13.7340    10.4780    12.8970    24.8330     2.4210    -5.3920 
  214.8750    92.0990    13.6900    10.3500    11.4310    24.7910     2.4120    -5.3990 
  215.0000    92.0080    14.4600    10.7490    11.6460    24.7660     2.4230    -5.3990 
  215.1250    89.5120    16.1030    11.7880    13.3680    24.7530     2.4590    -5.3670 
  215.2500    86.1760    18.0110    13.1380    16.1570    24.7030     2.5000    -5.2950 
  215.3750    85.2190    19.3270    14.2440    20.0450    24.6370     2.5260    -5.1830 
  215.5000    87.8810    19.1550    14.4020    21.9620    24.5680     2.5230    -5.0570 
  215.6250    91.0700    17.0700    13.1510    17.1930    24.4180     2.4900    -4.7880 
  215.7500    90.7830    14.2460    11.2450    11.7490    24.1740     2.4510    -4.3380 
  215.8750    84.3140    11.6350     9.3430     8.5210    23.8610     2.4210    -3.7480 
  216.0000    72.7620     9.7530     7.8370     6.6310    23.5610     2.4100    -3.0830 
  216.1250    60.3250     8.7780     6.9210     6.0140    23.3600     2.4160    -2.4380 
  216.2500    52.5840     8.3650     6.4490     6.2180    23.2330     2.4270    -1.8040 
  216.3750    50.6110     8.2870     6.3070     6.5300    23.2060     2.4360    -1.1590 
  216.5000    51.5850     8.3690     6.3770     6.2530    23.2730     2.4390    -0.4910 
  216.6250    51.4330     8.4960     6.5520     5.9920    23.3220     2.4350     0.0640 
  216.7500    49.4220     8.5940     6.7290     6.2650    23.3600     2.4280     0.4820 
  216.8750    46.8690     8.6360     6.8690     6.4410    23.4440     2.4230     0.7590 
  217.0000    44.8300     8.6200     6.9650     6.3430    23.6780     2.4220     0.9320 
  217.1250    44.1970     8.5630     7.0200     6.4600    24.0020     2.4290     1.0180 
  217.2500    45.0610     8.4900     7.0490     6.7440    24.2850     2.4390     0.9990 
  217.3750    47.0820     8.3930     7.0500     6.9480    24.3950     2.4490     0.8090 
  217.5000    49.3350     8.2670     7.0250     6.9900    24.3990     2.4550     0.4280 
  217.6250    51.1920     8.1400     6.9740     6.8440    24.3590     2.4550    -0.1190 
  217.7500    52.7750     8.0540     6.9100     6.6590    24.3250     2.4490    -0.7570 
  217.8750    54.2780     8.0210     6.8470     6.5120    24.2950     2.4400    -1.4150 
  218.0000    57.7600     8.0210     6.8020     6.4270    24.2540     2.4300    -2.0360 
  218.1250    63.0620     8.0160     6.7970     6.2700    24.1360     2.4250    -2.5780 
  218.2500    68.1710     7.9850     6.8210     6.2070    23.9640     2.4220    -3.0530 
  218.3750    73.1110     7.9450     6.8530     6.4330    23.8300     2.4210    -3.4620 
  218.5000    79.3090     7.9190     6.8590     7.0870    23.7860     2.4170    -3.7680 
  218.6250    82.5560     7.9040     6.7830     7.7710    23.8700     2.4080    -3.8990 
