~V
VERS. 2.00: Ver 2.00
~W
STRT.M 63.0000:
STOP.M 195.0000:
STEP.M 0.1250:
NULL. -999.2500:
UWI. F10020:
~C
DEPT.M :
GR.API :
CALI.CM :
RXO.OHMM :
RI. :
RML.OHMM :
DEN.GM/CC :
SP.MV :
~A
# ...
  153.0000    78.1770    23.8600     9.1890    10.1680     9.3500     2.5800   -29.7990 
  153.1250    82.4950    23.8000     6.7000     7.1910     6.6730     2.5190   -29.3120 
  153.2500    80.7930    23.7230     5.6140     5.5910     5.3070     2.4380   -28.9570 
  153.3750    76.6190    23.6800     5.2430     4.9080     4.8660     2.3570   -28.7250 
  153.5000    76.9100    23.7150     5.7300     4.9050     5.1250     2.3020   -28.6210 
  153.6250    83.3100    23.8790     7.0790     5.5040     5.9370     2.2920   -28.6960 
  153.7500    88.8650    24.0710     8.3750     6.4460     6.9450     2.3140   -28.9080 
  153.8750    89.9790    24.1850     9.0790     7.5010     7.8370     2.3460   -29.2250 
  154.0000    89.8510    24.2170     9.2910     8.3890     8.3660     2.3710   -29.5670 
  154.1250    93.1710    24.2140     9.2010     8.8250     8.4010     2.3790   -29.8930 
  154.2500    98.6610    24.2000     8.9620     8.8880     8.1680     2.3730   -30.1100 
  154.3750   104.8840    24.1770     8.7760     8.7330     7.8680     2.3600   -30.2850 
  154.5000   111.4440    24.1760     8.8310     8.5190     7.6440     2.3470   -30.3960 
  154.6250   114.6630    24.1980     9.0190     8.3640     7.5830     2.3460   -30.5350 
  154.7500   117.2830    24.2130     9.1100     8.2820     7.6760     2.3560   -30.7410 
  154.8750   123.0510    24.2230     9.1160     8.2470     7.9030     2.3720   -30.9700 
  155.0000   129.5730    24.2470     9.1890     8.2260     8.2130     2.3860   -31.2810 
  155.1250   128.0310    24.2750     9.3040     8.1940     8.5110     2.3890   -31.5370 
  155.2500   122.2860    24.2880     9.3680     8.1460     8.7090     2.3840   -31.7750 
  155.3750   123.4160    24.2900     9.3600     8.0780     8.7530     2.3760   -31.9720 
  155.5000   134.6610    24.2860     9.2990     7.9900     8.6420     2.3720   -32.1710 
  155.6250   143.9240    24.2860     9.2280     7.9090     8.4640     2.3650   -32.2830 
  155.7500   143.3480    24.2850     9.1350     7.8890     8.3770     2.3550   -32.3120 
  155.8750   138.6440    24.2880     9.1230     7.9890     8.4890     2.3460   -32.3640 
  156.0000   135.0400    24.2850     9.5610     8.2390     8.8250     2.3440   -32.3420 
  156.1250   130.7400    24.2860    11.0450     8.6460     9.3440     2.3490   -32.4050 
  156.2500   125.4170    24.2840    12.8680     9.1590     9.9320     2.3460   -32.4920 
  156.3750   122.4320    24.2840    13.7570     9.7960    10.5940     2.3310   -32.5830 
  156.5000   121.8060    24.2850    13.5600    10.6450    11.4890     2.3150   -32.6470 
  156.6250   120.0480    24.2870    14.8190    11.9800    13.0420     2.3140   -32.7070 
  156.7500   115.4290    24.2830    19.8090    13.9780    15.4440     2.3200   -32.7750 
  156.8750   108.3220    24.2660    27.2150    16.7880    18.7610     2.3160   -32.7390 
  157.0000   101.0200    24.2340    35.1060    20.3450    22.7800     2.2970   -32.7260 
  157.1250    95.9420    24.2140    41.7900    24.0550    26.6950     2.2760   -32.6180 
  157.2500    92.3980    24.2090    45.5060    26.8120    29.3140     2.2650   -32.4580 
  157.3750    91.3460    24.2070    45.7650    27.9850    30.0790     2.2640   -32.2840 
  157.5000    93.1370    24.1990    42.8790    27.8320    29.4720     2.2710   -32.0860 
  157.6250    94.0130    24.1700    37.0070    27.2150    28.5900     2.2860   -31.8860 
  157.7500    93.1510    24.1390    34.3460    27.0080    28.3550     2.3060   -31.6470 
  157.8750    91.7830    24.1450    35.4000    27.5930    29.1690     2.3280   -31.4850 
  158.0000    88.7710    24.1840    37.3370    29.0730    31.0900     2.3420   -31.2750 
  158.1250    82.5020    24.2080    40.5260    31.1860    33.6360     2.3320   -31.0930 
  158.2500    78.0730    24.2130    43.3550    32.8260    35.3260     2.3030   -30.9480 
  158.3750    78.0000    24.2130    47.4520    32.6370    34.5300     2.2690   -30.7580 
  158.5000    78.6950    24.2070    48.1470    29.7190    30.5060     2.2480   -30.5550 
  158.6250    80.1070    24.1800    40.3660    24.5370    24.4260     2.2500   -30.3280 
  158.7500    84.5340    24.1270    26.7300    19.2290    18.7530     2.2680   -30.1460 
  158.8750    92.0870    24.0850    16.3020    14.8620    14.4190     2.2880   -29.9140 
  159.0000   100.9740    24.0700    10.6830    11.7430    11.5200     2.2960   -29.7620 
  159.1250   106.9270    24.0690     9.2830     9.9120     9.9520     2.2850   -29.6090 
  159.2500   108.3650    24.0690     8.8150     8.9040     9.2060     2.2680   -29.4750 
  159.3750   105.8800    24.0680     8.5210     8.4900     9.0430     2.2580   -29.4420 
  159.5000   103.2230    24.0630     8.3890     8.4670     9.2270     2.2570   -29.4510 
  159.6250   101.9830    24.0510     8.5600     8.6490     9.5020     2.2600   -29.5260 
  159.7500   102.7410    24.0480     8.5120     8.8310     9.6600     2.2640   -29.5910 
  159.8750   106.2150    24.0560     8.2860     8.9350     9.6640     2.2680   -29.7390 
  160.0000   108.7050    24.0660     8.0960     8.9320     9.5470     2.2720   -29.8410 
  160.1250   106.6150    24.0670     8.0840     8.8040     9.3120     2.2710   -29.9400 
  160.2500   103.3520    24.0680     8.2710     8.5910     8.9920     2.2640   -30.0180 
  160.3750   100.5870    24.0670     8.6280     8.3290     8.6240     2.2560   -29.9910 
  160.5000    97.6410    24.0640     8.9870     8.0470     8.2630     2.2570   -29.9330 
  160.6250    94.0760    24.0790     8.5510     7.7750     8.0080     2.2730   -29.8030 
  160.7500    89.8310    24.0900     7.7860     7.5480     7.9190     2.2940   -29.6730 
  160.8750    84.5890    24.0780     7.4420     7.4080     8.0200     2.3110   -29.4200 
  161.0000    79.7810    24.0450     7.7990     7.3800     8.2770     2.3290   -29.1520 
  161.1250    78.0110    24.0130     8.1500     7.4460     8.5720     2.3560   -28.8350 
  161.2500    77.8940    23.9910     8.2560     7.4900     8.7160     2.3790   -28.4140 
  161.3750    79.3170    23.9550     8.5220     7.3900     8.5730     2.3850   -27.9840 
  161.5000    81.5400    23.9730     8.8430     7.0700     8.1100     2.3820   -27.4680 
  161.6250    80.5620    23.8850     8.1940     6.5230     7.4330     2.3810   -26.9350 
  161.7500    75.6720    23.6770     6.7470     5.9090     6.7680     2.3700   -26.3830 
  161.8750    68.5560    23.4760     5.4010     5.3530     6.2290     2.3390   -25.9220 
  162.0000    61.2840    23.3850     4.7500     4.9450     5.8490     2.3030   -25.5290 
  162.1250    55.8480    23.3660     4.6260     4.7640     5.6350     2.2880   -25.2520 
  162.2500    53.4100    23.3720     4.7130     4.7750     5.5650     2.2950   -25.1930 
  162.3750    53.9340    23.4150     4.8470     4.9430     5.6700     2.3110   -25.2570 
  162.5000    55.6410    23.4980     4.8980     5.2150     5.9720     2.3240   -25.5410 
  162.6250    56.3010    23.5590     4.9960     5.5390     6.4560     2.3380   -25.9650 
  162.7500    55.8050    23.5810     5.3420     5.8430     6.9650     2.3590   -26.5260 
  162.8750    55.7700    23.6020     5.8730     6.0720     7.3340     2.3800   -27.1690 
  163.0000    57.6730    23.6540     6.2860     6.1740     7.4540     2.3870   -27.8040 
  163.1250    61.3890    23.7320     6.3120     6.1320     7.3610     2.3700   -28.5140 
  163.2500    65.4750    23.7670     6.2020     6.0380     7.2780     2.3490   -29.2310 
  163.3750    68.6740    23.7370     6.3060     5.9990     7.3460     2.3420   -29.9750 
  163.5000    70.8980    23.6930     6.9140     6.1190     7.6310     2.3480   -30.7380 
  163.6250    74.7650    23.6760     8.1820     6.5220     8.2090     2.3490   -31.4810 
  163.7500    81.1750    23.6020     9.6580     7.1940     9.0460     2.3370   -32.1500 
  163.8750    89.0960    23.4920    10.9380     8.0910    10.0980     2.3170   -32.6690 
  164.0000    96.4190    23.4850    11.7580     9.0810    11.2290     2.2950   -33.1170 
  164.1250   100.3350    23.5710    12.0580     9.8680    12.0880     2.2780   -33.3110 
