~V
VERS. 2.00: Ver 2.00
~W
STRT.M 50.0000:
STOP.M 266.0000:
STEP.M 0.1250:
NULL. -999.2500:
UWI. F10057:
~C
DEPT.M :
GR.API :
RML.OHMM :
RI. :
RXO.OHMM :
CALI.CM :
DEN.GM/CC :
SP.MV :
~A
# ...
  230.0000    67.7010    13.5590    12.1100    15.5720    23.5390     2.5200     0.2100 
  230.1250    68.5320    13.8550    12.4020    14.9700    23.5870     2.5100     0.0030 
  230.2500    70.0060    14.0210    12.5800    14.6560    23.7630     2.4980    -0.1960 
  230.3750    70.8630    14.1000    12.6610    14.8670    23.9660     2.4910    -0.3850 
  230.5000    71.9560    14.1490    12.6880    15.8040    24.0800     2.4920    -0.5650 
  230.6250    73.0000    14.2220    12.7170    18.0720    24.1040     2.4990    -0.7530 
  230.7500    71.7490    14.3270    12.7770    19.8230    24.1140     2.5040    -0.9560 
  230.8750    68.2010    14.4490    12.8710    18.6580    24.1170     2.5050    -1.1770 
  231.0000    64.1560    14.5670    12.9820    15.4310    24.1050     2.5070    -1.3890 
  231.1250    61.5220    14.6610    13.1020    13.1780    24.0850     2.5090    -1.6070 
  231.2500    61.0900    14.7330    13.2270    12.2370    24.0810     2.5100    -1.8380 
  231.3750    64.3440    14.8000    13.3720    11.7830    24.0930     2.5070    -2.0770 
  231.5000    69.4500    14.8830    13.5360    11.4800    24.0870     2.5050    -2.3230 
  231.6250    71.4300    14.9790    13.7010    10.9260    24.0090     2.5090    -2.5800 
  231.7500    70.0620    15.0450    13.8230    10.8830    23.8960     2.5200    -2.8360 
  231.8750    67.5980    15.0400    13.8650    13.2840    23.8310     2.5290    -3.0790 
  232.0000    65.5310    14.9420    13.8050    18.4950    23.8320     2.5310    -3.3120 
  232.1250    64.5620    14.7540    13.6500    21.3000    23.8040     2.5240    -3.4800 
  232.2500    65.3300    14.5130    13.4280    19.2670    23.7360     2.5150    -3.5810 
  232.3750    67.4050    14.2140    13.1330    16.3960    23.7240     2.5050    -3.6170 
  232.5000    68.9400    13.8520    12.7570    15.2520    23.8350     2.4920    -3.5930 
  232.6250    68.3530    13.4560    12.3440    14.6400    23.9870     2.4730    -3.4800 
  232.7500    66.6000    13.1390    12.0070    12.9970    24.0510     2.4520    -3.3250 
  232.8750    63.8450    13.0500    11.8770    10.8670    23.9850     2.4360    -3.1510 
  233.0000    60.4800    13.3390    12.0750     9.3020    23.8470     2.4260    -2.9890 
  233.1250    58.9050    14.1960    12.7590     9.0770    23.8070     2.4180    -2.8940 
  233.2500    59.5760    15.5290    13.8700     9.6040    23.9220     2.4110    -2.8610 
  233.3750    60.5920    17.1960    15.3260    10.7260    24.0680     2.4080    -2.8960 
  233.5000    60.9540    18.9200    16.9230    12.4400    24.0890     2.4210    -2.9890 
  233.6250    60.8870    20.2430    18.2710    13.7650    23.9160     2.4610    -3.1590 
  233.7500    61.0600    20.9300    19.0880    15.0460    23.6890     2.5220    -3.3560 
  233.8750    61.3980    20.9700    19.3150    17.7480    23.5140     2.5850    -3.5570 
  234.0000    62.5910    20.5770    19.1010    23.1480    23.4250     2.6270    -3.7460 
  234.1250    64.8250    20.0710    18.7100    29.6500    23.4470     2.6220    -3.9220 
  234.2500    68.1250    19.6920    18.3780    33.4030    23.6000     2.5720    -4.0790 
  234.3750    72.3030    19.4660    18.1570    34.7410    23.8520     2.4930    -4.2220 
  234.5000    74.0000    19.3020    17.9940    35.0510    24.0510     2.4120    -4.3630 
  234.6250    70.6570    19.0710    17.8060    33.5900    24.0520     2.3670    -4.5050 
  234.7500    67.3410    18.7570    17.5760    30.2590    23.9500     2.3720    -4.6470 
  234.8750    66.5970    18.4550    17.3670    26.2550    23.8720     2.4210    -4.7840 
  235.0000    66.6370    18.3220    17.2890    23.9260    23.8640     2.4910    -4.9310 
  235.1250    64.2830    18.5590    17.5170    24.5120    23.9030     2.5470    -5.0740 
  235.2500    62.2610    19.1660    18.0870    27.6270    23.9360     2.5690    -5.2240 
  235.3750    62.6040    20.0910    18.9940    32.0400    23.9580     2.5580    -5.3410 
  235.5000    63.9920    21.1880    20.1330    36.7680    23.9890     2.5300    -5.4010 
  235.6250    64.2420    22.1720    21.2520    41.4810    24.0080     2.5040    -5.3670 
  235.7500    62.6880    22.7760    22.0400    43.8820    24.0030     2.4890    -5.2510 
  235.8750    61.5570    22.8470    22.3120    39.6850    23.9840     2.4800    -5.0390 
  236.0000    61.8000    22.3840    22.0350    30.2050    23.9780     2.4750    -4.7110 
  236.1250    61.5000    21.5300    21.3070    22.4570    23.9990     2.4740    -4.2260 
  236.2500    60.5610    20.6280    20.4590    18.6000    24.0040     2.4850    -3.6250 
  236.3750    60.7280    19.8790    19.7100    17.3700    23.9660     2.5100    -2.9780 
  236.5000    63.3550    19.3720    19.1830    17.9700    23.9060     2.5440    -2.3310 
  236.6250    66.0630    19.1120    18.9290    21.1730    23.8670     2.5680    -1.7070 
  236.7500    67.0590    18.9570    18.8140    23.5010    23.8250     2.5720    -1.1320 
  236.8750    66.3450    18.8110    18.7370    21.3950    23.7590     2.5550    -0.6210 
  237.0000    63.9550    18.6330    18.6290    17.9980    23.6850     2.5280    -0.1830 
  237.1250    62.9550    18.4620    18.4880    17.3440    23.6180     2.5060     0.1180 
  237.2500    64.4740    18.3630    18.3780    18.2670    23.5530     2.4950     0.3300 
  237.3750    66.7930    18.3760    18.3520    18.3000    23.5110     2.4900     0.5000 
  237.5000    67.3030    18.4930    18.4310    17.6410    23.4950     2.4900     0.6470 
  237.6250    66.4160    18.6520    18.5930    17.3470    23.4220     2.4940     0.7600 
  237.7500    66.5720    18.7680    18.7640    17.2690    23.2930     2.5040     0.8820 
  237.8750    68.3060    18.7980    18.9000    17.0550    23.2470     2.5180     0.9990 
  238.0000    69.7270    18.7540    18.9770    17.0710    23.3970     2.5340     1.1110 
  238.1250    68.6130    18.6880    18.9930    17.6230    23.6700     2.5480     1.2300 
  238.2500    65.8870    18.6600    18.9900    17.9160    23.8620     2.5610     1.3450 
  238.3750    63.4370    18.7020    19.0010    17.9820    23.9270     2.5710     1.4430 
  238.5000    61.3340    18.8120    19.0590    18.4090    23.9230     2.5760     1.5320 
  238.6250    60.0390    18.9770    19.1830    19.3460    23.9080     2.5720     1.6230 
  238.7500    61.4810    19.1550    19.3400    20.1130    23.8960     2.5640     1.6930 
  238.8750    63.4400    19.3030    19.4770    20.4000    23.8810     2.5580     1.7450 
  239.0000    63.1740    19.3680    19.5350    20.7730    23.8800     2.5600     1.7690 
  239.1250    61.7140    19.2690    19.4330    21.7440    23.9150     2.5710     1.7790 
  239.2500    62.2350    19.0300    19.1890    22.6290    23.9590     2.5850     1.7780 
  239.3750    64.2730    18.7240    18.8590    22.0750    23.9750     2.5930     1.7830 
  239.5000    64.9510    18.4660    18.5460    19.9530    23.9520     2.5910     1.7880 
  239.6250    64.0900    18.4160    18.4050    18.5120    23.9170     2.5750     1.8070 
  239.7500    63.2310    18.6090    18.4970    18.7240    23.8950     2.5540     1.8270 
  239.8750    62.5790    19.0130    18.8150    19.9910    23.8940     2.5350     1.8510 
  240.0000    62.4040    19.5280    19.2650    21.6820    23.9190     2.5270     1.8910 
  240.1250    62.3100    20.0110    19.7040    23.3250    23.9740     2.5340     1.9400 
  240.2500    63.0810    20.3880    20.0480    24.2000    24.0190     2.5510     1.9790 
  240.3750    65.1800    20.6610    20.2900    24.1190    24.0330     2.5710     2.0150 
  240.5000    68.1810    20.8600    20.4480    23.3600    24.0170     2.5890     2.0430 
  240.6250    69.0170    20.9700    20.5080    22.7640    23.9850     2.6040     2.0460 
  240.7500    66.2940    20.9500    20.4310    23.8640    23.9650     2.6170     2.0370 
  240.8750    63.1680    20.7480    20.1800    27.4860    23.9690     2.6290     2.0280 
  241.0000    63.4300    20.3750    19.7650    31.4610    23.9890     2.6350     2.0370 
  241.1250    65.0850    18.8820    19.2760    30.7380    23.9990     2.6250     2.0710 
