~V
VERS. 2.00: Ver 2.00
~W
STRT.M 55.0000:
STOP.M 293.0000:
STEP.M 0.1250:
NULL. -999.2500:
UWI. F10038:
~C
DEPT.M :
SP.MV :
DEN.GM/CC :
GR.API :
RML.OHMM :
RI. :
RXO.OHMM :
CALI.CM :
~A
# ...
  156.2500    -5.8990     2.4120    86.7450     7.7380     6.5870     9.5650    24.5640 
  156.3750    -5.6490     2.4010    89.7310     7.2370     6.2640     8.5470    24.6550 
  156.5000    -5.4440     2.3880    89.6390     6.7040     5.8600     7.0920    24.6570 
  156.6250    -5.2830     2.3810    88.0140     6.3110     5.5050     6.4270    24.6330 
  156.7500    -5.1610     2.3790    87.2720     6.1030     5.2740     6.2180    24.6100 
  156.8750    -5.0980     2.3790    87.7030     6.0630     5.1820     6.3260    24.6060 
  157.0000    -5.1030     2.3780    87.9380     6.1350     5.2000     6.6160    24.5970 
  157.1250    -5.1450     2.3740    86.7230     6.2430     5.2720     6.7920    24.6000 
  157.2500    -5.2220     2.3730    86.0610     6.3100     5.3290     6.7780    24.6390 
  157.3750    -5.3210     2.3740    87.9320     6.3010     5.3390     6.6260    24.6980 
  157.5000    -5.4200     2.3770    92.3790     6.2040     5.2900     6.5060    24.7310 
  157.6250    -5.5390     2.3790    95.4090     6.0220     5.1820     6.4430    24.7310 
  157.7500    -5.6890     2.3790    94.4270     5.8090     5.0470     6.3550    24.7150 
  157.8750    -5.8610     2.3780    93.6840     5.6200     4.9190     6.3180    24.6920 
  158.0000    -6.0300     2.3780    95.4700     5.5110     4.8370     6.3960    24.6750 
  158.1250    -6.2060     2.3790    96.5870     5.5740     4.8760     6.6460    24.6640 
  158.2500    -6.3660     2.3790    91.8900     5.8530     5.0850     7.0510    24.6490 
  158.3750    -6.4990     2.3740    82.9460     6.3930     5.5110     7.6770    24.6260 
  158.5000    -6.6350     2.3580    76.1950     7.1770     6.1500     8.6780    24.6080 
  158.6250    -6.7810     2.3320    75.0850     8.0690     6.9110     9.6690    24.5910 
  158.7500    -6.9220     2.3030    76.0840     8.7700     7.5620    10.8160    24.5770 
  158.8750    -7.0120     2.2800    76.4650     9.0110     7.8940    11.9490    24.5790 
  159.0000    -7.0440     2.2710    76.4040     8.6630     7.7790    12.6700    24.6140 
  159.1250    -7.0210     2.2820    78.9850     7.8540     7.2500    11.4790    24.6820 
  159.2500    -6.9640     2.3090    81.9980     7.1030     6.6890     9.5600    24.7480 
  159.3750    -6.9080     2.3480    83.2860     6.8460     6.4360     8.8950    24.8260 
  159.5000    -6.8610     2.3960    83.4800     7.3340     6.7630    10.7980    24.8940 
  159.6250    -6.8230     2.4460    82.1260     9.0050     7.9460    15.4600    24.9100 
  159.7500    -6.7910     2.4850    78.4980    11.5310     9.8100    21.6160    24.8590 
  159.8750    -6.8000     2.4970    73.2030    14.5970    12.0850    27.8750    24.7470 
  160.0000    -6.8850     2.4720    69.7490    17.5800    14.3330    30.5790    24.6300 
  160.1250    -7.0350     2.4090    69.5220    19.0930    15.9660    27.2830    24.5390 
  160.2500    -7.2060     2.3360    69.8340    19.6420    16.8780    23.3770    24.4330 
  160.3750    -7.3810     2.2730    68.6140    19.6650    17.2610    21.2790    24.2950 
  160.5000    -7.5380     2.2330    64.1440    19.6570    17.4510    21.1170    24.1840 
  160.6250    -7.6450     2.2200    59.4850    19.9260    17.7270    21.5210    24.1150 
  160.7500    -7.7090     2.2220    59.1740    20.4490    18.1620    21.1790    24.0570 
  160.8750    -7.7500     2.2260    62.2570    21.1660    18.7440    20.3920    24.0370 
  161.0000    -7.7640     2.2300    64.5400    22.0050    19.4440    19.9830    24.1540 
  161.1250    -7.7520     2.2390    63.3210    22.8390    20.1790    19.8130    24.4430 
  161.2500    -7.7490     2.2590    61.1180    23.4630    20.7830    19.5260    24.7470 
  161.3750    -7.7320     2.2840    60.5410    23.6730    21.0770    19.1750    24.8810 
  161.5000    -7.7280     2.3030    61.6550    23.3370    20.9250    18.8540    24.7530 
  161.6250    -7.7550     2.3010    62.3180    22.4450    20.2570    18.6280    24.4160 
  161.7500    -7.8070     2.2810    62.2440    21.3630    19.3350    18.1870    24.1820 
  161.8750    -7.8500     2.2510    63.5410    20.3940    18.4170    17.5740    24.1230 
  162.0000    -7.8620     2.2220    66.7740    19.7610    17.7290    17.2860    24.1640 
  162.1250    -7.8570     2.2020    67.4810    19.6470    17.4930    17.3510    24.2050 
  162.2500    -7.8350     2.1890    63.9580    19.9780    17.6900    17.7480    24.1720 
  162.3750    -7.8120     2.1840    59.5920    20.6850    18.2760    18.4950    24.0710 
  162.5000    -7.7770     2.1880    58.9940    21.6490    19.1430    19.4910    23.9730 
  162.6250    -7.7080     2.1980    60.4180    22.6830    20.1250    20.4440    23.8990 
  162.7500    -7.6120     2.2100    59.7220    23.5400    20.9920    20.4620    23.8780 
  162.8750    -7.5390     2.2200    58.7370    24.0250    21.5620    20.3640    23.9340 
  163.0000    -7.4960     2.2250    61.2990    24.0190    21.7110    20.4570    24.0610 
  163.1250    -7.4960     2.2250    65.5350    23.4950    21.3790    20.7170    24.1570 
  163.2500    -7.5390     2.2230    65.9390    22.7510    20.8010    20.7060    24.1990 
  163.3750    -7.6180     2.2220    62.9050    22.0440    20.1950    20.4320    24.2140 
  163.5000    -7.7100     2.2210    60.4850    21.6050    19.7670    20.0060    24.1940 
  163.6250    -7.8040     2.2200    62.1320    21.6660    19.7420    19.8500    24.1210 
  163.7500    -7.9020     2.2160    65.0650    22.1900    20.1270    20.7410    24.0100 
  163.8750    -7.9860     2.2100    65.8340    23.0830    20.8680    22.4780    23.9070 
  164.0000    -8.0760     2.2020    63.7290    24.1510    21.8230    24.1130    23.8090 
  164.1250    -8.1580     2.1930    60.8200    25.0950    22.7620    25.6490    23.6910 
  164.2500    -8.2350     2.1850    58.9670    25.6980    23.4770    26.9370    23.5730 
  164.3750    -8.3060     2.1790    58.1770    25.8880    23.8710    27.2240    23.5300 
  164.5000    -8.3810     2.1760    59.0270    25.7380    23.9550    26.6000    23.5370 
  164.6250    -8.4930     2.1750    61.1220    25.3840    23.8020    25.6180    23.5460 
  164.7500    -8.6380     2.1770    61.1700    24.9880    23.5570    24.9850    23.5720 
  164.8750    -8.8100     2.1790    58.9820    24.6000    23.2810    24.6800    23.6570 
  165.0000    -8.9730     2.1820    56.6640    24.2220    22.9970    24.4160    23.7500 
  165.1250    -9.1210     2.1860    58.3420    23.8320    22.7010    23.6540    23.8350 
  165.2500    -9.2390     2.1910    62.6750    23.4190    22.3800    22.8870    23.9040 
  165.3750    -9.3240     2.1970    65.4030    22.9700    22.0220    22.0050    23.8990 
  165.5000    -9.3880     2.2040    65.0180    22.4590    21.5990    21.1050    23.8220 
  165.6250    -9.4420     2.2110    65.0240    21.8260    21.0550    20.1330    23.7000 
  165.7500    -9.4860     2.2150    67.8950    21.0810    20.3940    19.0310    23.5670 
  165.8750    -9.5030     2.2140    70.2090    20.2840    19.6560    17.9700    23.4400 
  166.0000    -9.5170     2.2090    68.7060    19.5510    18.9410    16.6580    23.3300 
  166.1250    -9.5590     2.2020    67.0450    19.0590    18.4140    15.6380    23.2760 
  166.2500    -9.6270     2.2000    68.5420    18.8550    18.1500    15.2820    23.2990 
  166.3750    -9.7210     2.2050    69.8030    18.9230    18.1650    15.8320    23.4080 
  166.5000    -9.8340     2.2140    67.7480    19.1820    18.4080    16.8250    23.5560 
  166.6250    -9.9150     2.2230    64.6060    19.5370    18.8030    17.7340    23.7380 
  166.7500    -9.9840     2.2270    63.9780    19.9120    19.2500    18.3650    23.8860 
  166.8750   -10.0520     2.2260    65.1270    20.3290    19.7350    18.9050    23.9410 
  167.0000   -10.1390     2.2250    66.0460    20.8560    20.2910    19.7430    23.9090 
  167.1250   -10.2460     2.2340    65.4740    21.5750    20.9720    20.9400    23.9410 
  167.2500   -10.3530     2.2560    61.8090    22.4230    21.7350    22.1530    24.0940 
  167.3750   -10.4280     2.2890    57.0830    23.2940    22.4890    23.3920    24.2380 
