~V
VERS. 2.00: Ver 2.00
~W
STRT.M 55.0000:
STOP.M 293.0000:
STEP.M 0.1250:
NULL. -999.2500:
UWI. F10038:
~C
DEPT.M :
SP.MV :
DEN.GM/CC :
GR.API :
RML.OHMM :
RI. :
RXO.OHMM :
CALI.CM :
~A
# ...
  246.2500   -12.7560     2.3420    54.9380    29.9630    25.1060    32.6680    24.4530 
  246.3750   -13.0980     2.3210    54.3830    31.7080    27.1180    37.7540    24.6830 
  246.5000   -13.5010     2.2990    55.1770    32.5260    28.5620    40.6140    24.7820 
  246.6250   -13.9490     2.2790    56.0220    32.8760    29.5900    40.2370    24.7600 
  246.7500   -14.4250     2.2700    55.8270    33.9080    30.9470    40.5950    24.7310 
  246.8750   -14.9110     2.2810    55.8100    36.4130    33.3290    42.5540    24.7120 
  247.0000   -15.3930     2.3190    56.8260    40.4080    36.9990    46.1980    24.6480 
  247.1250   -15.8230     2.3850    57.4760    44.4910    41.2120    51.5260    24.4990 
  247.2500   -16.1650     2.4610    55.6660    46.1150    43.9110    56.7040    24.3130 
  247.3750   -16.3560     2.5310    51.8290    43.0840    43.0660    60.0930    24.1520 
  247.5000   -16.3390     2.5850    48.3910    34.8520    37.6050    59.8690    24.0070 
  247.6250   -16.0290     2.6100    47.7370    24.2740    28.4490    49.1670    24.0360 
  247.7500   -15.4200     2.6090    51.0740    15.9190    19.4780    32.2540    24.1980 
  247.8750   -14.5460     2.5810    56.4660    10.7080    12.7530    17.4860    24.3040 
  248.0000   -13.4770     2.5380    59.2470     7.8640     8.5720     9.4860    24.3600 
  248.1250   -12.3020     2.4930    56.3570     6.6600     6.5350     6.6100    24.3630 
  248.2500   -11.1540     2.4600    54.4060     6.2360     5.5920     6.2070    24.3530 
  248.3750   -10.1170     2.4420    55.4890     6.2160     5.2780     6.4000    24.3550 
  248.5000    -9.2350     2.4350    55.8400     6.2930     5.2460     6.4570    24.3260 
  248.6250    -8.6030     2.4310    51.6550     6.2110     5.2260     6.2370    24.2530 
  248.7500    -8.2550     2.4250    47.4410     5.9480     5.0970     6.0980    24.1590 
  248.8750    -8.1640     2.4190    48.2740     5.6350     4.9060     6.0220    24.0860 
  249.0000    -8.2640     2.4160    52.7540     5.4540     4.7760     6.0430    24.0560 
  249.1250    -8.5040     2.4220    58.1910     5.5850     4.8750     6.2150    24.0670 
  249.2500    -8.7890     2.4340    63.8990     6.0080     5.2230     7.1350    24.1110 
  249.3750    -9.0790     2.4460    69.6340     6.6560     5.7830     8.4440    24.1930 
  249.5000    -9.3750     2.4540    75.1810     7.4030     6.4500     9.6070    24.2930 
  249.6250    -9.6440     2.4500    81.6620     8.0540     7.0530     9.8300    24.3270 
  249.7500    -9.8850     2.4400    90.7870     8.4890     7.4700     9.8900    24.3510 
  249.8750   -10.1120     2.4300    97.9230     8.7030     7.6860     9.8680    24.4770 
  250.0000   -10.3210     2.4260    97.3560     8.8110     7.7900     9.9770    24.5670 
  250.1250   -10.5300     2.4330    92.4250     9.0330     7.9700    10.4140    24.5130 
  250.2500   -10.7670     2.4490    90.8700     9.5480     8.3820    11.2950    24.3360 
  250.3750   -11.0350     2.4700    92.5870    10.4730     9.1280    12.8420    24.0870 
  250.5000   -11.3220     2.4910    92.5400    11.8600    10.2490    15.1190    23.8100 
  250.6250   -11.6730     2.4970    88.3590    13.6990    11.7420    18.1150    23.7220 
  250.7500   -12.0550     2.4840    83.2780    15.7190    13.3950    20.6710    23.6310 
  250.8750   -12.4450     2.4540    78.4390    17.6700    15.0270    23.0690    23.5820 
  251.0000   -12.8480     2.4140    73.8970    19.3720    16.4990    24.8160    23.5710 
  251.1250   -13.2420     2.3740    72.6850    20.7590    17.7890    24.9670    23.6420 
  251.2500   -13.6110     2.3410    74.1330    22.0680    19.1140    25.5510    23.7170 
  251.3750   -13.9530     2.3120    74.7720    23.7640    20.7380    27.8700    23.7730 
  251.5000   -14.2700     2.2880    71.9890    26.1630    22.9500    32.6360    23.8940 
  251.6250   -14.5390     2.2700    68.9290    30.4100    26.2910    37.8600    24.1460 
  251.7500   -14.7770     2.2700    69.1090    36.6300    31.1270    43.1210    24.4150 
  251.8750   -14.9790     2.2960    70.2940    45.7490    38.0790    53.1600    24.5260 
  252.0000   -15.1430     2.3540    67.2710    58.4670    47.7890    70.6050    24.5210 
  252.1250   -15.2930     2.4330    59.4420    73.6880    61.0290   100.4540    24.4700 
  252.2500   -15.4330     2.5080    53.6800    91.3350    76.4180   135.2130    24.4660 
  252.3750   -15.5870     2.5580    52.1180   108.7960    91.8870   160.1620    24.4800 
  252.5000   -15.7720     2.5740    51.6100   122.4740   104.6460   160.1100    24.5140 
  252.6250   -16.0100     2.5580    50.7560   128.0260   111.2260   132.5770    24.5230 
  252.7500   -16.3000     2.5210    52.7360   126.6560   112.0330   113.6370    24.4850 
  252.8750   -16.6400     2.4660    55.9400   121.2940   108.7150   107.3500    24.4050 
  253.0000   -17.0170     2.4010    56.4970   115.3480   103.7100   108.7960    24.3410 
  253.1250   -17.3970     2.3410    55.3930   111.0580    99.1920   114.9460    24.3580 
  253.2500   -17.7590     2.2980    54.8330   108.3270    95.9760   118.7020    24.4000 
  253.3750   -18.0840     2.2740    54.7080   106.7970    94.2200   117.6270    24.4070 
  253.5000   -18.3660     2.2650    54.9560   106.2470    93.8890   116.7840    24.3920 
  253.6250   -18.5770     2.2620    56.2870   106.5970    94.8670   116.4440    24.4010 
  253.7500   -18.7260     2.2620    57.2140   107.1970    96.3410   113.8470    24.4500 
  253.8750   -18.8440     2.2650    55.8610   107.4030    97.5670   111.8030    24.3380 
  254.0000   -18.9580     2.2720    53.9420   106.4910    97.7870   113.7540    23.9980 
  254.1250   -19.0680     2.2780    54.1480   104.0490    96.1280   110.8520    23.6420 
  254.2500   -19.2020     2.2810    56.1300   100.5350    92.7310   100.1270    23.4730 
  254.3750   -19.3730     2.2800    58.0040    96.6880    87.9540    88.1180    23.4560 
  254.5000   -19.5810     2.2830    57.8590    93.3230    82.4600    77.6930    23.4360 
  254.6250   -19.8490     2.2910    56.2020    89.1160    77.2030    72.2960    23.4040 
  254.7500   -20.1670     2.3020    55.2870    84.7420    73.0160    68.6490    23.3100 
  254.8750   -20.5120     2.3060    55.8950    81.8600    70.4520    66.2620    23.1360 
  255.0000   -20.8870     2.2950    57.7880    81.3360    69.8660    68.0430    22.9710 
  255.1250   -21.3300     2.2700    58.0840    83.5870    71.8830    74.3090    23.0300 
  255.2500   -21.8090     2.2440    57.2540    88.4160    76.2870    78.6630    23.2930 
  255.3750   -22.3020     2.2290    56.9110    95.8010    83.0270    83.4280    23.7310 
  255.5000   -22.7980     2.2260    56.5570   105.3510    91.7300    89.6370    24.2140 
  255.6250   -23.2740     2.2350    55.7100   116.1840   101.5880   103.2220    24.4170 
  255.7500   -23.7310     2.2450    55.1970   126.4440   110.9580   118.4130    24.4330 
  255.8750   -24.1750     2.2540    56.2940   134.3710   118.3510   131.4600    24.3930 
  256.0000   -24.5740     2.2580    56.3780   138.3700   122.4670   138.3340    24.3770 
  256.1250   -24.8800     2.2610    53.0490   136.6520   121.8050   136.9580    24.3760 
  256.2500   -25.1050     2.2650    50.6980   130.2640   117.0820   129.2410    24.3900 
  256.3750   -25.2470     2.2700    52.5010   120.4350   109.0520   117.6590    24.4140 
  256.5000   -25.3180     2.2750    58.6810   109.1880    99.0810   107.6310    24.4210 
  256.6250   -25.3180     2.2760    65.1160    99.4960    89.4660    99.1050    24.3910 
  256.7500   -25.2700     2.2720    67.5560    93.5330    82.8080    86.5620    24.3190 
  256.8750   -25.1750     2.2630    64.8370    93.2970    81.6790    75.5120    24.2160 
  257.0000   -25.0500     2.2520    58.3980   101.7490    89.0070    78.2730    24.1510 
  257.1250   -24.9000     2.2430    52.4800   125.3250   109.9840   108.3780    24.1990 
  257.2500   -24.7300     2.2390    50.7860   164.0540   143.6920   155.0110    24.2480 
  257.3750   -24.5500     2.2430    52.4640   214.2230   186.6290   207.8310    24.2590 
