~V
VERS. 2.00: Ver 2.00
~W
STRT.M 50.0000:
STOP.M 293.0000:
STEP.M 0.1250:
NULL. -999.2500:
UWI. F10045:
~C
DEPT.M :
DEN.GM/CC :
SP.MV :
GR.API :
CALI.CM :
RXO.OHMM :
RI. :
RML.OHMM :
~A
# ...
  128.7500     2.2800   -11.9500   130.7560    24.2210     5.1010     4.4380     5.4720 
  128.8750     2.2680   -12.5420   118.9380    24.1420     5.3520     4.6050     5.7830 
  129.0000     2.2590   -13.1150   108.5150    24.0050     5.5890     4.8330     6.1810 
  129.1250     2.2480   -13.6940   104.1180    23.8880     5.7760     5.0640     6.6100 
  129.2500     2.2320   -14.2620   102.5450    23.7380     5.9110     5.2230     6.9200 
  129.3750     2.2180   -14.8110   101.2400    23.5750     5.9510     5.2570     6.9750 
  129.5000     2.2140   -15.3230    99.6870    23.4690     5.8960     5.1430     6.7370 
  129.6250     2.2230   -15.9120    99.5100    23.4620     5.7310     4.9150     6.3120 
  129.7500     2.2400   -16.6290   101.2920    23.5140     5.4710     4.7020     5.9460 
  129.8750     2.2610   -17.4550   103.7540    23.6070     5.2310     4.6140     5.8090 
  130.0000     2.2840   -18.3910   103.9710    23.7350     5.2490     4.7300     5.9880 
  130.1250     2.3020   -19.3460    99.9040    23.7710     5.8490     5.1150     6.5510 
  130.2500     2.3130   -20.3190    94.1840    23.6610     6.7190     5.6780     7.3620 
  130.3750     2.3130   -21.1910    89.1800    23.5270     7.4650     6.2990     8.2450 
  130.5000     2.2940   -21.9720    87.4320    23.4100     7.7860     6.8140     8.9490 
  130.6250     2.2520   -22.5880    87.9550    23.2460     7.8900     7.0340     9.1510 
  130.7500     2.2040   -22.9790    89.5820    23.1410     8.1220     6.9910     8.9280 
  130.8750     2.1730   -23.2000    90.8600    23.2070     8.4130     6.7940     8.4930 
  131.0000     2.1640   -23.3200    88.7240    23.3520     8.4520     6.5710     8.0850 
  131.1250     2.1710   -23.4640    84.4970    23.4340     8.0970     6.4280     7.8860 
  131.2500     2.1750   -23.5890    81.1270    23.4200     7.7130     6.3740     7.8790 
  131.3750     2.1700   -23.7370    79.8660    23.4010     7.5320     6.3920     7.9930 
  131.5000     2.1570   -23.9300    81.4100    23.4320     7.5310     6.4600     8.1410 
  131.6250     2.1470   -24.1130    85.8650    23.5080     7.5170     6.5670     8.2640 
  131.7500     2.1480   -24.3600    89.1260    23.5500     7.5030     6.6950     8.3930 
  131.8750     2.1580   -24.6030    86.5420    23.5620     7.7070     6.8350     8.5680 
  132.0000     2.1650   -24.9120    82.8400    23.5690     8.2240     6.9710     8.7980 
  132.1250     2.1630   -25.2390    86.7820    23.6020     8.7640     7.0680     9.0400 
  132.2500     2.1590   -25.5620    93.6780    23.6650     8.9370     7.0960     9.2090 
  132.3750     2.1600   -25.9490    98.3290    23.7230     8.7010     7.0430     9.2400 
  132.5000     2.1630   -26.3150    98.7070    23.7460     8.2850     6.9220     9.1260 
  132.6250     2.1590   -26.7200    93.9160    23.7200     8.0390     6.7700     8.9440 
  132.7500     2.1460   -27.0840    85.8080    23.6580     8.0320     6.6350     8.8160 
  132.8750     2.1290   -27.4260    79.0430    23.5960     8.1220     6.5350     8.7840 
  133.0000     2.1160   -27.6630    77.2750    23.5660     8.2040     6.4760     8.8240 
  133.1250     2.1170   -27.8050    78.0180    23.5960     8.2790     6.4600     8.8750 
  133.2500     2.1260   -27.9350    77.6380    23.6850     8.3310     6.4730     8.8900 
  133.3750     2.1310   -27.9820    77.0410    23.8000     8.3490     6.4990     8.8800 
  133.5000     2.1260   -27.9750    79.6340    23.8640     8.3820     6.5250     8.8790 
  133.6250     2.1150   -27.8420    82.4660    23.8760     8.4440     6.5420     8.9160 
  133.7500     2.1090   -27.6880    80.2350    23.8760     8.4610     6.5510     8.9490 
  133.8750     2.1110   -27.4880    75.1130    23.8710     8.4730     6.5490     8.9440 
  134.0000     2.1190   -27.2980    72.4320    23.8580     8.5930     6.5440     8.8980 
  134.1250     2.1260   -27.0640    73.4200    23.8300     8.8990     6.5580     8.8530 
  134.2500     2.1260   -26.7610    73.6870    23.8090     9.2500     6.6010     8.8520 
  134.3750     2.1210   -26.4850    74.7750    23.7950     9.5440     6.6650     8.9060 
  134.5000     2.1180   -26.2000    77.7450    23.7850     9.6470     6.7140     8.9700 
  134.6250     2.1270   -25.9690    79.5540    23.7600     9.5550     6.6980     8.9580 
  134.7500     2.1430   -25.8180    79.7280    23.6720     9.2720     6.6170     8.8390 
  134.8750     2.1580   -25.7590    79.7710    23.5120     8.8910     6.4970     8.6490 
  135.0000     2.1670   -25.7480    82.0880    23.3480     8.6450     6.3800     8.4650 
  135.1250     2.1690   -25.8010    86.9060    23.3050     8.7320     6.3000     8.3870 
  135.2500     2.1660   -25.9980    90.4760    23.3250     8.9360     6.2560     8.4220 
  135.3750     2.1600   -26.2270    89.7200    23.3830     8.9950     6.2460     8.5020 
  135.5000     2.1520   -26.5410    84.4580    23.4560     8.8260     6.2660     8.5290 
  135.6250     2.1460   -26.8540    77.9120    23.4800     8.5010     6.3120     8.4490 
  135.7500     2.1430   -27.0530    74.4000    23.4690     8.2180     6.3670     8.3360 
  135.8750     2.1400   -27.1980    74.0680    23.4650     8.0830     6.4220     8.2790 
  136.0000     2.1390   -27.3220    74.2620    23.5060     8.1370     6.4610     8.3150 
  136.1250     2.1400   -27.3740    73.0750    23.5710     8.4020     6.4680     8.4060 
  136.2500     2.1430   -27.3100    75.0750    23.5820     8.6510     6.4480     8.4690 
  136.3750     2.1430   -27.2090    80.1570    23.5750     8.7020     6.4080     8.4770 
  136.5000     2.1350   -27.0110    83.0280    23.6040     8.5170     6.3660     8.4510 
  136.6250     2.1230   -26.7450    80.0620    23.6450     8.2430     6.3380     8.4370 
  136.7500     2.1150   -26.5010    77.4370    23.6900     8.0500     6.3310     8.4430 
  136.8750     2.1090   -26.1980    78.2910    23.7170     8.2010     6.3460     8.4450 
  137.0000     2.1030   -25.8340    78.0950    23.7160     8.6860     6.3810     8.4270 
  137.1250     2.0980   -25.3810    77.4300    23.7030     9.1900     6.4190     8.3720 
  137.2500     2.0980   -24.8360    80.6460    23.6960     9.4180     6.4400     8.2770 
  137.3750     2.1030   -24.1180    85.6730    23.6940     9.4520     6.4380     8.1380 
  137.5000     2.1110   -23.3020    88.1310    23.6730     9.2360     6.4310     7.9710 
  137.6250     2.1170   -22.3600    86.5430    23.5880     8.6970     6.4310     7.8140 
  137.7500     2.1210   -21.1980    85.1820    23.4500     8.2190     6.4090     7.6630 
  137.8750     2.1280   -19.8800    85.1090    23.3460     8.0550     6.3060     7.4610 
  138.0000     2.1510   -18.3980    83.8330    23.3070     8.0150     6.0620     7.1450 
  138.1250     2.1990   -16.9400    81.7990    23.3180     7.5040     5.6560     6.6690 
  138.2500     2.2540   -15.5700    82.2310    23.3780     6.4950     5.1880     6.1200 
  138.3750     2.2950   -14.3660    89.9380    23.4940     5.4560     4.7540     5.5880 
  138.5000     2.3110   -13.3590   101.8590    23.6250     4.9110     4.4220     5.1580 
  138.6250     2.3080   -12.5780   107.2370    23.7770     4.9430     4.2420     4.9130 
  138.7500     2.3030   -12.0840   107.9250    23.8480     5.1810     4.1810     4.8290 
  138.8750     2.3020   -11.8550   109.9940    23.8220     5.3750     4.2080     4.8750 
  139.0000     2.2990   -11.8830   114.4270    23.7730     5.4450     4.2840     4.9870 
  139.1250     2.2900   -11.9970   120.7910    23.7410     5.4390     4.3800     5.0890 
  139.2500     2.2790   -12.1270   125.9150    23.6980     5.5130     4.4780     5.1530 
  139.3750     2.2720   -12.2840   124.5580    23.6430     5.6540     4.5790     5.1960 
  139.5000     2.2670   -12.4440   114.4510    23.6030     5.7000     4.6780     5.2520 
  139.6250     2.2610   -12.5610   104.3150    23.6060     5.7620     4.7680     5.3400 
  139.7500     2.2510   -12.5970   104.5210    23.5670     5.9050     4.8370     5.4450 
  139.8750     2.2390   -12.6320   110.2460    23.4720     5.9860     4.8680     5.5430 
