~V
VERS. 2.00: Ver 2.00
~W
STRT.M 50.0000:
STOP.M 274.0000:
STEP.M 0.1250:
NULL. -999.2500:
UWI. F10029:
~C
DEPT.M :
DEN.GM/CC :
SP.MV :
GR.API :
CALI.CM :
RXO.OHMM :
RI. :
RML.OHMM :
~A
# ...
  252.5000     2.2910   -20.6000    55.8670    20.4150     5.0610     5.0740     6.3680 
  252.6250     2.2990   -20.9110    55.3080    19.8010     5.0840     4.9260     6.2090 
  252.7500     2.3160   -21.2800    58.5560    19.2090     5.0800     4.8450     6.1220 
  252.8750     2.3280   -21.6990    64.6660    18.9060     4.9120     4.8490     6.1260 
  253.0000     2.3190   -22.1190    68.8560    18.9470     4.7010     4.9540     6.2390 
  253.1250     2.2820   -22.5590    66.7320    19.4310     4.7600     5.2090     6.5120 
  253.2500     2.2390   -22.9330    64.7430    20.1730     5.2190     5.6080     6.9390 
  253.3750     2.2150   -23.2380    67.3720    20.8600     5.8490     6.1130     7.4810 
  253.5000     2.2130   -23.4790    74.2200    21.1920     6.4080     6.6230     8.0260 
  253.6250     2.2180   -23.5800    81.7750    21.2520     6.6120     6.9120     8.3360 
  253.7500     2.2150   -23.5250    87.2240    21.3160     6.4840     6.8490     8.2690 
  253.8750     2.2120   -23.3970    86.8180    21.5610     5.9880     6.4500     7.8410 
  254.0000     2.2190   -23.2780    78.9190    22.0990     5.3650     5.8690     7.2190 
  254.1250     2.2330   -23.2240    68.5530    22.6270     5.0090     5.3280     6.6390 
  254.2500     2.2400   -23.2230    61.5550    22.9990     4.9690     4.9850     6.2720 
  254.3750     2.2320   -23.3310    58.6630    23.1540     5.0660     4.9340     6.2170 
  254.5000     2.2170   -23.6010    59.2840    23.1900     5.3520     5.2420     6.5470 
  254.6250     2.2150   -24.0430    64.0650    23.1730     6.7190     6.0250     7.3860 
  254.7500     2.2310   -24.5650    71.6850    23.1020     9.8620     7.2210     8.6670 
  254.8750     2.2550   -25.1320    78.5210    22.9640    13.5690     8.7340    10.2870 
  255.0000     2.2770   -25.6500    82.4170    22.8400    15.3980    10.3100    11.9760 
  255.1250     2.2940   -26.1140    84.7330    22.7950    14.8510    11.4510    13.1980 
  255.2500     2.3060   -26.5960    87.1000    22.7870    14.1900    11.9160    13.6970 
  255.3750     2.3060   -27.0090    88.9910    22.7870    13.6660    11.7690    13.5390 
  255.5000     2.2970   -27.2970    89.3970    22.7850    12.3630    11.3040    13.0410 
  255.6250     2.2840   -27.5450    90.3740    22.7750     9.9750    10.8890    12.5960 
  255.7500     2.2720   -27.8340    92.3700    22.7350     8.6190    10.7240    12.4190 
  255.8750     2.2610   -28.1060    93.4110    22.6670     9.8250    10.8490    12.5540 
  256.0000     2.2530   -28.4140    92.1560    22.6490    12.8850    11.2210    12.9520 
  256.1250     2.2570   -28.7330    91.4320    22.6520    15.8700    11.7550    13.5240 
  256.2500     2.2700   -28.9870    93.5070    22.5720    16.7500    12.3060    14.1140 
  256.3750     2.2840   -29.1690    95.1220    22.5310    15.9600    12.7780    14.6200 
  256.5000     2.2890   -29.3710    94.1390    22.5530    14.7390    13.1270    14.9940 
  256.6250     2.2910   -29.5770    93.6060    22.6200    15.0340    13.3810    15.2650 
  256.7500     2.3040   -29.6980    94.5520    22.7470    16.3760    13.6320    15.5350 
  256.8750     2.3260   -29.7410    95.2330    22.9350    17.2950    13.9160    15.8390 
  257.0000     2.3450   -29.7250    94.3920    23.0640    17.4150    14.2160    16.1600 
  257.1250     2.3480   -29.6950    95.7650    23.1420    17.7150    14.4540    16.4150 
  257.2500     2.3380   -29.6340   100.5080    23.1910    19.0230    14.5570    16.5250 
  257.3750     2.3210   -29.5550   103.9290    23.1580    18.8180    14.4800    16.4430 
  257.5000     2.3050   -29.3590   101.9900    23.0740    16.4870    14.1960    16.1390 
  257.6250     2.2920   -29.0800    96.3360    22.9920    14.3660    13.6010    15.5020 
  257.7500     2.2870   -28.8190    94.5980    22.8550    13.2980    12.7070    14.5440 
  257.8750     2.2900   -28.5680    96.9570    22.7200    12.9110    11.5850    13.3420 
  258.0000     2.2930   -28.2610    98.2200    22.6370    11.7300    10.3880    12.0590 
  258.1250     2.2800   -27.8340    96.0510    22.6540     9.9570     9.3300    10.9260 
  258.2500     2.2560   -27.4200    93.8950    22.6900     8.8580     8.5280    10.0670 
  258.3750     2.2350   -27.0180    93.1750    22.7230     8.6520     8.0120     9.5140 
  258.5000     2.2260   -26.6140    92.6420    22.7440     8.7010     7.7300     9.2120 
  258.6250     2.2290   -26.1810    89.5190    22.7150     8.4470     7.5840     9.0560 
  258.7500     2.2390   -25.7820    86.5070    22.6620     8.2940     7.4400     8.9020 
  258.8750     2.2520   -25.4600    85.4960    22.6700     8.0330     7.2570     8.7050 
  259.0000     2.2650   -25.1560    85.2520    22.7330     7.5350     7.0530     8.4870 
  259.1250     2.2660   -24.8740    83.2150    22.8180     7.3340     6.8730     8.2940 
  259.2500     2.2580   -24.5130    79.8160    22.8340     7.4380     6.7050     8.1150 
  259.3750     2.2510   -24.0780    77.0790    22.8330     7.5860     6.5000     7.8940 
  259.5000     2.2530   -23.6440    73.9630    22.8040     7.3220     6.2130     7.5870 
  259.6250     2.2610   -23.2560    68.7440    22.8010     6.2310     5.8460     7.1950 
  259.7500     2.2690   -22.8410    62.6500    22.8500     5.1710     5.4860     6.8090 
  259.8750     2.2760   -22.3530    55.8110    22.9880     4.6990     5.2060     6.5090 
  260.0000     2.2800   -21.8690    50.0160    23.1930     4.7560     5.0450     6.3370 
  260.1250     2.2760   -21.3990    50.3740    23.4690     5.0160     5.0120     6.3010 
  260.2500     2.2720   -21.0240    56.6490    23.6460     5.0720     5.0350     6.3250 
  260.3750     2.2830   -20.7580    62.3650    23.3800     4.9610     5.0580     6.3500 
  260.5000     2.3060   -20.5390    61.6720    23.1310     4.8440     5.0410     6.3320 
  260.6250     2.3230   -20.3390    56.9570    23.1480     4.7950     4.9850     6.2720 
  260.7500     2.3280   -20.1880    53.1280    23.1840     4.7760     4.9410     6.2250 
  260.8750     2.3310   -20.1010    53.4860    23.1710     4.7520     4.9540     6.2390 
  261.0000     2.3390   -20.0750    57.9370    23.1290     4.7270     5.0370     6.3280 
  261.1250     2.3440   -20.0950    61.1060    23.0920     4.9400     5.1680     6.4680 
  261.2500     2.3470   -20.0960    57.5510    23.0400     5.4760     5.2840     6.5920 
  261.3750     2.3530   -20.1070    52.8580    22.9350     5.8750     5.3380     6.6500 
  261.5000     2.3580   -20.2280    53.8950    22.8730     5.7250     5.3200     6.6310 
  261.6250     2.3530   -20.4090    56.9840    22.9310     5.1930     5.2730     6.5800 
  261.7500     2.3490   -20.5480    55.4890    23.0200     5.0810     5.2690     6.5760 
  261.8750     2.3530   -20.6550    52.8120    22.9960     5.2550     5.3420     6.6540 
  262.0000     2.3590   -20.7160    53.4300    22.9820     5.5260     5.4830     6.8060 
  262.1250     2.3530   -20.7510    56.9150    22.9100     5.6600     5.6320     6.9650 
  262.2500     2.3380   -20.8100    58.8390    22.8230     5.6850     5.7000     7.0380 
  262.3750     2.3380   -20.8560    63.6680    22.7530     5.5710     5.6420     6.9760 
  262.5000     2.3640   -20.7950    72.1770    22.7910     5.3220     5.4700     6.7920 
  262.6250     2.3950   -20.7190    75.0150    22.9030     5.0680     5.2440     6.5500 
  262.7500     2.3970   -20.6970    68.1280    23.0300     4.9310     5.0480     6.3390 
  262.8750     2.3710   -20.6620    58.0180    23.0260     5.0170     4.9380     6.2220 
  263.0000     2.3440   -20.6610    53.6920    22.8030     5.1060     4.9530     6.2370 
  263.1250     2.3380   -20.7000    53.6920    22.6380     5.0880     5.1170     6.4140 
  263.2500     2.3440   -20.7520    53.6920    22.5780     5.2650     5.3810     6.6960 
  263.3750     2.3490   -20.8220    53.6920    22.5950     6.0410     5.6870     7.0240 
  263.5000     2.3460   -20.9170    53.6920    22.6480     7.0560     5.9600     7.3170 
  263.6250     2.3360   -20.9340    53.6920    22.6700     7.2760     6.1130     7.4800 
