~V
VERS. 2.00: Ver 2.00
~W
STRT.M 50.0000:
STOP.M 266.0000:
STEP.M 0.1250:
NULL. -999.2500:
UWI. F10057:
~C
DEPT.M :
GR.API :
RML.OHMM :
RI. :
RXO.OHMM :
CALI.CM :
DEN.GM/CC :
SP.MV :
~A
# ...
  140.0000    69.7740    15.9740    15.2340    14.5560    24.5930     2.4880    -1.3640 
  140.1250    68.5740    15.8640    15.0080    13.6710    24.5960     2.4740    -1.3460 
  140.2500    66.1140    16.5310    15.4520    17.0260    24.5760     2.4740    -1.3560 
  140.3750    63.7090    17.5360    16.2750    21.6360    24.5030     2.4880    -1.3430 
  140.5000    64.0210    18.4190    17.1280    21.5840    24.4030     2.5110    -1.2930 
  140.6250    66.6410    18.7870    17.6320    18.9500    24.3520     2.5340    -1.2310 
  140.7500    68.4220    18.7360    17.7580    18.2230    24.3140     2.5520    -1.1870 
  140.8750    68.8010    18.4810    17.6280    18.4990    24.2080     2.5660    -1.1660 
  141.0000    69.2720    18.1630    17.3660    18.8730    24.0150     2.5760    -1.1670 
  141.1250    69.0500    17.6810    16.9220    19.0590    23.8360     2.5790    -1.1830 
  141.2500    66.8230    16.9520    16.2580    18.5050    23.7930     2.5720    -1.1800 
  141.3750    64.5880    16.0820    15.4540    16.7120    23.9060     2.5550    -1.1820 
  141.5000    64.0130    15.3540    14.7400    14.6580    24.0960     2.5330    -1.1810 
  141.6250    61.9510    15.2270    14.4690    14.3950    24.2300     2.5150    -1.1540 
  141.7500    58.3150    15.8520    14.7850    15.2930    24.2710     2.5100    -1.1180 
  141.8750    56.7940    17.2230    15.7290    16.3580    24.2680     2.5220    -1.0730 
  142.0000    57.1710    19.1010    17.1890    17.5290    24.2710     2.5520    -1.0310 
  142.1250    54.1920    20.9030    18.7870    19.9010    24.2700     2.5910    -1.0040 
  142.2500    49.2380    21.9310    19.8990    22.3560    24.2520     2.6240    -0.9680 
  142.3750    48.4150    21.8070    20.1030    22.1950    24.2450     2.6380    -0.9410 
  142.5000    52.0460    20.6360    19.3610    19.5230    24.3090     2.6270    -0.9420 
  142.6250    56.3010    18.9480    18.0110    17.1630    24.4390     2.5980    -0.9910 
  142.7500    59.5110    17.4710    16.6910    15.7740    24.5440     2.5690    -1.0590 
  142.8750    60.6380    16.5440    15.7280    15.0010    24.5870     2.5490    -1.1170 
  143.0000    60.2450    16.2580    15.2670    15.0050    24.5910     2.5410    -1.1640 
  143.1250    59.0380    16.5720    15.3500    15.7500    24.5850     2.5380    -1.1690 
  143.2500    58.0830    17.1660    15.7470    16.4820    24.5800     2.5330    -1.1800 
  143.3750    58.5380    17.8190    16.2700    16.8660    24.5810     2.5240    -1.2010 
  143.5000    60.8080    18.3350    16.7440    16.9650    24.5940     2.5130    -1.2330 
  143.6250    61.7280    18.5600    17.0210    17.1410    24.6170     2.5040    -1.2630 
  143.7500    59.5880    18.5720    17.1310    17.4710    24.6270     2.4980    -1.2620 
  143.8750    56.4390    18.4900    17.1420    17.7010    24.6090     2.4960    -1.2560 
  144.0000    55.2530    18.4230    17.1270    17.7570    24.5570     2.4960    -1.2540 
  144.1250    55.8360    18.4350    17.1310    18.3270    24.4930     2.4970    -1.2540 
  144.2500    56.1830    18.5020    17.1650    19.4260    24.4420     2.4990    -1.2670 
  144.3750    55.5600    18.6250    17.2440    20.0240    24.4050     2.5040    -1.2840 
  144.5000    54.4100    18.8750    17.4260    19.4860    24.3750     2.5130    -1.3050 
  144.6250    55.5610    19.4270    17.8450    18.7420    24.3330     2.5230    -1.3370 
  144.7500    59.1690    20.2790    18.5040    18.7330    24.2920     2.5300    -1.3910 
  144.8750    60.9530    21.2980    19.3140    19.6010    24.2250     2.5340    -1.4410 
  145.0000    59.3080    22.1930    20.0580    21.7940    24.0990     2.5350    -1.4840 
  145.1250    56.9480    22.4740    20.3670    23.9620    23.8920     2.5320    -1.5370 
  145.2500    55.6370    22.0180    20.1180    23.8040    23.6740     2.5280    -1.6070 
  145.3750    52.6640    20.9680    19.3930    21.3190    23.4900     2.5220    -1.7060 
  145.5000    48.0580    19.7070    18.4540    18.8780    23.3420     2.5180    -1.7980 
  145.6250    46.8160    18.7490    17.6730    18.1210    23.3500     2.5210    -1.8490 
  145.7500    48.2030    18.3440    17.2690    17.9750    23.5920     2.5330    -1.8570 
  145.8750    48.8010    18.5420    17.3390    18.0810    23.9640     2.5530    -1.8510 
  146.0000    48.8100    19.2250    17.8590    18.5870    24.2600     2.5800    -1.8730 
  146.1250    49.7170    20.1290    18.6970    19.7170    24.3580     2.6100    -1.9160 
  146.2500    50.5380    20.8390    19.4870    21.1340    24.3810     2.6360    -1.9570 
  146.3750    50.8000    21.0590    19.9420    22.1770    24.3770     2.6530    -1.9830 
  146.5000    51.1320    20.6770    19.8980    22.0230    24.3630     2.6570    -2.0100 
  146.6250    52.1350    19.7790    19.3500    19.9470    24.3730     2.6460    -2.0470 
  146.7500    53.8030    18.7690    18.6170    17.5900    24.4020     2.6270    -2.0960 
  146.8750    56.0110    17.9070    17.9400    16.4770    24.4190     2.6080    -2.1460 
  147.0000    57.4420    17.3210    17.4700    16.7510    24.4080     2.5940    -2.1650 
  147.1250    56.9830    17.0360    17.2740    17.2550    24.3270     2.5880    -2.1610 
  147.2500    55.1970    16.9180    17.2460    16.9810    24.1560     2.5880    -2.1470 
  147.3750    54.0730    16.8540    17.2660    16.1430    23.8920     2.5920    -2.1340 
  147.5000    55.1340    16.6840    17.1700    15.6540    23.5600     2.5970    -2.1300 
  147.6250    56.6360    16.1580    16.7010    15.8180    23.2250     2.5960    -2.1370 
  147.7500    55.9540    15.2430    15.8390    15.9160    22.9920     2.5810    -2.1470 
  147.8750    53.6000    14.0830    14.7190    15.2760    22.9930     2.5510    -2.1560 
  148.0000    51.7830    12.9870    13.6330    13.5780    23.2840     2.5130    -2.1810 
  148.1250    52.4240    12.4370    13.0050    11.3590    23.6910     2.4820    -2.2260 
  148.2500    57.1300    12.6650    13.0490    10.2150    23.9830     2.4670    -2.2800 
  148.3750    65.4030    13.8130    13.9180    11.6900    24.1520     2.4670    -2.3520 
  148.5000    72.5050    15.8840    15.6840    16.1200    24.3010     2.4700    -2.4520 
  148.6250    74.8670    18.7590    18.3740    21.0490    24.4720     2.4600    -2.5900 
  148.7500    74.6480    21.8130    21.4560    23.5400    24.5580     2.4370    -2.7490 
  148.8750    74.8380    24.4480    24.3140    24.4000    24.4610     2.4060    -2.9360 
  149.0000    76.5700    26.1780    26.3530    25.6630    24.2280     2.3790    -3.1560 
  149.1250    79.9540    26.7390    27.1520    26.8580    24.1370     2.3660    -3.4210 
  149.2500    82.9830    26.6520    27.1590    27.1650    24.2560     2.3640    -3.7280 
  149.3750    82.3760    26.4230    26.8380    26.6530    24.3840     2.3660    -4.0540 
  149.5000    78.1110    26.5490    26.6650    26.0300    24.3570     2.3640    -4.3850 
  149.6250    75.7490    27.6370    27.2080    26.9840    24.2580     2.3560    -4.7080 
  149.7500    77.7500    29.9140    28.7680    29.6840    24.1830     2.3440    -5.0150 
  149.8750    79.6210    33.6080    31.6420    32.7440    24.0670     2.3340    -5.3180 
  150.0000    76.8030    38.8540    36.0470    35.1430    23.8950     2.3250    -5.6210 
  150.1250    72.8660    45.9080    42.3510    38.6070    23.7600     2.3160    -5.9110 
  150.2500    73.8960    54.2670    50.1280    46.7360    23.7380     2.3040    -6.1740 
  150.3750    77.2770    63.3930    58.8810    60.4900    23.8220     2.2910    -6.4190 
  150.5000    79.4910    72.4840    67.7950    70.9250    23.9020     2.2800    -6.6540 
  150.6250    80.4640    80.7200    75.9300    66.1180    23.8380     2.2750    -6.8820 
  150.7500    80.3040    88.4600    83.4240    56.3800    23.6650     2.2780    -7.1220 
  150.8750    78.2350    96.8530    91.2350    50.3510    23.4820     2.2820    -7.3720 
  151.0000    74.5160   107.4520   100.7900    49.3670    23.3520     2.2820    -7.6150 
  151.1250    71.0870   122.5020   114.2670    54.2450    23.2450     2.2750    -7.8490 
