~V
VERS. 2.00: Ver 2.00
~W
STRT.M 50.0000:
STOP.M 216.0000:
STEP.M 0.1250:
NULL. -999.2500:
UWI. F10015:
~C
DEPT.M :
GR.API :
RML.OHMM :
RI. :
RXO.OHMM :
CALI.CM :
DEN.GM/CC :
SP.MV :
~A
# ...
   83.7500    69.3230    11.0340     9.0840     8.8470    24.9050     2.1580    -7.5530 
   83.8750    72.2370    11.8660     9.7650     9.6090    24.8760     2.1920    -7.4730 
   84.0000    76.4280    12.1510    10.0860     9.7190    24.8690     2.2350    -7.4010 
   84.1250    75.8910    11.5390     9.7200     9.2460    24.8690     2.2620    -7.3350 
   84.2500    73.2340    10.6630     9.1270     9.2070    24.8690     2.2720    -7.2550 
   84.3750    71.3890     9.9550     8.6090     9.1450    24.8690     2.2730    -7.1720 
   84.5000    71.2750     9.7500     8.4030     8.9410    24.8690     2.2770    -7.1070 
   84.6250    72.2210    10.3570     8.7430     8.9810    24.8690     2.2970    -7.0740 
   84.7500    72.3780    12.1370     9.9160    10.3190    24.8690     2.3370    -7.0670 
   84.8750    69.5680    15.0760    12.0790    15.6260    24.8720     2.3670    -7.0500 
   85.0000    64.1140    18.3800    14.8530    19.8820    24.9260     2.3570    -7.0340 
   85.1250    58.7250    21.0760    17.4390    20.7260    25.0360     2.3150    -7.0630 
   85.2500    56.1280    22.1830    18.9160    19.2580    25.1230     2.2550    -7.1300 
   85.3750    57.7240    21.2550    18.7370    17.4850    25.1190     2.1990    -7.2170 
   85.5000    62.2380    18.9400    17.2330    15.7730    25.0520     2.1650    -7.3220 
   85.6250    65.7850    16.3720    15.1980    14.1170    25.0190     2.1650    -7.3740 
   85.7500    68.0010    14.4820    13.5640    12.3880    24.9790     2.1740    -7.4210 
   85.8750    69.9710    13.6510    12.6290    10.7860    24.8510     2.1760    -7.5060 
   86.0000    71.6650    13.8840    12.4290     9.8380    24.6350     2.1680    -7.6310 
   86.1250    71.9170    14.9500    12.8560    10.1010    24.4170     2.1560    -7.7710 
   86.2500    68.3990    16.5230    13.7730    11.8660    24.3650     2.1560    -7.8780 
   86.3750    63.9910    17.1500    14.1720    14.1250    24.4040     2.1890    -7.9620 
   86.5000    64.3870    15.7790    13.1450    15.2650    24.4280     2.2440    -8.0710 
   86.6250    69.9430    13.2340    11.2630    13.0520    24.4580     2.2970    -8.2110 
   86.7500    78.4270    10.5690     9.2600     9.3490    24.5240     2.3300    -8.3790 
   86.8750    85.8070     8.7100     7.7710     6.9030    24.6360     2.3320    -8.5610 
   87.0000    87.0260     8.1020     7.0720     6.1380    24.7440     2.3120    -8.7320 
   87.1250    80.7390     9.5040     7.7420     9.1290    24.7530     2.2800    -8.8840 
   87.2500    74.0890    11.8250     9.2510    14.3890    24.7390     2.2490    -9.0620 
   87.3750    69.0160    14.2060    11.1820    17.6190    24.7330     2.2260    -9.2520 
   87.5000    66.7600    15.7000    12.7510    17.8890    24.7560     2.2110    -9.4190 
   87.6250    67.6490    15.5670    13.1570    15.8670    24.8180     2.2070    -9.5350 
   87.7500    70.8710    13.5700    11.9220    12.0520    24.9300     2.2150    -9.6190 
   87.8750    71.9260    11.2420    10.1670     9.4660    24.9930     2.2330    -9.6470 
   88.0000    73.0410     9.5450     8.7370     8.3840    25.0120     2.2640    -9.6390 
   88.1250    76.0660     8.4310     7.6800     7.5950    25.0150     2.3010    -9.5840 
   88.2500    80.3050     7.8500     7.0200     6.9400    25.0150     2.3360    -9.4440 
   88.3750    84.4110     7.7160     6.7260     6.6020    25.0150     2.3620    -9.2170 
   88.5000    88.2900     7.8620     6.6840     6.3880    25.0150     2.3760    -8.9900 
   88.6250    90.6340     8.2970     6.9200     6.2680    25.0150     2.3790    -8.7210 
   88.7500    90.0030     8.7930     7.2350     7.0100    25.0150     2.3810    -8.4860 
   88.8750    87.4470     9.1730     7.5060     8.4380    25.0150     2.3820    -8.2780 
   89.0000    84.7730     9.3270     7.6410     9.1420    25.0150     2.3780    -8.1010 
   89.1250    82.9820     9.2100     7.5890     8.2450    25.0150     2.3660    -7.9630 
   89.2500    80.6920     8.8450     7.3470     7.1730    25.0150     2.3470    -7.8810 
   89.3750    80.2170     8.4830     7.0780     7.0940    25.0150     2.3260    -7.9210 
   89.5000    81.4960     8.3870     6.9710     7.2990    25.0150     2.3050    -7.9890 
   89.6250    81.8480     8.5920     7.0700     7.4800    25.0150     2.2870    -8.1030 
   89.7500    80.4180     9.0760     7.3810     7.6120    25.0150     2.2740    -8.2260 
   89.8750    77.7020     9.7270     7.8400     7.9960    25.0150     2.2700    -8.3240 
   90.0000    75.0600    10.3130     8.2840     9.2930    25.0150     2.2760    -8.4170 
   90.1250    73.1700    10.3780     8.3680    10.5240    25.0150     2.2880    -8.4450 
   90.2500    74.9020    10.0210     8.1310     9.2380    25.0150     2.2970    -8.4620 
   90.3750    79.4810     9.3690     7.6510     7.7130    25.0150     2.3020    -8.4120 
   90.5000    84.0050     8.6380     7.0830     6.7650    25.0140     2.3040    -8.3070 
   90.6250    85.7960     8.0650     6.5990     6.3880    25.0090     2.3050    -8.1790 
   90.7500    84.7690     7.8370     6.3360     6.3940    24.9860     2.3060    -8.0240 
   90.8750    82.0730     7.9760     6.3430     6.6590    24.9040     2.3090    -7.8880 
   91.0000    80.5810     8.3210     6.5370     7.0150    24.7620     2.3150    -7.8110 
   91.1250    81.0970     8.7300     6.8120     7.6540    24.5910     2.3190    -7.7980 
   91.2500    82.6480     9.0740     7.0690     8.5390    24.4250     2.3180    -7.8450 
   91.3750    83.8210     9.2550     7.2240     9.0490    24.2960     2.3070    -7.9420 
   91.5000    84.1100     9.2210     7.2190     7.6190    24.2370     2.2880    -8.0800 
   91.6250    83.4960     8.8870     6.9600     7.2560    24.2480     2.2720    -8.2090 
   91.7500    82.6150     8.4640     6.6160     7.1200    24.2920     2.2680    -8.2820 
   91.8750    83.8330     8.0410     6.2650     6.5690    24.3540     2.2750    -8.3680 
   92.0000    86.6100     7.6780     5.9630     5.9640    24.4050     2.2840    -8.4640 
   92.1250    88.8100     7.4380     5.7650     5.9400    24.4250     2.2860    -8.5390 
   92.2500    88.0290     7.4080     5.7330     6.6840    24.4260     2.2790    -8.5880 
   92.3750    86.9270     7.7940     5.9840     7.3600    24.4280     2.2800    -8.5950 
   92.5000    85.1380     8.7790     6.6550     7.8560    24.4480     2.3090    -8.5690 
   92.6250    81.7430    10.2250     7.6960     9.0740    24.5110     2.3620    -8.5510 
   92.7500    77.3660    11.8500     8.9700    12.7680    24.6310     2.4220    -8.5810 
   92.8750    73.4790    13.2470    10.2110    18.5180    24.7860     2.4700    -8.6550 
   93.0000    71.7110    13.8940    10.9850    20.7080    24.9050     2.4920    -8.6810 
   93.1250    75.2720    13.0070    10.5520    14.7990    24.9310     2.4650    -8.6600 
   93.2500    80.3600    11.6700     9.6760    10.2460    24.9370     2.4190    -8.6430 
   93.3750    82.4210    10.3930     8.7220     8.1430    24.9380     2.3670    -8.6170 
   93.5000    80.9260     9.4290     7.9090     7.7770    24.9380     2.3180    -8.6040 
   93.6250    78.2100     8.8330     7.3360     7.9200    24.9380     2.2830    -8.6240 
   93.7500    78.3060     8.5230     7.0050     8.1220    24.9380     2.2710    -8.6470 
   93.8750    81.6140     8.2400     6.7810     7.2980    24.9380     2.2800    -8.5910 
   94.0000    85.3660     8.0620     6.6720     6.6330    24.9380     2.2900    -8.5260 
   94.1250    88.5780     8.1380     6.7440     6.4620    24.9380     2.2930    -8.4800 
   94.2500    89.5690     8.6030     7.0840     6.7500    24.9380     2.2820    -8.4820 
   94.3750    87.2500     9.4660     7.7200     7.5010    24.9380     2.2620    -8.5490 
   94.5000    82.3890    10.5170     8.5430     9.1670    24.9380     2.2450    -8.6870 
   94.6250    79.4450    11.1960     9.1970    12.0880    24.9380     2.2500    -8.7640 
   94.7500    79.6510    11.2860     9.4090    12.3980    24.9340     2.2670    -8.8040 
   94.8750    82.8250    10.7760     9.0950    10.2150    24.9200     2.2850    -8.8510 
