~V
VERS. 2.00: Ver 2.00
~W
STRT.M 50.0000:
STOP.M 212.0000:
STEP.M 0.1250:
NULL. -999.2500:
UWI. F10013:
~C
DEPT.M :
GR.API :
RML.OHMM :
RI. :
RXO.OHMM :
CALI.CM :
DEN.GM/CC :
SP.MV :
~A
# ...
  185.0000    74.6060     7.9050     7.1790     6.7280    23.1410     2.2680   -21.8660 
  185.1250    83.3620     7.9960     6.9050     7.9940    23.2120     2.2780   -21.9170 
  185.2500    90.3310     8.9090     7.3450    10.1780    23.2470     2.2960   -21.9640 
  185.3750    94.3040     9.9700     8.1680    12.4850    23.2530     2.3190   -21.9890 
  185.5000    95.3090    10.7260     8.9810    14.4330    23.2280     2.3400   -21.9900 
  185.6250    92.3710    10.7550     9.3160    15.2610    23.1930     2.3460   -21.9190 
  185.7500    88.3850    10.1970     9.1060    14.5280    23.1780     2.3330   -21.7620 
  185.8750    86.6610     9.3230     8.4920    13.1560    23.1790     2.3060   -21.5330 
  186.0000    85.5450     8.4390     7.7160    11.2740    23.1820     2.2780   -21.2850 
  186.1250    80.6560     7.7990     7.0610    10.0350    23.1390     2.2630   -21.0390 
  186.2500    71.9760     7.4230     6.6840     8.7340    23.0240     2.2640   -20.8130 
  186.3750    61.2780     7.2630     6.6000     8.1610    22.7920     2.2790   -20.6000 
  186.5000    52.0360     7.2380     6.6760     7.9760    22.4530     2.3000   -20.3900 
  186.6250    46.6820     7.2690     6.7610     7.8510    22.1880     2.3220   -20.1870 
  186.7500    44.6770     7.2840     6.8100     7.5660    22.1720     2.3380   -19.9790 
  186.8750    44.0010     7.2560     6.8150     7.2390    22.3990     2.3450   -19.7380 
  187.0000    43.5810     7.1790     6.7640     7.0960    22.6760     2.3430   -19.4460 
  187.1250    43.2230     7.0820     6.6510     7.0900    22.7930     2.3370   -19.1310 
  187.2500    43.7350     7.0130     6.5330     7.0950    22.8800     2.3300   -18.8340 
  187.3750    45.2140     7.0080     6.4630     7.0680    23.0310     2.3240   -18.5780 
  187.5000    46.0950     7.0790     6.4590     7.1270    23.1590     2.3150   -18.3800 
  187.6250    45.1670     7.2080     6.5030     7.3810    23.1700     2.3030   -18.2470 
  187.7500    44.1950     7.3270     6.5660     7.6300    23.1240     2.2890   -18.1620 
  187.8750    43.8640     7.3830     6.6360     7.6050    23.0630     2.2740   -18.1230 
  188.0000    44.5120     7.3490     6.6850     7.4310    22.9960     2.2620   -18.1020 
  188.1250    45.9310     7.2370     6.6760     7.3880    22.9190     2.2590   -18.0860 
  188.2500    47.9790     7.1330     6.6240     7.3840    22.8260     2.2670   -18.0420 
  188.3750    50.2490     7.1120     6.5680     7.1410    22.7790     2.2860   -17.9890 
  188.5000    51.3940     7.2170     6.5460     7.0380    22.8100     2.3100   -17.9340 
  188.6250    51.2890     7.4320     6.5700     7.1840    22.8950     2.3340   -17.8850 
  188.7500    51.0470     7.6510     6.6340     7.6130    22.9620     2.3540   -17.8400 
  188.8750    51.2280     7.8000     6.7550     8.1470    22.9910     2.3690   -17.7950 
  189.0000    52.1800     7.8600     6.9190     8.5700    23.0050     2.3790   -17.7650 
  189.1250    54.5100     7.8710     7.0750     8.5030    23.0190     2.3830   -17.7600 
  189.2500    57.3780     7.9050     7.1810     8.2210    23.0320     2.3840   -17.7910 
  189.3750    59.0940     7.9840     7.2320     8.1180    23.0560     2.3860   -17.8400 
  189.5000    58.8690     8.0810     7.2500     8.2450    23.0690     2.3910   -17.8960 
  189.6250    57.6640     8.1370     7.2680     8.5630    23.0630     2.4020   -17.9630 
  189.7500    57.4820     8.1230     7.3200     8.7480    23.0760     2.4110   -18.0560 
  189.8750    58.8520     8.0410     7.3730     8.6570    23.1020     2.4120   -18.1840 
  190.0000    61.0660     7.9250     7.4180     8.3740    23.0980     2.3990   -18.3620 
  190.1250    62.9260     7.8300     7.4490     7.9490    23.0700     2.3720   -18.6010 
  190.2500    64.4250     7.7970     7.4430     7.6340    23.0590     2.3450   -18.8700 
  190.3750    63.6430     7.8330     7.3780     7.4930    23.0630     2.3350   -19.1570 
  190.5000    59.0450     7.9120     7.2770     7.6450    23.0460     2.3550   -19.4630 
  190.6250    53.3540     7.9720     7.2100     7.9410    22.9880     2.4060   -19.7580 
  190.7500    49.8150     7.9730     7.2170     8.1960    22.8510     2.4550   -20.0140 
  190.8750    48.3170     7.9170     7.2760     8.4040    22.6720     2.4760   -20.2140 
  191.0000    47.3970     7.8320     7.3390     8.6310    22.4900     2.4550   -20.3380 
  191.1250    46.9380     7.7500     7.3650     7.9380    22.4360     2.4020   -20.3620 
  191.2500    46.2220     7.6830     7.3520     7.4780    22.4990     2.3500   -20.3330 
  191.3750    44.5860     7.6250     7.3030     7.2800    22.6090     2.3160   -20.2820 
  191.5000    43.0280     7.5720     7.2350     7.2830    22.6920     2.3040   -20.2060 
  191.6250    44.7560     7.5210     7.1780     7.2520    22.7620     2.3030   -20.0830 
  191.7500    48.1790     7.4760     7.1330     7.2290    22.8190     2.3000   -19.9450 
  191.8750    49.3040     7.4440     7.0840     7.1940    22.8440     2.2910   -19.8210 
  192.0000    46.8070     7.4300     7.0320     7.1030    22.8390     2.2810   -19.7330 
  192.1250    44.9810     7.4510     7.0090     6.9660    22.7920     2.2790   -19.6690 
  192.2500    45.1400     7.5040     7.0200     6.8310    22.7160     2.2910   -19.5810 
  192.3750    44.6940     7.5750     7.0480     6.9000    22.6610     2.3120   -19.5070 
  192.5000    43.1610     7.6370     7.0830     7.0590    22.6620     2.3350   -19.4360 
  192.6250    42.4580     7.6630     7.1160     7.2190    22.7040     2.3500   -19.4520 
  192.7500    42.3360     7.6510     7.1300     7.2920    22.7510     2.3550   -19.5590 
  192.8750    41.8790     7.6110     7.1060     7.2210    22.7810     2.3550   -19.7080 
  193.0000    41.1990     7.5490     7.0320     7.0490    22.7980     2.3520   -19.9330 
  193.1250    41.1900     7.4630     6.9180     6.8940    22.8290     2.3460   -20.3150 
  193.2500    42.9260     7.3750     6.8100     6.8680    22.8710     2.3380   -20.8470 
  193.3750    47.7670     7.3320     6.7400     7.1280    22.8730     2.3270   -21.5200 
  193.5000    56.7850     7.4090     6.7260     7.6460    22.8170     2.3170   -22.3830 
  193.6250    68.6000     7.7280     6.8020     7.8220    22.7770     2.3090   -23.4030 
  193.7500    79.3240     8.2980     6.9840     7.4910    22.7900     2.3020   -24.5020 
  193.8750    88.0130     9.1020     7.3240     7.9940    22.8310     2.2920   -25.6060 
  194.0000    94.3490    10.0840     7.9230    10.0940    22.8100     2.2790   -26.6390 
  194.1250    97.5940    11.1430     8.9080    12.1620    22.7110     2.2660   -27.5130 
  194.2500    98.6050    12.1100     9.9320    13.2170    22.6170     2.2580   -28.1880 
  194.3750   100.3760    12.8040    10.7640    13.5880    22.5630     2.2610   -28.6070 
  194.5000   103.4260    13.0610    11.2410    13.8690    22.5500     2.2750   -28.7110 
  194.6250   102.7730    12.7610    11.2420    14.5170    22.4990     2.2980   -28.4610 
  194.7500    97.2820    12.1610    10.9380    16.1450    22.4740     2.3150   -27.9550 
  194.8750    92.0160    11.5590    10.5280    16.5440    22.4100     2.3200   -27.3070 
  195.0000    92.9090    11.2300    10.2210    14.2080    22.3530     2.3120   -26.6320 
  195.1250    99.3600    11.3540    10.1850    11.7500    22.2200     2.3040   -25.9340 
  195.2500   103.6450    11.7240    10.3400    11.6300    22.0380     2.3090   -25.2020 
  195.3750   103.4060    12.0550    10.5170    13.5400    21.8550     2.3230   -24.4430 
  195.5000   100.6960    12.0670    10.5120    16.9130    21.7720     2.3330   -23.6560 
  195.6250    95.2550    11.5760    10.1470    17.4450    22.0830     2.3210   -22.9180 
  195.7500    86.8540    10.8150     9.5680    14.4560    22.5840     2.2930   -22.2230 
  195.8750    78.6860    10.0350     8.9910    10.8220    22.8520     2.2650   -21.5870 
  196.0000    73.4970     9.4180     8.5420     9.1030    22.8010     2.2490   -20.9730 
  196.1250    69.4880     9.0430     8.2090     9.3170    22.7890     2.2500   -20.3480 
