~V
VERS. 2.00: Ver 2.00
~W
STRT.M 50.0000:
STOP.M 300.0000:
STEP.M 0.1250:
NULL. -999.2500:
UWI. F10041:
~C
DEPT.M :
DEN.GM/CC :
GR.API :
RML.OHMM :
RI. :
RXO.OHMM :
CALI.CM :
SP.MV :
~A
# ...
  128.7500     2.3990    79.3000     6.7210     6.3450     8.5960    24.3060    -5.6810 
  128.8750     2.3710    88.1820     6.4950     6.0290     5.9500    24.5290    -5.3890 
  129.0000     2.3310    93.6730     6.0690     5.4750     4.7790    24.6440    -5.1280 
  129.1250     2.2940    93.8340     5.4800     4.9100     4.9010    24.5960    -4.9960 
  129.2500     2.2720    91.7670     4.8910     4.5280     5.1690    24.5130    -4.9110 
  129.3750     2.2760    89.6600     4.5940     4.4240     5.2780    24.5080    -4.8070 
  129.5000     2.3130    88.7300     4.8830     4.6290     5.3660    24.4820    -4.6250 
  129.6250     2.3760    88.1240     5.7840     5.1690     5.6150    24.3580    -4.4740 
  129.7500     2.4300    85.0960     6.7710     5.9120     6.7010    24.2550    -4.4020 
  129.8750     2.4470    80.4060     7.5580     6.7040     9.5870    24.2350    -4.4140 
  130.0000     2.4200    76.6960     8.0590     7.3210    13.4360    24.2250    -4.5240 
  130.1250     2.3640    74.5860     8.1470     7.4600    12.1240    24.1490    -4.5860 
  130.2500     2.3140    73.1580     7.7950     7.1280     8.1200    24.0540    -4.5970 
  130.3750     2.2880    72.5120     7.0910     6.4740     6.1590    23.9200    -4.6740 
  130.5000     2.2900    73.8820     6.3140     5.7440     5.5320    23.8320    -4.7380 
  130.6250     2.3160    76.5310     5.7290     5.2230     5.2800    23.8160    -4.7700 
  130.7500     2.3570    77.7800     5.4130     5.0180     5.0300    23.8570    -4.8450 
  130.8750     2.4040    75.5560     5.4630     5.1390     5.3090    23.9320    -4.9250 
  131.0000     2.4450    70.6290     5.8820     5.4940     7.2340    24.0320    -4.9830 
  131.1250     2.4610    67.3200     6.4160     5.8890     9.8110    24.1310    -5.1310 
  131.2500     2.4470    70.1370     6.6950     6.0990     9.8000    24.2440    -5.2570 
  131.3750     2.4070    76.5680     6.6100     6.0270     6.6230    24.3250    -5.3020 
  131.5000     2.3520    80.9270     6.2700     5.7130     4.9180    24.3990    -5.4170 
  131.6250     2.2990    78.1040     5.8320     5.3080     4.9430    24.4400    -5.6150 
  131.7500     2.2620    73.1140     5.4910     4.9920     5.5060    24.3770    -5.9200 
  131.8750     2.2450    71.5940     5.3290     4.8410     6.0360    24.2330    -6.3000 
  132.0000     2.2430    73.9490     5.3540     4.8650     6.2310    24.1050    -6.7310 
  132.1250     2.2490    74.1430     5.5370     5.0340     5.9690    23.9840    -7.1690 
  132.2500     2.2510    71.3420     5.7810     5.2600     6.0970    23.8730    -7.6460 
  132.3750     2.2480    68.6520     6.0450     5.5050     6.6060    23.8180    -8.2630 
  132.5000     2.2410    69.5290     6.3170     5.7540     7.0010    23.8050    -8.9250 
  132.6250     2.2310    72.2630     6.6220     6.0160     7.1400    23.8050    -9.5360 
  132.7500     2.2230    73.2810     6.9610     6.2930     7.1850    23.8030   -10.0750 
  132.8750     2.2170    72.9420     7.2880     6.5790     7.4620    23.8000   -10.5390 
  133.0000     2.2150    71.2970     7.5580     6.8520     7.7740    23.7970   -10.9810 
  133.1250     2.2170    68.5260     7.7500     7.0690     7.9950    23.7970   -11.4580 
  133.2500     2.2200    66.7420     7.8730     7.1990     8.0170    23.7980   -11.9270 
  133.3750     2.2230    66.1380     7.9010     7.2240     7.9310    23.8060   -12.2540 
  133.5000     2.2220    65.4160     7.8220     7.1500     7.7770    23.8290   -12.4890 
  133.6250     2.2160    64.3610     7.6700     7.0090     7.7270    23.9070   -12.6950 
  133.7500     2.2120    64.4400     7.5120     6.8630     7.7390    24.0530   -12.8380 
  133.8750     2.2130    65.4740     7.3780     6.7390     7.7750    24.2600   -13.0140 
  134.0000     2.2240    65.3090     7.2780     6.6460     7.8090    24.4580   -13.2190 
  134.1250     2.2360    64.7740     7.2160     6.5890     7.8520    24.5370   -13.2820 
  134.2500     2.2340    65.1870     7.1920     6.5670     7.9220    24.5310   -13.3570 
  134.3750     2.2110    65.3260     7.2180     6.5900     8.0130    24.4900   -13.5270 
  134.5000     2.1670    64.1970     7.2980     6.6650     8.5790    24.4770   -13.6840 
  134.6250     2.1220    61.6860     7.4310     6.7880     9.6370    24.5290   -13.9100 
  134.7500     2.0930    60.9810     7.5730     6.9200     9.9990    24.5710   -14.2180 
  134.8750     2.0890    63.1080     7.6850     7.0230     8.9270    24.4640   -14.4740 
  135.0000     2.1040    65.3300     7.7300     7.0650     8.0430    24.2280   -14.7090 
  135.1250     2.1230    64.2700     7.6730     7.0120     7.7670    23.9320   -14.9900 
  135.2500     2.1340    62.3890     7.5390     6.8880     7.6460    23.8060   -15.2460 
  135.3750     2.1330    64.1140     7.3630     6.7250     7.5620    23.9350   -15.4460 
  135.5000     2.1210    67.9910     7.1960     6.5700     7.4750    24.1980   -15.6330 
  135.6250     2.1100    67.9350     7.1040     6.4860     7.5160    24.2580   -15.8540 
  135.7500     2.1080    63.9670     7.1110     6.4920     7.6290    24.1350   -16.1110 
  135.8750     2.1190    59.0240     7.2160     6.5870     7.9050    24.0150   -16.4890 
  136.0000     2.1380    55.6890     7.3790     6.7440     8.1320    24.0810   -16.9530 
  136.1250     2.1580    55.4560     7.5190     6.9130     8.1480    24.3180   -17.4590 
  136.2500     2.1730    56.8120     7.5920     7.0440     7.9370    24.5760   -18.0340 
  136.3750     2.1820    58.0100     7.5990     7.1140     7.7160    24.8080   -18.5720 
  136.5000     2.1880    58.5240     7.5680     7.1200     7.8470    24.7740   -19.0900 
  136.6250     2.1910    59.9050     7.5180     7.0720     8.1680    24.3760   -19.4770 
  136.7500     2.1900    60.6390     7.4440     7.0060     8.3480    24.0560   -19.6970 
  136.8750     2.1850    59.4550     7.3540     6.9530     8.4180    23.9190   -19.7800 
  137.0000     2.1760    58.8940     7.2800     6.9360     8.5070    24.0060   -19.7760 
  137.1250     2.1670    59.9810     7.2570     6.9720     8.5790    24.0930   -19.6940 
  137.2500     2.1570    60.4290     7.2610     7.0430     8.4210    24.2890   -19.6030 
  137.3750     2.1430    60.0090     7.2570     7.1270     8.2550    24.6790   -19.6480 
  137.5000     2.1220    59.9490     7.2510     7.2050     8.2540    25.0850   -19.7820 
  137.6250     2.0970    60.6090     7.3320     7.2570     8.1480    25.3040   -19.9690 
  137.7500     2.0760    60.7820     7.4860     7.2650     8.2160    25.3690   -20.2720 
  137.8750     2.0650    60.2180     7.5870     7.1980     8.2580    25.2160   -20.5610 
  138.0000     2.0670    59.1850     7.5340     7.0430     8.0540    24.8680   -20.7380 
  138.1250     2.0790    58.7070     7.3850     6.8400     7.4110    24.3020   -20.8770 
  138.2500     2.1050    58.7650     7.3150     6.7130     6.8470    23.7950   -20.8380 
  138.3750     2.1470    58.8690     7.4080     6.7660     6.5930    23.3590   -20.5630 
  138.5000     2.2040    58.3110     7.6840     7.0210     7.4480    23.1570   -20.0270 
  138.6250     2.2630    59.7200     8.0430     7.3550    11.0440    23.1060   -19.1830 
  138.7500     2.3070    65.2690     8.2160     7.5140    14.2310    22.8690   -17.9780 
  138.8750     2.3300    72.8160     8.0100     7.3240    10.1600    22.3830   -16.4750 
  139.0000     2.3330    78.5350     7.4120     6.7710     6.2060    21.8390   -14.8530 
  139.1250     2.3170    79.9970     6.5970     6.0150     5.3100    21.3060   -13.1640 
  139.2500     2.2900    80.1020     5.8650     5.3380     5.1900    21.0550   -11.5970 
  139.3750     2.2590    79.4780     5.3680     4.8780     5.2440    20.9440   -10.1850 
  139.5000     2.2290    76.3020     5.1480     4.6740     5.2700    20.9280    -8.9630 
  139.6250     2.2140    72.2260     5.1870     4.7100     5.7950    21.0780    -8.0760 
  139.7500     2.2130    70.9320     5.3480     4.8590     5.7580    21.4020    -7.5800 
  139.8750     2.2240    72.4030     5.5430     5.0400     5.2690    21.8340    -7.3850 
