~V
VERS. 2.00: Ver 2.00
~W
STRT.M 50.0000:
STOP.M 279.0000:
STEP.M 0.1250:
NULL. -999.2500:
UWI. F10075:
~C
DEPT.M :
GR.API :
RML.OHMM :
RI. :
RXO.OHMM :
CALI.CM :
DEN.GM/CC :
SP.MV :
~A
# ...
   83.7500    64.5310     9.4060     7.5960     8.6780    23.6940     2.0490   -16.7990 
   83.8750    67.4700     9.8200     7.8790     8.9710    23.6910     2.0850   -16.7050 
   84.0000    67.9790    10.2680     8.1900     9.0220    23.4980     2.1110   -16.4700 
   84.1250    67.1120    10.5020     8.3810     8.8750    23.2910     2.1180   -15.9920 
   84.2500    67.9240    10.3200     8.3100     8.6350    23.0940     2.1200   -15.2890 
   84.3750    71.1000     9.6410     7.9060     8.2820    22.9700     2.1310   -14.2930 
   84.5000    76.2800     8.5830     7.2290     7.6270    23.0090     2.1630   -13.0260 
   84.6250    84.4530     7.4400     6.4520     6.4510    23.1760     2.2170   -11.4950 
   84.7500    94.2530     6.5130     5.7760     5.3710    23.4900     2.2750    -9.8910 
   84.8750   102.6850     5.9260     5.2870     4.9500    23.8730     2.3220    -8.3110 
   85.0000   107.5490     5.6770     4.9990     5.0560    24.2350     2.3480    -6.7760 
   85.1250   108.9890     5.6950     4.8960     5.3070    24.4320     2.3570    -5.3740 
   85.2500   110.3410     5.7850     4.8790     5.5020    24.5550     2.3610    -4.1940 
   85.3750   113.8410     5.8440     4.8770     5.5060    24.6570     2.3670    -3.2910 
   85.5000   116.5010     5.8350     4.8460     5.4150    24.7340     2.3770    -2.7070 
   85.6250   113.6460     5.7930     4.7740     5.4520    24.7840     2.3870    -2.4530 
   85.7500   108.6250     5.7530     4.6860     5.5960    24.7960     2.3930    -2.3710 
   85.8750   108.3680     5.6910     4.5860     5.6570    24.8060     2.3930    -2.4050 
   86.0000   113.1800     5.5580     4.4680     5.5440    24.8520     2.3850    -2.5190 
   86.1250   116.1670     5.3400     4.3370     5.4920    24.8390     2.3670    -2.6650 
   86.2500   115.3710     5.1640     4.2570     5.6520    24.7650     2.3450    -2.8010 
   86.3750   112.4210     5.2250     4.3350     5.7300    24.7250     2.3290    -2.9820 
   86.5000   105.7050     5.7920     4.7200     5.7010    24.7130     2.3340    -3.1970 
   86.6250    93.9730     7.4670     5.7840     6.8950    24.6760     2.3760    -3.5310 
   86.7500    83.9390    10.6770     7.8890    10.6550    24.6150     2.4460    -3.9890 
   86.8750    77.5730    15.9360    11.5770    18.4360    24.6010     2.5320    -4.5330 
   87.0000    71.0380    23.3740    17.2140    27.6310    24.7210     2.6150    -5.1780 
   87.1250    63.1720    31.2950    23.8800    39.6730    24.9050     2.6640    -6.0290 
   87.2500    57.1020    35.1030    27.8430    54.5840    25.0240     2.6590    -7.0910 
   87.3750    53.6290    32.1230    26.5020    57.6280    25.0170     2.5900    -8.3350 
   87.5000    52.7590    24.8600    21.3610    38.9430    24.9910     2.4660    -9.7560 
   87.6250    54.8820    18.0260    16.0240    20.7790    25.0380     2.3190   -11.3070 
   87.7500    56.8310    13.7570    12.1590    11.9590    25.2450     2.1960   -12.8280 
   87.8750    57.3240    11.4610     9.7470     9.1250    25.3930     2.1220   -14.2730 
   88.0000    57.6050    10.2840     8.4360     8.7840    25.3450     2.0990   -15.6180 
   88.1250    61.2870    10.1820     7.9710     8.9550    25.1020     2.1120   -16.8630 
   88.2500    64.7470    10.4710     7.9300     8.8380    24.9110     2.1330   -17.9940 
   88.3750    64.7900    10.8230     8.1000     8.5590    24.8180     2.1480   -18.9190 
   88.5000    62.2790    11.0580     8.3120     8.2530    24.9090     2.1540   -19.6390 
   88.6250    60.0630    11.1110     8.4510     8.4850    25.0710     2.1490   -20.1970 
   88.7500    59.2370    11.0370     8.4920     8.5410    25.2470     2.1360   -20.6800 
   88.8750    58.2060    10.8680     8.4390     8.5530    25.3880     2.1180   -21.0880 
   89.0000    57.9340    10.6510     8.3220     8.5860    25.4790     2.1010   -21.3920 
   89.1250    59.6170    10.4600     8.1900     8.3760    25.3890     2.0930   -21.5160 
   89.2500    61.7130    10.3560     8.0920     7.9630    25.1650     2.0990   -21.4890 
   89.3750    65.3080    10.3640     8.0440     7.7760    24.8730     2.1180   -21.3160 
   89.5000    69.8950    10.4730     8.0390     8.3200    24.6710     2.1400   -20.9890 
   89.6250    71.0610    10.6360     8.0460     9.2750    24.6520     2.1480   -20.6030 
   89.7500    68.4000    10.7550     8.0170     9.9000    24.8680     2.1330   -20.2670 
   89.8750    65.5400    10.7690     7.9270     9.2710    25.1170     2.0990   -19.9670 
   90.0000    64.1900    10.6580     7.7800     8.4170    25.1870     2.0580   -19.7270 
   90.1250    62.6510    10.4450     7.6030     7.9230    24.8910     2.0340   -19.5740 
   90.2500    62.7530    10.2070     7.4380     7.5550    24.4260     2.0350   -19.3980 
   90.3750    65.7270     9.9870     7.3030     7.3330    24.0790     2.0560   -19.2010 
   90.5000    68.5740     9.8030     7.1970     7.2890    23.9760     2.0880   -19.0280 
   90.6250    68.3120     9.6880     7.1250     7.5740    24.0120     2.1150   -18.8080 
   90.7500    66.6870     9.6680     7.1050     7.8370    23.9660     2.1320   -18.4710 
   90.8750    65.9380     9.7780     7.1690     7.8020    23.8630     2.1410   -18.0230 
   91.0000    67.5320    10.0340     7.3340     7.4970    23.8170     2.1470   -17.4840 
   91.1250    71.3540    10.4230     7.5990     7.4510    23.7740     2.1520   -16.8980 
   91.2500    73.8200    10.8090     7.8780     7.6070    23.6890     2.1550   -16.3930 
   91.3750    73.0160    11.0280     8.0650     7.7370    23.6660     2.1540   -16.0390 
   91.5000    71.6610    10.9400     8.0640     7.8790    23.7150     2.1440   -15.8590 
   91.6250    74.1210    10.4820     7.8300     7.9340    23.8160     2.1290   -15.7390 
   91.7500    79.2320     9.8700     7.4820     7.6900    23.9560     2.1170   -15.6310 
   91.8750    82.2380     9.3250     7.1350     7.1180    24.1460     2.1140   -15.6290 
   92.0000    80.4660     9.0070     6.8820     6.5970    24.2740     2.1200   -15.7860 
   92.1250    75.7210     8.9850     6.7930     7.4670    24.3030     2.1340   -16.1880 
   92.2500    71.3940     9.1330     6.8290     7.9510    24.2910     2.1510   -16.7050 
   92.3750    68.9290     9.3600     6.9510     8.0750    24.2670     2.1680   -17.2170 
   92.5000    68.6430     9.5930     7.1100     8.3120    24.2570     2.1830   -17.6990 
   92.6250    68.6560     9.7790     7.2500     8.7690    24.2870     2.1870   -18.2500 
   92.7500    66.7320     9.9200     7.3470     8.9550    24.3950     2.1750   -18.8600 
   92.8750    63.8770    10.0350     7.4070     8.8200    24.6580     2.1470   -19.4560 
   93.0000    62.5660    10.1520     7.4480     8.6600    25.0500     2.1110   -20.0020 
   93.1250    63.4910    10.2870     7.4910     8.7230    25.3790     2.0840   -20.3690 
   93.2500    64.4650    10.4180     7.5460     8.7660    25.4650     2.0850   -20.5890 
   93.3750    63.7560    10.5100     7.6100     8.8660    25.3580     2.1210   -20.7990 
   93.5000    62.5670    10.5470     7.6730     9.9610    25.1150     2.1800   -20.9420 
   93.6250    63.4740    10.5280     7.7170    13.8510    25.0090     2.2310   -20.9840 
   93.7500    64.7480    10.4730     7.7320    16.8240    25.1490     2.2470   -20.9380 
   93.8750    63.5460    10.3960     7.7210    13.2200    25.5260     2.2270   -20.8880 
   94.0000    60.4330    10.3260     7.6990     9.9070    25.8490     2.1870   -20.8610 
   94.1250    57.3220    10.3000     7.6870     9.1410    25.9300     2.1500   -20.8600 
   94.2500    55.5840    10.3380     7.6930     9.0550    25.9490     2.1220   -20.9220 
   94.3750    56.3530    10.4330     7.7200     8.9280    25.9510     2.0960   -20.9990 
   94.5000    59.0270    10.5380     7.7570     8.7480    25.9450     2.0710   -21.0890 
   94.6250    62.3500    10.5900     7.7830     8.8320    25.8580     2.0590   -21.1900 
   94.7500    65.2920    10.5730     7.7800     8.8920    25.5800     2.0630   -21.3850 
   94.8750    65.8920    10.4950     7.7340     9.0080    25.0950     2.0760   -21.6200 
