~V
VERS. 2.00: Ver 2.00
~W
STRT.M 64.0000:
STOP.M 220.0000:
STEP.M 0.1250:
NULL. -999.2500:
UWI. F10051:
~C
DEPT.M :
SP.MV :
GR.API :
RML.OHMM :
RI. :
RXO.OHMM :
CALI.CM :
DEN.GM/CC :
~A
# ...
  176.5000   -11.9690    57.9080     6.7670     6.1410     5.9150    23.6210     2.3590 
  176.6250   -11.9090    57.9590     6.7280     6.1240     6.0130    23.5310     2.3540 
  176.7500   -11.8500    61.7470     6.7260     6.1190     6.2000    23.5130     2.3340 
  176.8750   -11.7630    67.2930     6.7400     6.1140     6.4540    23.6820     2.3090 
  177.0000   -11.6330    71.2480     6.7770     6.1010     6.5640    23.9730     2.2880 
  177.1250   -11.4700    69.6350     6.8270     6.0870     6.4930    24.1010     2.2840 
  177.2500   -11.3220    65.0890     6.8770     6.0870     6.4530    24.0830     2.2980 
  177.3750   -11.1650    61.2890     6.9170     6.1120     6.5570    24.0220     2.3270 
  177.5000   -10.9920    60.8070     6.9400     6.1640     6.8150    24.0060     2.3610 
  177.6250   -10.8120    62.6330     6.9970     6.2370     6.9810    23.9950     2.3890 
  177.7500   -10.6450    64.1530     7.0880     6.3130     7.0890    23.9800     2.4080 
  177.8750   -10.4810    63.9180     7.2150     6.3870     7.1690    23.9880     2.4190 
  178.0000   -10.3270    61.3830     7.3820     6.4580     7.2400    24.0320     2.4240 
  178.1250   -10.1930    59.9200     7.5120     6.5280     7.3620    24.0660     2.4220 
  178.2500   -10.0740    62.7830     7.6260     6.5900     7.4290    24.0330     2.4120 
  178.3750    -9.9730    68.8020     7.7020     6.6290     7.3460    23.9180     2.3950 
  178.5000    -9.8820    73.6070     7.7230     6.6310     7.0970    23.7850     2.3780 
  178.6250    -9.7720    74.1910     7.6910     6.5950     6.7750    23.6980     2.3660 
  178.7500    -9.6680    75.2810     7.6530     6.5460     6.5440    23.7050     2.3610 
  178.8750    -9.6010    78.8690     7.6420     6.5080     6.4340    23.6810     2.3600 
  179.0000    -9.5580    80.1470     7.6700     6.4950     6.5030    23.7600     2.3610 
  179.1250    -9.5640    76.3030     7.7150     6.4990     6.7720    23.7690     2.3610 
  179.2500    -9.5700    72.6370     7.7330     6.4920     6.8380    23.7580     2.3600 
  179.3750    -9.5810    73.1480     7.6960     6.4530     6.6710    23.6510     2.3580 
  179.5000    -9.6070    76.2340     7.6070     6.3790     6.4220    23.5340     2.3550 
  179.6250    -9.6360    77.5770     7.4960     6.2840     6.2650    23.4660     2.3510 
  179.7500    -9.6500    77.7580     7.4110     6.2030     6.3070    23.5040     2.3490 
  179.8750    -9.6220    78.9110     7.3770     6.1560     6.3990    23.6430     2.3480 
  180.0000    -9.5640    82.3170     7.3940     6.1490     6.4700    23.7220     2.3490 
  180.1250    -9.4510    86.3470     7.4440     6.1750     6.6440    23.6110     2.3520 
  180.2500    -9.3110    87.2860     7.4920     6.2060     7.0340    23.4650     2.3550 
  180.3750    -9.1570    86.3160     7.5150     6.2250     7.4060    23.3470     2.3570 
  180.5000    -9.0030    85.0220     7.4960     6.2170     7.5020    23.2490     2.3540 
  180.6250    -8.8740    82.8340     7.4160     6.1680     7.5210    23.2160     2.3480 
  180.7500    -8.7520    79.9860     7.2890     6.0810     7.4910    23.2250     2.3410 
  180.8750    -8.6670    75.8750     7.1330     5.9660     7.4290    23.2500     2.3390 
  181.0000    -8.6180    70.9740     6.9760     5.8410     7.2870    23.2930     2.3460 
  181.1250    -8.6010    66.0890     6.8640     5.7360     7.1010    23.4070     2.3610 
  181.2500    -8.6580    62.9100     6.8200     5.6720     6.9010    23.6060     2.3760 
  181.3750    -8.7600    62.3790     6.8500     5.6590     6.6880    23.8550     2.3850 
  181.5000    -8.8930    63.0040     6.9370     5.6910     6.5300    24.0960     2.3850 
  181.6250    -9.0680    65.3490     7.0430     5.7460     6.5750    24.2610     2.3770 
  181.7500    -9.2930    67.9990     7.1160     5.7860     6.7590    24.3060     2.3690 
  181.8750    -9.5440    69.9470     7.1190     5.7810     7.0360    24.2780     2.3640 
  182.0000    -9.8390    70.3210     7.0320     5.7160     7.2030    24.2610     2.3600 
  182.1250   -10.2140    69.6820     6.8570     5.5890     6.9590    24.2710     2.3550 
  182.2500   -10.5960    70.7880     6.6530     5.4410     6.4280    24.2840     2.3500 
  182.3750   -10.9950    72.9730     6.4760     5.3100     6.0510    24.2400     2.3500 
  182.5000   -11.3830    74.4180     6.3790     5.2360     5.9510    24.1220     2.3630 
  182.6250   -11.7220    74.0500     6.4400     5.2730     6.2530    24.0060     2.3880 
  182.7500   -11.9870    73.6390     6.6870     5.4410     6.8620    23.9440     2.4130 
  182.8750   -12.2020    74.1820     7.1420     5.7600     7.4830    23.9110     2.4300 
  183.0000   -12.3350    74.5270     7.7840     6.2180     7.7230    23.8960     2.4360 
  183.1250   -12.3520    73.1310     8.5170     6.7560     7.8050    23.8690     2.4430 
  183.2500   -12.3050    70.0530     9.1230     7.2290     8.5700    23.8040     2.4600 
  183.3750   -12.2250    66.5740     9.3970     7.4900     9.3070    23.7370     2.4820 
  183.5000   -12.1340    65.5840     9.2080     7.4340     9.3010    23.7980     2.4960 
  183.6250   -12.0440    69.0010     8.5390     7.0150     8.6560    23.8410     2.4840 
  183.7500   -11.9600    73.6980     7.7070     6.4310     7.6300    23.8800     2.4520 
  183.8750   -11.8580    76.5470     6.9970     5.8760     6.7110    23.9240     2.4110 
  184.0000   -11.7430    77.8400     6.6350     5.5240     6.4420    23.9460     2.3750 
  184.1250   -11.6260    79.2610     6.8000     5.5350     6.9970    23.9240     2.3580 
  184.2500   -11.5200    80.0450     7.3730     5.8680     8.1960    23.9180     2.3590 
  184.3750   -11.4010    79.9280     8.2270     6.4600     9.8950    23.9950     2.3770 
  184.5000   -11.2790    79.9660     9.1830     7.2000    11.6750    24.0880     2.4000 
  184.6250   -11.1360    79.7310    10.0100     7.9250    12.6270    24.1080     2.4170 
  184.7500   -10.9680    78.8820    10.5680     8.4910    12.8810    24.1170     2.4220 
  184.8750   -10.8230    78.8000    10.8120     8.8260    12.8710    24.1660     2.4180 
  185.0000   -10.7180    80.4950    10.7840     8.9280    12.6890    24.1750     2.4120 
  185.1250   -10.6190    81.0880    10.5760     8.8410    12.0950    24.0960     2.4130 
  185.2500   -10.4950    79.3900    10.3440     8.6890    11.2190    23.9670     2.4240 
  185.3750   -10.3900    76.4410    10.1760     8.5490    10.3740    23.8850     2.4430 
  185.5000   -10.2910    73.7940    10.1260     8.4760     9.6510    23.8540     2.4590 
  185.6250   -10.2250    72.0770    10.2240     8.5080     9.2380    23.7830     2.4610 
  185.7500   -10.2050    71.9070    10.4140     8.6170     9.0440    23.7750     2.4470 
  185.8750   -10.1850    74.0860    10.6300     8.7670     8.9840    23.8100     2.4200 
  186.0000   -10.1620    78.2760    10.8020     8.9100     8.6410    23.8680     2.3930 
  186.1250   -10.1580    79.7370    10.8490     8.9870     8.0250    23.8760     2.3820 
  186.2500   -10.1590    76.8520    10.7730     8.9820     7.6600    23.8040     2.3930 
  186.3750   -10.1380    71.9710    10.6010     8.9040     7.5240    23.7510     2.4220 
  186.5000   -10.0950    68.0200    10.3860     8.7800     7.2200    23.6950     2.4560 
  186.6250   -10.0370    66.3960    10.1920     8.6520     6.9020    23.4600     2.4770 
  186.7500    -9.9610    65.7400    10.0570     8.5560     6.9420    23.1750     2.4800 
  186.8750    -9.8850    65.3890     9.9950     8.5090     7.3060    23.1940     2.4680 
  187.0000    -9.8080    64.3250    10.0020     8.5140     7.8240    23.5020     2.4490 
  187.1250    -9.7440    63.9290    10.0660     8.5670     7.9000    23.6760     2.4380 
  187.2500    -9.7050    65.3440    10.1490     8.6430     7.4900    23.6420     2.4380 
  187.3750    -9.6830    67.8910    10.2260     8.7230     6.8620    23.5130     2.4460 
  187.5000    -9.6920    71.3480    10.2790     8.7940     6.8310    23.5000     2.4520 
  187.6250    -9.7200    71.8710    10.3020     8.8470     7.4260    23.6160     2.4450 
