~V
VERS. 2.00: Ver 2.00
~W
STRT.M 50.0000:
STOP.M 244.0000:
STEP.M 0.1250:
NULL. -999.2500:
UWI. F10003:
~C
DEPT.M :
GR.API :
RML.OHMM :
RI. :
RXO.OHMM :
CALI.CM :
DEN.GM/CC :
SP.MV :
~A
   50.0000  -999.2500  -999.2500  -999.2500  -999.2500  -999.2500     0.0000    23.0180 
   50.1250  -999.2500  -999.2500  -999.2500  -999.2500  -999.2500     0.0000    25.1700 
   50.2500  -999.2500  -999.2500  -999.2500  -999.2500  -999.2500     1.0380    26.8820 
   50.3750  -999.2500  -999.2500  -999.2500  -999.2500  -999.2500     2.0810    28.1790 
   50.5000  -999.2500  -999.2500  -999.2500  -999.2500  -999.2500     2.0890    29.1180 
   50.6250  -999.2500  -999.2500  -999.2500  -999.2500  -999.2500     2.1000    29.7250 
   50.7500  -999.2500  -999.2500  -999.2500  -999.2500  -999.2500     2.1100    30.1380 
   50.8750  -999.2500  -999.2500  -999.2500  -999.2500  -999.2500     2.1170    30.4820 
   51.0000  -999.2500  -999.2500  -999.2500  -999.2500  -999.2500     2.1190    30.8660 
   51.1250  -999.2500  -999.2500  -999.2500  -999.2500  -999.2500     2.1140    31.4110 
   51.2500  -999.2500  -999.2500  -999.2500  -999.2500  -999.2500     2.1080    32.2460 
   51.3750    40.8130     1.3610     0.3280     1.2170    23.7980     2.1050    33.4020 
   51.5000    40.8130     1.3610     0.3280     1.2170    23.7980     2.1110    34.8410 
   51.6250    39.1800     1.3070     0.3310     1.1940    23.9440     2.1240    36.5920 
   51.7500    37.2750     1.3090     0.3310     1.2080    24.0090     2.1400    38.5320 
   51.8750    37.2220     1.3560     0.3290     1.2230    24.1630     2.1540    40.5910 
   52.0000    38.2240     1.4170     0.3250     1.1140    24.2250     2.1630    42.7720 
   52.1250    37.8440     1.4480     0.3210     0.8430    24.0920     2.1670    45.1320 
   52.2500    37.1290     1.4470     0.3190     0.6970    24.0700     2.1680    47.5740 
   52.3750    37.0720     1.4340     0.3210     0.6940    24.4870     2.1690    50.0070 
   52.5000    37.9290     1.4300     0.3270     0.8560    25.1460     2.1720    52.4370 
   52.6250    38.8090     1.4330     0.3350     1.2400    25.5350     2.1780    55.0010 
   52.7500    39.2080     1.4200     0.3420     1.6900    25.6460     2.1850    57.8490 
   52.8750    39.2230     1.3780     0.3470     2.0170    25.6310     2.1930    61.0490 
   53.0000    38.7680     1.3180     0.3500     2.1260    25.5630     2.2000    64.5790 
   53.1250    38.4010     1.2620     0.3500     1.9950    25.4380     2.2050    68.3350 
   53.2500    36.9890     1.2270     0.3500     1.8090    25.3080     2.2090    72.0570 
   53.3750    35.1650     1.2140     0.3490     1.6630    25.2520     2.2130    75.4910 
   53.5000    35.5020     1.2190     0.3490     1.6130    25.2420     2.2160    78.3390 
   53.6250    37.8250     1.2430     0.3500     1.6340    25.2410     2.2150    80.1140 
   53.7500    39.5880     1.2830     0.3510     1.6560    25.2470     2.2090    80.6840 
   53.8750    39.8060     1.3330     0.3530     1.6430    25.2960     2.1960    79.8530 
   54.0000    39.6410     1.3740     0.3550     1.6330    25.4220     2.1780    77.5050 
   54.1250    39.9420     1.3740     0.3540     1.6930    25.6040     2.1580    73.4560 
   54.2500    40.0960     1.3280     0.3530     2.0610    25.7150     2.1400    68.2720 
   54.3750    40.7030     1.2510     0.3510     3.0210    25.7690     2.1280    62.4470 
   54.5000    42.2040     1.1720     0.3490     4.6180    25.7660     2.1220    56.5240 
   54.6250    43.0780     1.1230     0.3480     6.5460    25.7360     2.1190    50.8620 
   54.7500    43.5460     1.1050     0.3480     8.0040    25.6990     2.1140    45.5600 
   54.8750    44.5750     1.1120     0.3490     8.8070    25.6730     2.1050    40.7940 
   55.0000    45.2790     1.1340     0.3510     9.1360    25.6640     2.0920    36.8360 
   55.1250    43.2750     1.1600     0.3530     9.1520    25.6680     2.0800    34.0250 
   55.2500    40.7360     1.1800     0.3550     9.1180    25.6670     2.0720    32.1230 
   55.3750    40.2730     1.1850     0.3570     9.0080    25.6670     2.0700    30.9440 
   55.5000    40.5510     1.1750     0.3600     8.7290    25.6650     2.0750    30.1920 
   55.6250    41.2730     1.1520     0.3610     8.4440    25.6640     2.0870    29.5640 
   55.7500    43.8310     1.1290     0.3630     8.2050    25.6510     2.1000    29.0060 
   55.8750    46.4810     1.1130     0.3640     8.1240    25.6250     2.1100    28.5080 
   56.0000    46.5470     1.1080     0.3650     7.5550    25.6070     2.1130    27.9120 
   56.1250    44.6420     1.1140     0.3640     6.5550    25.6010     2.1080    27.0380 
   56.2500    42.7200     1.1160     0.3590     4.7210    25.6010     2.0990    25.9260 
   56.3750    40.0020     1.0880     0.3510     1.7150    25.5990     2.0900    24.5630 
   56.5000    36.6510     1.0000     0.3410     0.3870    25.5960     2.0870    23.1050 
   56.6250    33.8220     0.8220     0.3360    -0.0130    25.5950     2.1010    22.1730 
   56.7500    31.9440     0.5940     0.3410    -0.2080    25.5930     2.1370    21.9680 
   56.8750    31.6210     0.3720     0.3500    -0.1660    25.5910     2.1980    22.4120 
   57.0000    33.0210     0.2060     0.3510     0.1550    25.5920     2.2780    23.3090 
   57.1250    35.1780     0.1180     0.3250     0.7650    25.5920     2.3580    24.3120 
   57.2500    37.9850     0.1050     0.2970     1.9570    25.5780     2.4180    24.9850 
   57.3750    41.4420     0.2330     0.3540     3.6810    25.5090     2.4440    25.0640 
   57.5000    43.3100     0.6320     0.6570     5.6390    25.3920     2.4310    24.3120 
   57.6250    44.9330     1.5190     1.4860     8.2180    25.3710     2.3850    22.2620 
   57.7500    48.5190     2.8390     2.8530    10.8880    25.7040     2.3210    19.0460 
   57.8750    52.8490     4.3880     4.6080    11.7320    26.1970     2.2560    14.8370 
   58.0000    55.7400     5.7600     6.3590    10.9420    26.2980     2.2050     9.9410 
   58.1250    58.3620     6.3920     7.4710     9.8610    25.7800     2.1890     4.8150 
   58.2500    62.0840     6.3920     7.8550     8.6430    25.0640     2.2040    -0.0460 
   58.3750    65.1330     6.1350     7.7790     7.6210    24.5030     2.2400    -4.3120 
   58.5000    66.3600     5.9100     7.5620     7.3790    24.1030     2.2780    -7.7930 
   58.6250    67.7350     5.7970     7.3710     7.4470    24.0050     2.3020   -10.3270 
   58.7500    70.3450     5.7310     7.2260     7.4490    24.1770     2.3110   -12.2390 
   58.8750    73.7070     5.6850     7.1210     7.3560    24.3280     2.3130   -13.6970 
   59.0000    76.1320     5.6930     7.0880     7.1810    24.3500     2.3190   -14.7550 
   59.1250    77.1040     5.8990     7.2630     7.1990    24.2440     2.3310   -15.4910 
   59.2500    77.2520     6.4050     7.7520     7.3600    24.0870     2.3440   -16.0750 
   59.3750    76.1630     7.2380     8.5930     7.8720    23.9340     2.3470   -16.5540 
   59.5000    73.7720     8.2730     9.6730     8.9800    23.8140     2.3350   -16.9680 
   59.6250    70.0390     9.1770    10.6570    10.2990    23.6940     2.3040   -17.3820 
   59.7500    66.6730     9.6000    11.1670    11.5220    23.5710     2.2660   -17.7790 
   59.8750    65.1750     9.3680    10.9930    12.0570    23.5240     2.2330   -18.1470 
   60.0000    66.1540     8.5970    10.2060    11.0640    23.6540     2.2180   -18.5520 
   60.1250    68.2950     7.7330     9.1950     9.2230    23.8680     2.2250   -19.0050 
   60.2500    71.1660     7.2440     8.4750     8.1120    24.0010     2.2440   -19.4420 
   60.3750    74.5160     7.3010     8.2810     8.0000    24.0690     2.2630   -19.8430 
   60.5000    74.1720     7.8510     8.6220     8.3740    24.1430     2.2730   -20.2100 
   60.6250    67.8940     8.6510     9.3180     9.1350    24.2600     2.2670   -20.5060 
   60.7500    63.6020     9.2690     9.9370     9.9770    24.4610     2.2530   -20.7640 
   60.8750    65.5060     9.3990    10.1510    10.2550    24.6430     2.2410   -20.9360 
   61.0000    71.1620     8.9280     9.7970     9.7140    24.7270     2.2400   -21.0260 
   61.1250    75.5860     7.9910     8.9220     8.5930    24.6330     2.2520   -21.0890 
