~V
VERS. 2.00: Ver 2.00
~W
STRT.M 55.0000:
STOP.M 310.0000:
STEP.M 0.1250:
NULL. -999.2500:
UWI. F10049:
~C
DEPT.M :
GR.API :
RML.OHMM :
RI. :
RXO.OHMM :
CALI.CM :
DEN.GM/CC :
SP.MV :
~A
# ...
  167.5000    92.7000     7.5410     6.6100     6.3430    24.8630     2.2330   -10.0610 
  167.6250    97.5220     7.1560     6.2380     5.9950    24.8780     2.2500    -8.9230 
  167.7500    97.7890     6.8100     5.9820     5.9600    24.9090     2.2540    -7.7920 
  167.8750    92.6430     6.5900     5.8910     5.9070    24.9400     2.2490    -6.6560 
  168.0000    86.5730     6.5330     5.9570     5.9870    24.9200     2.2390    -5.6500 
  168.1250    85.6550     6.6030     6.1030     6.6400    24.8120     2.2270    -5.1350 
  168.2500    88.7790     6.6570     6.1830     6.9710    24.6850     2.2180    -5.1430 
  168.3750    94.9200     6.5950     6.1180     7.0500    24.5980     2.2160    -5.4030 
  168.5000   102.2110     6.4060     5.9380     6.7550    24.6010     2.2240    -5.6970 
  168.6250   106.0050     6.2070     5.7910     5.6250    24.7500     2.2440    -6.0030 
  168.7500   103.0210     6.1680     5.8170     5.2540    24.8560     2.2650    -6.3350 
  168.8750    93.9160     6.3640     6.0640     5.7380    24.9000     2.2740    -6.7580 
  169.0000    84.4930     6.7440     6.4800     6.6920    24.8920     2.2650    -7.3020 
  169.1250    82.1290     7.1160     6.8960     8.0240    24.8460     2.2430    -7.8410 
  169.2500    85.4850     7.2800     7.1130     8.4020    24.8090     2.2230    -8.2180 
  169.3750    88.8260     7.1680     7.0510     8.0390    24.8040     2.2180    -8.4600 
  169.5000    89.9780     6.8630     6.7820     6.8670    24.8270     2.2270    -8.7050 
  169.6250    91.1400     6.5900     6.4870     6.0790    24.8430     2.2410    -9.0440 
  169.7500    90.3630     6.5460     6.3380     6.1040    24.8070     2.2490    -9.4300 
  169.8750    85.6670     6.7940     6.4200     6.3930    24.7480     2.2450    -9.7810 
  170.0000    80.3640     7.2680     6.7540     6.7630    24.6970     2.2340   -10.0880 
  170.1250    79.9380     7.7950     7.3190     7.7000    24.6430     2.2190   -10.3970 
  170.2500    81.8840     8.1780     7.9460     8.5260    24.6060     2.2040   -10.8000 
  170.3750    82.5510     8.3090     8.4610     9.0210    24.5820     2.1890   -11.3690 
  170.5000    81.3800     8.1520     8.6800     9.4890    24.5520     2.1770   -11.9410 
  170.6250    81.2310     7.7150     8.4080     9.7230    24.5380     2.1730   -12.2730 
  170.7500    85.0250     7.1760     7.7750     9.6020    24.5610     2.1800   -12.2260 
  170.8750    91.9140     6.7300     7.0290     8.6160    24.6480     2.1980   -11.7920 
  171.0000    97.2630     6.6050     6.4760     6.9660    24.8040     2.2270   -11.0080 
  171.1250    95.1390     7.0890     6.4530     6.3670    24.9780     2.2680    -9.9550 
  171.2500    88.0290     8.1560     7.0390     7.5160    25.1140     2.3220    -8.7620 
  171.3750    80.9300     9.6780     8.2880    12.0510    25.1850     2.3890    -7.5430 
  171.5000    76.6590    11.3030    10.0810    23.7710    25.2140     2.4600    -6.3820 
  171.6250    76.1500    12.3160    11.7390    27.8460    25.1840     2.5200    -5.3780 
  171.7500    77.8320    12.3080    12.3110    20.2050    25.1440     2.5530    -4.6130 
  171.8750    80.9680    11.3130    11.5410    13.4140    25.1020     2.5510    -4.1190 
  172.0000    84.9730     9.8130     9.9890    12.1480    25.0240     2.5160    -3.8370 
  172.1250    87.2630     8.5080     8.4640     8.8400    24.9500     2.4560    -3.7300 
  172.2500    89.1630     7.7400     7.3770     6.8790    24.8680     2.3900    -3.7570 
  172.3750    90.7740     7.4790     6.7670     6.2850    24.8070     2.3330    -3.8290 
  172.5000    91.1870     7.5180     6.5430     6.4760    24.7630     2.2920    -3.9520 
  172.6250    90.2450     7.6080     6.6050     6.6280    24.7240     2.2710    -4.1880 
  172.7500    90.7580     7.6050     6.7890     6.6420    24.7180     2.2620    -4.5220 
  172.8750    93.6340     7.5030     7.0000     6.7250    24.7720     2.2590    -4.8710 
  173.0000    95.5080     7.3510     7.1610     6.7770    24.8890     2.2590    -5.1260 
  173.1250    92.6530     7.1860     7.2140     6.5250    24.9700     2.2620    -5.3090 
  173.2500    88.6510     7.0230     7.1620     6.6980    24.9770     2.2650    -5.4960 
  173.3750    86.4970     6.8750     7.0180     7.0190    24.9220     2.2670    -5.5560 
  173.5000    86.3840     6.7670     6.8040     6.8180    24.8770     2.2660    -5.4550 
  173.6250    86.3770     6.7330     6.5670     6.3680    24.9340     2.2600    -5.2640 
  173.7500    85.8630     6.7630     6.3690     6.1670    25.0100     2.2520    -5.1600 
  173.8750    85.0280     6.8470     6.2670     6.1710    25.0700     2.2430    -5.2320 
  174.0000    82.7700     6.9740     6.3230     6.4070    25.0710     2.2330    -5.5360 
  174.1250    79.5250     7.1370     6.6310     6.7640    24.9800     2.2240    -6.0820 
  174.2500    75.4910     7.3320     7.1630     7.2790    24.8330     2.2130    -6.8750 
  174.3750    69.6550     7.5790     7.8540     8.2080    24.6690     2.1990    -8.0720 
  174.5000    63.6750     7.8970     8.5770     9.7600    24.5500     2.1850    -9.6250 
  174.6250    61.4270     8.2990     9.1540    10.4530    24.4890     2.1730   -11.2800 
  174.7500    61.9920     8.7330     9.5290     9.9070    24.4710     2.1640   -12.7500 
  174.8750    62.3330     9.1540     9.7590     9.3950    24.4680     2.1580   -13.9840 
  175.0000    62.5130     9.5150     9.9350     9.3200    24.4610     2.1550   -15.0760 
  175.1250    64.0440     9.7430    10.0620     9.2960    24.4420     2.1530   -15.8590 
  175.2500    67.5060     9.7760    10.0190     9.2500    24.4200     2.1550   -16.1070 
  175.3750    73.7220     9.5230     9.6510     9.2550    24.4230     2.1690   -15.6860 
  175.5000    82.3750     8.9370     8.9060     8.6900    24.4610     2.2000   -14.5730 
  175.6250    91.9520     8.0580     7.9100     7.1260    24.5630     2.2510   -12.9580 
  175.7500    99.2340     7.1310     6.9620     5.4440    24.7560     2.3070   -11.2330 
  175.8750   102.5740     6.3490     6.2170     4.7700    24.9430     2.3510    -9.5270 
  176.0000   103.2090     5.8360     5.7110     4.7410    25.0100     2.3680    -7.7990 
  176.1250   103.1850     5.6480     5.4210     4.8070    24.9480     2.3520    -6.1390 
  176.2500   103.5480     5.6220     5.2210     4.9260    24.8500     2.3230    -4.7710 
  176.3750   102.8290     5.6130     5.0430     5.0060    24.7410     2.3000    -3.7950 
  176.5000   101.2890     5.5470     4.8840     4.9710    24.6460     2.2930    -3.2800 
  176.6250   101.8830     5.5130     4.8650     4.8900    24.6290     2.3040    -3.1900 
  176.7500   102.5030     5.7260     5.1210     4.8510    24.6610     2.3290    -3.2730 
  176.8750    97.4570     6.3620     5.7760     5.4970    24.6890     2.3690    -3.4330 
  177.0000    85.7410     7.4250     6.8790     7.4560    24.6970     2.4210    -3.6760 
  177.1250    74.8230     8.6060     8.2900    12.6630    24.6770     2.4700    -4.0720 
  177.2500    71.6410     9.3600     9.4110    18.5470    24.6050     2.4940    -4.5830 
  177.3750    72.9800     9.3820     9.7210    18.2730    24.4410     2.4760    -5.1990 
  177.5000    74.6780     8.7520     9.2170    13.2450    24.2410     2.4220    -5.8580 
  177.6250    76.5880     7.9190     8.4320     8.8910    24.0980     2.3490    -6.6610 
  177.7500    77.5150     7.3950     7.9070     7.7250    24.0000     2.2830    -7.6840 
  177.8750    75.7160     7.3640     7.7920     8.7310    23.8770     2.2350    -8.9150 
  178.0000    71.6470     7.7730     8.0740    10.2140    23.7380     2.2020   -10.2960 
  178.1250    66.7730     8.4040     8.6420    10.3120    23.6300     2.1820   -11.6440 
  178.2500    62.8680     8.9370     9.2150    10.4490    23.5600     2.1700   -12.8640 
  178.3750    62.6170     9.2240     9.6120    10.7320    23.5830     2.1620   -13.9790 
  178.5000    66.8170     9.2890     9.7900    10.9160    23.6750     2.1560   -15.0830 
  178.6250    69.1100     9.2960     9.8070    10.8210    23.7220     2.1500   -16.0670 
