~V
VERS. 2.00: Ver 2.00
~W
STRT.M 50.0000:
STOP.M 313.0000:
STEP.M 0.1250:
NULL. -999.2500:
UWI. F10034:
~C
DEPT.M :
GR.API :
RML.OHMM :
RI. :
RXO.OHMM :
CALI.CM :
DEN.GM/CC :
SP.MV :
~A
# ...
   61.2500    60.2030    16.1270    14.8330    14.5740    22.4810     2.0390    -8.4330 
   61.3750    59.5760    16.6000    15.3950    14.7540    22.4400     2.0310    -9.0520 
   61.5000    59.2650    16.6140    15.5690    14.4490    22.4260     2.0300    -9.6550 
   61.6250    59.7800    16.4180    15.4840    14.5500    22.4510     2.0350   -10.2500 
   61.7500    62.2240    16.3740    15.4350    15.2340    22.4790     2.0410   -10.8120 
   61.8750    65.2650    16.6850    15.6130    16.2320    22.4550     2.0430   -11.3600 
   62.0000    65.4440    17.4280    16.1230    17.4060    22.4330     2.0400   -11.8410 
   62.1250    63.1280    18.5770    16.9940    18.4840    22.5770     2.0300   -12.2600 
   62.2500    62.9940    19.8150    17.9880    19.4440    22.8240     2.0160   -12.6140 
   62.3750    65.3560    20.7910    18.8150    20.2200    23.0690     2.0020   -12.8950 
   62.5000    69.0590    21.1580    19.1660    20.4880    23.2270     1.9930   -13.0330 
   62.6250    72.1150    20.6310    18.7470    20.4630    23.2900     1.9960   -12.9590 
   62.7500    72.5960    19.5330    17.7740    19.4690    23.3140     2.0110   -12.6860 
   62.8750    71.6640    18.2320    16.5280    16.6260    23.3180     2.0330   -12.2300 
   63.0000    73.4710    17.0330    15.2780    13.3950    23.2730     2.0540   -11.6490 
   63.1250    78.1860    16.0030    14.1460    13.2760    23.2020     2.0680   -10.9830 
   63.2500    79.7670    14.9050    13.0340    13.8190    23.1820     2.0770   -10.2740 
   63.3750    79.2210    13.5440    11.8360    13.9040    23.2040     2.0920    -9.4960 
   63.5000    79.0590    11.9170    10.5400    12.0720    23.2360     2.1190    -8.6970 
   63.6250    80.2590    10.3150     9.3110     9.9620    23.2680     2.1580    -8.0060 
   63.7500    80.7540     9.1630     8.3920     7.7310    23.2990     2.1940    -7.4740 
   63.8750    80.6840     8.7380     7.9790     6.9700    23.3090     2.2150    -7.1340 
   64.0000    82.0490     9.1200     8.1640     7.6530    23.2990     2.2150    -6.9830 
   64.1250    84.3320    10.2860     9.0050     9.4020    23.2700     2.1980    -7.0000 
   64.2500    83.4330    11.8460    10.2400    11.4370    23.2150     2.1800    -7.2130 
   64.3750    79.6790    13.4680    11.6080    13.3030    23.1060     2.1660    -7.5990 
   64.5000    78.2110    14.7830    12.7790    13.9780    22.9420     2.1510    -8.0650 
   64.6250    79.3870    15.3470    13.3270    12.2860    22.7360     2.1290    -8.5630 
   64.7500    76.6570    15.1590    13.1950    11.0770    22.6390     2.1040    -9.0970 
   64.8750    70.7710    14.3420    12.4770    11.1340    22.5940     2.0890    -9.5810 
   65.0000    67.8600    13.1630    11.4080    10.8860    22.5040     2.0920    -9.9650 
   65.1250    69.2250    12.0070    10.3190     9.3960    22.4480     2.1160   -10.3510 
   65.2500    71.2460    11.2370     9.5130     8.5680    22.4440     2.1460   -10.7190 
   65.3750    72.9500    11.0810     9.1690     8.4380    22.4620     2.1660   -11.1100 
   65.5000    72.6760    11.6530     9.3950     8.9340    22.4750     2.1660   -11.5650 
   65.6250    69.3160    13.0140    10.3010    10.0890    22.4990     2.1420   -12.1460 
   65.7500    65.7130    14.8280    11.6750    11.9620    22.5640     2.1050   -12.7470 
   65.8750    62.9910    16.8040    13.3090    14.0980    22.6950     2.0660   -13.3530 
   66.0000    61.1030    18.6430    14.9280    15.2940    22.8820     2.0310   -13.9050 
   66.1250    59.3980    19.9520    16.1320    15.3900    23.0330     2.0080   -14.2710 
   66.2500    57.6730    20.4910    16.6610    15.2610    23.0570     1.9910   -14.4670 
   66.3750    55.7420    19.9870    16.2950    15.4130    22.9580     1.9810   -14.4610 
   66.5000    54.5940    18.2880    14.9500    15.3450    22.8180     1.9810   -14.2720 
   66.6250    56.6830    15.4520    12.7110    14.7650    22.7360     2.0040   -13.7970 
   66.7500    62.2910    12.2620    10.2200    13.4570    22.6790     2.0510   -13.1170 
   66.8750    70.8300     9.4290     7.9920    10.4480    22.6360     2.1130   -12.3080 
   67.0000    79.5770     7.4870     6.3770     7.0860    22.6310     2.1720   -11.5520 
   67.1250    81.9490     6.7910     5.6130     5.7960    22.6040     2.2040   -11.0110 
   67.2500    77.4610     7.0950     5.5080     6.3230    22.4960     2.2070   -10.7160 
   67.3750    68.4230     7.9580     5.9170     7.6940    22.2950     2.1940   -10.7060 
   67.5000    61.0450     9.0230     6.6480     9.2580    22.1260     2.1780   -10.9370 
   67.6250    59.9260     9.9030     7.4490    10.1010    22.0800     2.1690   -11.3490 
   67.7500    61.1220    10.4370     8.0880    10.5410    22.0950     2.1660   -11.8620 
   67.8750    60.5770    10.6700     8.4860    10.9500    22.1240     2.1640   -12.4210 
   68.0000    57.9080    10.7570     8.6800    11.3270    22.1560     2.1630   -12.8920 
   68.1250    57.0250    10.8420     8.7440    11.5040    22.2070     2.1600   -13.1130 
   68.2500    58.7870    10.9100     8.7220    11.4090    22.2500     2.1550   -13.0510 
   68.3750    61.4300    10.8010     8.5580    11.0580    22.2680     2.1520   -12.6820 
   68.5000    62.4050    10.3770     8.1790    10.3880    22.2710     2.1580   -12.0330 
   68.6250    60.4590     9.4720     7.5280     9.3150    22.2810     2.1800   -11.1080 
   68.7500    59.9770     8.3250     6.7340     7.8930    22.3200     2.2150   -10.0010 
   68.8750    63.4150     7.1360     5.9450     6.4390    22.4040     2.2540    -8.7930 
   69.0000    70.3280     6.1350     5.2990     5.4780    22.5330     2.2880    -7.5970 
   69.1250    76.6870     5.7640     4.9170     5.2190    22.6880     2.3100    -6.4960 
   69.2500    79.5310     5.6910     4.7630     5.2330    22.7310     2.3210    -5.4740 
   69.3750    78.1060     5.8130     4.7840     5.2850    22.6420     2.3260    -4.5800 
   69.5000    73.7640     6.0060     4.8990     5.3860    22.5250     2.3290    -3.8200 
   69.6250    70.7910     6.1420     5.0190     5.4720    22.5040     2.3330    -3.3110 
   69.7500    70.6830     6.1770     5.0810     5.4620    22.5930     2.3370    -2.9510 
   69.8750    73.4560     6.1250     5.0750     5.2900    22.8010     2.3400    -2.6970 
   70.0000    77.8760     6.0290     5.0180     5.1060    23.1120     2.3390    -2.5280 
   70.1250    80.4610     5.9330     4.9420     5.0490    23.4390     2.3340    -2.4160 
   70.2500    79.0100     5.8550     4.8690     5.0550    23.7110     2.3300    -2.3400 
   70.3750    75.1610     5.7840     4.7980     5.0570    23.8720     2.3330    -2.3370 
   70.5000    73.3880     5.7110     4.7210     5.0460    23.9220     2.3430    -2.5170 
   70.6250    75.0900     5.6530     4.6360     5.0440    23.9120     2.3570    -2.9110 
   70.7500    76.3520     5.6510     4.5650     5.1360    23.8770     2.3630    -3.5250 
   70.8750    75.1600     5.7420     4.5390     5.3060    23.7880     2.3560    -4.3820 
   71.0000    73.3110     5.9380     4.5830     5.7100    23.6080     2.3370    -5.4360 
   71.1250    71.9760     6.2410     4.7280     6.4190    23.3860     2.3070    -6.6800 
   71.2500    70.8070     6.6170     4.9600     7.4890    23.2230     2.2760    -8.0740 
   71.3750    69.0030     7.0650     5.2740     8.7460    23.1270     2.2480    -9.4720 
   71.5000    65.5970     7.5780     5.6530     9.9390    23.0610     2.2280   -10.6870 
   71.6250    60.5590     8.1180     6.0540    10.9430    22.9480     2.2230   -11.5300 
   71.7500    55.8190     8.5740     6.3910    11.6980    22.7740     2.2330   -11.9450 
   71.8750    54.7680     8.7970     6.5790    12.1000    22.6150     2.2540   -11.8620 
   72.0000    57.9460     8.6980     6.5570    12.0330    22.6210     2.2790   -11.2680 
   72.1250    62.7840     8.1450     6.2850    10.7930    22.8560     2.2970   -10.2010 
   72.2500    68.8610     7.3740     5.8740     8.6050    23.1060     2.3030    -8.8340 
   72.3750    75.9710     6.5290     5.4240     6.6250    23.2540     2.3000    -7.3210 
