~V
VERS. 2.00: Ver 2.00
~W
STRT.M 62.0000:
STOP.M 254.0000:
STEP.M 0.1250:
NULL. -999.2500:
UWI. F10030:
~C
DEPT.M :
DEN.GM/CC :
GR.API :
RML.OHMM :
RI. :
RXO.OHMM :
CALI.CM :
SP.MV :
~A
# ...
  219.5000     2.4400    65.9190    19.9620    16.4460    22.1670    25.0510   -19.0000 
  219.6250     2.4460    66.3040    25.6470    21.6590    35.1560    25.0690   -19.6940 
  219.7500     2.4250    64.1130    32.3310    28.1450    50.4870    24.5160   -20.3980 
  219.8750     2.3870    59.8130    39.8510    35.7570    53.0490    23.7960   -21.1010 
  220.0000     2.3510    55.9740    48.1980    44.3920    48.0950    23.2020   -21.7960 
  220.1250     2.3380    54.3040    57.6350    54.2080    53.4880    22.9100   -22.5080 
  220.2500     2.3350    52.8170    67.7680    64.7740    73.7780    22.8260   -23.1810 
  220.3750     2.3220    51.3680    77.5710    75.1610   112.4780    22.8090   -23.8130 
  220.5000     2.2850    50.4750    85.2470    83.6900   119.6950    22.7810   -24.3900 
  220.6250     2.2400    51.2590    90.0280    87.7640   108.3980    22.9010   -24.8750 
  220.7500     2.2250    53.8960    92.9370    87.4690   100.4180    23.3890   -25.3420 
  220.8750     2.2560    57.2270    93.1510    84.1110   100.6260    24.3170   -25.7860 
  221.0000     2.3200    59.8080    90.6390    79.8680   105.6290    25.3250   -26.1720 
  221.1250     2.3740    59.6500    88.3220    77.0430   104.5850    25.8340   -26.4750 
  221.2500     2.3860    58.6290    88.2790    76.3400   101.5500    25.4670   -26.7850 
  221.3750     2.3600    58.7050    89.9360    77.5550   104.3570    24.7900   -27.1130 
  221.5000     2.3160    60.0900    92.3270    79.9950   103.1970    24.2750   -27.4660 
  221.6250     2.2830    60.9540    94.4520    82.8400   110.8760    24.0110   -27.8700 
  221.7500     2.2640    60.0410    96.0200    85.5170   107.7620    23.8430   -28.2650 
  221.8750     2.2510    59.2270    97.3920    88.0740    96.9460    23.7340   -28.6510 
  222.0000     2.2360    59.5770    99.1610    90.8270    85.2580    23.7140   -29.0590 
  222.1250     2.2190    59.5760   101.6190    93.9310    93.8170    23.7740   -29.4600 
  222.2500     2.2070    59.1360   103.9160    96.7230   108.7200    23.8710   -29.8280 
  222.3750     2.2030    59.3970   104.7980    98.1420   129.9760    23.9760   -30.1220 
  222.5000     2.2040    61.8100   103.2510    97.2400   150.0840    24.0670   -30.3650 
  222.6250     2.2050    65.0850    99.1200    93.6240   124.1170    24.1330   -30.5620 
  222.7500     2.2000    66.9770    94.5710    89.1260    90.0160    24.1710   -30.7130 
  222.8750     2.1900    66.1880    91.7880    85.8240    80.4610    24.1940   -30.8320 
  223.0000     2.1810    62.9260    92.6580    85.7670    85.6000    24.2090   -30.9080 
  223.1250     2.1770    58.9940    99.4610    91.5390    98.7030    24.2100   -30.9250 
  223.2500     2.1780    56.3110   112.1220   103.2920   110.2510    24.2120   -30.8530 
  223.3750     2.1820    55.7340   130.5470   120.9170   134.3860    24.2170   -30.6810 
  223.5000     2.1860    56.1760   153.3370   142.9130   175.3830    24.2220   -30.3890 
  223.6250     2.1890    55.5470   176.3230   165.3400   217.3110    24.2150   -29.9610 
  223.7500     2.1930    55.5150   192.8230   182.3230   239.5460    24.1960   -29.4160 
  223.8750     2.1980    57.2830   197.1540   188.9690   249.4050    24.1790   -28.7250 
  224.0000     2.2020    59.1320   187.2950   182.9910   246.7890    24.1800   -27.8810 
  224.1250     2.2050    59.4240   165.7440   165.0390   222.7760    24.1910   -26.8910 
  224.2500     2.2080    59.8890   141.4200   142.4690   191.6840    24.1900   -25.8820 
  224.3750     2.2110    60.9500   119.2690   120.1790   153.9440    24.1860   -24.9050 
  224.5000     2.2160    62.0410   101.6640   101.3420   112.1770    24.1920   -23.9870 
  224.6250     2.2300    63.9380    89.9010    88.1360    87.9750    24.2020   -23.1020 
  224.7500     2.2500    67.9470    82.6780    79.7110    81.8080    24.1870   -22.2810 
  224.8750     2.2710    73.5570    79.4080    75.5160    79.4620    24.1380   -21.5650 
  225.0000     2.2890    78.6500    79.5060    74.9050    76.0750    24.0570   -20.9840 
  225.1250     2.2950    78.6640    82.6740    77.5430    85.9080    23.9910   -20.5470 
  225.2500     2.2900    73.8460    87.5510    82.0280   105.2050    23.9510   -20.1840 
  225.3750     2.2760    69.0720    93.1560    87.3820   123.0270    23.9170   -19.8670 
  225.5000     2.2580    67.2380    98.3710    92.5170   122.4010    23.8690   -19.5800 
  225.6250     2.2420    67.2320   101.3480    95.7630   119.5930    23.8330   -19.3360 
  225.7500     2.2300    66.1590   100.7130    95.9100   115.9920    23.8360   -19.0760 
  225.8750     2.2230    64.6210    95.4760    92.0170   119.6960    23.9080   -18.7940 
  226.0000     2.2230    64.3200    85.9410    84.1190   130.9800    24.0380   -18.5300 
  226.1250     2.2290    66.2340    73.9790    73.4870   129.3050    24.1510   -18.2780 
  226.2500     2.2370    67.9930    62.9420    63.1180   100.6540    24.1580   -17.9870 
  226.3750     2.2400    67.0610    54.8870    55.0300    66.5850    24.1090   -17.6860 
  226.5000     2.2290    64.1080    50.7620    50.3120    52.9300    24.0810   -17.3640 
  226.6250     2.2030    62.2270    50.6720    49.3050    58.0180    24.1100   -17.0120 
  226.7500     2.1850    61.5020    51.9000    49.7040    71.4680    24.1520   -16.6870 
  226.8750     2.2000    61.0560    51.4060    48.7660    91.3090    24.1830   -16.3390 
  227.0000     2.2610    60.6300    46.6230    44.0280   113.8120    24.1760   -15.9240 
  227.1250     2.3520    61.1170    37.1560    35.0020   114.4920    24.0770   -15.4570 
  227.2500     2.4310    61.7530    26.8600    25.2310    61.4850    23.9920   -15.0180 
  227.3750     2.4700    61.9450    18.3940    17.1640    24.0700    23.9690   -14.5780 
  227.5000     2.4650    61.7960    12.7640    11.6840    10.8360    24.0140   -14.1720 
  227.6250     2.4290    61.1010     9.9900     8.7730     8.2080    24.1120   -13.8310 
  227.7500     2.3920    60.8150     8.8430     7.3620     8.1480    24.1890   -13.5500 
  227.8750     2.3640    61.0920     8.6960     6.9700     8.4410    24.2030   -13.3560 
  228.0000     2.3500    61.1300     9.0540     7.2230     8.4890    24.1670   -13.2510 
  228.1250     2.3490    59.8370     9.5070     7.7860     8.4170    24.1230   -13.1940 
  228.2500     2.3560    58.7250     9.7770     8.2920     8.2660    24.0970   -13.1810 
  228.3750     2.3660    58.4130     9.7910     8.5760     8.2630    24.0900   -13.2170 
  228.5000     2.3740    58.5580     9.5770     8.5940     8.2140    24.1120   -13.2200 
  228.6250     2.3780    59.2830     9.2050     8.3680     7.9490    24.1560   -13.2020 
  228.7500     2.3770    59.6570     8.8010     8.0330     7.5240    24.1930   -13.1770 
  228.8750     2.3730    59.7130     8.4350     7.6650     7.1720    24.2360   -13.1900 
  229.0000     2.3660    60.6580     8.1440     7.3230     6.9360    24.2610   -13.2510 
  229.1250     2.3560    66.4300     7.9270     7.0500     6.8600    24.2120   -13.3530 
  229.2500     2.3440    73.9680     7.7950     6.8500     6.9050    24.0860   -13.4310 
  229.3750     2.3350    76.7500     7.7220     6.7240     7.2030    23.9810   -13.5180 
  229.5000     2.3310    73.6910     7.6770     6.6620     7.5720    23.9340   -13.6290 
  229.6250     2.3350    69.5630     7.6290     6.6530     7.4890    23.9190   -13.7080 
  229.7500     2.3460    67.1420     7.5920     6.6710     7.2000    23.9070   -13.7600 
  229.8750     2.3640    64.1520     7.5880     6.7120     7.1670    23.8980   -13.7660 
  230.0000     2.3860    59.5920     7.6000     6.7760     7.3550    23.8960   -13.7330 
  230.1250     2.4080    56.8320     7.6150     6.8730     7.3430    23.8990   -13.7050 
  230.2500     2.4270    56.7940     7.6370     6.9900     7.1800    23.8970   -13.6780 
  230.3750     2.4370    57.8610     7.6770     7.1120     7.1720    23.8960   -13.6050 
  230.5000     2.4400    58.0420     7.7380     7.2240     7.4040    23.9050   -13.5500 
  230.6250     2.4360    57.6520     7.8370     7.3160     7.7350    23.9310   -13.5700 
