~V
VERS. 2.00: Ver 2.00
~W
STRT.M 56.0000:
STOP.M 268.0000:
STEP.M 0.1250:
NULL. -999.2500:
UWI. F10027:
~C
DEPT.M :
GR.API :
RML.OHMM :
RI. :
RXO.OHMM :
CALI.CM :
DEN.GM/CC :
SP.MV :
~A
# ...
  112.2500    81.8130     7.6560     7.0940     7.5590    23.5040     2.2310    -8.3160 
  112.3750    81.8110     7.7100     7.0810     8.1180    23.5190     2.2210    -8.2030 
  112.5000    84.4220     7.6220     7.0110     8.2650    23.5470     2.2110    -8.0870 
  112.6250    87.2620     7.2680     6.7720     7.7080    23.5650     2.2110    -7.9770 
  112.7500    89.4940     6.7590     6.4030     7.2350    23.6030     2.2240    -7.9070 
  112.8750    91.5940     6.2420     5.9910     6.4580    23.6860     2.2440    -7.8920 
  113.0000    93.4330     5.8590     5.6470     5.7120    23.7590     2.2640    -7.8980 
  113.1250    91.6570     5.7410     5.4850     5.6040    23.7820     2.2740    -7.8950 
  113.2500    88.5170     5.8610     5.5070     5.9680    23.7900     2.2720    -7.9440 
  113.3750    87.5330     6.1540     5.6740     6.3630    23.8120     2.2630    -8.1020 
  113.5000    89.1440     6.4930     5.8970     6.2810    23.8050     2.2550    -8.3740 
  113.6250    88.8490     6.6900     6.0420     6.3990    23.7670     2.2530    -8.7360 
  113.7500    86.8140     6.6590     6.0390     6.7880    23.6950     2.2560    -9.1030 
  113.8750    87.5510     6.4260     5.8920     7.1740    23.6110     2.2630    -9.4570 
  114.0000    92.0010     6.1060     5.6670     6.9800    23.5380     2.2720    -9.8510 
  114.1250    94.0350     5.8830     5.4780     6.0800    23.4380     2.2820   -10.3530 
  114.2500    89.2940     5.8800     5.4190     6.0820    23.2860     2.2920   -10.8790 
  114.3750    81.0830     6.1550     5.5510     6.8840    23.0710     2.2950   -11.4100 
  114.5000    74.9390     6.7040     5.8980     7.8620    22.8970     2.2860   -11.9450 
  114.6250    72.3780     7.4720     6.4680     8.5860    22.8870     2.2610   -12.4440 
  114.7500    70.2250     8.2820     7.1420     9.4000    23.0350     2.2260   -12.8600 
  114.8750    68.6070     9.0030     7.8100     9.8900    23.2310     2.1880   -13.1580 
  115.0000    68.2290     9.5450     8.3690    10.0970    23.3240     2.1550   -13.2630 
  115.1250    68.0380     9.8290     8.7120    10.0880    23.3480     2.1340   -13.1160 
  115.2500    66.6170     9.8540     8.8170    10.0640    23.2890     2.1260   -12.8230 
  115.3750    65.5110     9.5740     8.6510     9.7250    23.0980     2.1250   -12.3610 
  115.5000    68.1630     8.9830     8.2140     9.3550    22.8410     2.1300   -11.6880 
  115.6250    76.1630     8.1500     7.5500     9.1060    22.6060     2.1410   -10.8430 
  115.7500    85.0630     7.3060     6.8330     8.4570    22.4180     2.1610    -9.9820 
  115.8750    90.7490     6.6230     6.1990     7.3450    22.3110     2.1920    -9.1770 
  116.0000    91.9570     6.2010     5.7420     6.6510    22.2830     2.2300    -8.4720 
  116.1250    89.9940     6.0760     5.5300     6.9190    22.4270     2.2660    -7.8690 
  116.2500    88.5860     6.1120     5.4880     7.8460    22.7070     2.2900    -7.3120 
  116.3750    89.5620     6.2040     5.5470     7.7890    23.0920     2.3020    -6.8190 
  116.5000    92.0730     6.2690     5.6340     6.6760    23.4580     2.3020    -6.4390 
  116.6250    93.2760     6.2750     5.7000     6.3530    23.7490     2.2950    -6.2100 
  116.7500    91.9730     6.2750     5.7570     6.4100    24.0020     2.2840    -6.0610 
  116.8750    90.0990     6.3210     5.8390     6.4700    24.2570     2.2710    -5.9480 
  117.0000    88.8050     6.4300     5.9600     6.6170    24.4610     2.2610    -5.8290 
  117.1250    89.0060     6.5530     6.0920     6.7900    24.5220     2.2630    -5.6990 
  117.2500    90.6000     6.6130     6.1790     7.3620    24.5150     2.2800    -5.6270 
  117.3750    93.0020     6.5790     6.1890     8.0690    24.4870     2.3050    -5.6290 
  117.5000    95.5530     6.4700     6.1230     7.3550    24.4850     2.3270    -5.6700 
  117.6250    96.9890     6.3460     6.0040     6.5150    24.5020     2.3380    -5.7020 
  117.7500    98.1630     6.2450     5.8700     6.4810    24.5190     2.3380    -5.7010 
  117.8750    97.1260     6.1500     5.7330     7.2790    24.5320     2.3350    -5.6900 
  118.0000    93.7730     6.0160     5.5870     7.6350    24.5260     2.3340    -5.7190 
  118.1250    93.5430     5.8330     5.4500     7.0620    24.5050     2.3370    -5.8330 
  118.2500    98.2760     5.7090     5.3820     6.5640    24.4950     2.3390    -5.9750 
  118.3750   101.2780     5.7890     5.4720     6.4320    24.4830     2.3400    -6.0940 
  118.5000    96.9780     6.1850     5.7990     6.7200    24.4760     2.3420    -6.1890 
  118.6250    89.1400     6.9480     6.4000     7.1140    24.4800     2.3570    -6.2970 
  118.7500    85.3910     7.9090     7.0950     9.6570    24.4540     2.3830    -6.4640 
  118.8750    85.9120     8.8170     7.6550    14.7620    24.4060     2.4110    -6.6670 
  119.0000    87.8680     9.1870     7.8630    15.4180    24.3790     2.4240    -6.8420 
  119.1250    87.9470     8.8220     7.5890    11.4350    24.3850     2.4030    -6.9270 
  119.2500    86.8710     8.1200     7.0610     8.2520    24.3960     2.3560    -6.9430 
  119.3750    87.0660     7.4390     6.4930     7.3310    24.3900     2.3020    -6.9350 
  119.5000    88.9600     6.9710     6.0400     7.2970    24.3770     2.2610    -6.9400 
  119.6250    91.4400     6.7880     5.7860     6.6990    24.3660     2.2470    -6.9410 
  119.7500    95.3710     6.7540     5.6600     6.3020    24.3540     2.2500    -6.8970 
  119.8750   101.9520     6.7650     5.6000     6.2360    24.3080     2.2600    -6.8020 
  120.0000   107.9480     6.7640     5.5590     6.1080    24.2400     2.2710    -6.7140 
  120.1250   109.3030     6.7580     5.5220     5.9630    24.1920     2.2830    -6.7050 
  120.2500   107.6550     6.7820     5.5070     5.7250    24.1310     2.2940    -6.7630 
  120.3750   104.7090     6.8540     5.5390     5.6930    24.0140     2.3030    -6.8390 
  120.5000    99.9100     6.9670     5.6300     5.8940    23.8590     2.3020    -6.9150 
  120.6250    92.6360     7.1090     5.7890     6.1810    23.7430     2.2870    -7.0040 
  120.7500    87.7570     7.2600     5.9870     6.3940    23.5980     2.2640    -7.1140 
  120.8750    86.8600     7.4140     6.1940     6.7670    23.4370     2.2460    -7.2190 
  121.0000    88.6800     7.5740     6.3810     7.1110    23.3240     2.2420    -7.2880 
  121.1250    90.4520     7.7400     6.5240     7.6760    23.2970     2.2580    -7.2920 
  121.2500    90.5020     7.9010     6.6250     8.1570    23.2980     2.2780    -7.2970 
  121.3750    88.9350     8.0420     6.6890     7.8280    23.2770     2.2880    -7.3290 
  121.5000    86.8030     8.1460     6.7210     7.4310    23.2030     2.2810    -7.3490 
  121.6250    85.7240     8.1820     6.7250     7.5620    23.1130     2.2600    -7.3090 
  121.7500    85.5470     8.1330     6.6990     7.7870    23.1550     2.2390    -7.2390 
  121.8750    88.1190     7.9790     6.6230     7.3370    23.2170     2.2230    -7.2010 
  122.0000    94.0310     7.7190     6.4850     7.0690    23.2090     2.2120    -7.2080 
  122.1250    98.9990     7.3980     6.2960     7.1740    23.0990     2.2070    -7.2390 
  122.2500   100.7230     7.1250     6.1270     6.9920    22.9990     2.2110    -7.2230 
  122.3750   100.8150     6.9900     6.0410     6.4610    22.9250     2.2290    -7.1900 
  122.5000    99.9290     7.0380     6.0770     6.1330    22.9440     2.2630    -7.1840 
  122.6250    97.3550     7.2510     6.2340     6.6460    23.1390     2.3110    -7.2370 
  122.7500    94.0850     7.4920     6.4170     7.8750    23.5020     2.3530    -7.3240 
  122.8750    91.9350     7.6430     6.5460     8.6590    23.9590     2.3750    -7.4160 
  123.0000    92.0220     7.6320     6.5700     8.2560    24.3600     2.3700    -7.4890 
  123.1250    93.2080     7.4530     6.4820     7.5570    24.4830     2.3370    -7.5440 
  123.2500    92.5910     7.2260     6.3560     7.2430    24.4270     2.2960    -7.6050 
  123.3750    89.8040     7.0480     6.2520     7.4640    24.3030     2.2610    -7.6750 
