~V
VERS. 2.00: Ver 2.00
~W
STRT.M 50.0000:
STOP.M 274.0000:
STEP.M 0.1250:
NULL. -999.2500:
UWI. F10029:
~C
DEPT.M :
DEN.GM/CC :
SP.MV :
GR.API :
CALI.CM :
RXO.OHMM :
RI. :
RML.OHMM :
~A
# ...
  263.7500     2.3280   -20.9140    53.6920    22.6910     6.7090     6.1450     7.5140 
  263.8750     2.3230   -20.9400    53.6920    22.7000     6.1360     6.0890     7.4540 
  264.0000     2.3210   -20.9660    53.6920    22.6330     5.8560     6.0000     7.3590 
  264.1250     2.3170   -21.0040    53.6920    22.4400     5.7910     5.9440     7.3000 
  264.2500     2.3060   -21.0690    53.6920    22.1020     5.9570     5.9480     7.3040 
  264.3750     2.2880   -21.1350    53.6920    21.6300     6.3630     6.0000     7.3590 
  264.5000     2.2730   -21.2220    53.6920    21.0850     6.8260     6.0650     7.4280 
  264.6250     2.2710   -21.3610    53.6920    20.4350     7.1600     6.0880     7.4530 
  264.7500     2.2760   -21.4870    53.6920    19.8840     7.2480     6.0410     7.4030 
  264.8750     2.2790   -21.5860    53.6920    19.2790     7.0740     5.9520     7.3080 
  265.0000     2.2800   -21.6850    53.6920    18.7940     6.8710     5.9320     7.2870 
  265.1250     2.2850   -21.8170    53.6920    18.5600     7.0540     6.2110     7.5850 
  265.2500     2.2980   -21.9290    53.6920    18.4900     7.6440     6.9070     8.3310 
  265.3750     2.3240   -22.0510    53.6920    18.4800     8.9700     8.0780     9.5860 
  265.5000     2.3600   -22.1920    53.6920    18.3870    11.7770     9.6240    11.2410 
  265.6250     2.3870   -22.3720    53.6920    18.1770    15.2310    11.0820    12.8040 
  265.7500     2.3860   -22.5520    53.6920    18.0610    16.6150    11.8470    13.6220 
  265.8750     2.3580   -22.7590    53.6920    18.1320    15.0440    11.7190    13.4860 
  266.0000     2.3200   -22.9480    53.6920    18.2800    12.1090    10.9930    12.7080 
  266.1250     2.2870   -23.0290    53.6920    18.2700     9.9580    10.1350    11.7880 
  266.2500     2.2630   -23.0340    53.6920    18.1550     9.0360     9.4390    11.0440 
  266.3750     2.2490   -22.9280    53.6920    17.8980     9.0200     8.9580    10.5280 
  266.5000     2.2420   -22.6680    53.6920    17.4120     9.3880     8.6500    10.1980 
  266.6250     2.2380   -22.2150    53.6920    16.8940     9.5670     8.4590     9.9940 
  266.7500     2.2350   -21.6550    53.6920    16.5870     8.8670     8.3280     9.8530 
  266.8750     2.2360   -21.0180    53.6920    16.4680     7.4670     8.2510     9.7700 
  267.0000     2.2450   -20.3740    53.6920    16.3780     6.2150     8.2210     9.7390 
  267.1250     2.2660   -19.7690    53.6920    16.3550     5.8320     8.2190     9.7360 
  267.2500     2.2910   -19.2360    53.6920    16.3440     5.9580     8.2190     9.7360 
  267.3750     2.3120   -18.7770    53.6920    16.3730     6.1670     8.2160     9.7330 
  267.5000     2.3190   -18.4400    53.6920    16.3410     6.2820     8.2100     9.7270 
  267.6250     2.3060   -18.2740    53.6920    16.1480     6.4160     8.2070     9.7230 
  267.7500     2.2800   -18.1960    53.6920    15.8420     6.6190     8.2110     9.7270 
  267.8750     2.2550   -18.1870    53.6920    15.6150     6.6510     8.2210     9.7390 
  268.0000     2.2460   -18.2080    53.6920    15.4760     6.3920     8.2350     9.7530 
  268.1250     2.2570   -18.2150    53.6920    15.3590     6.0430     8.2460     9.7650 
  268.2500     2.2730   -18.2270    53.6920    15.2350     5.8030     8.2530     9.7720 
  268.3750     2.2830   -18.2850    53.6920    15.0440     5.6990     8.2550     9.7750 
  268.5000     2.2830   -18.3610    53.6920    14.8280     5.6700     8.2560     9.7760 
  268.6250     2.2780   -18.4020    53.6920    14.7210     5.7800     8.2570     9.7770 
  268.7500     2.2800   -18.4490    53.6920    14.6930     5.9790     8.2600     9.7800 
  268.8750     2.2900   -18.4460    53.6920    14.7250     6.1620     8.2600     9.7800 
  269.0000     2.2980   -18.4280    53.6920    14.7970     6.3520     8.2600     9.7800 
  269.1250     2.2980   -18.4810    53.6920    14.9670     6.7390     8.2600     9.7800 
  269.2500     2.2970   -18.5100    53.6920    15.1990     7.1990     8.2600     9.7800 
  269.3750     2.2980   -18.4710    53.6920    15.3830     7.5050     8.2600     9.7800 
  269.5000     2.2940   -18.3790    53.6920    15.4280     7.5890     8.2600     9.7800 
  269.6250     2.2890   -18.2740    53.6920    15.3310     7.4280     8.2600     9.7800 
  269.7500     2.2890   -18.1930    53.6920    15.1910     7.2310     8.2600     9.7800 
  269.8750     2.2920   -18.1670    53.6920    15.1670     7.1130     8.2600     9.7800 
  270.0000     2.2940   -18.1600    53.6920    15.2930     7.1370     8.2600     9.7800 
  270.1250     2.2900   -18.1350    53.6920    15.4470     7.3300     8.2600     9.7800 
  270.2500     2.2850   -18.1170    53.6920    15.5290     7.6210     8.2600     9.7800 
  270.3750     2.2800   -18.1170    53.6920    15.5380     7.9490     8.2600     9.7800 
  270.5000     2.2780   -18.1170    53.6920    15.4880     8.1290     8.2600     9.7800 
  270.6250     2.2790  -999.2500    53.6920    15.3470     7.9320     8.2600     9.7800 
  270.7500     2.2800  -999.2500    53.6920    15.1010     7.3910     8.2600     9.7800 
  270.8750     2.2800  -999.2500    53.6920    14.8930     6.7820     8.2600     9.7800 
  271.0000     2.2770  -999.2500    53.6920    14.7510     6.3410     8.2600     9.7800 
  271.1250     2.2620  -999.2500    53.6920    14.5710     6.1200     8.2600     9.7800 
  271.2500     2.2330  -999.2500    53.6920    14.0790     5.9880     8.2600     9.7800 
  271.3750     2.1980  -999.2500    53.6920    12.8570     5.8900     8.2600     9.7800 
  271.5000     2.1720  -999.2500    53.6920    10.6660     5.8540     8.2600     9.7800 
  271.6250     2.1640  -999.2500    53.6920     9.0430     5.8740     8.2600     9.7800 
  271.7500     2.1640  -999.2500    53.6920     8.4190     5.8860     8.2600     9.7800 
  271.8750     2.1670  -999.2500    53.6920     8.3210     5.8890     8.2600     9.7800 
  272.0000     2.1740  -999.2500    53.6920     8.3180     5.8890     8.2600     9.7800 
  272.1250     2.1840  -999.2500    53.6920     8.3180     5.8910     8.2600     9.7800 
  272.2500     2.1890  -999.2500    53.6920     8.3180     5.8910     8.2600     9.7800 
  272.3750     2.1810  -999.2500    53.6920     8.3180     5.8910     8.2600     9.7800 
  272.5000     2.1740  -999.2500    53.6920     8.3180     5.8890     8.2600     9.7800 
  272.6250     2.1720  -999.2500    53.6920     8.3180     5.8890     8.2600     9.7800 
  272.7500     2.1690  -999.2500    53.6920     8.3180     5.8890     8.2600     9.7800 
  272.8750     2.1590  -999.2500    53.6920     8.3180     5.8900     8.2600     9.7800 
  273.0000     2.1490  -999.2500    53.6920     8.3180     5.8910     8.2600     9.7800 
  273.1250     2.1500  -999.2500    53.6920     8.3180     5.8910     8.2600     9.7800 
  273.2500     2.1640  -999.2500    53.6920     8.3180     5.8900     8.2600     9.7800 
  273.3750     2.1770  -999.2500    53.6920     8.3180     5.8890     8.2600     9.7800 
  273.5000     2.1790  -999.2500    53.6920     8.3180     5.8890     8.2600     9.7800 
  273.6250     2.1740  -999.2500    53.6920     8.3180     5.8880     8.2600     9.7800 
  273.7500     2.1690  -999.2500    53.6920     8.3180     5.8880     8.2600     9.7800 
  273.8750     2.1600  -999.2500  -999.2500  -999.2500  -999.2500  -999.2500  -999.2500 
  274.0000     2.1230  -999.2500  -999.2500  -999.2500  -999.2500  -999.2500  -999.2500 
