~V
VERS. 2.00: Ver 2.00
~W
STRT.M 64.0000:
STOP.M 220.0000:
STEP.M 0.1250:
NULL. -999.2500:
UWI. F10051:
~C
DEPT.M :
SP.MV :
GR.API :
RML.OHMM :
RI. :
RXO.OHMM :
CALI.CM :
DEN.GM/CC :
~A
# ...
  109.0000    -8.3010    79.1220     5.1980     4.3750     4.9360    23.9750     2.3400 
  109.1250    -8.2520    80.2390     5.2320     4.3570     5.0310    23.9410     2.3390 
  109.2500    -8.2920    83.5500     5.2620     4.3490     5.0110    23.9280     2.3420 
  109.3750    -8.3400    84.4720     5.2580     4.3280     4.9650    23.9370     2.3540 
  109.5000    -8.4590    80.7930     5.2040     4.2840     4.9000    23.9730     2.3710 
  109.6250    -8.6460    78.9500     5.1050     4.2130     4.8370    24.0250     2.3900 
  109.7500    -8.8620    82.2520     5.0070     4.1440     4.7730    24.0530     2.4030 
  109.8750    -9.1250    86.0030     4.9610     4.1050     4.7580    24.0590     2.4080 
  110.0000    -9.4420    85.8340     5.0190     4.1340     4.8070    24.0500     2.4060 
  110.1250    -9.8530    84.2020     5.2480     4.2770     4.9790    24.0210     2.3970 
  110.2500   -10.3360    83.0160     5.6240     4.5290     5.2400    23.9740     2.3820 
  110.3750   -10.8840    79.3650     6.1050     4.8710     5.5710    23.9020     2.3610 
  110.5000   -11.4990    74.7890     6.6200     5.2610     5.9680    23.8420     2.3340 
  110.6250   -12.2050    73.7660     7.0670     5.6370     6.4560    23.8000     2.3060 
  110.7500   -12.9120    73.8070     7.3940     5.9440     6.8940    23.7910     2.2810 
  110.8750   -13.5860    73.2300     7.5910     6.1610     7.0810    23.7980     2.2580 
  111.0000   -14.2390    73.3670     7.6870     6.2940     7.0680    23.8150     2.2310 
  111.1250   -14.8180    74.3040     7.7340     6.3720     7.0490    23.7430     2.1970 
  111.2500   -15.3470    73.2050     7.8040     6.4500     7.1040    23.5360     2.1640 
  111.3750   -15.8030    70.6770     7.9470     6.5700     7.3350    23.1620     2.1460 
  111.5000   -16.1250    70.2490     8.1950     6.7590     7.8230    22.7540     2.1510 
  111.6250   -16.2700    71.5830     8.5600     7.0310     8.3100    22.4970     2.1830 
  111.7500   -16.2960    71.5730     8.9600     7.3340     8.9480    22.3980     2.2200 
  111.8750   -16.2220    70.5340     9.2850     7.5910     9.6630    22.3990     2.2420 
  112.0000   -16.0090    67.9650     9.4090     7.7090    10.0120    22.4630     2.2390 
  112.1250   -15.6490    62.7600     9.1880     7.5730     9.5620    22.5560     2.2200 
  112.2500   -15.0940    59.6200     8.6800     7.2060     8.7040    22.6220     2.2040 
  112.3750   -14.4380    61.9550     7.9890     6.6710     7.7500    22.6210     2.2030 
  112.5000   -13.7630    69.0270     7.2600     6.0710     6.9440    22.5570     2.2220 
  112.6250   -13.0750    77.1290     6.6590     5.5350     6.4500    22.4770     2.2560 
  112.7500   -12.5180    83.4870     6.2400     5.1270     6.1880    22.4430     2.2910 
  112.8750   -12.0990    87.8650     6.0130     4.8720     5.9820    22.4360     2.3180 
  113.0000   -11.8160    90.7860     5.9610     4.7700     5.9310    22.4360     2.3340 
  113.1250   -11.7340    90.8060     6.0850     4.8360     6.0040    22.4360     2.3340 
  113.2500   -11.8900    87.6450     6.3360     5.0300     6.1790    22.4360     2.3210 
  113.3750   -12.2510    81.2400     6.6930     5.3390     6.6220    22.4370     2.2980 
  113.5000   -12.7620    75.2430     7.1290     5.7410     7.4260    22.4460     2.2710 
  113.6250   -13.3930    71.8350     7.6050     6.2030     8.5510    22.4920     2.2520 
  113.7500   -13.9770    69.1560     8.0590     6.6620     9.4660    22.5710     2.2470 
  113.8750   -14.4700    66.7590     8.4350     7.0590     9.7220    22.6330     2.2520 
  114.0000   -14.8620    65.5060     8.6770     7.3300     9.3450    22.6850     2.2590 
  114.1250   -15.0630    66.5450     8.6900     7.3850     8.9590    22.8550     2.2550 
  114.2500   -15.0360    68.1100     8.4740     7.2230     8.5720    23.2410     2.2410 
  114.3750   -14.7250    68.7380     8.0350     6.8580     7.8800    23.7190     2.2220 
  114.5000   -14.1720    69.0670     7.4240     6.3400     6.9530    24.0160     2.2070 
  114.6250   -13.5100    71.3400     6.7300     5.7510     6.0590    24.0250     2.2060 
  114.7500   -12.8810    74.8830     6.0960     5.2070     5.4210    23.9500     2.2180 
  114.8750   -12.3350    79.8640     5.6410     4.7950     5.0500    23.9240     2.2420 
  115.0000   -11.9080    85.3470     5.4710     4.5880     4.9370    23.9600     2.2730 
  115.1250   -11.6970    88.9790     5.7240     4.6900     5.0680    23.9700     2.3030 
  115.2500   -11.7160    88.7800     6.3490     5.0790     5.5210    23.9190     2.3230 
  115.3750   -12.0040    82.9710     7.2680     5.7250     6.4790    23.8060     2.3250 
  115.5000   -12.4820    74.1990     8.3170     6.5330     7.8320    23.6790     2.3060 
  115.6250   -13.0720    68.1120     9.2120     7.3270     9.1770    23.7110     2.2710 
  115.7500   -13.6540    65.7650     9.7450     7.9200     9.8570    23.8370     2.2340 
  115.8750   -14.1430    64.9860     9.8490     8.2140     9.8160    23.9350     2.2010 
  116.0000   -14.5140    63.3030     9.6500     8.2400     9.4080    23.8650     2.1750 
  116.1250   -14.6450    61.9730     9.4680     8.1720     9.1600    23.6350     2.1540 
  116.2500   -14.5720    63.1660     9.6160     8.2540     9.2020    23.4820     2.1420 
  116.3750   -14.3250    66.9300    10.1810     8.5890     9.8140    23.4720     2.1490 
  116.5000   -13.9400    70.8140    11.0120     9.1220    11.6540    23.6230     2.1840 
  116.6250   -13.3730    70.7070    11.6800     9.5980    14.3570    23.9370     2.2460 
  116.7500   -12.6800    69.6380    11.7670     9.7150    16.8600    24.0680     2.3100 
  116.8750   -11.9640    72.1600    11.0830     9.3040    17.9870    23.8950     2.3560 
  117.0000   -11.2910    78.0210     9.7590     8.4020    15.1560    23.5910     2.3710 
  117.1250   -10.7330    82.0790     8.2450     7.2640     9.7130    23.3950     2.3620 
  117.2500   -10.2970    84.0950     7.0340     6.2590     6.6130    23.3100     2.3490 
  117.3750    -9.9470    86.9920     6.3030     5.5540     5.3740    23.2740     2.3370 
  117.5000    -9.6680    89.8580     6.0160     5.1760     5.0880    23.2290     2.3260 
  117.6250    -9.5310    88.6430     6.0430     5.0900     5.1110    23.1560     2.3180 
  117.7500    -9.5250    85.9320     6.1540     5.1330     5.1330    23.1070     2.3150 
  117.8750    -9.5960    85.4500     6.2400     5.2150     5.1260    23.0800     2.3170 
  118.0000    -9.6800    87.3510     6.2600     5.2790     5.1490    23.0940     2.3220 
  118.1250    -9.7380    90.5220     6.2180     5.2970     5.1930    23.2520     2.3210 
  118.2500    -9.7320    92.3270     6.1470     5.2810     5.1960    23.5860     2.3090 
  118.3750    -9.7120    91.3640     6.0600     5.2400     5.1600    23.9500     2.2900 
  118.5000    -9.7350    87.2970     5.9560     5.1780     5.1140    24.1630     2.2690 
  118.6250    -9.7350    83.4550     5.8350     5.0930     5.0280    24.2850     2.2560 
  118.7500    -9.6800    82.6480     5.7150     5.0010     4.9770    24.3340     2.2520 
  118.8750    -9.5790    83.5370     5.6240     4.9220     4.9870    24.3020     2.2570 
  119.0000    -9.4480    84.4510     5.5850     4.8730     5.0320    24.2490     2.2680 
  119.1250    -9.3030    84.4980     5.6080     4.8660     5.0840    24.2230     2.2860 
  119.2500    -9.1950    84.7430     5.6440     4.8720     5.1830    24.1290     2.3110 
  119.3750    -9.1000    86.5490     5.6430     4.8550     5.3220    23.8760     2.3400 
  119.5000    -9.0030    89.0020     5.5580     4.7830     5.4270    23.6040     2.3630 
  119.6250    -8.8930    91.4370     5.3660     4.6330     5.2210    23.4870     2.3690 
  119.7500    -8.8100    93.0080     5.1250     4.4400     4.7560    23.5980     2.3590 
  119.8750    -8.7370    94.0190     4.8930     4.2460     4.3970    23.8690     2.3410 
  120.0000    -8.6910    95.4610     4.7210     4.0940     4.3510    24.1080     2.3230 
  120.1250    -8.7310    96.1690     4.6520     4.0270     4.4780    24.1850     2.3120 
