~V
VERS. 2.00: Ver 2.00
~W
STRT.M 50.0000:
STOP.M 278.0000:
STEP.M 0.1250:
NULL. -999.2500:
UWI. F10031:
~C
DEPT.M :
GR.API :
RML.OHMM :
RI. :
RXO.OHMM :
CALI.CM :
DEN.GM/CC :
SP.MV :
~A
# ...
  162.5000    54.0250    28.9310    26.4480    24.9060    22.7120     2.5880    -9.7900 
  162.6250    54.4890    29.5480    26.9470    24.4700    22.8020     2.6020    -9.8400 
  162.7500    53.7830    29.3150    26.7890    23.0760    22.8370     2.6000    -9.8850 
  162.8750    53.8420    28.2720    25.9740    21.3680    22.8550     2.5820    -9.9130 
  163.0000    55.7660    26.8010    24.7840    20.4050    22.8800     2.5510    -9.9190 
  163.1250    57.9190    25.6060    23.7660    19.9820    22.8970     2.5180    -9.8850 
  163.2500    59.0810    25.2460    23.3810    20.1060    22.8970     2.4990    -9.8300 
  163.3750    59.1020    25.9840    23.8840    21.6230    22.9070     2.5010    -9.7480 
  163.5000    57.8530    27.7660    25.3110    24.7910    22.9500     2.5220    -9.6430 
  163.6250    54.6520    30.2020    27.4670    29.1590    23.0160     2.5570    -9.5450 
  163.7500    50.6960    32.4210    29.6300    32.9300    23.0830     2.5930    -9.4750 
  163.8750    48.5180    33.7280    31.1390    34.8220    23.0960     2.6220    -9.4350 
  164.0000    48.8340    33.7000    31.4910    34.9460    23.0300     2.6410    -9.4230 
  164.1250    51.3500    32.2450    30.4390    32.0860    22.8960     2.6440    -9.4610 
  164.2500    54.0860    30.1840    28.6810    27.8580    22.7070     2.6320    -9.5220 
  164.3750    55.4330    28.1580    26.8140    23.6720    22.5240     2.6080    -9.5970 
  164.5000    55.3080    26.5990    25.2700    21.0070    22.4940     2.5750    -9.6640 
  164.6250    55.0900    25.7650    24.3270    20.6640    22.6030     2.5410    -9.7030 
  164.7500    55.3410    25.4940    23.8980    20.8710    22.7690     2.5150    -9.6940 
  164.8750    54.6170    25.6660    23.9110    21.1350    22.9160     2.5040    -9.6440 
  165.0000    52.7330    26.1680    24.2800    21.9170    23.0520     2.5140    -9.5520 
  165.1250    52.2450    26.9520    24.9660    23.2310    23.1990     2.5430    -9.4250 
  165.2500    52.9190    27.9040    25.8490    25.1050    23.3420     2.5810    -9.2530 
  165.3750    53.4050    28.9300    26.8450    27.5510    23.4580     2.6170    -9.0560 
  165.5000    52.8570    29.8980    27.8310    29.6840    23.5590     2.6440    -8.8690 
  165.6250    51.5880    30.6310    28.6260    31.1120    23.6500     2.6580    -8.6900 
  165.7500    51.2810    31.1010    29.1660    32.1220    23.7150     2.6610    -8.5280 
  165.8750    52.1690    31.3460    29.4500    32.3250    23.7620     2.6570    -8.3890 
  166.0000    54.1450    31.4530    29.5440    32.1230    23.7950     2.6510    -8.2890 
  166.1250    56.7310    31.5090    29.5260    31.9960    23.8060     2.6440    -8.2330 
  166.2500    57.2680    31.5500    29.4640    32.3450    23.7750     2.6390    -8.2290 
  166.3750    54.7090    31.5540    29.3560    32.6580    23.7030     2.6340    -8.2680 
  166.5000    50.0280    31.5040    29.1990    31.3850    23.6090     2.6240    -8.3290 
  166.6250    48.2350    31.4230    29.0120    29.8140    23.4680     2.6090    -8.4290 
  166.7500    50.3540    31.3660    28.8450    28.5270    23.3070     2.5930    -8.5470 
  166.8750    53.1310    31.3790    28.7440    27.9750    23.1990     2.5840    -8.6640 
  167.0000    55.0780    31.4840    28.7420    28.1750    23.1730     2.5860    -8.7660 
  167.1250    55.2490    31.6720    28.8610    29.3030    23.2200     2.5990    -8.8240 
  167.2500    53.6590    31.8950    29.0590    30.3810    23.3080     2.6140    -8.8580 
  167.3750    51.4270    32.1560    29.3340    31.3920    23.4250     2.6230    -8.8760 
  167.5000    50.3680    32.5300    29.7270    32.2020    23.5520     2.6230    -8.8810 
  167.6250    50.8730    33.1840    30.3730    33.3100    23.6520     2.6160    -8.8510 
  167.7500    49.6970    34.1500    31.3070    34.2110    23.6860     2.6070    -8.7950 
  167.8750    47.3780    35.3480    32.4860    35.3350    23.6840     2.6010    -8.7280 
  168.0000    46.3700    36.5410    33.7280    36.7690    23.6750     2.5990    -8.6390 
  168.1250    47.1730    37.2720    34.6380    38.0230    23.6050     2.6020    -8.5460 
  168.2500    48.6980    37.2620    34.9090    38.1570    23.4750     2.6080    -8.4580 
  168.3750    50.4830    36.3690    34.3570    36.9010    23.3340     2.6170    -8.3750 
  168.5000    52.3300    34.6440    32.9780    34.8450    23.2530     2.6270    -8.3010 
  168.6250    54.0220    32.2390    30.8740    32.0210    23.2230     2.6360    -8.2640 
  168.7500    54.7840    29.6180    28.4880    30.1240    23.2290     2.6420    -8.2610 
  168.8750    54.3490    27.1360    26.1600    28.2650    23.2620     2.6420    -8.2820 
  169.0000    53.2670    25.1230    24.2080    26.0480    23.3290     2.6320    -8.3190 
  169.1250    51.9030    23.9720    23.0010    23.7190    23.4380     2.6090    -8.3640 
  169.2500    50.3240    23.6360    22.5340    22.5270    23.5920     2.5800    -8.4090 
  169.3750    48.2710    23.9810    22.7320    23.0740    23.7360     2.5590    -8.4440 
  169.5000    47.0410    24.7210    23.3820    24.8400    23.8020     2.5550    -8.4590 
  169.6250    47.0780    25.4450    24.1440    26.9600    23.7930     2.5720    -8.4420 
  169.7500    47.0850    25.8200    24.6580    27.9350    23.7640     2.5940    -8.3990 
  169.8750    46.7830    25.7490    24.7610    27.9010    23.7390     2.6100    -8.3390 
  170.0000    47.2530    25.3290    24.4770    26.8680    23.7140     2.6090    -8.2870 
  170.1250    49.6100    24.7720    23.9590    25.4350    23.7040     2.5920    -8.2500 
  170.2500    51.8100    24.2730    23.4300    24.5060    23.7010     2.5690    -8.2200 
  170.3750    52.3620    23.8650    22.9620    24.1780    23.6970     2.5490    -8.1970 
  170.5000    51.5810    23.5020    22.5470    24.0650    23.6900     2.5380    -8.1920 
  170.6250    50.5400    23.1350    22.1590    23.7930    23.6840     2.5400    -8.1960 
  170.7500    49.4510    22.7930    21.8060    22.9270    23.6750     2.5500    -8.1970 
  170.8750    47.9780    22.5660    21.5520    21.7740    23.6660     2.5630    -8.1870 
  171.0000    46.8490    22.5490    21.4770    20.9530    23.6710     2.5750    -8.1650 
  171.1250    47.1590    22.8340    21.6770    20.8720    23.6930     2.5820    -8.1460 
  171.2500    47.6570    23.3270    22.0920    21.5940    23.7060     2.5840    -8.1340 
  171.3750    47.0580    23.8950    22.6170    22.8080    23.7090     2.5830    -8.1330 
  171.5000    46.3100    24.3660    23.0980    24.1850    23.7060     2.5790    -8.1470 
  171.6250    47.7100    24.5430    23.3300    25.1700    23.6950     2.5730    -8.1770 
  171.7500    50.4310    24.4240    23.2710    25.3990    23.6710     2.5670    -8.2310 
  171.8750    52.4650    24.0570    22.9460    24.6910    23.6260     2.5670    -8.3200 
  172.0000    53.0800    23.5150    22.4210    23.4110    23.5590     2.5720    -8.4090 
  172.1250    52.5220    22.8350    21.7470    23.2410    23.5060     2.5820    -8.4750 
  172.2500    51.0820    22.1060    21.0240    23.5550    23.5240     2.5910    -8.5200 
  172.3750    49.3910    21.4410    20.3540    23.6070    23.5700     2.5940    -8.5370 
  172.5000    49.1690    21.0090    19.8850    22.4670    23.5910     2.5910    -8.5300 
  172.6250    51.5930    21.0970    19.8580    20.9660    23.5840     2.5840    -8.5110 
  172.7500    53.0670    21.7700    20.3500    21.4190    23.5890     2.5790    -8.4800 
  172.8750    51.5520    23.0270    21.4010    24.2060    23.6060     2.5820    -8.4350 
  173.0000    49.4810    24.7480    22.9550    27.7300    23.6180     2.5920    -8.4080 
  173.1250    49.7410    26.7040    24.8570    29.6470    23.6210     2.6080    -8.4030 
  173.2500    49.3980    28.5000    26.7130    30.2650    23.6210     2.6240    -8.4170 
  173.3750    47.8620    29.7480    28.1200    30.8980    23.6180     2.6380    -8.4620 
  173.5000    47.3120    30.0630    28.6650    31.3210    23.6040     2.6480    -8.5310 
  173.6250    48.5040    28.9930    27.8720    31.5160    23.5600     2.6490    -8.6240 
