~V
VERS. 2.00: Ver 2.00
~W
STRT.M 50.0000:
STOP.M 286.0000:
STEP.M 0.1250:
NULL. -999.2500:
UWI. F10036:
~C
DEPT.M :
GR.API :
RML.OHMM :
RI. :
RXO.OHMM :
CALI.CM :
DEN.GM/CC :
SP.MV :
~A
# ...
  218.7500    61.3650    16.1120    15.8850    20.7820    23.8950     2.3490    -8.6390 
  218.8750    66.2030    13.6280    13.4600    14.1410    23.8710     2.3700    -8.6270 
  219.0000    71.7630    11.6440    11.5420    10.8630    23.8170     2.3860    -8.5980 
  219.1250    77.1060    10.4520    10.3420    10.3410    23.7650     2.3990    -8.5260 
  219.2500    80.0800     9.8900     9.6930    10.0550    23.7370     2.4100    -8.3920 
  219.3750    79.4710     9.7870     9.4620     9.4710    23.7940     2.4190    -8.2290 
  219.5000    75.9760     9.8950     9.4740     9.5060    23.9440     2.4250    -8.0470 
  219.6250    72.6900     9.9360     9.5190     9.9240    24.0210     2.4290    -7.9270 
  219.7500    72.3160     9.7990     9.4450     9.9810    23.9670     2.4320    -7.8130 
  219.8750    74.5890     9.5330     9.2330     9.4980    23.8580     2.4310    -7.7460 
  220.0000    77.6160     9.2370     8.9340     8.6750    23.7870     2.4240    -7.6530 
  220.1250    79.0260     9.0040     8.6490     8.2210    23.8120     2.4110    -7.5750 
  220.2500    78.3170     8.8650     8.4670     8.0560    23.8950     2.3980    -7.5110 
  220.3750    78.1550     8.8310     8.4370     8.1430    24.0290     2.3870    -7.4650 
  220.5000    79.2890     8.9240     8.5690     8.5730    24.1600     2.3800    -7.4040 
  220.6250    79.7510     9.2070     8.8530     9.1670    24.2310     2.3730    -7.3140 
  220.7500    76.5760     9.6660     9.2260     9.6810    24.2500     2.3650    -7.1950 
  220.8750    72.6330    10.2690     9.6580    10.0630    24.2480     2.3560    -7.0370 
  221.0000    72.4530    10.9540    10.1320    10.4580    24.2440     2.3480    -6.8940 
  221.1250    74.5360    11.6280    10.6180    11.4500    24.2610     2.3400    -6.7410 
  221.2500    74.3630    12.1820    11.0370    12.8440    24.3250     2.3280    -6.5830 
  221.3750    73.0630    12.5120    11.2950    13.4810    24.4030     2.3150    -6.4340 
  221.5000    73.5320    12.5380    11.3370    13.6440    24.4370     2.3020    -6.3140 
  221.6250    74.3290    12.2820    11.2110    13.0060    24.3850     2.2940    -6.2120 
  221.7500    72.8560    12.0690    11.1530    12.1140    24.3040     2.2880    -6.1800 
  221.8750    70.8040    12.2690    11.3930    11.8400    24.2530     2.2800    -6.1880 
  222.0000    70.4310    13.2020    12.1330    12.6500    24.2620     2.2660    -6.2560 
  222.1250    70.3040    15.1610    13.6280    14.6260    24.3250     2.2460    -6.4220 
  222.2500    68.3130    17.8530    15.7770    17.9070    24.3510     2.2240    -6.6910 
  222.3750    64.9150    20.8930    18.3890    22.5460    24.3440     2.2040    -7.0670 
  222.5000    62.8960    23.7630    21.0750    26.7350    24.3580     2.1910    -7.5020 
  222.6250    63.4840    25.9210    23.2930    28.1550    24.3670     2.1930    -8.0180 
  222.7500    63.1430    27.4190    24.8970    27.9910    24.3690     2.2110    -8.5110 
  222.8750    61.4860    28.4740    25.9770    28.4590    24.3620     2.2420    -9.0390 
  223.0000    59.2300    29.2790    26.6980    31.0060    24.3260     2.2730    -9.5260 
  223.1250    58.1500    29.8030    27.0780    32.0540    24.2160     2.2920    -9.9640 
  223.2500    57.8270    29.9130    27.0920    31.4330    24.1200     2.2960   -10.3380 
  223.3750    57.8240    29.5000    26.6830    29.2020    24.1270     2.2900   -10.6160 
  223.5000    59.1800    28.6660    25.9310    26.8820    24.1670     2.2810   -10.8310 
  223.6250    62.7590    27.7220    25.0590    25.3230    24.1300     2.2710   -10.9810 
  223.7500    66.5200    27.0020    24.3440    24.2630    23.9690     2.2560   -11.0970 
  223.8750    67.6660    26.6450    23.9310    22.7720    23.6910     2.2370   -11.1350 
  224.0000    65.7510    26.6420    23.8640    21.2960    23.3910     2.2150   -11.1490 
  224.1250    63.2840    26.9300    24.1280    20.5130    23.2420     2.1960   -11.1230 
  224.2500    60.4080    27.3370    24.5500    20.8310    23.1510     2.1850   -11.0390 
  224.3750    58.6840    27.7290    24.9690    21.5670    23.0520     2.1810   -10.9120 
  224.5000    60.6760    27.9390    25.1890    21.8030    23.0530     2.1820   -10.7490 
  224.6250    64.6090    27.6980    24.9720    21.3160    23.2780     2.1840   -10.5460 
  224.7500    66.3250    27.0200    24.3840    21.3580    23.5430     2.1860   -10.3460 
  224.8750    65.7130    26.0650    23.5830    21.7410    23.6530     2.1930   -10.2160 
  225.0000    65.2760    25.1060    22.7750    20.7540    23.6610     2.2060   -10.0830 
  225.1250    66.4870    24.4610    22.1580    20.0160    23.6480     2.2260    -9.9940 
  225.2500    67.8260    24.1690    21.7670    20.6310    23.6580     2.2460    -9.9720 
  225.3750    67.7100    24.1370    21.5620    22.0640    23.7270     2.2600   -10.0120 
  225.5000    65.4930    24.2230    21.4800    22.5110    23.8170     2.2640   -10.1060 
  225.6250    64.0360    24.3410    21.4950    20.3280    23.8350     2.2590   -10.2280 
  225.7500    64.7620    24.4620    21.5640    19.9260    23.7910     2.2490   -10.3730 
  225.8750    65.4440    24.5210    21.6220    20.3840    23.7390     2.2380   -10.4520 
  226.0000    64.8970    24.3880    21.5580    20.9530    23.7400     2.2280   -10.5870 
  226.1250    63.8520    23.8400    21.1960    21.4600    23.7870     2.2240   -10.6390 
  226.2500    62.7000    22.9600    20.5590    20.8910    23.7600     2.2250   -10.6540 
  226.3750    61.9350    22.0000    19.7990    19.4600    23.7160     2.2300   -10.6420 
  226.5000    60.9850    21.2890    19.1500    18.3380    23.7170     2.2390   -10.5990 
  226.6250    59.5550    21.1740    18.8830    18.1960    23.7380     2.2510   -10.5610 
  226.7500    57.5830    21.5660    19.0010    18.9810    23.8000     2.2700   -10.5090 
  226.8750    56.7720    22.2200    19.4070    21.0360    23.9460     2.2930   -10.4610 
  227.0000    58.4670    22.7900    19.9070    21.8820    24.1090     2.3160   -10.3550 
  227.1250    60.2130    22.9850    20.2850    21.9080    24.1710     2.3290   -10.3010 
  227.2500    60.0040    22.9770    20.5570    21.8240    24.1810     2.3280   -10.2420 
  227.3750    58.9960    23.1490    20.9410    22.7810    24.1970     2.3140   -10.1350 
  227.5000    58.4110    23.9200    21.7440    23.2700    24.2440     2.2940   -10.0250 
  227.6250    57.6820    25.4670    23.1720    24.7680    24.3640     2.2790    -9.8700 
  227.7500    56.7350    26.9400    24.6250    26.5390    24.4670     2.2780    -9.6910 
  227.8750    55.9610    27.1080    25.0100    28.5590    24.5410     2.2910    -9.4960 
  228.0000    55.8540    24.9960    23.3020    29.8020    24.5720     2.3160    -9.3060 
  228.1250    57.0140    20.6620    19.4430    29.7390    24.5640     2.3410    -9.0560 
  228.2500    59.5740    16.0040    15.2310    21.5220    24.5650     2.3570    -8.8160 
  228.3750    63.5880    12.2550    11.7680    11.9130    24.5870     2.3570    -8.6190 
  228.5000    68.5230     9.8930     9.4230     7.7860    24.6200     2.3450    -8.4420 
  228.6250    74.2550     8.9380     8.2180     6.8990    24.5900     2.3320    -8.3950 
  228.7500    78.4340     8.7340     7.7110     6.9710    24.5720     2.3280    -8.4330 
  228.8750    79.8420     8.8640     7.6590     7.4950    24.5650     2.3370    -8.6140 
  229.0000    79.3480     9.0220     7.8510     8.1120    24.5650     2.3540    -8.8300 
  229.1250    77.1370     9.1740     8.1990     8.5910    24.5650     2.3680    -9.1010 
  229.2500    74.1160     9.5840     8.7500     8.7330    24.5650     2.3770    -9.4450 
  229.3750    72.5570    10.5750     9.6920     8.7310    24.5650     2.3900    -9.8840 
  229.5000    72.6570    12.3840    11.2510     9.7900    24.5630     2.4200   -10.5000 
  229.6250    70.9860    15.0060    13.6280    14.0560    24.5350     2.4770   -11.1710 
  229.7500    65.4890    17.5150    16.1950    21.2430    24.4860     2.5390   -11.8480 
  229.8750    60.1360    18.7040    17.7680    25.5650    24.4640     2.5780   -12.3080 
