~V
VERS. 2.00: Ver 2.00
~W
STRT.M 55.0000:
STOP.M 292.0000:
STEP.M 0.1250:
NULL. -999.2500:
UWI. F10078:
~C
DEPT.M :
GR.API :
RML.OHMM :
RI. :
RXO.OHMM :
CALI.CM :
DEN.GM/CC :
SP.MV :
~A
# ...
  133.7500    82.5780     5.5650     4.9520     4.9190    23.5270     2.2790    -4.8710 
  133.8750    85.0250     5.3460     4.6870     4.4900    23.5840     2.2890    -4.7090 
  134.0000    81.9330     5.3110     4.6020     4.6410    23.5730     2.2910    -4.5530 
  134.1250    76.4170     5.4440     4.7020     4.9950    23.5240     2.2890    -4.4330 
  134.2500    74.0170     5.6400     4.8970     5.2480    23.4890     2.2890    -4.4220 
  134.3750    74.4360     5.8180     5.1190     5.2670    23.4690     2.2920    -4.4890 
  134.5000    75.0170     5.9110     5.2960     5.1350    23.4640     2.2970    -4.5290 
  134.6250    73.7860     5.8600     5.3420     5.0170    23.4860     2.3050    -4.5270 
  134.7500    71.9990     5.6860     5.2360     4.9660    23.5480     2.3160    -4.5290 
  134.8750    73.0300     5.4090     4.9760     4.8250    23.6660     2.3280    -4.5580 
  135.0000    79.5660     5.0490     4.5920     4.4950    23.8330     2.3360    -4.6020 
  135.1250    85.8070     4.6340     4.1590     4.0890    24.0350     2.3250    -4.7320 
  135.2500    86.3100     4.2520     3.7950     3.7180    24.2720     2.2890    -5.0080 
  135.3750    82.1120     4.0310     3.6030     3.5640    24.5130     2.2320    -5.4670 
  135.5000    78.9160     4.1250     3.6650     3.7790    24.7030     2.1700    -6.1160 
  135.6250    77.9030     4.7270     4.0870     4.5440    24.7370     2.1270    -6.9440 
  135.7500    75.2800     5.7410     4.8080     5.8060    24.5380     2.1120    -7.9070 
  135.8750    70.4900     6.9860     5.7490     7.3920    24.1290     2.1230    -8.8970 
  136.0000    63.5670     8.1860     6.7680     8.8720    23.6590     2.1470    -9.8750 
  136.1250    57.6730     8.9970     7.6390     9.4760    23.3120     2.1670   -10.7800 
  136.2500    55.6410     9.3640     8.2260     9.7230    23.1190     2.1770   -11.5720 
  136.3750    56.3370     9.3800     8.4990     9.8930    23.0250     2.1790   -12.2310 
  136.5000    57.8240     9.2240     8.5310    10.0110    22.9710     2.1800   -12.7260 
  136.6250    59.3120     9.0830     8.4400     9.9450    22.9200     2.1870   -13.0040 
  136.7500    63.0480     9.0080     8.3440     9.7780    22.8400     2.2000   -13.1380 
  136.8750    67.8460     8.9760     8.2760     9.5800    22.7200     2.2150   -13.2260 
  137.0000    70.2410     8.9460     8.2440     9.3950    22.5820     2.2250   -13.3120 
  137.1250    67.7710     8.8810     8.2440     9.2540    22.4850     2.2240   -13.3360 
  137.2500    63.6150     8.9070     8.2590     9.2010    22.4850     2.2120   -13.2750 
  137.3750    60.5730     8.9820     8.2710     9.2630    22.5970     2.1950   -13.1500 
  137.5000    60.1700     9.0770     8.2490     9.4290    22.7780     2.1760   -13.0310 
  137.6250    63.0040     9.1320     8.1440     9.6580    22.8970     2.1640   -12.9200 
  137.7500    65.1960     9.0410     7.9470     9.7990    22.9980     2.1580   -12.7350 
  137.8750    63.6640     8.8260     7.6700     9.6930    23.1220     2.1600   -12.4680 
  138.0000    61.5590     8.4940     7.3550     9.2880    23.2300     2.1680   -12.1760 
  138.1250    63.8730     8.1440     7.0740     8.7360    23.2520     2.1780   -11.9720 
  138.2500    67.9760     7.9640     6.8890     8.3050    23.2380     2.1890   -11.7830 
  138.3750    69.6310     7.9770     6.8370     8.1840    23.2290     2.1990   -11.6490 
  138.5000    68.3510     8.1630     6.9290     8.3840    23.2280     2.2060   -11.5910 
  138.6250    66.4970     8.4850     7.1700     8.8920    23.2280     2.2090   -11.6350 
  138.7500    66.0760     8.8530     7.5040     9.5550    23.2280     2.2080   -11.7430 
  138.8750    66.6700     9.2150     7.8900    10.3240    23.2280     2.2040   -11.8740 
  139.0000    64.4970     9.5370     8.2780    10.9820    23.2280     2.1970   -11.9870 
  139.1250    57.6390     9.7840     8.5950    11.2410    23.2280     2.1890   -12.0270 
  139.2500    52.4930     9.9340     8.7830    11.3230    23.2280     2.1800   -12.0030 
  139.3750    51.9930     9.9290     8.7860    11.3570    23.2290     2.1720   -11.8320 
  139.5000    54.5840     9.7190     8.5750    11.2800    23.2350     2.1650   -11.4930 
  139.6250    57.7420     9.2480     8.1410    10.8720    23.2490     2.1660   -10.9730 
  139.7500    62.1500     8.6360     7.6000    10.2190    23.2810     2.1780   -10.3730 
  139.8750    67.9510     7.9810     7.0460     9.4930    23.3370     2.2000    -9.7320 
  140.0000    74.8780     7.3890     6.5640     8.6580    23.4070     2.2290    -9.0390 
  140.1250    82.2470     7.0270     6.2290     7.8440    23.4650     2.2580    -8.3600 
  140.2500    87.2990     6.8140     6.0320     7.2380    23.4990     2.2810    -7.8400 
  140.3750    88.6600     6.7350     5.9580     6.8740    23.5070     2.2950    -7.4980 
  140.5000    87.2990     6.7610     5.9830     6.7060    23.5000     2.2980    -7.2940 
  140.6250    84.1130     6.8600     6.0750     6.7860    23.4750     2.2880    -7.2230 
  140.7500    80.7950     6.9780     6.1800     7.0080    23.4260     2.2720    -7.2230 
  140.8750    77.9570     7.0780     6.2690     7.2680    23.3570     2.2510    -7.2880 
  141.0000    75.6370     7.1380     6.3220     7.4540    23.2830     2.2320    -7.4100 
  141.1250    72.9250     7.1270     6.3320     7.4830    23.2140     2.2190    -7.4620 
  141.2500    71.8370     7.0610     6.3130     7.4330    23.1530     2.2140    -7.3700 
  141.3750    72.6000     6.9460     6.2760     7.3790    23.1240     2.2170    -7.1590 
  141.5000    74.1190     6.7980     6.2280     7.3270    23.1370     2.2290    -6.8730 
  141.6250    75.3050     6.7130     6.1750     7.2500    23.1800     2.2460    -6.5170 
  141.7500    76.9850     6.6670     6.1160     7.1980    23.2200     2.2630    -6.1070 
  141.8750    79.5440     6.6260     6.0470     7.2110    23.2520     2.2750    -5.6920 
  142.0000    82.8340     6.5910     5.9650     7.1740    23.2590     2.2840    -5.2670 
  142.1250    84.8230     6.5680     5.8790     6.7840    23.2710     2.2910    -4.8950 
  142.2500    83.3770     6.5520     5.8110     6.3880    23.3200     2.2940    -4.6140 
  142.3750    79.8060     6.5450     5.7820     6.2790    23.3890     2.2910    -4.4250 
  142.5000    77.3350     6.5610     5.7970     6.4730    23.4230     2.2830    -4.3090 
  142.6250    77.5780     6.6150     5.8470     6.8360    23.4140     2.2690    -4.2010 
  142.7500    78.5230     6.6670     5.8960     7.1890    23.3900     2.2560    -4.1290 
  142.8750    80.3130     6.6900     5.9170     7.3920    23.3850     2.2480    -4.0890 
  143.0000    81.7340     6.6720     5.9000     7.2520    23.3980     2.2470    -4.1020 
  143.1250    80.8690     6.6090     5.8420     6.8160    23.3920     2.2540    -4.1230 
  143.2500    79.2270     6.5270     5.7650     6.4750    23.3770     2.2650    -4.1020 
  143.3750    78.1160     6.4410     5.6860     6.2970    23.3860     2.2770    -4.0480 
  143.5000    79.1960     6.3680     5.6180     6.1440    23.4250     2.2900    -3.9670 
  143.6250    81.8590     6.3200     5.5740     6.0320    23.4590     2.3000    -3.9350 
  143.7500    85.3780     6.2980     5.5540     5.9980    23.4910     2.3060    -3.9280 
  143.8750    90.7160     6.2980     5.5530     6.0490    23.5180     2.3090    -3.9020 
  144.0000    96.9670     6.3130     5.5680     6.1510    23.5400     2.3100    -3.8700 
  144.1250    99.8770     6.3400     5.5920     6.2090    23.5610     2.3100    -3.9260 
  144.2500    95.9860     6.3730     5.6230     6.2250    23.5690     2.3100    -4.0280 
  144.3750    88.8540     6.4130     5.6600     6.2180    23.5610     2.3080    -4.1400 
  144.5000    83.7850     6.4600     5.7040     6.2170    23.5420     2.3010    -4.2540 
  144.6250    83.0540     6.5160     5.7560     6.2120    23.5210     2.2900    -4.3820 
  144.7500    81.8280     6.5770     5.8120     6.2260    23.5100     2.2790    -4.5960 
  144.8750    77.1820     6.6360     5.8660     6.2780    23.5020     2.2720    -4.8600 
