~V
VERS. 2.00: Ver 2.00
~W
STRT.M 56.0000:
STOP.M 269.0000:
STEP.M 0.1250:
NULL. -999.2500:
UWI. F10026:
~C
DEPT.M :
GR.API :
RML.OHMM :
RI. :
RXO.OHMM :
CALI.CM :
DEN.GM/CC :
SP.MV :
~A
# ...
  168.5000    55.6420    25.5740    24.9100    18.2000    23.2670     2.5090   -26.5720 
  168.6250    57.6190    27.4150    26.6530    22.5760    23.3630     2.5290   -26.5730 
  168.7500    59.0920    29.0250    28.3100    24.9470    23.4600     2.4920   -26.5810 
  168.8750    58.4710    29.9470    29.4730    24.7940    23.6080     2.4090   -26.5790 
  169.0000    57.1090    29.9100    29.8020    25.8600    23.8050     2.3190   -26.5520 
  169.1250    56.8550    28.9530    29.1520    28.1760    23.9800     2.2760   -26.4890 
  169.2500    56.0120    27.7550    28.0790    28.8110    24.0820     2.2970   -26.4170 
  169.3750    54.2580    26.8080    27.0540    28.2390    24.1290     2.3640   -26.3450 
  169.5000    52.2850    26.3770    26.3980    27.6950    24.1280     2.4440   -26.3130 
  169.6250    50.7210    26.5460    26.3030    28.7760    24.1140     2.5020   -26.3310 
  169.7500    49.0780    27.0370    26.6090    30.8980    24.0850     2.5330   -26.3580 
  169.8750    49.1630    27.6260    27.1470    31.9500    24.1010     2.5460   -26.3710 
  170.0000    52.9860    28.1260    27.7190    31.7450    24.1430     2.5520   -26.3600 
  170.1250    56.3690    28.3930    28.1200    33.6210    24.0560     2.5600   -26.3250 
  170.2500    54.8140    28.4740    28.3020    35.6060    23.9110     2.5720   -26.3200 
  170.3750    50.4920    28.4510    28.3090    34.6590    23.8190     2.5850   -26.3700 
  170.5000    49.1180    28.4160    28.2380    33.0070    23.8210     2.6000   -26.4320 
  170.6250    51.7780    28.4340    28.1930    32.3280    23.9140     2.6120   -26.4640 
  170.7500    53.6540    28.4840    28.1900    30.9740    24.0490     2.6200   -26.4620 
  170.8750    53.5940    28.5070    28.1690    30.3980    24.1320     2.6220   -26.4510 
  171.0000    53.0120    28.4230    28.0230    30.1720    24.0880     2.6160   -26.4490 
  171.1250    54.8410    28.1440    27.6330    28.6350    23.9510     2.6030   -26.4670 
  171.2500    57.7480    27.7280    27.0780    26.7490    23.8870     2.5890   -26.4970 
  171.3750    58.4610    27.2960    26.5170    26.6270    23.9190     2.5740   -26.5180 
  171.5000    55.9230    27.0280    26.1570    26.7060    23.9240     2.5620   -26.5390 
  171.6250    53.2520    27.1960    26.2470    25.4960    23.9220     2.5480   -26.5600 
  171.7500    53.1750    27.8480    26.7760    26.0930    24.0350     2.5320   -26.5780 
  171.8750    54.6300    28.9080    27.6360    28.1610    24.2060     2.5130   -26.5960 
  172.0000    55.6790    30.1260    28.5880    29.2330    24.1530     2.5000   -26.6110 
  172.1250    55.4200    31.0340    29.2300    31.7370    23.9730     2.5050   -26.6440 
  172.2500    54.5200    31.3090    29.3180    33.3830    23.7580     2.5310   -26.6900 
  172.3750    52.3030    30.8500    28.7910    31.4660    23.6090     2.5750   -26.7210 
  172.5000    49.1030    29.7930    27.7880    28.1200    23.5900     2.6250   -26.7010 
  172.6250    48.9930    28.3870    26.5340    26.1780    23.5520     2.6630   -26.6430 
  172.7500    52.3760    26.9350    25.2600    24.3660    23.4730     2.6800   -26.6030 
  172.8750    56.2070    25.5480    24.0420    22.5580    23.3810     2.6740   -26.5810 
  173.0000    58.8600    24.2800    22.9130    21.8560    23.3950     2.6470   -26.5840 
  173.1250    61.1420    23.2180    21.9510    20.5240    23.4170     2.6090   -26.5890 
  173.2500    61.5270    22.4180    21.2080    18.6260    23.3120     2.5780   -26.5400 
  173.3750    59.1940    21.9370    20.7340    16.8410    23.1800     2.5640   -26.4640 
  173.5000    57.2680    21.7540    20.5090    17.1600    23.1570     2.5690   -26.4300 
  173.6250    57.5170    21.7120    20.4020    18.6620    23.2230     2.5810   -26.4720 
  173.7500    58.3980    21.5230    20.1730    20.1060    23.2470     2.5840   -26.5300 
  173.8750    59.4190    21.0050    19.6750    21.5690    23.3650     2.5710   -26.5690 
  174.0000    60.1550    20.1410    18.8970    20.4610    23.5100     2.5480   -26.5750 
  174.1250    58.9440    19.1220    17.9980    17.2470    23.5320     2.5310   -26.5670 
  174.2500    57.4070    18.2920    17.2460    15.0060    23.3740     2.5350   -26.6110 
  174.3750    56.4640    17.8720    16.8120    14.9030    23.2510     2.5600   -26.7090 
  174.5000    55.4700    17.9480    16.7680    16.6860    23.2070     2.5930   -26.8170 
  174.6250    55.2080    18.5200    17.1470    18.3030    23.1960     2.6110   -26.8800 
  174.7500    56.3590    19.3410    17.8000    20.0160    23.2030     2.6050   -26.9080 
  174.8750    57.4390    20.2290    18.6090    21.0830    23.2900     2.5820   -26.9280 
  175.0000    56.5900    21.0140    19.4270    21.7240    23.4170     2.5600   -26.9690 
  175.1250    54.4170    21.4800    20.0200    22.3440    23.4950     2.5540   -27.0110 
  175.2500    53.6040    21.5500    20.2360    21.9030    23.5140     2.5630   -27.0380 
  175.3750    55.7490    21.1890    20.0030    22.2400    23.4800     2.5730   -27.0470 
  175.5000    60.1730    20.4430    19.3590    21.4850    23.4350     2.5690   -27.0100 
  175.6250    61.3560    19.4050    18.4140    18.7340    23.4580     2.5470   -26.9300 
  175.7500    58.2100    18.2790    17.3900    16.1340    23.4530     2.5200   -26.8410 
  175.8750    54.8480    17.1930    16.4070    15.7210    23.3480     2.4970   -26.7710 
  176.0000    55.0530    16.2420    15.5400    16.0350    23.2390     2.4830   -26.7340 
  176.1250    57.9390    15.5220    14.8520    15.3890    23.1890     2.4780   -26.7230 
  176.2500    58.8590    15.0080    14.3240    13.4770    23.1880     2.4750   -26.6840 
  176.3750    58.1770    14.6660    13.9510    12.3480    23.1850     2.4720   -26.6140 
  176.5000    58.3830    14.4440    13.7140    12.5220    23.1570     2.4690   -26.5610 
  176.6250    58.7080    14.3010    13.6010    12.7600    23.0990     2.4630   -26.5720 
  176.7500    57.5230    14.2020    13.5600    12.3560    23.1410     2.4560   -26.6430 
  176.8750    56.8690    14.1340    13.5520    12.2270    23.3850     2.4500   -26.7470 
  177.0000    58.6590    14.0760    13.5430    12.3430    23.7320     2.4460   -26.8350 
  177.1250    60.5980    14.0060    13.5150    12.4170    23.6010     2.4440   -26.9050 
  177.2500    60.0810    13.9420    13.5010    12.1180    23.1890     2.4400   -26.9900 
  177.3750    58.4590    13.9380    13.5500    12.5260    22.9420     2.4290   -27.1020 
  177.5000    56.4140    14.0720    13.7140    12.6080    23.0470     2.4140   -27.2420 
  177.6250    54.3600    14.4250    14.0460    12.4050    23.3900     2.4000   -27.4020 
  177.7500    53.7640    14.9240    14.4820    12.8690    23.7400     2.3960   -27.5650 
  177.8750    54.0510    15.4340    14.9210    14.4110    24.0040     2.4060   -27.7370 
  178.0000    54.6810    15.7830    15.2290    16.6230    24.1630     2.4300   -27.9060 
  178.1250    56.7260    15.7840    15.2310    17.2750    24.2800     2.4610   -28.0670 
  178.2500    60.3520    15.4880    14.9370    16.2010    24.3170     2.4860   -28.2440 
  178.3750    63.6120    15.0100    14.4160    13.7050    24.3910     2.4980   -28.4530 
  178.5000    64.5490    14.5060    13.8000    12.6780    24.5180     2.4950   -28.7040 
  178.6250    62.1850    14.1410    13.2620    12.7640    24.5980     2.4850   -29.0170 
  178.7500    57.9460    13.9900    12.9300    13.3270    24.6090     2.4790   -29.3630 
  178.8750    55.6200    14.1500    12.9210    14.3900    24.5700     2.4770   -29.7180 
  179.0000    57.4440    14.7950    13.3770    14.8470    24.4870     2.4770   -30.1000 
  179.1250    60.6460    16.3820    14.6470    15.8110    24.3210     2.4730   -30.5580 
  179.2500    61.4160    19.1690    16.9420    17.9920    24.1170     2.4580   -31.0950 
  179.3750    60.7390    23.4440    20.6030    22.7620    24.0420     2.4320   -31.6680 
  179.5000    60.9670    29.2940    25.9030    31.2940    24.1790     2.3960   -32.2410 
  179.6250    59.9200    36.5260    33.0000    49.0890    24.2880     2.3550   -32.7550 
