~V
VERS. 2.00: Ver 2.00
~W
STRT.M 55.0000:
STOP.M 247.0000:
STEP.M 0.1250:
NULL. -999.2500:
UWI. F10032:
~C
DEPT.M :
GR.API :
RML.OHMM :
RI. :
RXO.OHMM :
CALI.CM :
DEN.GM/CC :
SP.MV :
~A
# ...
  223.7500    74.4820    15.5010    13.8660    28.2450    24.3460     2.5260    -6.3970 
  223.8750    78.8960    15.9240    14.3050    28.7390    24.3150     2.5500    -6.5070 
  224.0000    81.4200    16.1250    14.6240    22.4270    24.2540     2.5660    -6.6080 
  224.1250    79.8900    16.0020    14.6520    17.8870    24.1980     2.5580    -6.6720 
  224.2500    78.9500    15.6700    14.4360    19.0140    24.1630     2.5330    -6.6990 
  224.3750    80.8240    15.2660    14.0850    21.2380    24.0520     2.5040    -6.6720 
  224.5000    83.7490    14.9040    13.6950    18.5630    23.8380     2.4830    -6.6140 
  224.6250    84.5130    14.6450    13.3510    20.3880    23.7870     2.4780    -6.5570 
  224.7500    84.0670    14.4460    13.0840    22.7640    23.8660     2.4840    -6.4830 
  224.8750    84.6140    14.2550    12.8530    19.9000    23.8600     2.4960    -6.3890 
  225.0000    85.4800    14.0070    12.5870    16.1370    23.7050     2.5120    -6.2540 
  225.1250    82.8330    13.6230    12.2540    13.7800    23.7310     2.5220    -6.0800 
  225.2500    78.8610    13.1300    11.8680    14.0700    23.8990     2.5170    -5.9150 
  225.3750    76.8150    12.5930    11.4490    16.0610    24.0370     2.4910    -5.7500 
  225.5000    76.4510    12.0950    11.0620    17.3260    24.1110     2.4470    -5.5820 
  225.6250    74.4130    11.7390    10.7750    15.9640    24.1890     2.4040    -5.3880 
  225.7500    70.9630    11.5190    10.5570    12.5180    24.3710     2.3800    -5.1920 
  225.8750    67.4550    11.3900    10.3990     9.3480    24.4710     2.3820    -5.0270 
  226.0000    64.6680    11.3030    10.3060     7.5780    24.4070     2.4020    -4.8990 
  226.1250    64.5280    11.2330    10.2550     7.5600    24.2960     2.4230    -4.7960 
  226.2500    66.5580    11.1830    10.2280     7.5410    24.3140     2.4370    -4.7250 
  226.3750    67.0830    11.1670    10.2470     7.1660    24.3860     2.4440    -4.6760 
  226.5000    64.3360    11.1880    10.3060     7.0280    24.4080     2.4490    -4.6550 
  226.6250    62.1070    11.2270    10.3760     6.9800    24.3200     2.4500    -4.6930 
  226.7500    63.0180    11.2490    10.4450     7.0430    24.2530     2.4440    -4.7220 
  226.8750    65.0530    11.2340    10.4900     7.1230    24.2250     2.4260    -4.7550 
  227.0000    65.1710    11.1750    10.4760     7.2700    24.2030     2.4000    -4.8380 
  227.1250    64.9920    11.0880    10.3920     7.4620    24.1600     2.3800    -4.8960 
  227.2500    64.9040    11.0150    10.2780     7.5420    24.0500     2.3750    -4.9230 
  227.3750    62.8290    10.9810    10.1640     7.4270    23.9170     2.3860    -4.9830 
  227.5000    59.0800    10.9960    10.0880     7.2190    23.8660     2.4080    -5.0090 
  227.6250    57.6110    11.0430    10.0680     7.4140    23.9540     2.4250    -5.0220 
  227.7500    59.8330    11.0660    10.0510     7.8190    24.0670     2.4300    -5.0480 
  227.8750    62.3560    11.0130    10.0000     7.7810    24.1100     2.4260    -5.0240 
  228.0000    62.6130    10.8740     9.9050     7.3090    24.1060     2.4230    -4.9720 
  228.1250    61.1280    10.7120     9.8070     7.0350    24.1190     2.4290    -4.9430 
  228.2500    60.5370    10.6550     9.8120     7.1260    24.1410     2.4420    -4.9110 
  228.3750    62.1260    10.7990    10.0030     7.3980    24.1680     2.4570    -4.8650 
  228.5000    64.6630    11.1720    10.3930     7.8160    24.2210     2.4680    -4.8250 
  228.6250    66.3490    11.7160    10.9500     9.1040    24.2330     2.4790    -4.7780 
  228.7500    66.5120    12.2380    11.5220    10.7310    24.1680     2.4920    -4.7700 
  228.8750    64.6960    12.5880    11.9440    11.6360    24.0520     2.5070    -4.7770 
  229.0000    61.1080    12.7060    12.1210    11.3260    23.9820     2.5190    -4.7700 
  229.1250    57.8650    12.6270    12.0590    10.3820    23.9490     2.5260    -4.7770 
  229.2500    59.0820    12.5040    11.9010     9.8380    23.8980     2.5310    -4.7770 
  229.3750    65.4040    12.4180    11.7430     9.7240    23.8520     2.5330    -4.7900 
  229.5000    71.4420    12.3870    11.6420    10.3650    23.8420     2.5330    -4.8130 
  229.6250    72.4350    12.3450    11.5760    10.5850    23.8400     2.5290    -4.8280 
  229.7500    71.0640    12.2410    11.5020    10.6570    23.8260     2.5280    -4.8440 
  229.8750    69.9040    12.1280    11.4510    10.2750    23.9570     2.5350    -4.8730 
  230.0000    69.1000    12.1550    11.5110     9.9010    24.2000     2.5520    -4.9290 
  230.1250    69.8410    12.5680    11.8600     9.7620    24.5470     2.5680    -4.9830 
  230.2500    72.2930    13.4020    12.5560     9.7140    24.2090     2.5710    -5.0330 
  230.3750    75.7020    14.5700    13.5780    11.3360    24.0880     2.5540    -5.0740 
  230.5000    78.7710    15.8160    14.7890    16.1460    24.1840     2.5210    -5.1240 
  230.6250    79.5990    16.7060    15.8590    23.7170    24.2560     2.4900    -5.1570 
  230.7500    79.1870    17.0340    16.4730    22.9040    24.2650     2.4740    -5.1700 
  230.8750    79.2680    16.8570    16.5600    18.3910    24.2260     2.4790    -5.1890 
  231.0000    80.7770    16.4550    16.3120    16.3290    24.2110     2.5010    -5.1790 
  231.1250    81.9550    16.2070    16.0500    16.8560    24.2420     2.5330    -5.1990 
  231.2500    84.8570    16.3100    16.0280    17.1890    24.3430     2.5670    -5.2250 
  231.3750    90.7560    16.7890    16.3480    18.3680    24.3810     2.5990    -5.2240 
  231.5000    95.2850    17.5370    16.9630    20.8630    24.3090     2.6230    -5.2340 
  231.6250    93.4970    18.3710    17.7280    25.2590    24.2410     2.6280    -5.2740 
  231.7500    88.7580    19.0970    18.4640    32.3930    24.2050     2.6060    -5.3200 
  231.8750    84.4310    19.5920    19.0400    42.3200    24.2170     2.5640    -5.3610 
  232.0000    80.9080    19.7700    19.3480    44.2370    24.3010     2.5140    -5.3690 
  232.1250    79.0450    19.5530    19.2990    35.6940    24.3470     2.4790    -5.3520 
  232.2500    79.1510    19.0630    18.9710    27.8600    24.3300     2.4700    -5.3630 
  232.3750    79.2290    18.4260    18.4450    27.9270    24.3400     2.4830    -5.3500 
  232.5000    78.4380    17.7830    17.8450    31.2740    24.4080     2.5050    -5.3200 
  232.6250    78.0100    17.2620    17.2840    30.9310    24.4540     2.5220    -5.3200 
  232.7500    79.2040    16.8540    16.7730    27.9670    24.4270     2.5280    -5.2710 
  232.8750    81.2620    16.4860    16.2800    28.9070    24.3290     2.5210    -5.2180 
  233.0000    82.0510    16.0700    15.7590    33.3610    24.2560     2.5090    -5.2340 
  233.1250    80.4170    15.5550    15.1790    27.5080    24.2280     2.4980    -5.2630 
  233.2500    79.2340    15.0100    14.5990    20.5070    24.2010     2.4930    -5.2590 
  233.3750    80.0420    14.5420    14.1050    16.1490    24.1640     2.4930    -5.2950 
  233.5000    80.9310    14.2530    13.7770    15.0200    24.1380     2.4930    -5.3630 
  233.6250    81.1030    14.2480    13.7210    14.6890    24.0870     2.4910    -5.4040 
  233.7500    81.7370    14.4700    13.8980    13.8680    24.0790     2.4860    -5.4570 
  233.8750    83.5050    14.8310    14.2370    15.1830    24.1490     2.4800    -5.4970 
  234.0000    84.8170    15.2000    14.6350    16.3360    24.2570     2.4770    -5.5090 
  234.1250    84.8320    15.3720    14.9060    15.8050    24.3360     2.4840    -5.5150 
  234.2500    83.7680    15.2360    14.8930    14.6320    24.2890     2.5010    -5.5460 
  234.3750    80.8690    14.7850    14.5610    14.4850    24.1970     2.5250    -5.5490 
  234.5000    77.8410    14.1370    14.0040    15.4720    24.1790     2.5450    -5.5030 
  234.6250    79.3750    13.5090    13.3820    15.5710    24.1230     2.5440    -5.4660 
  234.7500    82.9340    13.0830    12.8820    16.5870    24.0670     2.5200    -5.4300 
  234.8750    83.6770    12.9150    12.5970    20.0230    24.1620     2.4820    -5.3750 
