~V
VERS. 2.00: Ver 2.00
~W
STRT.M 50.0000:
STOP.M 280.0000:
STEP.M 0.1250:
NULL. -999.2500:
UWI. F10023:
~C
DEPT.M :
SP.MV :
DEN.GM/CC :
GR.API :
CALI.CM :
RXO.OHMM :
RI. :
RML.OHMM :
~A
# ...
  230.0000   -19.8130     2.2440    73.9650    23.1320    30.7750    25.4790    28.4170 
  230.1250   -19.8880     2.2400    73.6280    23.3750    32.9610    26.6640    29.7750 
  230.2500   -19.9470     2.2140    70.9030    23.7070    34.3640    27.5910    30.8360 
  230.3750   -19.9560     2.1790    69.4160    23.9420    35.2740    28.2730    31.6350 
  230.5000   -19.9290     2.1550    69.9630    24.0160    35.3780    28.7610    32.2500 
  230.6250   -19.9210     2.1560    71.7690    23.9940    35.0430    29.2000    32.8280 
  230.7500   -19.9290     2.1700    74.9580    23.9810    35.6570    29.7690    33.5120 
  230.8750   -19.9820     2.1860    77.5080    23.9940    35.9310    30.5130    34.3240 
  231.0000   -20.0200     2.1900    75.6480    24.0430    35.9360    31.3690    35.2030 
  231.1250   -20.0030     2.1800    69.9100    24.1110    37.0060    32.2060    36.0430 
  231.2500   -19.9290     2.1710    66.0210    24.1010    37.8090    32.9150    36.7570 
  231.3750   -19.8270     2.1780    66.2660    24.0240    37.3310    33.4330    37.2740 
  231.5000   -19.7940     2.2010    67.7070    24.0480    36.3400    33.6930    37.5070 
  231.6250   -19.8330     2.2310    67.8250    24.1670    36.4320    33.5480    37.2700 
  231.7500   -19.9100     2.2510    65.8780    24.2600    36.7790    32.9860    36.5320 
  231.8750   -19.9930     2.2490    63.8460    24.2820    36.0390    32.0200    35.3060 
  232.0000   -20.0750     2.2310    65.1680    24.2600    34.5260    30.7310    33.7050 
  232.1250   -20.1570     2.2130    70.6810    24.2120    33.2930    29.2480    31.9390 
  232.2500   -20.3010     2.2030    74.0570    24.1900    31.6840    27.8180    30.3160 
  232.3750   -20.5490     2.1960    74.1070    24.1840    28.8880    26.6310    29.0390 
  232.5000   -20.8380     2.1910    73.3290    24.1840    25.8020    25.8100    28.2170 
  232.6250   -21.1080     2.1980    73.1310    24.1840    24.7980    25.4670    27.9550 
  232.7500   -21.3320     2.2100    73.3470    24.1840    26.1120    25.5060    28.1270 
  232.8750   -21.4920     2.2130    73.2770    24.1820    27.8890    25.8560    28.6480 
  233.0000   -21.6670     2.2090    72.0670    24.1810    28.6360    26.4380    29.4100 
  233.1250   -21.8560     2.2110    69.9480    24.1770    29.2270    27.2170    30.3300 
  233.2500   -22.0330     2.2200    69.4360    24.1640    30.8440    28.1250    31.3280 
  233.3750   -22.1640     2.2250    70.8500    24.1380    32.6770    29.1390    32.4050 
  233.5000   -22.2100     2.2190    71.4320    24.1200    33.6620    30.2650    33.6060 
  233.6250   -22.1770     2.2060    70.1840    24.1100    33.8170    31.5130    34.9700 
  233.7500   -22.0940     2.1940    71.0390    24.1050    34.1560    32.7800    36.3930 
  233.8750   -22.0300     2.1850    75.6030    24.0870    35.2240    33.9390    37.7500 
  234.0000   -21.9970     2.1800    79.9130    24.0520    36.9150    34.8970    38.9380 
  234.1250   -21.9780     2.1840    78.9880    24.0350    38.2110    35.6140    39.8760 
  234.2500   -21.9170     2.1910    75.8970    24.0330    38.9850    36.1780    40.6210 
  234.3750   -21.7920     2.1940    75.6690    24.0500    39.3650    36.6560    41.2490 
  234.5000   -21.6790     2.1950    78.1550    24.0960    39.5420    37.1570    41.9430 
  234.6250   -21.6260     2.2010    80.3420    24.1440    39.9130    37.9570    43.1250 
  234.7500   -21.6730     2.2120    81.8980    24.1320    40.0030    39.3400    45.1200 
  234.8750   -21.7980     2.2240    82.4280    24.0490    39.3770    41.6090    48.2020 
  235.0000   -21.8990     2.2400    81.6000    23.9320    41.1440    45.0370    52.5520 
  235.1250   -21.9940     2.2670    80.7990    23.8360    51.9190    49.9930    58.4260 
  235.2500   -22.1000     2.2980    81.1910    23.8600    65.5700    56.1130    65.4000 
  235.3750   -22.2210     2.3280    80.4120    23.9960    75.1380    63.0210    73.0520 
  235.5000   -22.3810     2.3640    75.4490    24.1210    79.1610    70.1600    80.6650 
  235.6250   -22.5780     2.4230    68.5650    24.0500    79.0880    76.3960    86.5370 
  235.7500   -22.7350     2.4970    65.4500    23.9180    80.4540    80.3530    88.8320 
  235.8750   -22.7730     2.5500    65.1580    23.8160    90.1300    80.4990    85.8640 
  236.0000   -22.7160     2.5520    64.9770    23.7430   103.2570    75.7860    77.3270 
  236.1250   -22.5680     2.5060    65.4820    23.6780    97.1060    65.7740    64.6090 
  236.2500   -22.3780     2.4620    67.3920    23.6950    74.8210    53.0980    51.0760 
  236.3750   -22.1370     2.4450    69.5060    23.7440    51.3740    40.0090    38.4220 
  236.5000   -21.7530     2.4530    73.0660    23.7960    35.9080    28.4680    27.6150 
  236.6250   -21.2140     2.4650    80.3380    23.8030    25.6630    19.9620    19.4970 
  236.7500   -20.5330     2.4610    86.3470    23.7080    16.8500    13.9500    13.6270 
  236.8750   -19.8100     2.4330    86.6890    23.5090     9.9990     9.9070     9.6650 
  237.0000   -19.1360     2.3830    83.6940    23.3610     6.0380     7.3210     7.1780 
  237.1250   -18.5390     2.3250    82.1730    23.2840     4.7990     5.9130     5.8950 
  237.2500   -18.0220     2.2820    79.8170    23.2650     4.4440     5.2210     5.3260 
  237.3750   -17.5830     2.2680    74.8270    23.2820     4.3680     5.0850     5.2920 
  237.5000   -17.2200     2.2810    70.7170    23.3950     4.5170     5.3970     5.6640 
  237.6250   -16.9140     2.3130    72.8910    23.6670     5.3190     6.0940     6.3430 
  237.7500   -16.7480     2.3510    78.3100    23.7700     6.6630     6.9780     7.1210 
  237.8750   -16.7090     2.3820    84.7970    23.7800     7.9100     7.8770     7.8430 
  238.0000   -16.7510     2.3890    93.9260    23.7920     8.4070     8.6030     8.3740 
  238.1250   -16.8570     2.3630   106.2400    23.8060     8.2070     8.9870     8.6220 
  238.2500   -16.9490     2.3290   118.2130    23.8090     8.1150     9.1270     8.7230 
  238.3750   -17.0270     2.3080   125.9790    23.8010     8.3410     9.1810     8.8420 
  238.5000   -17.1650     2.3060   129.2520    23.7570     8.8200     9.2940     9.1160 
  238.6250   -17.3680     2.3190   128.4370    23.6830     9.5670     9.5600     9.6230 
  238.7500   -17.6380     2.3370   122.5420    23.6620    10.7810     9.9530    10.3010 
  238.8750   -17.9360     2.3560   114.6280    23.7310    12.3260    10.4610    11.1290 
  239.0000   -18.1900     2.3710   108.6320    23.7910    13.6070    11.1140    12.1420 
  239.1250   -18.3820     2.3770   105.6270    23.7700    14.6870    12.0530    13.5290 
  239.2500   -18.5960     2.3850   102.1430    23.6770    17.2640    13.3620    15.3800 
  239.3750   -18.8690     2.4000    97.1040    23.5430    21.1830    15.0980    17.7180 
  239.5000   -19.2090     2.4170    92.3150    23.4540    24.4390    17.2320    20.4270 
  239.6250   -19.6180     2.4150    87.6830    23.3860    25.6910    19.6630    23.2700 
  239.7500   -19.9870     2.3860    84.9040    23.3510    26.5790    22.1480    25.9970 
  239.8750   -20.3010     2.3390    86.5440    23.3710    27.5670    24.5670    28.5740 
  240.0000   -20.5940     2.2900    89.5690    23.4220    29.3880    26.9820    31.2020 
  240.1250   -20.8640     2.2520    88.9210    23.4260    34.0680    29.7530    34.3570 
  240.2500   -21.1580     2.2280    84.8080    23.3930    41.1680    33.1280    38.2210 
  240.3750   -21.4610     2.2250    81.3180    23.4370    47.7700    37.1020    42.6820 
  240.5000   -21.6980     2.2540    79.9360    23.6020    51.4010    41.3300    47.2730 
  240.6250   -21.8610     2.3290    78.2430    23.7730    56.4430    45.0780    51.0780 
  240.7500   -22.0030     2.4190    77.2030    23.8020    65.9840    47.8040    53.5230 
  240.8750   -22.1670     2.4780    78.5350    23.7630    72.4550    49.3700    54.5600 
  241.0000   -22.4170     2.4750    80.3750    23.7460    68.9370    50.1590    54.7880 
  241.1250   -22.7730     2.4100    78.0290    23.7150    60.7690    51.1330    55.3970 
