~V
VERS. 2.00: Ver 2.00
~W
STRT.M 55.0000:
STOP.M 264.0000:
STEP.M 0.1250:
NULL. -999.2500:
UWI. F10017:
~C
DEPT.M :
DEN.GM/CC :
SP.MV :
GR.API :
CALI.CM :
RXO.OHMM :
RI. :
RML.OHMM :
~A
# ...
   77.5000     2.0760   -47.9160    88.8170    22.9550     4.7870     4.7730     6.4210 
   77.6250     2.0060   -47.8580    87.4620    23.1380     5.5160     4.9840     6.7000 
   77.7500     1.9390   -47.7420    83.4190    22.9810     6.9070     5.4870     7.3180 
   77.8750     1.8950   -47.5620    77.3300    22.1780     7.7050     6.2370     8.1840 
   78.0000     1.8820   -47.2750    69.7760    20.6050     7.3350     7.0910     9.0890 
   78.1250     1.8950   -47.0140    65.0680    19.1230     6.8960     7.7800     9.7200 
   78.2500     1.9110   -46.7690    64.5320    18.5600     6.8200     8.1460    10.0170 
   78.3750     1.9180   -46.5510    64.9090    18.6410     6.9320     8.1970    10.0880 
   78.5000     1.9150   -46.4700    66.1790    18.9170     7.0280     8.0630    10.0900 
   78.6250     1.9070   -46.4990    69.1070    19.0270     7.0680     7.8980    10.1690 
   78.7500     1.8970   -46.5520    71.3130    19.0230     7.1440     7.7970    10.3180 
   78.8750     1.8890   -46.6380    71.0730    19.0510     7.2940     7.7960    10.4500 
   79.0000     1.8920   -46.8420    70.9120    19.3370     7.5640     7.9310    10.5800 
   79.1250     1.9300   -47.1060    73.8650    20.0770     7.9870     8.2910    10.8730 
   79.2500     2.0100   -47.4180    76.2450    21.0480     8.2680     8.8610    11.4090 
   79.3750     2.1200   -47.7900    75.3780    22.0150     8.3630     9.5460    12.1120 
   79.5000     2.2230   -48.2080    71.8950    22.8630     8.4590    10.0930    12.6760 
   79.6250     2.2590   -48.6410    69.7190    23.4700     8.4040    10.0300    12.4550 
   79.7500     2.2320   -48.9860    72.3790    23.8400     7.8060     9.2790    11.3170 
   79.8750     2.1820   -49.3080    79.6280    24.0460     6.6200     8.0550     9.6120 
   80.0000     2.1460   -49.5630    87.6340    24.0470     5.4490     6.7300     7.8910 
   80.1250     2.1240   -49.6830    93.6090    23.8950     5.0560     5.6380     6.5850 
   80.2500     2.0940   -49.7270    98.0900    23.7380     4.8990     4.8470     5.7330 
   80.3750     2.0540   -49.6200   102.9150    23.6640     4.7770     4.3460     5.2910 
   80.5000     2.0180   -49.3490   108.0860    23.6350     4.6240     4.1160     5.2120 
   80.6250     2.0020   -49.0090   112.1020    23.5610     4.8270     4.2230     5.6020 
   80.7500     2.0040   -48.6440   112.0030    23.2720     5.6300     4.6800     6.4820 
   80.8750     2.0200   -48.2250   104.9840    22.6020     7.0570     5.5440     7.8590 
   81.0000     2.0320   -47.7140    92.9240    21.6680     9.9270     6.8230     9.6100 
   81.1250     2.0070   -47.2510    81.9480    21.3110    13.2150     8.3480    11.3280 
   81.2500     1.9500   -46.8300    74.6740    21.1100    11.7900     9.5710    12.3210 
   81.3750     1.8890   -46.4590    70.7400    20.0360     7.3760    10.0140    12.1350 
   81.5000     1.8550   -46.1890    68.7310    17.9380     5.0380     9.6280    10.9960 
   81.6250     1.8580   -46.0370    67.7690    16.5830     4.6100     8.8210     9.6990 
   81.7500     1.8710   -46.0030    67.5350    16.2920     4.6400     8.1270     8.8780 
   81.8750     1.8810   -46.0980    67.3800    16.6560     4.8720     7.7300     8.6860 
   82.0000     1.8860   -46.4390    68.8320    17.3150     5.2880     7.6270     9.0280 
   82.1250     1.8950   -46.9140    71.0930    18.0060     5.8680     7.6770     9.5890 
   82.2500     1.9170   -47.5100    72.5740    18.6570     6.4190     7.6370     9.8770 
   82.3750     1.9580   -48.2020    73.5880    19.4730     6.5940     7.3840     9.6170 
   82.5000     2.0120   -48.8730    75.2940    20.7750     6.1480     6.9160     8.8390 
   82.6250     2.0610   -49.4450    80.0400    22.4230     5.5040     6.3140     7.8700 
   82.7500     2.0950   -49.9410    86.2020    23.7100     5.1450     5.7140     7.1540 
   82.8750     2.1180   -50.3590    93.2430    24.3210     5.0120     5.1860     6.8380 
   83.0000     2.1390   -50.6000   100.7130    24.3950     4.9110     4.7760     6.7920 
   83.1250     2.1500   -50.5990   107.8040    24.2190     4.9120     4.5540     6.7830 
   83.2500     2.1320   -50.3860   112.6320    24.1320     5.2620     4.5400     6.7400 
   83.3750     2.0790   -50.0540   114.0210    24.0630     5.9200     4.7660     6.8100 
   83.5000     2.0190   -49.6360   112.1090    23.9100     6.8300     5.2440     7.1960 
   83.6250     1.9930   -49.1220   104.9830    23.5590     7.4810     5.9600     8.0680 
   83.7500     1.9990   -48.5960    95.0630    22.9510     7.7980     6.7550     9.2010 
   83.8750     2.0180   -48.0830    85.6430    21.7010     7.4660     7.4620    10.2300 
   84.0000     2.0360   -47.6590    78.7020    19.6220     6.7230     7.9180    10.7970 
   84.1250     2.0530   -47.5050    73.1980    17.9400     6.5470     7.9840    10.7650 
   84.2500     2.0730   -47.5310    70.2680    17.5240     6.7360     7.7740    10.4220 
   84.3750     2.0970   -47.6810    72.0010    18.1150     6.9090     7.3950     9.9780 
   84.5000     2.1250   -47.9830    75.9180    19.3280     6.8600     6.9490     9.5580 
   84.6250     2.1510   -48.4100    79.0820    20.9060     6.7240     6.5190     9.1890 
   84.7500     2.1620   -48.8730    82.8670    22.4140     6.6070     6.1560     8.8610 
   84.8750     2.1580   -49.3230    88.4060    23.5250     6.5760     5.8810     8.6230 
   85.0000     2.1520   -49.6910    93.9050    24.0520     6.7130     5.7050     8.5420 
   85.1250     2.1560   -49.9390    96.3280    24.1370     6.8980     5.6370     8.5890 
   85.2500     2.1650   -50.1360    96.3530    24.1530     7.0700     5.6320     8.5840 
   85.3750     2.1680   -50.2780    95.7810    24.2020     7.1220     5.6620     8.4460 
   85.5000     2.1670   -50.4040    95.3110    24.2400     6.9500     5.6960     8.2150 
   85.6250     2.1700   -50.5160    93.6790    24.2310     6.8890     5.7050     7.9640 
   85.7500     2.1760   -50.6270    91.2110    24.2110     6.9970     5.6860     7.7570 
   85.8750     2.1840   -50.7610    89.3390    24.2160     7.0910     5.6450     7.6190 
   86.0000     2.1950   -50.8740    89.5170    24.2440     6.9760     5.6010     7.5710 
   86.1250     2.2050   -50.9240    92.2460    24.2580     6.7830     5.5780     7.6850 
   86.2500     2.2030   -50.9750    96.5260    24.2620     6.8770     5.5830     7.9300 
   86.3750     2.1900   -51.0300    99.2960    24.2620     7.1600     5.6160     8.1940 
   86.5000     2.1840   -51.0020    97.1880    24.2620     7.4280     5.6610     8.3120 
   86.6250     2.2100   -51.0100    92.0660    24.2620     7.3590     5.6760     8.1350 
   86.7500     2.2550   -51.0330    90.3040    24.2620     7.0860     5.6160     7.7790 
   86.8750     2.2880   -51.0370    91.8610    24.2610     6.8020     5.4560     7.3800 
   87.0000     2.2930   -51.0510    93.6230    24.2510     6.4920     5.2310     7.0760 
   87.1250     2.2860   -51.0630    95.7810    24.2270     6.1950     5.0470     6.9690 
   87.2500     2.2960   -50.9930    99.8910    24.2020     6.3570     5.0100     7.0430 
   87.3750     2.3190   -50.8540   102.9470    24.1930     7.5190     5.1780     7.3360 
   87.5000     2.3220   -50.7030   102.5460    24.2010     9.5470     5.5480     7.8640 
   87.6250     2.2820   -50.5110    99.6960    24.2220    10.7600     6.0380     8.5310 
   87.7500     2.2270   -50.3010    95.4180    24.2490    10.1380     6.4600     9.0960 
   87.8750     2.1920   -50.0670    91.7160    24.2610     8.6010     6.6700     9.3750 
   88.0000     2.1860   -49.8980    90.8770    24.2640     7.5820     6.6260     9.3140 
   88.1250     2.1980   -49.7560    93.1450    24.2660     7.4380     6.3920     8.9840 
   88.2500     2.2060   -49.6600    94.0940    24.2790     7.4290     6.1260     8.5950 
   88.3750     2.2060   -49.6190    92.5730    24.2980     7.4370     5.9040     8.2650 
   88.5000     2.1960   -49.5690    91.7660    24.2820     7.4940     5.7510     8.0420 
   88.6250     2.1750   -49.4860    93.4490    24.2600     7.3250     5.6880     7.9720 
