~V
VERS. 2.00: Ver 2.00
~W
STRT.M 55.0000:
STOP.M 297.0000:
STEP.M 0.1250:
NULL. -999.2500:
UWI. F10076:
~C
DEPT.M :
DEN.GM/CC :
SP.MV :
GR.API :
CALI.CM :
RXO.OHMM :
RI. :
RML.OHMM :
~A
# ...
   88.7500     2.1720   -12.6820    91.7300    24.4820     7.4710     7.9180    10.8990 
   88.8750     2.1850   -11.9440    92.8350    24.3030     7.3090     7.9170    10.7730 
   89.0000     2.1620   -11.1140    87.8750    24.3270     7.0850     7.7940    10.4840 
   89.1250     2.1130   -10.1460    80.1130    24.3940     6.8190     7.4820     9.9710 
   89.2500     2.0800    -9.1040    76.7180    24.3670     6.4220     7.0200     9.3040 
   89.3750     2.0910    -8.1180    81.2120    24.3580     5.7600     6.4650     8.5650 
   89.5000     2.1420    -7.1800    92.3390    24.4610     4.9140     5.8960     7.8540 
   89.6250     2.2020    -6.2800   107.2490    24.5520     4.3070     5.4100     7.2800 
   89.7500     2.2510    -5.5110   121.6520    24.5980     4.0820     5.0430     6.8600 
   89.8750     2.2880    -4.8750   128.6940    24.6270     3.9860     4.7940     6.5850 
   90.0000     2.3150    -4.3310   126.7670    24.6360     3.8840     4.6400     6.4210 
   90.1250     2.3270    -3.9910   123.3870    24.5730     3.7720     4.5500     6.3320 
   90.2500     2.3340    -3.7760   124.9440    24.4440     3.7130     4.4830     6.2740 
   90.3750     2.3430    -3.6570   127.7890    24.3630     3.6980     4.4210     6.2350 
   90.5000     2.3490    -3.6600   129.0200    24.4340     3.7200     4.3580     6.1900 
   90.6250     2.3390    -3.7350   129.5780    24.7360     3.7460     4.2730     6.0770 
   90.7500     2.3190    -3.8800   129.2880    25.0570     3.8050     4.1650     5.8870 
   90.8750     2.3050    -4.1340   128.2440    25.1680     3.9320     4.0810     5.7070 
   91.0000     2.3070    -4.5020   126.4180    25.0230     4.0800     4.1200     5.7200 
   91.1250     2.3300    -4.9850   123.1220    25.0160     4.4860     4.5010     6.2830 
   91.2500     2.3690    -5.6120   119.1840    25.0010     6.0730     5.4220     7.6460 
   91.3750     2.4200    -6.3580   112.6930    24.8270    10.4810     7.2150    10.1640 
   91.5000     2.4780    -7.1980   102.2540    24.6510    18.8330    10.3130    14.2710 
   91.6250     2.5290    -8.1390    89.2030    24.5850    30.5480    15.2370    20.4330 
   91.7500     2.5660    -9.1590    78.5950    24.5820    39.3920    20.6150    26.6840 
   91.8750     2.5790   -10.2300    71.4350    24.5750    41.7900    23.5770    29.1540 
   92.0000     2.5570   -11.3150    66.9970    24.5270    37.0040    22.1080    25.8630 
   92.1250     2.4790   -12.3540    67.9370    24.4060    26.8350    17.7420    19.9910 
   92.2500     2.3580   -13.3100    71.4240    24.3450    16.7550    13.6630    15.2780 
   92.3750     2.2280   -14.1290    73.8970    24.5590    10.5080    10.6930    12.2320 
   92.5000     2.1350   -14.7990    74.8050    25.1100     8.1400     8.7940    10.5320 
   92.6250     2.1110   -15.3770    75.1860    25.4810     7.5130     7.8220     9.8950 
   92.7500     2.1180   -15.8420    74.8150    25.4250     7.2650     7.4070     9.8230 
   92.8750     2.1210   -16.1190    74.3910    25.0090     7.1650     7.3640    10.0550 
   93.0000     2.1130   -16.2990    76.1500    24.4160     7.2150     7.5100    10.3550 
   93.1250     2.1160   -16.4390    78.9940    24.0210     7.3300     7.6790    10.5370 
   93.2500     2.1340   -16.5550    79.3670    23.7660     7.4110     7.7780    10.5680 
   93.3750     2.1490   -16.7080    77.6880    23.6650     7.4460     7.7820    10.4750 
   93.5000     2.1450   -16.9150    77.1000    23.6270     7.4480     7.7000    10.3050 
   93.6250     2.1210   -17.1120    76.9400    23.5920     7.4430     7.5640    10.1160 
   93.7500     2.0980   -17.2970    77.0910    23.5830     7.4630     7.4330     9.9750 
   93.8750     2.0890   -17.5450    78.4960    23.7310     7.4590     7.3430     9.9210 
   94.0000     2.0950   -17.8000    80.4590    24.0570     7.4360     7.3060     9.9610 
   94.1250     2.1070   -18.0190    79.6750    24.4370     7.4960     7.3110    10.0610 
   94.2500     2.1160   -18.2300    75.8610    24.6230     7.6210     7.3150    10.1450 
   94.3750     2.1220   -18.3720    72.4210    24.7340     7.6560     7.2920    10.1640 
   94.5000     2.1230   -18.4280    71.9470    24.8940     7.5060     7.2350    10.1030 
   94.6250     2.1150   -18.4740    74.9580    25.0270     7.2830     7.1620     9.9770 
   94.7500     2.1040   -18.5380    78.3330    25.0810     7.1850     7.1010     9.8410 
   94.8750     2.0980   -18.5420    79.4610    25.0950     7.2200     7.0700     9.7300 
   95.0000     2.1000   -18.5010    78.3480    25.0790     7.2890     7.0770     9.6590 
   95.1250     2.0990   -18.4690    78.0340    24.9620     7.3430     7.1210     9.6330 
   95.2500     2.0920   -18.4250    79.3910    24.7600     7.3140     7.1760     9.6310 
   95.3750     2.0830   -18.4080    79.6860    24.5960     7.2540     7.2180     9.6270 
   95.5000     2.0780   -18.4340    77.2800    24.4870     7.2140     7.2230     9.5930 
   95.6250     2.0730   -18.4850    73.8260    24.4140     7.2650     7.1800     9.5090 
   95.7500     2.0680   -18.4890    71.0510    24.3700     7.3480     7.1070     9.3920 
   95.8750     2.0700   -18.5490    69.5400    24.4070     7.3480     7.0260     9.2690 
   96.0000     2.0790   -18.6720    70.8500    24.5050     7.1900     6.9580     9.1730 
   96.1250     2.0840   -18.7590    74.1200    24.6050     7.0300     6.9220     9.1350 
   96.2500     2.0800   -18.8190    76.4680    24.7650     7.0150     6.9200     9.1520 
   96.3750     2.0700   -18.8190    76.6780    25.0070     7.1080     6.9550     9.2130 
   96.5000     2.0650   -18.7510    76.1490    25.2170     7.2110     7.0220     9.2990 
   96.6250     2.0640   -18.6130    75.9850    25.2900     7.2680     7.1010     9.3810 
   96.7500     2.0600   -18.4920    75.5140    25.3070     7.3280     7.1590     9.4330 
   96.8750     2.0580   -18.2940    74.7050    25.3460     7.4070     7.1760     9.4460 
   97.0000     2.0640   -18.0380    74.1910    25.4840     7.4380     7.1480     9.4200 
   97.1250     2.0730   -17.8070    73.1940    25.7440     7.3640     7.0860     9.3570 
   97.2500     2.0740   -17.5740    71.8340    25.9530     7.2720     7.0200     9.2850 
   97.3750     2.0710   -17.3960    71.6090    26.0530     7.2080     6.9720     9.2290 
   97.5000     2.0720   -17.2750    73.2900    26.1130     7.1750     6.9560     9.2170 
   97.6250     2.0760   -17.1720    75.1170    26.0090     7.2310     6.9800     9.2760 
   97.7500     2.0740   -17.0070    76.1900    25.5320     7.3540     7.0320     9.3790 
   97.8750     2.0700   -16.8420    76.6290    24.8150     7.4500     7.0890     9.4840 
   98.0000     2.0760   -16.6590    76.8910    24.3230     7.4520     7.1260     9.5440 
   98.1250     2.0940   -16.4330    77.9130    24.3000     7.2810     7.1150     9.5260 
   98.2500     2.1100   -16.2260    80.1120    24.3380     7.0880     7.0660     9.4650 
   98.3750     2.1140   -15.9870    82.4350    24.3430     7.1130     7.0090     9.4060 
   98.5000     2.1120   -15.7320    83.0460    24.3150     7.5810     6.9700     9.3940 
   98.6250     2.1130   -15.5200    81.0270    24.3020     8.4950     6.9720     9.4540 
   98.7500     2.1130   -15.3750    78.0470    24.3070     8.8270     7.0030     9.5510 
   98.8750     2.1040   -15.3080    75.1160    24.2890     8.3350     7.0480     9.6500 
   99.0000     2.0860   -15.2810    72.7130    24.2020     7.6030     7.0910     9.7210 
   99.1250     2.0730   -15.2100    70.8910    24.1110     7.2510     7.1140     9.7400 
   99.2500     2.0730   -15.1250    69.6190    24.0680     7.1890     7.1140     9.7140 
   99.3750     2.0800   -15.0260    68.0110    24.0510     7.2260     7.0950     9.6530 
   99.5000     2.0890   -14.8960    66.0670    24.0240     7.2410     7.0620     9.5630 
   99.6250     2.0970   -14.7450    67.1090    23.8590     7.1980     7.0200     9.4530 
   99.7500     2.1010   -14.6130    71.6210    23.5440     7.1410     6.9730     9.3490 
   99.8750     2.0940   -14.4520    76.4570    23.2210     7.0810     6.9270     9.2820 
