~V
VERS. 2.00: Ver 2.00
~W
STRT.M 60.0000:
STOP.M 262.0000:
STEP.M 0.1250:
NULL. -999.2500:
UWI. F10018:
~C
DEPT.M :
GR.API :
RML.OHMM :
RI. :
RXO.OHMM :
CALI.CM :
DEN.GM/CC :
SP.MV :
~A
# ...
  161.2500    66.9930    17.9630    18.6010    10.8250    23.6450     2.2990     4.4800 
  161.3750    66.4580    17.4190    17.8290    12.0300    24.0250     2.3080     4.0450 
  161.5000    63.0700    19.1030    18.9610    17.9660    24.3750     2.2950     3.8020 
  161.6250    58.3110    23.2590    22.4950    27.6240    24.6870     2.2580     3.7210 
  161.7500    54.8720    29.2490    28.1560    35.4450    24.9550     2.2140     3.6910 
  161.8750    53.3260    36.1820    35.2910    37.2130    25.1040     2.1890     3.6690 
  162.0000    51.5780    41.9620    41.7720    38.9380    25.0010     2.2060     3.6340 
  162.1250    48.4850    42.6140    43.1320    49.8060    24.6870     2.2740     3.5530 
  162.2500    46.9320    37.9100    38.7870    68.6680    24.4800     2.3530     3.3750 
  162.3750    47.6690    30.4490    31.4800    70.2340    24.3830     2.4030     3.0710 
  162.5000    51.6250    23.5490    24.6290    46.1650    24.3720     2.4060     2.6700 
  162.6250    57.4590    19.7160    20.5100    23.3320    24.4950     2.3790     2.1780 
  162.7500    59.4160    19.0100    19.0370    21.3610    24.6750     2.3690     1.6440 
  162.8750    54.7580    21.2430    20.0780    38.9750    24.6980     2.3970     1.1290 
  163.0000    47.3860    25.9970    23.5340    60.2870    24.5280     2.4570     0.6930 
  163.1250    44.4010    32.4860    29.2770    56.1230    24.3770     2.5240     0.3610 
  163.2500    45.2110    38.5360    35.4490    54.1830    24.3530     2.5780     0.0820 
  163.3750    46.0940    42.3130    40.0110    60.5610    24.4140     2.6140    -0.1490 
  163.5000    45.3210    43.2250    41.8380    56.9850    24.4570     2.6360    -0.3460 
  163.6250    44.5020    42.0800    41.2790    55.8550    24.4450     2.6460    -0.4740 
  163.7500    45.3060    40.3980    39.8440    51.4530    24.4160     2.6460    -0.5880 
  163.8750    46.9650    38.5730    38.0350    44.9800    24.3890     2.6380    -0.7390 
  164.0000    48.4410    36.7560    36.0980    40.6870    24.3860     2.6260    -0.8700 
  164.1250    49.4070    35.2240    34.3400    39.8070    24.4090     2.6110    -0.9250 
  164.2500    50.7670    34.2040    33.0220    36.5300    24.4260     2.5990    -0.9170 
  164.3750    51.0020    33.8710    32.3320    32.8240    24.4070     2.5920    -0.9010 
  164.5000    49.8380    34.2510    32.3450    30.5370    24.3560     2.5950    -0.9590 
  164.6250    48.7280    35.1710    32.9880    31.6510    24.3110     2.6040    -1.1170 
  164.7500    48.2650    36.0250    33.7410    34.3220    24.2940     2.6140    -1.2680 
  164.8750    48.1580    36.3190    34.1380    37.7050    24.2880     2.6180    -1.3520 
  165.0000    48.3480    35.8510    33.9140    40.0470    24.2920     2.6120    -1.3890 
  165.1250    48.4780    34.8680    33.1650    40.8810    24.3280     2.5970    -1.4130 
  165.2500    47.7020    34.0170    32.4040    36.6460    24.3810     2.5850    -1.4750 
  165.3750    46.4810    33.5430    31.8620    31.9710    24.4020     2.5830    -1.5520 
  165.5000    46.1390    33.2290    31.4030    30.1610    24.3760     2.5940    -1.5960 
  165.6250    46.6430    32.2930    30.4010    34.9690    24.0380     2.6150    -1.5980 
  165.7500    47.5600    30.2800    28.4760    37.7730    23.7910     2.6290    -1.5570 
  165.8750    49.7860    27.3860    25.8030    29.5450    23.6600     2.6250    -1.4490 
  166.0000    52.8110    24.3700    23.0370    18.9900    23.6180     2.6030    -1.3340 
  166.1250    54.5060    22.2790    21.0230    14.1660    23.6180     2.5730    -1.2860 
  166.2500    53.3880    21.4650    20.0270    13.7880    23.6540     2.5450    -1.2380 
  166.3750    50.3420    21.9420    20.1040    17.0280    23.6970     2.5200    -1.1790 
  166.5000    48.2210    23.4270    21.1260    22.7860    23.6730     2.4970    -1.1170 
  166.6250    48.9190    25.3740    22.7940    25.0920    23.7630     2.4830    -1.0550 
  166.7500    50.8590    27.0360    24.4360    23.9180    23.9390     2.4890    -1.0110 
  166.8750    51.9100    28.0020    25.5840    23.4700    24.1470     2.5200    -1.0220 
  167.0000    51.6450    28.1710    26.0190    25.1090    24.2500     2.5640    -1.0580 
  167.1250    51.3760    27.6540    25.7360    26.7490    24.2260     2.5950    -1.0950 
  167.2500    51.6000    26.8530    25.0930    25.8290    24.1690     2.6010    -1.1710 
  167.3750    52.4660    25.9190    24.2320    22.7560    24.1990     2.5910    -1.2700 
  167.5000    52.8350    24.8480    23.1510    21.7820    24.3030     2.5820    -1.3290 
  167.6250    51.0750    23.5540    21.7730    21.6240    24.4160     2.5910    -1.3490 
  167.7500    48.9170    22.0970    20.2260    21.3850    24.4540     2.6080    -1.3840 
  167.8750    49.1270    20.5860    18.6790    19.8390    24.4440     2.6130    -1.4590 
  168.0000    51.4540    19.1820    17.3220    16.3260    24.3690     2.5910    -1.5620 
  168.1250    51.7890    18.1690    16.4050    14.9230    24.2800     2.5390    -1.6300 
  168.2500    50.1040    17.6680    15.9810    14.9950    24.2310     2.4810    -1.6160 
  168.3750    49.0210    17.7270    16.0690    16.6980    24.2700     2.4380    -1.5360 
  168.5000    47.8350    18.2870    16.6180    18.0460    24.4260     2.4210    -1.4630 
  168.6250    45.0440    19.1810    17.5030    19.0700    24.5360     2.4240    -1.3990 
  168.7500    43.3990    20.0290    18.3840    20.4350    24.5330     2.4300    -1.3100 
  168.8750    45.1530    20.5770    19.0090    22.2860    24.4220     2.4290    -1.1800 
  169.0000    49.1100    20.7560    19.2900    22.4090    24.3370     2.4210    -1.0670 
  169.1250    50.9820    20.6640    19.2920    21.8310    24.3340     2.4130    -1.0010 
  169.2500    50.8420    20.5190    19.1980    19.5300    24.3570     2.4110    -0.9880 
  169.3750    50.1650    20.4030    19.0760    18.2890    24.3340     2.4110    -1.0320 
  169.5000    50.5060    20.2960    18.9180    21.1310    24.2750     2.4090    -1.0870 
  169.6250    51.5510    20.1080    18.6720    23.8310    24.2470     2.4010    -1.1180 
  169.7500    52.1380    19.8330    18.3580    22.4170    24.2840     2.3940    -1.1240 
  169.8750    52.9770    19.5210    18.0180    19.0870    24.3590     2.3950    -1.1490 
  170.0000    53.9530    19.2300    17.6930    18.2060    24.4120     2.4060    -1.1910 
  170.1250    53.7760    19.0080    17.4240    19.0790    24.3900     2.4240    -1.2160 
  170.2500    53.5610    18.8470    17.2220    20.4820    24.3720     2.4380    -1.2060 
  170.3750    53.6050    18.7200    17.0860    20.1180    24.3550     2.4460    -1.1770 
  170.5000    53.4520    18.6260    17.0130    17.5970    24.3360     2.4480    -1.1560 
  170.6250    51.8080    18.6830    17.0700    16.6060    24.2920     2.4460    -1.1770 
  170.7500    49.5210    18.9840    17.3170    17.5180    24.2080     2.4450    -1.2400 
  170.8750    47.7940    19.5530    17.7860    18.5490    24.0410     2.4450    -1.2850 
  171.0000    46.8820    20.3040    18.4310    19.5730    23.8870     2.4440    -1.2600 
  171.1250    47.3970    21.0220    19.0920    20.2000    23.9000     2.4430    -1.2100 
  171.2500    48.5010    21.4990    19.5640    20.9160    24.0820     2.4430    -1.1860 
  171.3750    48.6140    21.6510    19.7450    21.7500    24.2910     2.4470    -1.1890 
  171.5000    47.8650    21.5050    19.6430    22.0450    24.4810     2.4530    -1.2210 
  171.6250    46.8030    21.0980    19.2910    22.8700    24.5830     2.4630    -1.2550 
  171.7500    46.3990    20.5200    18.7840    22.3570    24.6160     2.4730    -1.2650 
  171.8750    46.4110    19.8290    18.1720    20.7980    24.5800     2.4820    -1.2380 
  172.0000    46.5590    19.1440    17.5500    19.3250    24.4780     2.4880    -1.2110 
  172.1250    47.5530    18.7170    17.1150    18.1250    24.3790     2.4910    -1.2000 
  172.2500    48.4450    18.6990    16.9960    17.3240    24.3550     2.4920    -1.1910 
  172.3750    47.9090    19.1260    17.2440    17.3020    24.3430     2.4910    -1.1640 
