~V
VERS. 2.00: Ver 2.00
~W
STRT.M 55.0000:
STOP.M 308.0000:
STEP.M 0.1250:
NULL. -999.2500:
UWI. F10053:
~C
DEPT.M :
GR.API :
RML.OHMM :
RI. :
RXO.OHMM :
CALI.CM :
DEN.GM/CC :
SP.MV :
~A
# ...
  257.5000    66.9920    31.7700    30.2310    25.7990    24.5700     2.2500    -8.9480 
  257.6250    64.2520    31.4650    30.2140    27.5410    24.5830     2.2530    -8.7860 
  257.7500    62.1520    31.4550    30.5060    31.2510    24.5850     2.2570    -8.6530 
  257.8750    59.6420    31.3400    30.5980    36.4890    24.5760     2.2560    -8.5820 
  258.0000    58.3590    30.9080    30.1900    35.8360    24.5570     2.2500    -8.5950 
  258.1250    61.7130    30.2070    29.3060    29.8290    24.5670     2.2420    -8.6660 
  258.2500    66.5080    29.5980    28.4100    26.4160    24.6070     2.2390    -8.7880 
  258.3750    68.2200    29.3690    27.8420    26.8490    24.6550     2.2410    -8.8560 
  258.5000    66.9050    29.6390    27.7810    29.4430    24.6460     2.2440    -8.9030 
  258.6250    66.2460    30.2940    28.2020    31.6240    24.6290     2.2440    -8.9030 
  258.7500    66.9140    30.9060    28.7600    31.7890    24.6000     2.2400    -8.9250 
  258.8750    65.8610    31.1980    29.2100    30.6200    24.5540     2.2350    -8.9430 
  259.0000    62.2290    31.0940    29.4000    29.5250    24.5000     2.2320    -8.9800 
  259.1250    59.4330    30.6940    29.2460    29.6150    24.4080     2.2320    -9.0700 
  259.2500    60.3000    30.1990    28.8600    29.4560    24.3260     2.2360    -9.1460 
  259.3750    64.6310    29.6320    28.3100    29.2120    24.2150     2.2390    -9.2570 
  259.5000    69.1620    28.9310    27.6340    28.2870    24.0310     2.2330    -9.3580 
  259.6250    69.5120    28.0460    26.8950    27.7100    23.8580     2.2160    -9.4320 
  259.7500    67.1570    27.1300    26.2460    26.9770    23.7180     2.2070    -9.4670 
  259.8750    64.1400    26.3760    25.7760    25.7830    23.6070     2.2270    -9.4830 
  260.0000    61.7230    25.9270    25.4690    23.8760    23.6030     2.2830    -9.4160 
  260.1250    60.0560    25.8280    25.2260    22.6870    23.7500     2.3530    -9.2310 
  260.2500    60.2420    25.8610    24.9400    26.9830    23.9300     2.3960    -9.0020 
  260.3750    63.1300    25.8280    24.5970    37.1020    24.1240     2.3890    -8.7730 
  260.5000    67.1750    25.6120    24.2060    39.4160    24.2990     2.3400    -8.5700 
  260.6250    68.6890    25.2810    23.8280    28.3450    24.4340     2.2790    -8.4160 
  260.7500    66.5770    25.1350    23.6160    24.8250    24.5380     2.2340    -8.2680 
  260.8750    63.5440    25.4690    23.7570    25.3250    24.5680     2.2110    -8.1260 
  261.0000    62.7470    26.4560    24.4540    26.8740    24.5660     2.2020    -8.0760 
  261.1250    63.8550    28.0880    25.9310    29.4810    24.5650     2.2010    -8.0790 
  261.2500    63.5570    29.8240    27.8230    33.2940    24.5680     2.2040    -8.1150 
  261.3750    62.2200    31.0880    29.4880    34.3290    24.5700     2.2110    -8.0970 
  261.5000    62.4080    31.3910    30.2220    35.8300    24.5700     2.2230    -8.0630 
  261.6250    63.7520    30.4150    29.5990    36.3200    24.5700     2.2360    -8.0150 
  261.7500    64.8040    28.7140    28.2040    31.6930    24.5720     2.2490    -7.9580 
  261.8750    65.9590    26.8640    26.5840    25.4890    24.5720     2.2610    -7.9290 
  262.0000    66.7180    25.3790    25.1820    23.5470    24.5730     2.2720    -7.8840 
  262.1250    65.8720    24.6240    24.2760    24.4560    24.5740     2.2850    -7.8440 
  262.2500    64.5010    24.4040    23.7490    26.1090    24.5720     2.2960    -7.8170 
  262.3750    64.8970    24.4660    23.4580    26.2320    24.5680     2.3030    -7.8180 
  262.5000    66.4980    24.5760    23.2920    25.1630    24.5740     2.3040    -7.8450 
  262.6250    67.1130    24.6620    23.2610    24.4170    24.5960     2.2990    -7.8980 
  262.7500    68.0580    24.8700    23.4430    24.8210    24.5790     2.2900    -8.0020 
  262.8750    68.5620    25.3840    23.9540    24.9350    24.4610     2.2780    -8.1070 
  263.0000    68.3560    26.2870    24.8340    24.6730    24.3540     2.2660    -8.1660 
  263.1250    67.8410    27.4840    26.0120    25.6980    24.3010     2.2570    -8.2510 
  263.2500    66.6360    28.6170    27.2230    28.3070    24.2800     2.2520    -8.3550 
  263.3750    64.9170    29.3880    28.2150    31.1770    24.2720     2.2510    -8.4930 
  263.5000    63.8470    29.6240    28.7580    31.7440    24.2730     2.2520    -8.6400 
  263.6250    64.4850    29.2900    28.6490    30.9250    24.2860     2.2540    -8.8180 
  263.7500    65.2760    28.7190    28.0910    30.0390    24.3260     2.2610    -9.0180 
  263.8750    65.6130    28.1920    27.3240    29.0790    24.4070     2.2780    -9.1900 
  264.0000    64.8280    27.9350    26.6060    28.2520    24.4510     2.3020    -9.4540 
  264.1250    62.5270    28.1310    26.2090    27.7270    24.4270     2.3210    -9.6660 
  264.2500    61.8550    28.7110    26.1900    28.6020    24.3730     2.3240    -9.8770 
  264.3750    63.9140    29.6160    26.5780    30.6010    24.3690     2.3080   -10.0980 
  264.5000    64.9840    30.8030    27.4410    31.8720    24.4260     2.2810   -10.3640 
  264.6250    62.6120    32.2880    28.9340    31.4350    24.4600     2.2550   -10.6120 
  264.7500    61.6100    33.9890    30.8790    32.9770    24.4770     2.2390   -10.8420 
  264.8750    62.3840    35.8160    33.0390    36.8950    24.4790     2.2330   -11.0470 
  265.0000    62.5250    37.6280    35.1420    39.8650    24.4760     2.2360   -11.1460 
  265.1250    60.8660    39.2250    36.8990    44.4210    24.4810     2.2440   -11.2260 
  265.2500    60.6010    40.4970    38.2250    42.4450    24.5040     2.2510   -11.2480 
  265.3750    62.8920    41.3490    39.0660    37.8330    24.5130     2.2540   -11.1990 
  265.5000    65.2880    41.6780    39.3600    36.4970    24.4660     2.2510   -11.0630 
  265.6250    65.7340    41.2710    38.9310    40.7260    24.3670     2.2430   -10.9010 
  265.7500    65.2630    40.2570    37.9290    41.9880    24.3230     2.2390   -10.7330 
  265.8750    66.1710    38.8910    36.5970    37.9890    24.3130     2.2480   -10.5550 
  266.0000    68.4180    37.6540    35.3290    34.1090    24.3130     2.2770   -10.4220 
  266.1250    68.2160    37.4050    34.7520    31.8960    24.3130     2.3290   -10.3340 
  266.2500    65.0770    38.7340    35.3960    31.9750    24.3130     2.3890   -10.2360 
  266.3750    61.6590    42.1900    37.8330    33.9450    24.3130     2.4440   -10.1000 
  266.5000    61.1960    48.1620    42.5550    35.9380    24.3020     2.4880    -9.9600 
  266.6250    64.2940    57.0980    50.2870    40.5590    24.2810     2.5230    -9.7700 
  266.7500    66.1210    67.7830    60.1250    57.5870    24.2680     2.5640    -9.5600 
  266.8750    65.8330    78.4580    70.6070    93.6750    24.2880     2.6130    -9.3500 
  267.0000    65.1980    86.5250    79.3370   114.5800    24.3020     2.6650    -9.0700 
  267.1250    65.5750    88.3660    82.5080   110.8580    24.2990     2.6970    -8.7750 
  267.2500    65.6440    84.1860    79.5740   105.3860    24.2820     2.6970    -8.4570 
  267.3750    64.5300    75.7420    71.9760    86.0430    24.2280     2.6690    -8.1550 
  267.5000    63.2180    65.8970    62.6510    72.3550    24.1430     2.6280    -7.8200 
  267.6250    63.0810    57.6150    54.6130    97.2480    24.1230     2.5980    -7.5030 
  267.7500    65.1180    51.9180    48.9850   121.1550    24.1390     2.5930    -7.0640 
  267.8750    68.4760    48.5640    45.7510   103.9140    24.2410     2.6120    -6.6150 
  268.0000    70.9780    46.3040    43.8930    57.8070    24.3210     2.6440    -6.2240 
  268.1250    71.3000    42.9260    41.1010    39.5790    24.3430     2.6680    -5.8590 
  268.2500    72.8020    37.2640    35.6850    40.1730    24.2850     2.6680    -5.5450 
  268.3750    74.9950    29.7230    28.0500    44.3440    24.2370     2.6400    -5.2260 
  268.5000    72.0170    21.6330    20.2290    39.3060    24.1710     2.5900    -4.8590 
  268.6250    62.1950    14.8070    14.3840    24.5310    24.1240     2.5330    -4.4220 
