~V
VERS. 2.00: Ver 2.00
~W
STRT.M 60.0000:
STOP.M 245.0000:
STEP.M 0.1250:
NULL. -999.2500:
UWI. F10050:
~C
DEPT.M :
SP.MV :
GR.API :
RML.OHMM :
RI. :
RXO.OHMM :
CALI.CM :
DEN.GM/CC :
~A
# ...
  206.2500   -13.8490    74.6810    26.0970    23.1590    35.9670    23.7000     2.4290 
  206.3750   -13.9900    70.5310    29.3620    27.7780    39.6950    23.8790     2.3840 
  206.5000   -14.0780    69.4200    32.4060    31.3820    42.0320    24.0090     2.3380 
  206.6250   -14.1300    69.5870    34.6450    33.0520    40.6090    24.0590     2.3020 
  206.7500   -14.1940    70.0550    34.8910    33.4550    38.8870    24.0740     2.2850 
  206.8750   -14.2120    72.4420    34.7920    33.3820    38.2550    24.0740     2.2820 
  207.0000   -14.1870    75.8500    35.0800    33.5020    38.3780    24.0730     2.2870 
  207.1250   -14.1550    76.8050    36.2740    34.3550    40.5730    24.0700     2.2880 
  207.2500   -14.1110    73.3190    38.2810    35.9710    44.3710    24.0660     2.2790 
  207.3750   -14.0570    69.3760    40.8800    38.2290    45.8020    24.0640     2.2640 
  207.5000   -13.9980    68.5670    43.5930    40.7800    46.1260    24.0640     2.2510 
  207.6250   -13.9360    69.7990    45.1930    42.6610    46.9290    24.0640     2.2460 
  207.7500   -13.8810    70.3890    44.5160    42.7590    48.5920    24.0640     2.2470 
  207.8750   -13.8540    68.5570    41.1070    40.4130    51.1960    24.0640     2.2520 
  208.0000   -13.8020    66.5650    35.7910    36.0090    51.1640    24.0640     2.2620 
  208.1250   -13.7530    68.3810    30.3730    30.9470    40.8690    24.0640     2.2770 
  208.2500   -13.7400    72.4610    26.2650    26.7630    29.1780    24.0640     2.2970 
  208.3750   -13.6960    76.9910    23.9180    24.0830    22.9170    24.0640     2.3170 
  208.5000   -13.6610    79.9720    23.3170    23.0420    22.7090    24.0640     2.3290 
  208.6250   -13.6760    79.1700    25.3980    23.7640    25.6350    24.0640     2.3260 
  208.7500   -13.6700    73.8650    30.6220    25.7420    28.6620    24.0570     2.3110 
  208.8750   -13.6400    67.8790    33.7640    28.5710    30.9220    24.0090     2.2900 
  209.0000   -13.6240    67.7440    36.7680    31.6390    32.8000    23.8860     2.2720 
  209.1250   -13.6100    71.1600    38.6420    34.0750    36.4560    23.7310     2.2620 
  209.2500   -13.5960    70.5460    39.1170    35.4270    40.3500    23.6660     2.2600 
  209.3750   -13.5910    67.3770    38.2620    35.5430    40.9410    23.6530     2.2620 
  209.5000   -13.6050    67.5340    36.3750    34.4780    37.8110    23.6530     2.2670 
  209.6250   -13.5750    70.0190    33.8300    32.3700    34.9450    23.6530     2.2720 
  209.7500   -13.5280    70.7270    31.2360    29.8830    33.0500    23.6530     2.2770 
  209.8750   -13.5310    72.6540    28.9930    27.5450    30.9370    23.6530     2.2820 
  210.0000   -13.5670    77.2090    27.3900    25.7760    27.2720    23.6530     2.2870 
  210.1250   -13.5580    80.5330    26.7300    24.9330    24.1740    23.6530     2.2900 
  210.2500   -13.5610    79.7410    26.8210    24.8430    23.6390    23.6530     2.2890 
  210.3750   -13.6050    76.3840    27.2710    25.1760    26.3740    23.6530     2.2830 
  210.5000   -13.6400    73.2530    27.3510    25.2940    30.4440    23.6530     2.2710 
  210.6250   -13.7120    70.8920    26.1110    24.3110    31.2950    23.6510     2.2580 
  210.7500   -13.7800    68.7600    23.8310    22.3640    28.4310    23.6500     2.2530 
  210.8750   -13.8400    66.8810    21.4710    20.1890    24.8150    23.6500     2.2630 
  211.0000   -13.9140    69.2000    20.2010    18.7180    20.8370    23.6520     2.2860 
  211.1250   -14.0030    74.6980    21.3840    19.1360    18.1070    23.6530     2.3130 
  211.2500   -14.1060    73.9310    25.3160    21.9560    23.5580    23.6530     2.3290 
  211.3750   -14.2140    65.9450    32.4350    27.7780    38.1730    23.6530     2.3290 
  211.5000   -14.3100    57.9810    42.9320    36.8470    57.0440    23.6530     2.3140 
  211.6250   -14.4140    54.6910    55.7250    48.1810    65.8180    23.6540     2.2950 
  211.7500   -14.5760    54.5130    66.1110    57.8120    68.0930    23.6540     2.2830 
  211.8750   -14.7370    56.3300    70.2330    62.5700    66.8950    23.6490     2.2800 
  212.0000   -14.8470    58.9050    68.7720    62.4990    62.5600    23.6450     2.2830 
  212.1250   -14.9550    59.7570    65.6640    60.2580    58.1730    23.6430     2.2830 
  212.2500   -15.0600    59.9460    63.3400    58.2490    55.0350    23.6430     2.2790 
  212.3750   -15.1610    59.9470    61.7290    56.7320    56.1200    23.6430     2.2710 
  212.5000   -15.2370    58.5890    60.2840    55.3720    60.8970    23.6430     2.2620 
  212.6250   -15.2830    57.0560    58.4680    53.7180    62.7080    23.6430     2.2540 
  212.7500   -15.3070    58.6870    56.2110    51.6740    57.6360    23.6430     2.2450 
  212.8750   -15.2940    61.3460    53.6990    49.3760    50.1280    23.6450     2.2330 
  213.0000   -15.3030    62.1210    51.2590    47.1010    44.3850    23.6480     2.2180 
  213.1250   -15.3250    59.9970    49.3930    45.2830    43.9560    23.6450     2.2060 
  213.2500   -15.2910    57.9850    48.3800    44.1930    45.2430    23.6410     2.2010 
  213.3750   -15.2620    58.1570    48.4810    44.0740    43.8310    23.6330     2.2060 
  213.5000   -15.2540    59.0750    50.0040    45.2140    41.3720    23.6010     2.2180 
  213.6250   -15.2190    59.2020    53.7490    48.4020    43.1200    23.5200     2.2290 
  213.7500   -15.1990    59.6800    59.8280    53.8210    49.8370    23.4320     2.2370 
  213.8750   -15.1790    60.1460    68.2790    61.5280    55.9940    23.4080     2.2390 
  214.0000   -15.1250    59.3170    78.4190    70.8900    59.7140    23.4360     2.2380 
  214.1250   -15.1050    58.3870    87.9350    79.9720    63.2740    23.4790     2.2320 
  214.2500   -15.1100    59.7120    93.7750    86.2620    71.9880    23.5670     2.2230 
  214.3750   -15.0780    61.0220    94.1780    88.1700    81.2030    23.6980     2.2140 
  214.5000   -15.0760    58.3620    89.4910    85.5280    82.0800    23.7790     2.2170 
  214.6250   -15.0700    51.8790    81.4390    79.1580    76.4580    23.8060     2.2410 
  214.7500   -14.9990    47.7980    72.8270    71.5280    72.0030    23.8080     2.2730 
  214.8750   -14.9700    50.6790    65.0320    64.1230    65.4240    23.8090     2.2950 
  215.0000   -14.9960    57.2180    58.7450    57.8680    56.2370    23.8090     2.2980 
  215.1250   -14.9710    60.2070    54.4710    53.3980    51.0230    23.8090     2.2840 
  215.2500   -14.9070    62.1200    51.9060    50.4680    49.3880    23.8090     2.2680 
  215.3750   -14.8610    65.7450    50.9470    48.9930    49.2530    23.8090     2.2630 
  215.5000   -14.8180    67.9680    51.3700    48.8480    48.4690    23.8090     2.2670 
  215.6250   -14.7980    66.4760    52.8630    49.9140    48.0340    23.8090     2.2690 
  215.7500   -14.7720    65.7570    54.5940    51.4690    50.1930    23.8120     2.2610 
  215.8750   -14.7230    64.6280    55.9110    52.8720    55.3210    23.8250     2.2480 
  216.0000   -14.6710    59.7940    56.2980    53.5410    59.3270    23.8470     2.2380 
  216.1250   -14.6010    52.9620    55.2060    52.8590    55.6620    23.8800     2.2400 
  216.2500   -14.5670    50.0200    52.7730    50.8850    50.9520    23.9690     2.2480 
  216.3750   -14.5430    50.6790    49.2300    47.8210    47.6940    24.1150     2.2540 
  216.5000   -14.4570    52.0620    45.0310    44.1010    45.3000    24.2090     2.2530 
  216.6250   -14.3880    53.8770    40.7200    40.2210    41.9180    24.2310     2.2530 
  216.7500   -14.3740    55.4470    36.7420    36.5760    36.4800    24.2310     2.2650 
  216.8750   -14.3380    57.1330    33.3350    33.3530    32.0740    24.2310     2.2900 
  217.0000   -14.3040    57.2420    30.5990    30.6470    31.3440    24.2310     2.3160 
  217.1250   -14.3130    55.9470    28.6120    28.5770    31.1320    24.2310     2.3300 
  217.2500   -14.3250    55.3760    27.1750    27.0360    28.7280    24.2310     2.3290 
  217.3750   -14.3600    54.6760    26.2100    25.9850    26.6760    24.2310     2.3210 
