~V
VERS. 2.00: Ver 2.00
~W
STRT.M 55.0000:
STOP.M 264.0000:
STEP.M 0.1250:
NULL. -999.2500:
UWI. F10017:
~C
DEPT.M :
DEN.GM/CC :
SP.MV :
GR.API :
CALI.CM :
RXO.OHMM :
RI. :
RML.OHMM :
~A
# ...
  178.7500     2.4520   -47.6470    50.1850    23.9650    20.5300    19.2090    20.4660 
  178.8750     2.4450   -47.6580    51.6470    23.8630    19.7810    19.0940    19.9830 
  179.0000     2.4290   -47.6410    54.4200    23.6410    18.9350    19.0200    19.4460 
  179.1250     2.4110   -47.5950    55.4100    23.4650    18.4070    18.9900    19.1220 
  179.2500     2.3850   -47.5490    53.9600    23.5070    18.4680    18.9910    19.0630 
  179.3750     2.3470   -47.4760    52.4390    23.6380    18.5320    18.9980    19.1810 
  179.5000     2.3150   -47.3480    52.5240    23.6530    18.2460    18.9930    19.3210 
  179.6250     2.3110   -47.2120    53.4230    23.4700    18.3240    18.9930    19.3820 
  179.7500     2.3290   -47.1190    53.5210    23.3770    18.7400    19.0310    19.4150 
  179.8750     2.3560   -47.0450    52.3410    23.4710    18.5860    19.1300    19.4770 
  180.0000     2.3850   -47.0310    50.6660    23.5410    18.0280    19.2830    19.5970 
  180.1250     2.4140   -47.0510    49.8590    23.4890    18.4110    19.3960    19.6870 
  180.2500     2.4360   -47.1290    50.3040    23.4810    19.6710    19.3160    19.6050 
  180.3750     2.4500   -47.2840    52.4550    23.5300    20.9650    18.9400    19.2950 
  180.5000     2.4610   -47.4270    55.5510    23.5720    22.1040    18.2820    18.7780 
  180.6250     2.4730   -47.5510    56.3600    23.5710    20.2790    17.4750    18.1470 
  180.7500     2.4830   -47.6470    53.6470    23.5480    17.9760    16.7440    17.4900 
  180.8750     2.4890   -47.7570    50.3510    23.5550    16.9410    16.2210    16.8650 
  181.0000     2.4910   -47.8540    48.4780    23.6530    17.2880    15.9570    16.4100 
  181.1250     2.4890   -47.9140    47.8100    23.7890    17.4420    15.9550    16.2870 
  181.2500     2.4830   -47.9250    47.9490    23.7860    17.3510    16.0970    16.4630 
  181.3750     2.4770   -47.9310    48.8420    23.7650    17.2070    16.3230    16.8530 
  181.5000     2.4730   -47.9340    50.2330    23.8160    17.2300    16.6000    17.3820 
  181.6250     2.4690   -47.9120    51.4170    23.8320    17.2970    16.9080    18.0290 
  181.7500     2.4690   -47.8730    51.5330    23.7680    17.4990    17.1830    18.6360 
  181.8750     2.4790   -47.8240    50.5480    23.6620    17.9220    17.3170    18.9840 
  182.0000     2.5030   -47.7200    48.6170    23.5420    18.2740    17.1840    18.8230 
  182.1250     2.5260   -47.6530    46.4080    23.5090    17.8940    16.6610    17.8440 
  182.2500     2.5330   -47.5950    44.1790    23.5330    16.8080    15.8940    16.3700 
  182.3750     2.5220   -47.4780    42.9380    23.5290    15.5430    15.0630    14.9350 
  182.5000     2.5030   -47.3850    43.9930    23.5060    14.6270    14.3450    14.0460 
  182.6250     2.4770   -47.3340    45.6730    23.5030    14.3760    13.8970    13.9640 
  182.7500     2.4450   -47.2780    45.1620    23.4720    14.8380    13.7050    14.3090 
  182.8750     2.4210   -47.2170    44.1010    23.3830    15.6280    13.7360    14.7800 
  183.0000     2.4210   -47.2510    44.7900    23.3040    15.8410    13.9530    15.2050 
  183.1250     2.4370   -47.2640    46.9920    23.3790    15.0850    14.3750    15.6990 
  183.2500     2.4460   -47.2750    48.0860    23.4260    14.5580    15.0090    16.6020 
  183.3750     2.4410   -47.3630    48.2630    23.4310    15.4730    15.8910    18.0480 
  183.5000     2.4340   -47.4520    47.7400    23.4640    18.0340    16.9980    19.8470 
  183.6250     2.4410   -47.5360    45.5760    23.6100    21.2020    18.1530    21.4400 
  183.7500     2.4590   -47.6470    44.1910    23.7220    23.5010    18.9860    22.3590 
  183.8750     2.4710   -47.7170    44.6520    23.7850    24.0380    19.1620    22.3790 
  184.0000     2.4670   -47.7390    44.7160    23.8750    22.9180    18.5530    21.4990 
  184.1250     2.4470   -47.7710    43.9230    23.9890    21.0930    17.2730    19.9290 
  184.2500     2.4330   -47.7900    44.7130    24.0480    18.9510    15.7880    18.1270 
  184.3750     2.4330   -47.7740    45.3270    24.0580    16.7750    14.3600    16.3530 
  184.5000     2.4450   -47.7510    44.0430    24.0690    15.0620    13.1470    14.8440 
  184.6250     2.4470   -47.7100    43.1690    24.0630    14.0470    12.2890    13.8220 
  184.7500     2.4290   -47.6040    43.4680    24.0400    13.2000    11.7840    13.2990 
  184.8750     2.4050   -47.4850    42.7490    24.0170    12.8240    11.6520    13.2400 
  185.0000     2.3950   -47.3730    40.4100    24.0040    13.1980    11.8730    13.5730 
  185.1250     2.4010   -47.2000    39.0850    23.9500    14.3630    12.4050    14.2470 
  185.2500     2.3970   -46.9970    39.8930    23.8310    15.3960    13.0460    15.0010 
  185.3750     2.3700   -46.7720    42.1080    23.7050    15.6190    13.6080    15.6550 
  185.5000     2.3340   -46.5740    44.3920    23.6280    15.0860    13.9080    16.0550 
  185.6250     2.3220   -46.3860    44.6530    23.5410    14.6700    13.7940    16.0140 
  185.7500     2.3360   -46.2410    44.3390    23.4560    14.5670    13.4000    15.5860 
  185.8750     2.3600   -46.1370    44.9280    23.4590    14.2870    12.8870    14.7950 
  186.0000     2.3800   -45.9820    46.6960    23.5660    13.7590    12.4240    13.8070 
  186.1250     2.3880   -45.8580    48.5040    23.7740    13.5820    12.1830    13.0320 
  186.2500     2.3920   -45.7740    48.9480    23.9510    14.0480    12.1930    12.7630 
  186.3750     2.3880   -45.7320    48.8810    24.0560    14.7520    12.4350    13.0580 
  186.5000     2.3680   -45.6590    48.8920    24.1590    15.4640    12.8520    13.7190 
  186.6250     2.3380   -45.5320    48.2040    24.2930    15.9420    13.3540    14.3730 
  186.7500     2.3210   -45.3170    46.9220    24.4170    15.5430    13.7890    14.7340 
  186.8750     2.3330   -44.9880    45.9560    24.4390    14.4450    13.9930    14.6740 
  187.0000     2.3570   -44.5970    45.5450    24.3190    13.3970    13.7730    14.1750 
  187.1250     2.3350   -44.1720    44.9130    24.1120    13.1900    12.8800    13.1560 
  187.2500     2.2560   -43.7280    44.9630    23.9410    13.2840    11.4780    11.7280 
  187.3750     2.1590   -43.3340    46.4450    23.9030    12.3480     9.8330    10.0850 
  187.5000     2.0980   -43.0420    47.7590    23.9960     9.7100     8.2590     8.5350 
  187.6250     2.1050   -42.8680    50.2970    24.2160     6.8800     7.0480     7.4340 
  187.7500     2.1580   -42.8650    55.3200    24.0820     5.2310     6.2260     6.8070 
  187.8750     2.2340   -43.0900    63.4520    23.6120     4.7810     5.7710     6.5520 
  188.0000     2.3040   -43.5230    70.8770    22.9680     4.9350     5.6300     6.5140 
  188.1250     2.3390   -44.1180    69.3130    22.6540     5.5420     5.7920     6.6570 
  188.2500     2.3480   -44.8230    63.6440    22.8330     6.3540     6.2020     7.0460 
  188.3750     2.3530   -45.5000    62.1230    23.2750     7.3500     6.9090     7.8240 
  188.5000     2.3630   -46.1340    66.8420    23.7010     8.9960     8.0100     9.0860 
  188.6250     2.3700   -46.7530    69.2910    24.0260    11.8140     9.7270    10.9090 
  188.7500     2.3690   -47.3390    66.2910    24.2120    15.2690    12.0710    13.1800 
  188.8750     2.3710   -47.8420    63.3330    24.2650    18.8470    14.9890    15.8890 
  189.0000     2.3890   -48.2200    61.2560    24.2450    22.1580    18.1840    18.9350 
  189.1250     2.4190   -48.4680    58.9350    24.2400    24.9490    20.9550    21.8820 
  189.2500     2.4350   -48.5990    56.6160    24.2490    27.3950    22.7690    24.1270 
  189.3750     2.4190   -48.6660    57.3210    24.2420    29.2660    23.4960    25.3320 
  189.5000     2.3740   -48.7390    61.0200    24.2520    29.7620    23.3620    25.4910 
  189.6250     2.3130   -48.7820    65.7120    24.3060    28.8600    22.6910    24.7660 
  189.7500     2.2620   -48.7540    68.2660    24.3550    27.1870    21.8750    23.7280 
  189.8750     2.2300   -48.6860    66.9680    24.3420    25.2690    21.0750    22.7190 
