~V
VERS. 2.00: Ver 2.00
~W
STRT.M 56.0000:
STOP.M 235.0000:
STEP.M 0.1250:
NULL. -999.2500:
UWI. F10014:
~C
DEPT.M :
GR.API :
RML.OHMM :
RI. :
RXO.OHMM :
CALI.CM :
DEN.GM/CC :
SP.MV :
~A
   56.0000    65.2800     2.1150     0.8900     7.1060    25.0440     2.3820    37.9540 
   56.1250    68.3590     3.4700     1.8080     8.6270    25.2070     2.2740    29.0280 
   56.2500    66.1400     4.8920     3.0900     8.8860    25.2140     2.1840    20.2020 
   56.3750    63.1590     5.8610     4.4430     8.6910    25.1680     2.1210    11.8940 
   56.5000    63.0800     6.2150     5.5340     8.3610    25.1840     2.0860     4.7880 
   56.6250    64.3730     6.2840     6.2560     8.1770    25.2160     2.0790    -0.2240 
   56.7500    64.5350     6.4250     6.7990     8.0390    25.1680     2.0950    -2.5910 
   56.8750    63.9100     6.6780     7.2460     7.9310    25.1290     2.1260    -4.4520 
   57.0000    63.0060     6.9930     7.6170     7.9720    25.1490     2.1550    -7.0700 
   57.1250    61.6790     7.2930     7.8940     8.0990    25.0670     2.1620    -9.0240 
   57.2500    60.9170     7.5190     8.0730     8.2730    24.8350     2.1450   -10.6320 
   57.3750    60.0540     7.6620     8.1520     8.4240    24.6780     2.1130   -12.0730 
   57.5000    58.9740     7.7490     8.1510     8.4140    24.6940     2.0840   -13.4220 
   57.6250    59.2210     7.8240     8.1050     8.4150    24.9520     2.0730   -14.7270 
   57.7500    59.9760     7.9300     8.0630     8.1650    25.3350     2.0810   -15.9870 
   57.8750    60.8000     8.0680     8.0480     8.2360    25.6540     2.1000   -17.2350 
   58.0000    61.8820     8.2050     8.0650     8.7170    25.7670     2.1210   -18.5300 
   58.1250    61.8920     8.2910     8.1020     9.0600    25.7600     2.1290   -19.8610 
   58.2500    59.8860     8.3310     8.1430     9.1070    25.7770     2.1220   -21.0930 
   58.3750    58.3990     8.3630     8.1940     9.1350    25.7780     2.1030   -22.1250 
   58.5000    59.9060     8.4340     8.2650     9.2390    25.7700     2.0820   -22.9350 
   58.6250    62.3960     8.5840     8.3720     9.1970    25.8540     2.0790   -23.5130 
   58.7500    62.3250     8.7780     8.4990     9.1070    25.9110     2.0960   -23.9340 
   58.8750    61.4400     8.9620     8.6210     9.0220    25.8750     2.1250   -24.1770 
   59.0000    61.7390     9.0810     8.7000     9.2160    25.8230     2.1480   -24.2460 
   59.1250    62.5520     9.0950     8.7000     9.4490    25.7840     2.1440   -24.1890 
   59.2500    62.7860     9.0360     8.6360     9.5650    25.7720     2.1170   -24.1010 
   59.3750    61.3620     8.9430     8.5290     9.4180    25.7720     2.0820   -24.0010 
   59.5000    58.4340     8.8550     8.4070     9.1310    25.7930     2.0580   -23.8600 
   59.6250    55.9420     8.8010     8.2980     8.6250    25.7970     2.0610   -23.6830 
   59.7500    54.9830     8.7740     8.2090     8.3810    25.7970     2.0860   -23.5030 
   59.8750    55.0710     8.7650     8.1380     8.2980    25.7940     2.1220   -23.3270 
   60.0000    55.4890     8.7630     8.0840     8.3750    25.7790     2.1530   -23.1730 
   60.1250    58.2110     8.7700     8.0490     8.5080    25.8000     2.1640   -23.0090 
   60.2500    62.2720     8.7930     8.0350     8.3870    25.7770     2.1530   -22.8070 
   60.3750    63.7070     8.8310     8.0400     8.1520    25.6280     2.1220   -22.6400 
   60.5000    62.6100     8.8600     8.0440     8.1430    25.3320     2.0830   -22.5890 
   60.6250    62.3080     8.8330     8.0060     8.2140    24.8710     2.0560   -22.6360 
   60.7500    63.1990     8.7330     7.9100     8.2720    24.2990     2.0580   -22.6540 
   60.8750    64.2740     8.5760     7.7670     8.2520    23.8170     2.0910   -22.6340 
   61.0000    65.5450     8.4060     7.6090     8.1390    23.5200     2.1470   -22.6340 
   61.1250    67.3200     8.3060     7.5020     8.2150    23.4590     2.2040   -22.7620 
   61.2500    67.9450     8.3160     7.4870     8.5560    23.6190     2.2450   -22.9890 
   61.3750    68.0560     8.4330     7.5750     8.9960    24.0720     2.2640   -23.2240 
   61.5000    68.5610     8.6250     7.7510     8.8740    24.6920     2.2620   -23.4120 
   61.6250    67.2960     8.8640     7.9960     8.9720    25.1460     2.2410   -23.5580 
   61.7500    63.2940     9.1240     8.2730     9.3060    25.2970     2.2120   -23.7270 
   61.8750    59.9030     9.3860     8.5530     9.5820    25.3720     2.1840   -23.8790 
   62.0000    60.0890     9.5970     8.7890     9.5680    25.3830     2.1640   -23.9110 
   62.1250    62.4680     9.6170     8.8570     9.9110    25.4540     2.1590   -23.6590 
   62.2500    65.3820     9.3620     8.6760    10.1150    25.5400     2.1650   -23.1310 
   62.3750    68.1090     8.8140     8.2190     9.3900    25.5150     2.1790   -22.3560 
   62.5000    70.8690     8.0610     7.5570     7.8820    25.3490     2.2010   -21.4020 
   62.6250    75.0680     7.2770     6.8340     6.5500    25.2470     2.2280   -20.3100 
   62.7500    80.2010     6.6200     6.1970     5.9270    25.1760     2.2550   -19.1120 
   62.8750    83.7230     6.1580     5.7150     5.5900    25.1690     2.2770   -17.9140 
   63.0000    82.5810     5.9000     5.4120     5.5320    25.1840     2.2910   -16.8330 
   63.1250    79.2670     5.8680     5.3210     5.5820    25.2070     2.2960   -15.9490 
   63.2500    79.1300     6.0740     5.4340     5.9440    25.2400     2.2950   -15.2690 
   63.3750    81.1390     6.6300     5.8180     6.2610    25.2870     2.2850   -14.8240 
   63.5000    81.3620     7.6280     6.5470     6.7830    25.3140     2.2720   -14.5910 
   63.6250    76.9120     9.0320     7.6630     7.9020    25.2950     2.2740   -14.5750 
   63.7500    72.6840    10.3760     8.8580    10.7920    25.2130     2.3050   -14.7040 
   63.8750    71.9140    11.1090     9.6660    16.4380    25.0820     2.3600   -14.8800 
   64.0000    73.5040    10.8290     9.6440    18.9730    24.9500     2.4200   -15.0110 
   64.1250    75.9100     9.5830     8.7190    13.5100    24.8060     2.4490   -15.1810 
   64.2500    78.2790     8.1900     7.5700     7.6430    24.6200     2.4380   -15.4710 
   64.3750    80.9820     7.1610     6.6230     5.9660    24.4790     2.3990   -15.8330 
   64.5000    82.7990     6.7170     6.0730     6.5770    24.4290     2.3550   -16.2260 
   64.6250    81.9700     6.9290     6.0330     7.5790    24.4960     2.3260   -16.5900 
   64.7500    79.7580     7.5400     6.3750     7.7880    24.6960     2.3110   -16.9440 
   64.8750    76.7320     8.3340     6.9690     7.7120    24.9950     2.2990   -17.3480 
   65.0000    74.9600     9.0870     7.6340     8.1770    25.2120     2.2770   -17.8320 
   65.1250    74.6410     9.5990     8.1730     9.1090    25.4190     2.2430   -18.2800 
   65.2500    74.3650     9.8690     8.5270    10.0470    25.6240     2.2080   -18.6210 
   65.3750    74.1440     9.9570     8.7210     9.9300    25.6810     2.1850   -18.9150 
   65.5000    73.5610     9.9720     8.8210     9.0860    25.5180     2.1780   -19.2000 
   65.6250    71.4410    10.0290     8.8990     9.3790    25.3550     2.1790   -19.4780 
   65.7500    68.6280    10.1730     9.0000    10.5630    25.3250     2.1820   -19.7170 
   65.8750    67.4170    10.3990     9.1360    11.7370    25.3090     2.1870   -19.8780 
   66.0000    67.5890    10.6850     9.3070    12.0880    25.2100     2.2000   -19.9380 
   66.1250    68.1010    11.0180     9.5220    10.8410    25.0130     2.2160   -20.0340 
   66.2500    68.3900    11.3990     9.7850    10.1110    25.0500     2.2180   -20.2250 
   66.3750    66.8270    11.8240    10.1010    10.7550    25.3570     2.1960   -20.4360 
   66.5000    62.5490    12.2210    10.4230    12.0600    25.6050     2.1560   -20.5740 
   66.6250    59.8910    12.3510    10.5760    12.2780    25.5610     2.1200   -20.6020 
   66.7500    61.8590    12.0640    10.4170    11.6230    25.3750     2.1040   -20.5770 
   66.8750    67.2060    11.3940     9.9480    10.5440    25.1880     2.1110   -20.4450 
   67.0000    73.5400    10.5730     9.3320     9.3830    24.9380     2.1340   -20.1420 
   67.1250    81.0710     9.9430     8.8200     8.2250    24.6280     2.1700   -19.6140 
