~V
VERS. 2.00: Ver 2.00
~W
STRT.M 50.0000:
STOP.M 266.0000:
STEP.M 0.1250:
NULL. -999.2500:
UWI. F10057:
~C
DEPT.M :
GR.API :
RML.OHMM :
RI. :
RXO.OHMM :
CALI.CM :
DEN.GM/CC :
SP.MV :
~A
# ...
  241.2500    64.2320    18.5370    18.8480    27.2410    24.0150     2.6000     2.1290 
  241.3750    62.0490    18.3600    18.5710    24.5000    24.0440     2.5680     2.1820 
  241.5000    61.9810    18.3720    18.4770    23.6780    24.0630     2.5460     2.2320 
  241.6250    64.2660    18.5280    18.5340    23.6860    24.0390     2.5500     2.2890 
  241.7500    65.8110    18.6810    18.5990    23.7590    23.9850     2.5730     2.3450 
  241.8750    66.3660    18.7270    18.5740    24.8340    23.9410     2.5970     2.4020 
  242.0000    66.0440    18.6240    18.4230    26.9530    23.9310     2.6020     2.4270 
  242.1250    64.8840    18.3990    18.1860    27.3820    23.9560     2.5770     2.4270 
  242.2500    64.2190    18.1480    17.9450    25.1670    23.9860     2.5430     2.4090 
  242.3750    63.5940    17.9150    17.7240    22.9470    24.0130     2.5220     2.3950 
  242.5000    62.2320    17.7150    17.5130    22.4480    24.0210     2.5250     2.3840 
  242.6250    62.2610    17.5470    17.2990    23.0330    24.0170     2.5480     2.3680 
  242.7500    65.0290    17.4130    17.1050    24.3410    24.0170     2.5700     2.3540 
  242.8750    67.8010    17.3110    16.9510    26.3540    24.0090     2.5770     2.3360 
  243.0000    67.5490    17.2240    16.8260    27.5020    23.9790     2.5690     2.3170 
  243.1250    65.6350    17.1180    16.6800    26.1260    23.9410     2.5480     2.3000 
  243.2500    64.8100    16.9570    16.4700    24.2790    23.9050     2.5210     2.2870 
  243.3750    65.2960    16.7140    16.1780    23.2540    23.8540     2.4920     2.2680 
  243.5000    66.3520    16.3900    15.8170    22.2500    23.8040     2.4700     2.2440 
  243.6250    66.4580    16.0460    15.4490    21.8080    23.8000     2.4680     2.1950 
  243.7500    65.3640    15.7670    15.1510    23.6000    23.8170     2.4880     2.1490 
  243.8750    63.5920    15.5940    14.9490    26.6300    23.8120     2.5200     2.1170 
  244.0000    61.6210    15.5250    14.8320    27.4760    23.7570     2.5500     2.1090 
  244.1250    59.8550    15.5020    14.7340    26.1080    23.6860     2.5650     2.1170 
  244.2500    58.5020    15.4140    14.5610    26.5180    23.6940     2.5720     2.1430 
  244.3750    58.7530    15.2110    14.2740    31.1220    23.8060     2.5770     2.1820 
  244.5000    60.4120    14.9100    13.9150    39.8810    23.9340     2.5850     2.2370 
  244.6250    62.0450    14.5870    13.5800    47.1610    23.9470     2.5910     2.3260 
  244.7500    62.9470    14.3370    13.3460    43.5910    23.9140     2.5850     2.4110 
  244.8750    63.9480    14.2150    13.2380    36.5020    23.9420     2.5630     2.4830 
  245.0000    65.5990    14.2070    13.2260    38.5940    24.0160     2.5240     2.5360 
  245.1250    66.1400    14.2010    13.2000    63.3040    24.0390     2.4770     2.5770 
  245.2500    65.8770    14.0670    13.0610   112.8640    23.9780     2.4360     2.6150 
  245.3750    66.9710    13.7500    12.7730    98.9360    23.8990     2.4080     2.6530 
  245.5000    68.6140    13.2770    12.3650    40.8070    23.8770     2.3980     2.6820 
  245.6250    67.0830    12.7600    11.9150    19.4680    23.9190     2.4080     2.7100 
  245.7500    62.9980    12.3400    11.5290    12.1940    23.9640     2.4280     2.7370 
  245.8750    59.9710    12.0780    11.2570    10.1310    23.9810     2.4540     2.7550 
  246.0000    58.9190    11.9740    11.1130     9.4740    23.9780     2.4770     2.7680 
  246.1250    58.4780    11.9960    11.1010     9.1890    23.9770     2.4890     2.7770 
  246.2500    59.1490    12.0650    11.1670     9.2030    23.9710     2.4900     2.7710 
  246.3750    60.3780    12.1500    11.2530     9.1580    23.9340     2.4840     2.7600 
  246.5000    60.4900    12.2410    11.3130     8.9490    23.8400     2.4790     2.7490 
  246.6250    59.7950    12.3340    11.3190     8.6790    23.7430     2.4810     2.7290 
  246.7500    60.3460    12.4190    11.2920     8.5510    23.7410     2.4880     2.7000 
  246.8750    62.0570    12.4880    11.2570     8.7230    23.8260     2.4970     2.6760 
  247.0000    63.3920    12.5420    11.2410     9.1370    23.9090     2.5010     2.6510 
  247.1250    64.0070    12.5920    11.2540     9.2160    23.9290     2.4970     2.6470 
  247.2500    63.6760    12.6420    11.2780     9.0980    23.9240     2.4900     2.6600 
  247.3750    62.6400    12.6830    11.2990     9.5270    23.9080     2.4830     2.6650 
  247.5000    61.0900    12.7070    11.3120    10.6490    23.8940     2.4800     2.6630 
  247.6250    60.4450    12.7240    11.3030    11.3300    23.9030     2.4830     2.6570 
  247.7500    61.0740    12.7590    11.2810    10.7220    23.9250     2.4900     2.6750 
  247.8750    62.2870    12.8220    11.2590     9.7180    23.9420     2.4960     2.7030 
  248.0000    62.5370    12.8980    11.2460     9.4620    23.9450     2.4990     2.7360 
  248.1250    61.4590    12.9440    11.2340    10.3360    23.9350     2.4980     2.7500 
  248.2500    61.5340    12.9280    11.2070    11.8020    23.9210     2.4950     2.7360 
  248.3750    63.1190    12.8480    11.1550    12.9710    23.9290     2.4950     2.7180 
  248.5000    65.8570    12.7270    11.0860    12.8380    23.9630     2.5010     2.7000 
  248.6250    67.1810    12.6050    11.0220    11.3480    23.9820     2.5120     2.6770 
  248.7500    65.0360    12.5070    10.9810     9.9160    23.9700     2.5200     2.6260 
  248.8750    61.2730    12.4410    10.9640     9.0710    23.9430     2.5170     2.5710 
  249.0000    60.6240    12.3970    10.9650     8.6750    23.9150     2.5020     2.5220 
  249.1250    64.2710    12.3640    10.9740     8.6440    23.9010     2.4780     2.4600 
  249.2500    67.0520    12.3270    10.9740     9.0600    23.9000     2.4570     2.4090 
  249.3750    67.1970    12.2740    10.9550     9.7010    23.9040     2.4460     2.3680 
  249.5000    65.8820    12.1980    10.9120     9.9410    23.9120     2.4470     2.3390 
  249.6250    64.4350    12.1030    10.8700     9.3110    23.9280     2.4590     2.3300 
  249.7500    63.1580    12.0210    10.8500     8.5000    23.9320     2.4720     2.3330 
  249.8750    61.6830    11.9770    10.8700     7.9680    23.9180     2.4830     2.3360 
  250.0000    60.6680    11.9780    10.9270     7.6520    23.9150     2.4900     2.3270 
  250.1250    62.4360    12.0080    11.0040     7.5830    23.9210     2.4940     2.3330 
  250.2500    64.9490    12.0310    11.0700     7.7590    23.9060     2.4950     2.3420 
  250.3750    65.5060    12.0400    11.1120     8.0300    23.8670     2.4960     2.3460 
  250.5000    63.2000    12.0460    11.1410     8.0780    23.8290     2.4970     2.3510 
  250.6250    60.8280    12.0550    11.1550     7.9400    23.8190     2.4990     2.3490 
  250.7500    60.3760    12.0570    11.1510     8.0870    23.8440     2.5030     2.3570 
  250.8750    60.7770    12.0550    11.1360     8.5560    23.9020     2.5110     2.3780 
  251.0000    62.3670    12.0700    11.1090     8.9610    23.9590     2.5220     2.4240 
  251.1250    64.5780    12.1270    11.0830     9.0150    23.9860     2.5350     2.4730 
  251.2500    65.2230    12.2130    11.0600     8.9190    24.0080     2.5500     2.5150 
  251.3750    62.8120    12.3360    11.0610     8.8250    24.0410     2.5630     2.5580 
  251.5000    59.1330    12.5420    11.1460     8.9830    24.0660     2.5710     2.5890 
  251.6250    57.3790    12.9770    11.4310     9.6320    24.0550     2.5730     2.5980 
  251.7500    57.2900    13.7370    11.9930    10.5740    24.0390     2.5700     2.6080 
  251.8750    58.1330    14.8590    12.8660    11.5350    24.0330     2.5680     2.6280 
  252.0000    60.2310    16.2240    13.9700    12.2390    24.0110     2.5710     2.6410 
  252.1250    63.1240    17.4990    15.1080    12.5080    23.9740     2.5790     2.6410 
  252.2500    64.9520    18.3690    16.0110    12.5070    23.9600     2.5850     2.6320 
  252.3750    64.3250    18.7430    16.5460    12.5380    23.9630     2.5840     2.6210 
