~V
VERS. 2.00: Ver 2.00
~W
STRT.M 51.0000:
STOP.M 313.0000:
STEP.M 0.1250:
NULL. -999.2500:
UWI. F10047:
~C
DEPT.M :
SP.MV :
GR.API :
RML.OHMM :
RI. :
RXO.OHMM :
CALI.CM :
DEN.GM/CC :
~A
# ...
  129.7500    -5.5370    80.8870     7.0270     6.3850     6.4740    23.0650     2.2590 
  129.8750    -5.5180    78.0860     6.6280     6.0840     6.1970    23.0240     2.2620 
  130.0000    -5.5480    78.4520     6.3370     5.8380     5.9630    22.9800     2.2650 
  130.1250    -5.7230    81.0330     6.2590     5.7360     5.9570    22.9630     2.2610 
  130.2500    -6.0650    81.4180     6.3800     5.7850     5.8420    22.9570     2.2510 
  130.3750    -6.4770    80.8740     6.6730     5.9750     5.8700    22.9570     2.2360 
  130.5000    -6.8280    80.8980     7.0750     6.2710     6.1710    22.9560     2.2160 
  130.6250    -7.1410    79.1530     7.4830     6.6070     6.4920    22.9320     2.1950 
  130.7500    -7.5370    73.7380     7.7800     6.8890     6.6720    22.8740     2.1770 
  130.8750    -8.0150    66.6750     7.8980     7.0530     6.6630    22.8080     2.1640 
  131.0000    -8.4600    61.0060     7.8510     7.0880     6.5920    22.7560     2.1560 
  131.1250    -8.7670    60.8580     7.7570     7.0550     6.8740    22.7240     2.1520 
  131.2500    -8.9540    63.0050     7.7740     7.0720     6.9450    22.6750     2.1530 
  131.3750    -9.0790    62.4500     7.9730     7.2030     6.9020    22.6280     2.1570 
  131.5000    -9.2400    60.5490     8.3380     7.4580     7.0120    22.6170     2.1640 
  131.6250    -9.4680    61.7010     8.7540     7.7830     7.5160    22.6480     2.1650 
  131.7500    -9.6190    63.1790     9.0610     8.0570     8.0280    22.6630     2.1600 
  131.8750    -9.6170    63.2150     9.1870     8.2080     7.9060    22.6790     2.1480 
  132.0000    -9.5860    64.0500     9.1560     8.2240     7.1610    22.7390     2.1340 
  132.1250    -9.6160    65.7740     9.0540     8.1460     6.4500    22.8870     2.1260 
  132.2500    -9.6490    64.7620     8.9580     8.0480     6.3910    23.0300     2.1260 
  132.3750    -9.6610    61.8230     8.8780     7.9580     6.9120    23.1070     2.1310 
  132.5000    -9.6570    61.0880     8.8040     7.8860     7.4250    23.1500     2.1390 
  132.6250    -9.6630    64.0810     8.7350     7.8370     7.5120    23.1670     2.1450 
  132.7500    -9.7400    67.3540     8.7050     7.8220     7.3210    23.1700     2.1450 
  132.8750    -9.8450    68.9110     8.7720     7.8700     7.0960    23.1560     2.1370 
  133.0000    -9.9040    69.0610     8.9720     8.0100     7.4950    23.1240     2.1240 
  133.1250    -9.9110    68.5010     9.2940     8.2490     7.8610    23.0950     2.1170 
  133.2500    -9.9810    66.8330     9.6320     8.5190     8.0860    23.0400     2.1220 
  133.3750   -10.1210    63.6920     9.8950     8.7520     8.0440    22.8890     2.1390 
  133.5000   -10.2390    61.4390    10.0240     8.8890     7.8470    22.6000     2.1600 
  133.6250   -10.2490    63.6410     9.9990     8.8960     7.5760    22.2250     2.1720 
  133.7500   -10.1850    68.6210     9.8910     8.8160     7.3800    22.0530     2.1750 
  133.8750   -10.1570    73.0020     9.7320     8.6770     7.2570    22.0110     2.1710 
  134.0000   -10.2070    73.8670     9.5170     8.4800     7.1520    22.0090     2.1660 
  134.1250   -10.2520    71.8750     9.2190     8.2100     6.9450    22.0090     2.1640 
  134.2500   -10.1980    70.9390     8.8690     7.8940     6.7320    22.0170     2.1640 
  134.3750   -10.0910    72.3370     8.5160     7.5680     6.4960    22.0690     2.1650 
  134.5000   -10.0090    73.9310     8.2210     7.2800     6.1700    22.2150     2.1650 
  134.6250   -10.0310    72.7220     8.0590     7.0920     6.0320    22.4620     2.1630 
  134.7500   -10.1710    70.3070     8.0180     7.0110     6.1950    22.7190     2.1590 
  134.8750   -10.3600    69.7840     8.0630     7.0230     6.4300    22.9530     2.1540 
  135.0000   -10.4870    70.9280     8.1410     7.1000     6.6610    23.0750     2.1520 
  135.1250   -10.5650    72.2190     8.2000     7.2090     6.8350    23.1060     2.1520 
  135.2500   -10.7480    73.2010     8.2320     7.3220     6.9070    23.1230     2.1550 
  135.3750   -11.0130    74.3950     8.2490     7.4320     6.7860    23.1580     2.1580 
  135.5000   -11.2560    75.3920     8.2690     7.5360     6.7310    23.2010     2.1620 
  135.6250   -11.3200    75.1660     8.2960     7.6210     6.9790    23.2610     2.1650 
  135.7500   -11.1620    74.1260     8.3010     7.6600     7.4430    23.3270     2.1660 
  135.8750   -10.8230    73.2100     8.2440     7.6160     7.6790    23.4450     2.1650 
  136.0000   -10.2940    73.1270     8.0810     7.4580     7.3370    23.7010     2.1650 
  136.1250    -9.4830    75.8310     7.7430     7.1300     7.2880    23.9630     2.1740 
  136.2500    -8.4400    80.2500     7.2300     6.6540     7.2580    24.1430     2.1970 
  136.3750    -7.2660    83.3850     6.5640     6.0570     6.9760    24.2810     2.2310 
  136.5000    -6.0980    84.5260     5.8090     5.4040     6.2050    24.3770     2.2750 
  136.6250    -5.0870    86.1150     5.1020     4.8050     5.6340    24.4130     2.3170 
  136.7500    -4.2960    88.8540     4.6040     4.3720     5.0430    24.4170     2.3470 
  136.8750    -3.7930    90.3250     4.4680     4.2010     4.8900    24.4110     2.3580 
  137.0000    -3.6970    88.9560     4.7990     4.3620     5.0440    24.3700     2.3410 
  137.1250    -4.1010    84.2840     5.8450     4.9550     5.5040    24.2240     2.2960 
  137.2500    -4.7160    77.1160     7.5530     5.8720     6.3970    23.9830     2.2390 
  137.3750    -5.3440    71.1230     8.8260     6.9220     7.7020    23.7340     2.1870 
  137.5000    -5.8670    68.4370     9.6160     7.7330     8.6810    23.5920     2.1580 
  137.6250    -6.1540    69.0650     9.3790     7.7870     8.5460    23.5640     2.1640 
  137.7500    -6.2210    71.1160     8.4050     7.2040     7.6010    23.5680     2.1950 
  137.8750    -6.0830    75.2610     7.1950     6.3430     6.5850    23.5640     2.2330 
  138.0000    -5.8280    81.7300     6.2050     5.5590     5.9480    23.5530     2.2570 
  138.1250    -5.5920    86.3920     5.7590     5.1100     5.3640    23.5310     2.2510 
  138.2500    -5.4990    86.9290     5.7990     5.0020     5.4430    23.4850     2.2230 
  138.3750    -5.6400    84.4280     6.2310     5.2130     6.0200    23.4290     2.1900 
  138.5000    -6.0100    81.8510     6.9160     5.6760     6.9280    23.3980     2.1690 
  138.6250    -6.5740    81.9070     7.6810     6.2860     7.3370    23.3930     2.1690 
  138.7500    -7.2050    81.6990     8.3280     6.8670     7.4490    23.3930     2.1780 
  138.8750    -7.7850    81.8050     8.7280     7.2840     7.4360    23.3930     2.1830 
  139.0000    -8.1410    81.9610     8.8120     7.4520     7.4540    23.3930     2.1770 
  139.1250    -8.0710    80.5270     8.5580     7.3200     7.4030    23.3930     2.1650 
  139.2500    -7.6410    78.9940     8.1050     6.9930     7.2040    23.3930     2.1560 
  139.3750    -6.9350    81.2330     7.5540     6.5530     6.8300    23.3930     2.1570 
  139.5000    -6.0980    88.7450     6.9960     6.0820     6.4850    23.3930     2.1660 
  139.6250    -5.2650    94.4800     6.5290     5.6710     6.2250    23.3930     2.1790 
  139.7500    -4.4500    93.4720     6.2250     5.3880     6.1330    23.3930     2.1930 
  139.8750    -3.6340    88.1140     6.1750     5.3010     6.1160    23.3840     2.2160 
  140.0000    -2.9390    83.9170     6.4610     5.4730     6.2220    23.3580     2.2570 
  140.1250    -2.5630    82.1860     7.1550     5.9760     6.2890    23.3000     2.3140 
  140.2500    -2.5080    80.8160     8.0700     6.7080     7.0580    23.2650     2.3620 
  140.3750    -2.6840    80.2980     8.9310     7.4980     8.8320    23.2320     2.3800 
  140.5000    -2.9500    81.9010     9.4010     8.0810     9.9780    23.1540     2.3560 
  140.6250    -3.2050    84.2220     9.1860     8.1530     9.4890    22.9230     2.2950 
  140.7500    -3.4990    84.0230     8.5470     7.8230     7.9860    22.5750     2.2310 
  140.8750    -3.9000    83.0450     7.8090     7.3110     6.7190    22.1800     2.1840 
