~V
VERS. 2.00: Ver 2.00
~W
STRT.M 57.0000:
STOP.M 208.0000:
STEP.M 0.1250:
NULL. -999.2500:
UWI. F10012:
~C
DEPT.M :
DEN.GM/CC :
SP.MV :
GR.API :
CALI.CM :
RXO.OHMM :
RI. :
RML.OHMM :
~A
# ...
   79.5000     2.3030   -19.3550    84.0800    24.1890    18.3870    19.4420    24.7190 
   79.6250     2.3190   -19.5690    83.6780    24.0840    21.7580    20.2750    25.7300 
   79.7500     2.2620   -19.7460    85.2790    23.9130    25.4440    21.8610    27.7860 
   79.8750     2.2130   -19.9230    84.6220    23.7300    25.7870    24.5140    31.2480 
   80.0000     2.2370   -20.1060    79.5370    23.7480    25.6340    28.4500    36.3170 
   80.1250     2.3190   -20.2840    74.3000    24.0140    34.1560    33.2100    42.2200 
   80.2500     2.4080   -20.4320    73.3080    24.2010    50.5150    36.4280    45.5790 
   80.3750     2.4500   -20.5340    78.1700    24.1420    57.3320    35.4260    42.9160 
   80.5000     2.4340   -20.5870    85.5430    24.0290    44.8060    29.7430    34.5950 
   80.6250     2.3800   -20.6360    93.1350    24.0350    25.4470    22.1290    25.1450 
   80.7500     2.3200   -20.7000   100.4800    24.0930    14.7400    15.7270    17.8850 
   80.8750     2.2870   -20.7550   109.1560    24.1280     9.6080    11.2290    13.1300 
   81.0000     2.2800   -20.7770   117.4720    24.1370     7.0270     8.4050    10.4000 
   81.1250     2.2850   -20.7720   121.5510    24.1490     6.0160     6.9640     9.3240 
   81.2500     2.2910   -20.7430   119.7550    24.1880     5.7540     6.3190     9.1290 
   81.3750     2.2910   -20.6960   114.5190    24.2710     5.8480     6.2070     9.3740 
   81.5000     2.2820   -20.6120   112.8730    24.3320     6.0330     6.4000     9.6790 
   81.6250     2.2680   -20.5020   115.1100    24.3530     6.1110     6.6880     9.7450 
   81.7500     2.2570   -20.4140   116.5050    24.3430     6.1210     6.8880     9.5740 
   81.8750     2.2630   -20.3110   112.8200    24.2960     6.1870     6.9390     9.3030 
   82.0000     2.2800   -20.2150   109.8510    24.2180     6.3480     6.8880     9.1140 
   82.1250     2.3000   -20.1570   110.6430    24.1420     6.4610     6.8640     9.1820 
   82.2500     2.3090   -20.1180   109.6250    24.0800     6.8390     6.9810     9.5180 
   82.3750     2.2940   -20.0870   103.9130    24.0300     7.8700     7.2860    10.1210 
   82.5000     2.2580   -20.0510   100.7400    24.0740     9.3020     7.7630    10.9200 
   82.6250     2.2180   -20.0190   101.7550    24.1330    10.1830     8.2970    11.6930 
   82.7500     2.1910   -20.0230   102.6720    24.1700    10.0870     8.7060    12.1700 
   82.8750     2.1840   -20.0600   101.9390    24.1110     9.5940     8.8640    12.2320 
   83.0000     2.1860   -20.1000   104.3750    23.9940     9.1790     8.7200    11.9220 
   83.1250     2.1900   -20.0920   109.0180    23.8920     8.4860     8.2810    11.3800 
   83.2500     2.1960   -20.0780   111.1070    23.8430     7.9030     7.7120    10.8270 
   83.3750     2.2020   -20.0550   109.1790    23.8170     7.4580     7.1230    10.3610 
   83.5000     2.2070   -20.1000   108.9140    23.7860     7.0090     6.6010    10.0220 
   83.6250     2.2090   -20.1990   113.6400    23.7570     6.5750     6.2440     9.8870 
   83.7500     2.2100   -20.3040   120.1520    23.7110     6.4100     6.0650     9.9580 
   83.8750     2.2140   -20.4040   121.6110    23.6540     6.4760     6.0510    10.1960 
   84.0000     2.2170   -20.4960   116.9320    23.5950     6.7170     6.1570    10.5030 
   84.1250     2.2150   -20.6410   112.7260    23.5720     6.9470     6.3150    10.7770 
   84.2500     2.2050   -20.7890   115.0060    23.5700     6.9840     6.4490    10.9700 
   84.3750     2.1930   -20.9500   120.0540    23.5700     6.8310     6.5300    11.0650 
   84.5000     2.1880   -21.0940   120.3500    23.5740     6.7090     6.5690    11.0640 
   84.6250     2.1920   -21.1850   115.6490    23.5880     6.7080     6.5910    11.0040 
   84.7500     2.2020   -21.1910   111.8100    23.6190     6.7650     6.6290    10.9560 
   84.8750     2.2120   -21.1700   113.7330    23.6300     6.8850     6.6930    10.9540 
   85.0000     2.2200   -21.1430   117.7460    23.5920     6.9630     6.7820    10.9990 
   85.1250     2.2280   -21.0650   119.7900    23.4020     6.9660     6.8810    11.0580 
   85.2500     2.2360   -20.9900   116.3780    23.0000     7.0970     6.9770    11.0890 
   85.3750     2.2370   -20.9290   109.0070    22.4380     7.3610     7.0780    11.1050 
   85.5000     2.2180   -20.8130   103.7890    22.3580     7.6650     7.2200    11.1920 
   85.6250     2.1840   -20.6350   103.2930    22.8000     7.9310     7.4850    11.5450 
   85.7500     2.1510   -20.4870   105.5190    23.4590     8.2810     7.8810    12.2020 
   85.8750     2.1400   -20.3760   107.4580    23.8720     8.6980     8.3500    13.0410 
   86.0000     2.1500   -20.2890   108.9040    24.0630     9.2380     8.7560    13.7660 
   86.1250     2.1770   -20.1650   109.8410    24.1250     9.6030     8.8750    13.9280 
   86.2500     2.2150   -19.9780   111.0550    24.1390     9.2900     8.6520    13.5020 
   86.3750     2.2490   -19.7300   113.3220    24.1390     8.5560     8.1690    12.7140 
   86.5000     2.2600   -19.5200   114.6750    24.1390     8.0490     7.5990    11.9070 
   86.6250     2.2400   -19.4270   113.1280    24.1380     7.7600     7.1680    11.4210 
   86.7500     2.1920   -19.3890   108.0720    24.1250     7.7470     7.0330    11.3900 
   86.8750     2.1360   -19.3230   102.5170    24.0550     8.0890     7.3180    11.9100 
   87.0000     2.0920   -19.2330    97.5850    23.9320     8.8500     8.0980    13.0370 
   87.1250     2.0670   -19.2060    92.9800    23.8240    10.3940     9.4470    14.8140 
   87.2500     2.0580   -19.2300    90.1490    23.7600    13.0540    11.1300    16.8730 
   87.3750     2.0640   -19.2730    90.4030    23.7680    16.2130    12.8150    18.6990 
   87.5000     2.0740   -19.3250    92.8990    23.8790    17.8940    14.0280    19.6390 
   87.6250     2.0800   -19.3200    95.1680    24.0610    16.9290    14.2430    19.1490 
   87.7500     2.0860   -19.2210    95.6460    24.2170    15.0200    13.6620    17.7940 
   87.8750     2.1090   -19.1170    97.3870    24.2970    13.2720    12.6140    16.1430 
   88.0000     2.1460   -19.0260    99.8780    24.3360    11.5270    11.4370    14.6120 
   88.1250     2.1780   -18.9190   102.7690    24.3390    10.2410    10.3790    13.3740 
   88.2500     2.1880   -18.8310   105.5440    24.3190     9.3230     9.5010    12.3560 
   88.3750     2.1890   -18.7930   107.2070    24.2940     8.7670     8.8240    11.5590 
   88.5000     2.2050   -18.7580   108.4150    24.2840     8.3280     8.3660    11.0340 
   88.6250     2.2380   -18.7030   108.3210    24.2820     7.8390     8.1820    10.8830 
   88.7500     2.2640   -18.6420   106.4880    24.2820     7.5630     8.2240    11.0230 
   88.8750     2.2580   -18.5810   104.0890    24.2820     7.6970     8.4540    11.3470 
   89.0000     2.2280   -18.5200   103.7480    24.2820     7.9550     8.7750    11.6750 
   89.1250     2.1980   -18.4740   105.5130    24.2820     8.1830     8.9860    11.7720 
   89.2500     2.1840   -18.4100   105.7050    24.2670     8.2790     8.9550    11.6110 
   89.3750     2.1850   -18.3050   104.3100    24.2140     8.2550     8.6910    11.2890 
   89.5000     2.1800   -18.2150   101.7550    24.1110     7.8710     8.3340    10.9730 
   89.6250     2.1620   -18.2120    97.4850    23.9760     7.4390     8.1180    10.8950 
   89.7500     2.1340   -18.2510    93.5600    23.8530     7.6400     8.1830    11.1600 
   89.8750     2.1090   -18.2450    94.1650    23.7580     8.6410     8.6110    11.8470 
   90.0000     2.0970   -18.1900    96.9740    23.7160    10.0510     9.4500    13.0080 
   90.1250     2.0920   -18.1030    95.5280    23.7030    11.5390    10.7720    14.6760 
   90.2500     2.0790   -18.0070    88.2970    23.6910    13.2510    12.3780    16.5160 
   90.3750     2.0430   -17.9290    82.2600    23.6320    15.3550    13.9890    18.1140 
   90.5000     1.9990   -17.8670    81.6110    23.5290    17.4250    15.3070    19.1500 
   90.6250     1.9690   -17.7630    84.8270    23.4480    18.1210    16.2060    19.6770 
