~V
VERS. 2.00: Ver 2.00
~W
STRT.M 55.0000:
STOP.M 279.0000:
STEP.M 0.1250:
NULL. -999.2500:
UWI. F10072:
~C
DEPT.M :
GR.API :
RML.OHMM :
RI. :
RXO.OHMM :
CALI.CM :
DEN.GM/CC :
SP.MV :
~A
# ...
   66.2500    71.8000     9.6750     7.9830     9.7020    23.7100     2.1220   -20.2650 
   66.3750    70.2100     9.5920     7.8890     9.7520    23.7440     2.1070   -20.4530 
   66.5000    69.7010     9.5420     7.7780     9.7560    23.6710     2.1010   -20.6680 
   66.6250    69.2980     9.5280     7.6880     9.7140    23.6050     2.1040   -20.9030 
   66.7500    67.4520     9.5400     7.6410     9.6230    23.5680     2.1110   -21.0810 
   66.8750    64.9990     9.5790     7.6360     9.5340    23.5410     2.1170   -21.2590 
   67.0000    64.4020     9.6460     7.6570     9.4450    23.5310     2.1220   -21.4140 
   67.1250    66.2780     9.7440     7.6870     9.5030    23.5450     2.1280   -21.5760 
   67.2500    67.8690     9.8500     7.7140     9.6240    23.5500     2.1340   -21.7220 
   67.3750    68.3000     9.9370     7.7430     9.8350    23.5150     2.1410   -21.8890 
   67.5000    67.8360     9.9730     7.7790    10.0090    23.4720     2.1490   -22.0780 
   67.6250    68.7740     9.9290     7.8110    10.0960    23.4620     2.1530   -22.2440 
   67.7500    70.2520     9.8250     7.8300    10.0030    23.4480     2.1530   -22.3970 
   67.8750    69.4680     9.6970     7.8320     9.7770    23.3780     2.1500   -22.5500 
   68.0000    66.5790     9.5910     7.8260     9.5810    23.2780     2.1430   -22.6420 
   68.1250    63.8240     9.5500     7.8210     9.4800    23.2040     2.1370   -22.6790 
   68.2500    62.3950     9.5600     7.8180     9.4420    23.1630     2.1330   -22.6930 
   68.3750    62.8320     9.5960     7.8070     9.4980    23.1390     2.1310   -22.7110 
   68.5000    64.9410     9.6340     7.7780     9.6240    23.1250     2.1330   -22.7230 
   68.6250    68.1580     9.6620     7.7280     9.7570    23.1120     2.1360   -22.7580 
   68.7500    70.4640     9.6780     7.6730     9.9590    23.1020     2.1400   -22.8470 
   68.8750    71.4960     9.6820     7.6300     9.9250    23.1230     2.1430   -22.9110 
   69.0000    70.6300     9.6730     7.6160     9.5830    23.1630     2.1460   -22.9850 
   69.1250    68.3690     9.6600     7.6450     9.4970    23.1980     2.1500   -23.0700 
   69.2500    67.2430     9.6570     7.6970     9.4500    23.1410     2.1580   -23.1690 
   69.3750    68.1870     9.6670     7.7510     9.2960    23.0260     2.1670   -23.2330 
   69.5000    70.1620     9.6800     7.7900     9.2170    22.9510     2.1760   -23.2460 
   69.6250    71.9010     9.6710     7.8050     9.8400    22.9320     2.1810   -23.2600 
   69.7500    72.4940     9.6190     7.7970    10.0930    22.9390     2.1810   -23.2530 
   69.8750    71.5190     9.5220     7.7600     9.9800    22.9630     2.1760   -23.2720 
   70.0000    70.1920     9.4100     7.6910     9.7820    22.9900     2.1700   -23.3270 
   70.1250    69.6830     9.3470     7.6050     9.8590    23.0230     2.1650   -23.4580 
   70.2500    69.9790     9.3910     7.5610    10.0320    23.0690     2.1620   -23.6090 
   70.3750    69.4900     9.5710     7.6160    10.0950    23.1160     2.1610   -23.8200 
   70.5000    68.2490     9.8660     7.7970    10.0760    23.1540     2.1610   -24.1060 
   70.6250    69.0220    10.1770     8.0820    10.1240    23.1910     2.1600   -24.3960 
   70.7500    71.4600    10.3670     8.3550    10.2070    23.2340     2.1560   -24.6260 
   70.8750    72.8550    10.3530     8.5090    10.2730    23.2840     2.1510   -24.7700 
   71.0000    70.6810    10.1250     8.4690    10.2520    23.3120     2.1460   -24.8980 
   71.1250    67.6030     9.7520     8.2250     9.9670    23.3180     2.1420   -24.8860 
   71.2500    67.6240     9.3850     7.8980     9.6480    23.3200     2.1410   -24.8610 
   71.3750    70.6840     9.1090     7.5830     9.4410    23.3310     2.1430   -24.7600 
   71.5000    74.3500     8.9530     7.3420     9.3840    23.3560     2.1450   -24.5760 
   71.6250    76.1120     8.9220     7.2180     9.3330    23.3670     2.1440   -24.3940 
   71.7500    76.6820     8.9680     7.1820     9.2230    23.3510     2.1390   -24.2300 
   71.8750    75.7850     9.0700     7.2100     9.0290    23.3280     2.1340   -24.1810 
   72.0000    74.6070     9.2140     7.2860     8.9000    23.3110     2.1310   -24.1930 
   72.1250    74.2190     9.3850     7.4030     9.1790    23.2820     2.1340   -24.2720 
   72.2500    74.6010     9.5510     7.5360     9.9870    23.2340     2.1400   -24.3680 
   72.3750    74.6590     9.6710     7.6560    10.7520    23.2010     2.1470   -24.4990 
   72.5000    73.3220     9.7120     7.7330     9.7160    23.1900     2.1520   -24.7030 
   72.6250    72.1010     9.6590     7.7450     9.3890    23.1900     2.1560   -24.9370 
   72.7500    73.3490     9.5710     7.7200     9.4110    23.1900     2.1600   -25.1670 
   72.8750    75.6880     9.5090     7.6970     9.6100    23.1900     2.1630   -25.3460 
   73.0000    74.5990     9.5160     7.7130     9.6990    23.1900     2.1650   -25.4960 
   73.1250    69.2200     9.5900     7.7850     9.8680    23.1880     2.1650   -25.6770 
   73.2500    65.1420     9.6590     7.8720    10.3760    23.1770     2.1620   -25.8250 
   73.3750    64.2240     9.6610     7.9220    10.7930    23.1500     2.1580   -26.0130 
   73.5000    64.3640     9.5620     7.8910    10.9220    23.1320     2.1540   -26.1670 
   73.6250    64.4120     9.3760     7.7560    10.4270    23.1230     2.1540   -26.2660 
   73.7500    65.1120     9.2020     7.5840     9.7650    23.1220     2.1600   -26.2980 
   73.8750    67.7990     9.1360     7.4520     9.5170    23.1220     2.1670   -26.2690 
   74.0000    72.5990     9.2410     7.4380     9.1170    23.1620     2.1710   -26.1330 
   74.1250    75.3560     9.5200     7.5950     9.1980    23.2880     2.1640   -25.8800 
   74.2500    73.2390     9.8300     7.8430     9.7400    23.4560     2.1500   -25.5090 
   74.3750    69.2600    10.0280     8.0690    10.2420    23.5250     2.1420   -24.9720 
   74.5000    70.4850    10.0040     8.1590    10.1120    23.5130     2.1460   -24.3810 
   74.6250    78.8240     9.6960     8.0200     9.3110    23.4950     2.1680   -23.6590 
   74.7500    86.1220     9.2320     7.7200     8.0860    23.4520     2.1950   -22.9410 
   74.8750    87.8380     8.7320     7.3430     7.4220    23.3900     2.2170   -22.2020 
   75.0000    86.8230     8.2990     6.9770     7.2140    23.3460     2.2320   -21.4540 
   75.1250    88.4540     8.0000     6.6890     7.0410    23.3600     2.2440   -20.7000 
   75.2500    91.7540     7.7920     6.4810     6.9470    23.4010     2.2590   -19.9300 
   75.3750    97.0480     7.6360     6.3400     6.5570    23.4330     2.2770   -19.2150 
   75.5000   103.2580     7.5060     6.2520     6.3320    23.4440     2.2930   -18.5800 
   75.6250   105.9430     7.4360     6.2180     6.3470    23.4590     2.3010   -18.1460 
   75.7500   104.4850     7.4740     6.2460     6.4420    23.4740     2.3010   -17.8420 
   75.8750   103.0880     7.6560     6.3480     6.5810    23.4390     2.2920   -17.6340 
   76.0000   103.1410     7.9580     6.5090     6.7880    23.3570     2.2740   -17.5670 
   76.1250    99.8510     8.2950     6.6960     6.9540    23.3230     2.2430   -17.6390 
   76.2500    93.8730     8.5490     6.8640     7.3200    23.3170     2.2090   -17.8890 
   76.3750    89.4100     8.6470     6.9780     7.6910    23.3180     2.1810   -18.1690 
   76.5000    88.9950     8.5700     7.0040     7.6880    23.3210     2.1700   -18.3450 
   76.6250    94.6080     8.3380     6.9110     7.0770    23.3350     2.1830   -18.4110 
   76.7500   102.3020     8.0570     6.7420     6.6240    23.3620     2.2060   -18.3890 
   76.8750   108.7500     7.8000     6.5450     6.4830    23.3870     2.2310   -18.2970 
   77.0000   111.2900     7.6150     6.3680     6.5010    23.4110     2.2560   -18.0970 
   77.1250   110.0840     7.5360     6.2550     6.3850    23.5070     2.2820   -17.7680 
   77.2500   110.3040     7.5340     6.2030     6.2220    23.7150     2.3120   -17.3420 
   77.3750   114.1140     7.5790     6.1900     6.1670    23.9400     2.3370   -16.9610 
