~V
VERS. 2.00: Ver 2.00
~W
STRT.M 55.0000:
STOP.M 310.0000:
STEP.M 0.1250:
NULL. -999.2500:
UWI. F10049:
~C
DEPT.M :
GR.API :
RML.OHMM :
RI. :
RXO.OHMM :
CALI.CM :
DEN.GM/CC :
SP.MV :
~A
# ...
  122.5000    72.1680    10.9960     8.9710     9.9670    23.9980     2.1580   -17.1850 
  122.6250    65.3760    11.1010     8.9930     9.7580    24.2290     2.1550   -17.5720 
  122.7500    59.9970    11.0410     8.9630     9.7130    24.5200     2.1440   -17.9730 
  122.8750    59.7170    10.8310     8.8940     9.5610    24.6420     2.1290   -18.3800 
  123.0000    61.5340    10.5270     8.8040     9.2240    24.6170     2.1140   -18.8160 
  123.1250    62.3300    10.2240     8.7230     9.0340    24.5360     2.1020   -19.2760 
  123.2500    63.5130    10.0120     8.6810     8.7030    24.3760     2.0940   -19.6720 
  123.3750    66.2430     9.9260     8.6950     8.4670    24.2320     2.0900   -20.0130 
  123.5000    68.6830     9.9540     8.7570     8.4370    24.2080     2.0900   -20.3060 
  123.6250    68.6760    10.0360     8.8220     8.7600    24.2160     2.0930   -20.3740 
  123.7500    67.9910    10.0550     8.8210     9.0330    24.1930     2.1000   -20.2460 
  123.8750    66.9960     9.8990     8.6860     8.9470    24.1440     2.1080   -19.8310 
  124.0000    68.1290     9.4970     8.3570     8.4250    24.1090     2.1190   -19.1320 
  124.1250    73.3290     8.8590     7.8040     7.7720    24.0830     2.1320   -18.1130 
  124.2500    79.0580     8.1830     7.1690     7.0110    24.1050     2.1500   -16.9630 
  124.3750    81.6730     7.6390     6.5990     6.4210    24.1400     2.1710   -15.8330 
  124.5000    79.9700     7.3440     6.2210     6.0040    24.1810     2.1910   -14.8010 
  124.6250    75.5320     7.3780     6.1600     5.9120    24.1890     2.2020   -14.0960 
  124.7500    71.6000     7.6580     6.3800     6.4550    24.2090     2.1980   -13.7870 
  124.8750    69.3890     8.1140     6.8260     7.7420    24.2370     2.1800   -13.8610 
  125.0000    68.3530     8.6540     7.3970     8.8380    24.2670     2.1550   -14.2570 
  125.1250    65.9230     9.1650     7.9440     9.2490    24.2840     2.1380   -14.9760 
  125.2500    64.1110     9.5680     8.3450     9.2440    24.2350     2.1340   -15.8950 
  125.3750    65.9000     9.8320     8.5550     9.3140    24.1800     2.1410   -16.8710 
  125.5000    70.4620     9.9560     8.5880     9.4820    24.1670     2.1540   -17.8220 
  125.6250    72.1190     9.9160     8.4870     9.7450    24.2500     2.1640   -18.6530 
  125.7500    69.6520     9.7290     8.3270     9.9010    24.3590     2.1690   -19.1990 
  125.8750    67.2070     9.4190     8.1450     9.8020    24.4610     2.1670   -19.5130 
  126.0000    67.4730     9.0620     7.9680     9.6940    24.5290     2.1630   -19.6960 
  126.1250    68.7700     8.8200     7.8340     9.4510    24.5490     2.1580   -19.8280 
  126.2500    69.6720     8.8170     7.7920     9.6510    24.5680     2.1520   -19.8970 
  126.3750    70.3760     9.1020     7.8920     9.8770    24.6130     2.1490   -19.9050 
  126.5000    70.3630     9.6180     8.1600    10.1350    24.6820     2.1560   -19.8030 
  126.6250    68.9890    10.1930     8.5680    10.8620    24.7340     2.1860   -19.5230 
  126.7500    66.9140    10.6040     8.9590    13.4400    24.7360     2.2340   -19.1110 
  126.8750    65.8770    10.7220     9.1760    18.9120    24.6500     2.2810   -18.6750 
  127.0000    66.6030    10.5320     9.1310    20.9090    24.4670     2.3030   -18.2320 
  127.1250    69.5040    10.1140     8.8440    14.2920    24.3310     2.2840   -17.7800 
  127.2500    73.0420     9.6420     8.4870     9.9560    24.2050     2.2400   -17.3090 
  127.3750    75.6520     9.1830     8.1460     8.7400    24.1110     2.1920   -16.8320 
  127.5000    76.5240     8.7360     7.8380     9.0110    24.0980     2.1570   -16.3590 
  127.6250    76.9150     8.2470     7.5200     9.6530    24.2170     2.1450   -15.8590 
  127.7500    79.3170     7.6920     7.1420     9.6880    24.4020     2.1550   -15.3050 
  127.8750    82.2940     7.1180     6.7170     8.4930    24.5750     2.1790   -14.6650 
  128.0000    82.7890     6.6520     6.3300     6.9050    24.7020     2.2090   -14.0290 
  128.1250    80.3940     6.5170     6.1280     6.0410    24.7570     2.2220   -13.4530 
  128.2500    77.4490     6.7390     6.1480     6.0500    24.7870     2.2150   -12.9450 
  128.3750    76.0150     7.2190     6.3610     6.9780    24.7930     2.1960   -12.3510 
  128.5000    76.7580     7.7360     6.6460     7.2610    24.7760     2.1860   -11.5780 
  128.6250    80.1620     7.9810     6.7900     6.3210    24.7120     2.2020   -10.6400 
  128.7500    85.2400     7.8730     6.6890     5.3670    24.5780     2.2350    -9.7490 
  128.8750    90.2500     7.4860     6.3800     5.0950    24.5130     2.2710    -8.9580 
  129.0000    93.7190     6.9900     5.9920     5.2700    24.6120     2.2980    -8.1480 
  129.1250    94.1130     6.5740     5.6550     5.2310    24.7960     2.3150    -7.2010 
  129.2500    93.3430     6.3120     5.4140     5.1690    24.9590     2.3280    -6.1910 
  129.3750    91.9550     6.1990     5.2700     5.2470    25.0560     2.3410    -5.3610 
  129.5000    89.0230     6.1830     5.2020     5.3750    25.1080     2.3500    -4.8650 
  129.6250    86.2340     6.1990     5.2020     5.4680    25.1200     2.3510    -4.8440 
  129.7500    86.1490     6.2260     5.2700     5.4620    25.1080     2.3410    -5.2610 
  129.8750    88.7480     6.3240     5.4360     5.4350    25.0470     2.3170    -6.1300 
  130.0000    91.5910     6.5890     5.7180     5.7620    24.8990     2.2790    -7.4490 
  130.1250    88.8820     7.1010     6.1150     7.0680    24.6220     2.2370    -9.0780 
  130.2500    80.6300     7.7260     6.5410     7.9800    24.2770     2.2010   -10.7690 
  130.3750    71.3400     8.2830     6.9230     8.2070    24.0110     2.1790   -12.4360 
  130.5000    65.9300     8.6170     7.2100     8.1920    23.8580     2.1700   -14.0490 
  130.6250    65.1880     8.6640     7.3940     8.3670    23.7190     2.1670   -15.5770 
  130.7500    65.8260     8.5810     7.5400     8.4830    23.5960     2.1630   -16.9060 
  130.8750    66.6370     8.4910     7.6900     8.7030    23.5340     2.1580   -17.8980 
  131.0000    67.8600     8.4510     7.8560     9.0740    23.5190     2.1510   -18.5210 
  131.1250    70.5680     8.4440     8.0050     9.6050    23.5220     2.1450   -18.9340 
  131.2500    73.3100     8.4260     8.0990     9.6130    23.5430     2.1400   -19.2490 
  131.3750    74.0280     8.4140     8.1190     9.2790    23.6020     2.1370   -19.4440 
  131.5000    72.2570     8.4620     8.0750     9.1390    23.6910     2.1370   -19.5480 
  131.6250    71.1920     8.6280     8.0060     9.2170    23.7640     2.1390   -19.5550 
  131.7500    71.8620     8.8630     7.9640     9.4070    23.8320     2.1410   -19.4770 
  131.8750    72.0620     9.0900     7.9750     9.7090    23.9490     2.1420   -19.4000 
  132.0000    70.5050     9.2400     8.0350    10.0240    24.1510     2.1430   -19.3260 
  132.1250    68.8080     9.2740     8.1140    10.1360    24.3260     2.1430   -19.2620 
  132.2500    69.7560     9.2460     8.1650     9.9930    24.3320     2.1440   -19.2360 
  132.3750    72.4520     9.1890     8.1480    10.1080    24.2320     2.1450   -19.2640 
  132.5000    74.5730     9.1060     8.0340    10.3630    24.1550     2.1480   -19.2660 
  132.6250    74.8200     8.9710     7.8130    10.1440    24.1040     2.1550   -19.1670 
  132.7500    74.1120     8.8050     7.5530     9.7710    24.0970     2.1640   -18.9340 
  132.8750    73.5010     8.6550     7.3210     9.3940    24.0990     2.1750   -18.5890 
  133.0000    74.4850     8.5840     7.1820     8.8280    24.1010     2.1830   -18.2250 
  133.1250    75.4680     8.6580     7.2070     8.6700    24.0890     2.1860   -17.8840 
  133.2500    74.8140     8.8550     7.3690     8.4450    23.9660     2.1870   -17.6140 
  133.3750    74.1930     9.1310     7.6270     8.4280    23.6580     2.1900   -17.4400 
  133.5000    74.1940     9.4120     7.9050     8.5850    23.3710     2.1960   -17.4530 
  133.6250    70.9000     9.6050     8.1030     8.9030    23.2800     2.1960   -17.6950 
