~V
VERS. 2.00: Ver 2.00
~W
STRT.M 55.0000:
STOP.M 314.0000:
STEP.M 0.1250:
NULL. -999.2500:
UWI. F10048:
~C
DEPT.M :
DEN.GM/CC :
GR.API :
RML.OHMM :
RI. :
RXO.OHMM :
CALI.CM :
SP.MV :
~A
# ...
  100.0000     2.2330    56.5930     9.4820     8.2770    11.0630    23.0750   -19.3760 
  100.1250     2.2150    56.1200     9.4100     8.2150    10.6670    23.0310   -19.2390 
  100.2500     2.2010    57.2100     9.2170     8.0810    10.1660    23.0480   -19.0460 
  100.3750     2.1930    59.2190     8.9100     7.8680     9.6260    23.0370   -18.7850 
  100.5000     2.1960    58.9930     8.5300     7.5900     9.0580    22.9760   -18.4600 
  100.6250     2.2100    58.7130     8.1690     7.2890     8.6800    22.9130   -18.1480 
  100.7500     2.2280    61.1080     7.9280     7.0370     8.3500    22.8950   -17.9780 
  100.8750     2.2440    64.7060     7.8650     6.8850     8.1280    22.9250   -17.9460 
  101.0000     2.2550    65.7060     7.9850     6.8520     8.2830    22.9890   -18.0270 
  101.1250     2.2560    63.6460     8.2410     6.9320     8.9690    23.0670   -18.1890 
  101.2500     2.2490    62.9030     8.5100     7.0600     9.7380    23.1330   -18.4150 
  101.3750     2.2380    62.9500     8.7120     7.1970    10.0790    23.1760   -18.7230 
  101.5000     2.2240    61.4150     8.8170     7.3260     9.9760    23.1870   -19.0950 
  101.6250     2.2110    58.8220     8.8470     7.4470     9.9050    23.1750   -19.4540 
  101.7500     2.2030    56.6460     8.8780     7.5740    10.0530    23.1590   -19.6600 
  101.8750     2.1990    53.1520     8.9550     7.7120    10.4460    23.1600   -19.6960 
  102.0000     2.2000    47.4790     9.0820     7.8500    10.9110    23.1740   -19.5900 
  102.1250     2.2040    46.2010     9.2120     7.9500    11.3020    23.1870   -19.3620 
  102.2500     2.2100    52.0080     9.2620     7.9730    11.5170    23.1920   -19.0680 
  102.3750     2.2170    57.8780     9.1550     7.8780    11.5360    23.1990   -18.7370 
  102.5000     2.2270    58.4330     8.8520     7.6450    11.4080    23.2250   -18.3810 
  102.6250     2.2390    57.1990     8.3850     7.2980    11.1010    23.2680   -18.0380 
  102.7500     2.2530    59.7800     7.9390     6.9600    10.5560    23.2870   -17.7590 
  102.8750     2.2640    63.0920     7.6880     6.7410     9.8650    23.2540   -17.5940 
  103.0000     2.2690    63.1510     7.7470     6.7130     9.2930    23.1770   -17.5450 
  103.1250     2.2640    60.5710     8.1100     6.8860     9.3770    23.0840   -17.5660 
  103.2500     2.2530    57.9770     8.4950     7.0990    10.1310    23.0370   -17.5480 
  103.3750     2.2400    55.8450     8.6330     7.1900    10.7530    23.0640   -17.4110 
  103.5000     2.2310    55.6820     8.3520     7.0340    10.7050    23.1630   -17.1180 
  103.6250     2.2280    59.6970     7.6450     6.5950    10.0470    23.2630   -16.6510 
  103.7500     2.2310    66.0390     6.8600     6.0760     9.1260    23.3190   -16.0920 
  103.8750     2.2350    72.0150     6.3370     5.6840     8.1730    23.3010   -15.4700 
  104.0000     2.2350    75.4100     6.2960     5.5850     7.7190    23.1770   -14.7920 
  104.1250     2.2290    72.2140     6.9440     5.9090     8.4020    22.9520   -14.0340 
  104.2500     2.2230    65.7660     7.9780     6.5230     9.6140    22.7260   -13.1990 
  104.3750     2.2230    61.0480     9.1290     7.2450    10.5410    22.5300   -12.2910 
  104.5000     2.2340    61.1830    10.0220     7.8180    10.9250    22.3570   -11.3500 
  104.6250     2.2600    63.6710     9.9240     7.9060    10.6920    22.2130   -10.2660 
  104.7500     2.2920    64.9290     9.1540     7.4820     9.8760    22.1220    -8.9820 
  104.8750     2.3200    68.1890     7.9470     6.6790     8.5190    22.1620    -7.4630 
  105.0000     2.3350    76.1200     6.6560     5.7410     6.7820    22.4420    -5.8140 
  105.1250     2.3320    85.7920     5.6590     4.9390     5.2430    22.9750    -4.2410 
  105.2500     2.3190    91.7060     5.0660     4.3930     4.4630    23.5360    -2.8780 
  105.3750     2.3080    93.9670     4.8570     4.1200     4.3300    23.9400    -1.8040 
  105.5000     2.3110    95.5390     4.9320     4.0790     4.5580    24.1230    -1.0650 
  105.6250     2.3290    94.6050     5.1790     4.2130     4.9400    24.1550    -0.8060 
  105.7500     2.3510    89.7340     5.4720     4.4140     5.2390    24.1420    -0.9040 
  105.8750     2.3660    83.1960     5.7830     4.6460     5.3110    24.1070    -1.3080 
  106.0000     2.3680    78.6410     6.1150     4.9030     5.4050    24.0300    -1.8890 
  106.1250     2.3560    76.5970     6.4650     5.1890     5.7870    23.8880    -2.5730 
  106.2500     2.3400    74.0980     6.7620     5.4650     6.4290    23.7150    -3.2470 
  106.3750     2.3250    68.9240     6.9080     5.6670     7.1900    23.5670    -3.7940 
  106.5000     2.3130    63.9600     6.8310     5.7290     7.7750    23.5130    -4.0990 
  106.6250     2.3050    63.5100     6.5560     5.6220     7.7160    23.6030    -4.1360 
  106.7500     2.3020    66.0300     6.3360     5.4860     7.1660    23.7610    -4.0320 
  106.8750     2.3090    69.3820     6.4400     5.5010     6.7820    23.8860    -3.8000 
  107.0000     2.3350    71.9430     7.0530     5.8220     7.2270    23.8820    -3.4520 
  107.1250     2.3910    73.7210     8.1740     6.5240     9.1180    23.6960    -2.9940 
  107.2500     2.4630    72.6900     9.3430     7.3640    11.9910    23.4200    -2.5150 
  107.3750     2.5280    68.3450    10.0910     8.0380    14.7320    23.1680    -2.1050 
  107.5000     2.5570    65.6160    10.0520     8.2450    16.0890    23.0890    -1.8530 
  107.6250     2.5310    69.3200     9.1020     7.7700    13.7540    23.2440    -1.7380 
  107.7500     2.4750    74.3900     7.8050     6.9300     9.4950    23.4490    -1.6760 
  107.8750     2.4140    74.3460     6.6280     6.0500     6.8000    23.5820    -1.6860 
  108.0000     2.3640    69.1020     5.8180     5.3560     5.8830    23.5870    -1.7920 
  108.1250     2.3350    67.1690     5.4240     4.9500     5.7740    23.4750    -1.9380 
  108.2500     2.3230    72.1940     5.2370     4.7310     5.7630    23.3490    -2.0420 
  108.3750     2.3220    77.7450     5.2060     4.6360     5.6830    23.2920    -2.1050 
  108.5000     2.3270    76.9790     5.3770     4.6420     5.5630    23.2990    -2.1400 
  108.6250     2.3400    70.6680     5.7740     4.8180     5.5800    23.2950    -2.1400 
  108.7500     2.3620    69.8190     6.3580     5.1970     6.0250    23.2630    -2.1370 
  108.8750     2.3960    74.2290     7.0690     5.7650     7.1470    23.2240    -2.1200 
  109.0000     2.4410    76.6490     7.8240     6.4170     8.8100    23.2360    -2.1030 
  109.1250     2.4820    73.2560     8.2910     6.9260    10.6090    23.3680    -2.1120 
  109.2500     2.4970    69.5820     8.2940     7.1090    11.6980    23.5480    -2.2010 
  109.3750     2.4780    67.3920     7.8340     6.9070    10.4560    23.6750    -2.3900 
  109.5000     2.4350    65.5650     7.1060     6.4240     7.6200    23.7050    -2.6280 
  109.6250     2.3920    64.0300     6.4160     5.8850     6.6760    23.6800    -2.9100 
  109.7500     2.3670    64.5980     5.9570     5.4760     6.4130    23.6720    -3.1930 
  109.8750     2.3620    66.9990     5.7540     5.2490     6.1650    23.6980    -3.4750 
  110.0000     2.3670    68.7500     5.7370     5.1680     5.9140    23.7360    -3.7080 
  110.1250     2.3730    69.0030     5.7870     5.1580     5.9240    23.7600    -3.8880 
  110.2500     2.3730    70.7080     5.7810     5.1220     5.8500    23.7610    -4.0380 
  110.3750     2.3690    73.0310     5.6690     5.0220     5.6130    23.7350    -4.1460 
  110.5000     2.3630    73.6880     5.4530     4.8510     5.4740    23.6870    -4.2510 
  110.6250     2.3580    72.7170     5.2090     4.6480     5.4610    23.6380    -4.4190 
  110.7500     2.3570    73.9340     5.0950     4.5110     5.5820    23.6150    -4.6760 
  110.8750     2.3620    78.2000     5.2610     4.5430     5.9130    23.6200    -5.0140 
  111.0000     2.3760    81.8160     5.7920     4.8210     6.5460    23.6440    -5.4720 
  111.1250     2.4040    80.3620     6.6900     5.3920     7.8710    23.6690    -6.1210 
