~V
VERS. 2.00: Ver 2.00
~W
STRT.M 55.0000:
STOP.M 292.0000:
STEP.M 0.1250:
NULL. -999.2500:
UWI. F10078:
~C
DEPT.M :
GR.API :
RML.OHMM :
RI. :
RXO.OHMM :
CALI.CM :
DEN.GM/CC :
SP.MV :
~A
# ...
  235.0000    84.5850    10.4280     8.6950     8.2460    23.6320     2.5230    -6.3230 
  235.1250    82.6020    10.2820     8.7350     8.1240    23.6150     2.5590    -6.1170 
  235.2500    83.5940     9.8730     8.5460     7.9870    23.5870     2.5850    -5.8170 
  235.3750    89.8650     9.3630     8.2320     7.8490    23.5740     2.5840    -5.4520 
  235.5000    96.6860     8.9390     7.9500     7.7100    23.6180     2.5490    -5.1150 
  235.6250    98.0660     8.8290     7.8940     7.5390    23.7090     2.4860    -4.7160 
  235.7500    97.0570     9.0870     8.1180     7.6660    23.7670     2.4220    -4.2720 
  235.8750    96.2890     9.6790     8.6080     8.3370    23.7810     2.3760    -3.9290 
  236.0000    93.8050    10.4460     9.2540     9.4760    23.8870     2.3570    -3.7050 
  236.1250    90.3200    11.0910     9.8360    10.4950    23.9840     2.3650    -3.5390 
  236.2500    91.4670    11.3810    10.1360    10.6110    24.0290     2.3770    -3.4420 
  236.3750    96.4050    11.2140    10.0340    10.2010    24.0310     2.3770    -3.3780 
  236.5000    97.8740    10.6310     9.5340     9.5310    24.0200     2.3610    -3.1980 
  236.6250    91.4840     9.7900     8.7510     8.7180    23.9890     2.3420    -2.9500 
  236.7500    79.9450     8.9460     7.9280     7.9380    23.9320     2.3370    -2.6280 
  236.8750    65.4300     8.2210     7.2060     7.1920    23.8450     2.3530    -2.1500 
  237.0000    52.4710     7.6650     6.6560     6.3030    23.7420     2.3850    -1.5930 
  237.1250    46.9090     7.2690     6.3210     5.6400    23.6330     2.4170    -1.0670 
  237.2500    45.4370     6.9680     6.1350     5.2990    23.5370     2.4350    -0.5310 
  237.3750    44.6010     6.7070     6.0530     5.1560    23.4440     2.4380    -0.0320 
  237.5000    46.7420     6.4860     6.0300     5.0940    23.3600     2.4320     0.3230 
  237.6250    54.6390     6.4260     6.0280     5.0690    23.3170     2.4230     0.5980 
  237.7500    62.8510     6.4150     6.0220     5.0670    23.3280     2.4150     0.7900 
  237.8750    66.8680     6.4300     6.0150     5.0650    23.3680     2.4090     0.8270 
  238.0000    67.7410     6.4820     6.0240     5.0690    23.4000     2.4040     0.7570 
  238.1250    70.5130     6.6040     6.0850     5.0930    23.4250     2.4030     0.7130 
  238.2500    73.6070     6.8070     6.2090     5.1760    23.4570     2.4060     0.6500 
  238.3750    74.2920     7.0530     6.3770     5.3540    23.4890     2.4120     0.5370 
  238.5000    73.4530     7.3210     6.5430     5.6110    23.5340     2.4190     0.4390 
  238.6250    74.7510     7.5530     6.6160     5.8610    23.5840     2.4250     0.3200 
  238.7500    78.6450     7.5550     6.5550     5.9280    23.6430     2.4280     0.1530 
  238.8750    81.9280     7.3190     6.3540     5.8740    23.7010     2.4280     0.0490 
  239.0000    84.4920     6.9320     6.0640     5.7840    23.7360     2.4230     0.0490 
  239.1250    87.2170     6.5910     5.7890     5.6870    23.7460     2.4120    -0.0120 
  239.2500    87.1670     6.5300     5.6530     5.7280    23.7420     2.3970    -0.0950 
  239.3750    83.4270     6.9080     5.7570     6.0950    23.7310     2.3800    -0.1860 
  239.5000    80.1730     7.7730     6.1870     7.0400    23.7130     2.3610    -0.3480 
  239.6250    79.6140     9.1660     7.0680     8.9380    23.6930     2.3390    -0.5540 
  239.7500    76.7210    10.8020     8.3340    12.0000    23.6920     2.3200    -0.7750 
  239.8750    71.0430    12.5190     9.9130    15.7500    23.7010     2.3150    -1.0830 
  240.0000    68.7190    14.1720    11.6690    19.1990    23.6900     2.3300    -1.4650 
  240.1250    72.8850    15.6280    13.4150    22.5470    23.6450     2.3610    -1.8540 
  240.2500    76.8870    17.2570    15.0140    24.0830    23.5890     2.3870    -2.2800 
  240.3750    76.4070    18.7160    16.4470    24.1090    23.5460     2.3960    -2.6820 
  240.5000    72.8390    20.1120    17.7840    25.1730    23.5350     2.3860    -3.0400 
  240.6250    70.2390    21.6550    19.1780    26.0390    23.5900     2.3660    -3.4350 
  240.7500    69.4130    23.5570    20.7960    27.1790    23.6560     2.3500    -3.8300 
  240.8750    68.9610    26.0230    22.7980    29.6680    23.7160     2.3370    -4.1520 
  241.0000    67.0500    29.2010    25.3250    32.5030    23.7360     2.3240    -4.4620 
  241.1250    63.8200    33.2130    28.5520    35.9830    23.7180     2.3070    -4.7450 
  241.2500    61.5950    37.6970    32.2930    40.6850    23.6810     2.2880    -4.9560 
  241.3750    61.3950    42.2420    36.2860    46.7760    23.6140     2.2710    -5.1530 
  241.5000    63.4080    46.3760    40.1420    52.4700    23.5310     2.2560    -5.3650 
  241.6250    67.7840    49.5980    43.3700    54.6660    23.4670     2.2410    -5.4630 
  241.7500    70.1830    52.0010    45.8980    54.8530    23.4630     2.2290    -5.5110 
  241.8750    66.5910    53.7990    47.8260    55.4040    23.4770     2.2190    -5.6150 
  242.0000    58.7600    55.1920    49.3610    56.5890    23.4770     2.2140    -5.7010 
  242.1250    54.5670    56.2070    50.6000    57.5450    23.4800     2.2180    -5.7190 
  242.2500    57.5960    56.7490    51.4600    58.4960    23.4940     2.2290    -5.7460 
  242.3750    63.2080    56.6060    51.6740    59.4360    23.5060     2.2420    -5.7100 
  242.5000    66.6120    55.6890    51.0150    59.0090    23.5080     2.2530    -5.5790 
  242.6250    64.5430    53.9730    49.3590    55.6330    23.5150     2.2550    -5.4550 
  242.7500    60.1320    51.9360    47.1800    51.9710    23.5560     2.2510    -5.2890 
  242.8750    57.4770    49.5050    44.9570    48.7400    23.6180     2.2410    -5.0310 
  243.0000    57.8600    46.9750    43.2100    46.0040    23.6800     2.2310    -4.7670 
  243.1250    61.0160    46.1210    42.4770    43.9430    23.7240     2.2240    -4.4690 
  243.2500    64.0080    46.4530    42.5690    42.5680    23.7460     2.2230    -4.1290 
  243.3750    65.6170    47.1980    42.9760    42.8030    23.7530     2.2260    -3.8670 
  243.5000    64.5540    47.4690    42.8680    44.1370    23.7650     2.2350    -3.6320 
  243.6250    60.0960    45.3890    41.0700    45.5750    23.7680     2.2480    -3.3580 
  243.7500    55.4270    41.8710    37.5210    44.2060    23.7270     2.2610    -3.1070 
  243.8750    53.6900    37.3090    32.8460    38.1790    23.6230     2.2710    -2.8690 
  244.0000    55.7320    32.0400    28.1860    29.8280    23.5670     2.2770    -2.5760 
  244.1250    59.5350    28.2870    24.8460    23.7760    23.5830     2.2810    -2.3250 
  244.2500    61.8830    26.6580    23.1570    21.5140    23.5610     2.2850    -2.1300 
  244.3750    62.3560    27.0990    23.1580    23.1290    23.5060     2.2880    -1.9070 
  244.5000    62.2470    29.2370    24.6770    26.7750    23.4550     2.2870    -1.7150 
  244.6250    62.9910    32.5620    27.4950    29.8610    23.4220     2.2780    -1.6220 
  244.7500    63.0780    36.0820    30.8060    32.7900    23.3760     2.2620    -1.5870 
  244.8750    62.5160    39.0910    33.9400    35.5790    23.3170     2.2470    -1.5700 
  245.0000    62.2930    41.0660    36.2900    37.1250    23.2350     2.2370    -1.6420 
  245.1250    62.2630    41.5870    37.3170    37.0790    23.1610     2.2320    -1.7750 
  245.2500    61.8730    40.9930    37.2550    36.6260    23.1330     2.2290    -1.8550 
  245.3750    60.9450    39.5730    36.3450    36.5580    23.2210     2.2290    -1.9680 
  245.5000    60.1390    37.7280    34.9070    36.9020    23.4200     2.2340    -2.1240 
  245.6250    60.6280    36.0340    33.3750    36.8840    23.6370     2.2460    -2.2750 
  245.7500    61.5150    34.9930    32.2240    36.0010    23.7810     2.2650    -2.4720 
  245.8750    61.9740    34.9050    31.7750    34.9060    23.8330     2.2810    -2.7050 
  246.0000    63.2840    35.8570    32.1950    34.9020    23.8370     2.2860    -2.9170 
  246.1250    64.8850    37.7960    33.5640    37.6920    23.8470     2.2740    -3.1330 
