~V
VERS. 2.00: Ver 2.00
~W
STRT.M 55.0000:
STOP.M 292.0000:
STEP.M 0.1250:
NULL. -999.2500:
UWI. F10078:
~C
DEPT.M :
GR.API :
RML.OHMM :
RI. :
RXO.OHMM :
CALI.CM :
DEN.GM/CC :
SP.MV :
~A
# ...
  280.0000    74.7820     7.0390     6.0400     4.6000    22.7740     2.4440    -8.7770 
  280.1250    74.7820     6.4470     5.7110     4.4580    22.7410     2.4190    -8.6930 
  280.2500    74.7820     6.0020     5.5350     4.3980    22.8980     2.4090    -8.6640 
  280.3750    74.7820     5.7930     5.4560     4.4170    23.1480     2.4070    -8.7130 
  280.5000    74.7820     5.7240     5.4520     4.4980    23.3410     2.4040    -8.8200 
  280.6250    74.7820     5.7650     5.5710     4.8910    23.4390     2.3930    -8.9980 
  280.7500    74.7820     5.9980     5.8800     5.8230    23.5090     2.3780    -9.2070 
  280.8750    74.7820     6.6050     6.4790     7.5020    23.5930     2.3640    -9.4710 
  281.0000    74.7820     7.8220     7.4530    10.0040    23.6630     2.3560    -9.7660 
  281.1250    74.7820     9.7230     8.8620    13.0500    23.6710     2.3620   -10.0940 
  281.2500    74.7820    11.8260    10.4690    16.1040    23.6400     2.3770   -10.4280 
  281.3750    74.7820    13.6540    11.9620    18.2820    23.5940     2.3940   -10.7940 
  281.5000    74.7820    14.7670    12.9650    19.7500    23.5750     2.4040   -11.1570 
  281.6250    74.7820    14.7850    13.0480    19.4760    23.6210     2.4040   -11.4460 
  281.7500    74.7820    13.9750    12.3550    18.3400    23.6830     2.4000   -11.7070 
  281.8750    74.7820    12.6630    11.1690    16.7310    23.7130     2.3990   -11.8990 
  282.0000    74.7820    11.2120     9.8590    13.5170    23.6880     2.4050   -12.0670 
  282.1250    74.7820     9.9710     8.7750     9.1380    23.6440     2.4100   -12.1640 
  282.2500    74.7820     9.0780     8.0110     6.1150    23.6170     2.4060   -12.1730 
  282.3750    74.7820     8.5250     7.5470     4.8980    23.6310     2.3880   -12.1410 
  282.5000    74.7820     8.2090     7.3040     4.5730    23.6320     2.3580   -12.1030 
  282.6250    74.7820     7.9910     7.2000     4.5870    23.5950     2.3270   -12.0900 
  282.7500    74.7820     7.7780     7.1380     4.7920    23.5270     2.3010   -12.1250 
  282.8750    74.7820     7.6260     7.0810     5.0740    23.4540     2.2850   -12.1640 
  283.0000    74.7820     7.5410     7.0200     5.2470    23.3480     2.2800   -12.1640 
  283.1250    74.7820     7.5250     6.9660     5.2430    23.1380     2.2900   -12.2070 
  283.2500    74.7820     7.5680     6.9350     5.1410    22.7480     2.3090   -12.3050 
  283.3750    74.7820     7.6320     6.9390     5.0290    22.2280     2.3350   -12.4110 
  283.5000    74.7820     7.6830     6.9720     5.0640    21.9060     2.3640   -12.5370 
  283.6250    74.7820     7.7160     7.0190     5.2770    21.8630     2.3880   -12.6890 
  283.7500    74.7820     7.7170     7.0580     5.7210    21.9550     2.4030   -12.7900 
  283.8750    74.7820     7.7090     7.0860     6.3440    22.0760     2.4040   -12.8770 
  284.0000    74.7820     7.7120     7.1050     7.0740    22.1730     2.3900   -13.0130 
  284.1250    74.7820     7.7220     7.1190     7.8460    22.1730     2.3690   -13.1090 
  284.2500    74.7820     7.7590     7.1280     8.5220    22.0830     2.3510   -13.2080 
  284.3750    74.7820     7.8330     7.1300     8.9320    21.9120     2.3430   -13.3070 
  284.5000    74.7820     7.8850     7.1280     8.9700    21.6020     2.3460   -13.3910 
  284.6250    74.7820     7.8900     7.1260     8.6030    21.0590     2.3540   -13.4580 
  284.7500    74.7820     7.9010     7.1260     8.3300    20.4790     2.3580   -13.5500 
  284.8750    74.7820     7.9200     7.1260     8.1720    19.7780     2.3510   -13.6870 
  285.0000    74.7820     7.9250     7.1260     7.9300    18.9680     2.3330   -13.7760 
  285.1250    74.7820     7.9250     7.1260     7.3830    17.9330     2.3100   -13.8920 
  285.2500    74.7820     7.9250     7.1260     6.8520    16.8860     2.2860   -14.0010 
  285.3750    74.7820     7.9250     7.1260     6.3930    15.8150     2.2640   -14.1250 
  285.5000    74.7820     7.9250     7.1260     5.9660    14.8990     2.2420   -14.2760 
  285.6250    74.7820     7.9250     7.1260     5.6730    14.3420     2.2170   -14.4850 
  285.7500    74.7820     7.9250     7.1260     5.6530    13.9190     2.1900   -14.6760 
  285.8750    74.7820     7.9250     7.1260     5.7420    13.5570     2.1660   -14.8350 
  286.0000    74.7820     7.9250     7.1260     5.7520    13.2400     2.1440   -15.0270 
  286.1250    74.7820     7.9250     7.1260     5.5960    12.9460     2.1260   -15.1690 
  286.2500    74.7820     7.9250     7.1260     5.4910    12.7090     2.1110   -15.3350 
  286.3750    74.7820     7.9250     7.1260     5.4030    12.5550     2.0990   -15.4690 
  286.5000    74.7820     7.9250     7.1260     5.2920    12.4220     2.0920   -15.4910 
  286.6250    74.7820     7.9250     7.1260     5.1410    12.3340     2.0890   -15.4910 
  286.7500    74.7820     7.9250     7.1260     5.0320    12.2520     2.0870  -999.2500 
  286.8750    74.7820     7.9250     7.1260     5.0280    12.1490     2.0820  -999.2500 
  287.0000    74.7820     7.9250     7.1260     5.1610    11.9190     2.0710  -999.2500 
  287.1250    74.7820     7.9250     7.1260     5.4090    11.5280     2.0580  -999.2500 
  287.2500    74.7820     7.9250     7.1260     5.6610    11.1490     2.0460  -999.2500 
  287.3750    74.7820     7.9250     7.1260     5.7850    10.9610     2.0350  -999.2500 
  287.5000    74.7820     7.9250     7.1260     5.8110    10.8990     2.0270  -999.2500 
  287.6250    74.7820     7.9250     7.1260     5.8120    10.8880     2.0220  -999.2500 
  287.7500    74.7820     7.9250     7.1260     5.8120    10.8840     2.0180  -999.2500 
  287.8750    74.7820     7.9250     7.1260     5.8120    10.8840     2.0150  -999.2500 
  288.0000    74.7820     7.9250     7.1260     5.8110    10.8840     2.0120  -999.2500 
  288.1250    74.7820     7.9250     7.1260     5.8100    10.8840     2.0110  -999.2500 
  288.2500    74.7820     7.9250     7.1260     5.8100    10.8840     2.0110  -999.2500 
  288.3750    74.7820     7.9250     7.1260     5.8110    10.8840     2.0130  -999.2500 
  288.5000    74.7820     7.9250     7.1260     5.8130    10.8840     2.0160  -999.2500 
  288.6250    74.7820     7.9250     7.1260     5.8130    10.8840     2.0190  -999.2500 
  288.7500    74.7820     7.9250     7.1260     5.8120    10.8840     2.0220  -999.2500 
  288.8750    74.7820     7.9250     7.1260     5.8110    10.8840     2.0240  -999.2500 
  289.0000    74.7820     7.9250     7.1260     5.8110    10.8830     2.0240  -999.2500 
  289.1250    74.7820     7.9250     7.1260     5.8110    10.8830     2.0230  -999.2500 
  289.2500    74.7820     7.9250     7.1260     5.8120    10.8790     2.0200  -999.2500 
  289.3750    74.7820     7.9250     7.1260     5.8120    10.8760     2.0170  -999.2500 
  289.5000    74.7820     7.9250     7.1260     5.8110    10.8740     2.0140  -999.2500 
  289.6250    74.7820     7.9250     7.1260     5.8110    10.8740     2.0130  -999.2500 
  289.7500    74.7820     7.9020     7.1020     5.8110    10.8740     2.0130  -999.2500 
  289.8750  -999.2500  -999.2500  -999.2500  -999.2500  -999.2500     2.0140  -999.2500 
  290.0000  -999.2500  -999.2500  -999.2500  -999.2500  -999.2500     2.0160  -999.2500 
  290.1250  -999.2500  -999.2500  -999.2500  -999.2500  -999.2500     2.0180  -999.2500 
  290.2500  -999.2500  -999.2500  -999.2500  -999.2500  -999.2500     2.0190  -999.2500 
  290.3750  -999.2500  -999.2500  -999.2500  -999.2500  -999.2500     2.0180  -999.2500 
  290.5000  -999.2500  -999.2500  -999.2500  -999.2500  -999.2500     2.0170  -999.2500 
  290.6250  -999.2500  -999.2500  -999.2500  -999.2500  -999.2500     2.0160  -999.2500 
  290.7500  -999.2500  -999.2500  -999.2500  -999.2500  -999.2500     2.0150  -999.2500 
  290.8750  -999.2500  -999.2500  -999.2500  -999.2500  -999.2500     2.0140  -999.2500 
  291.0000  -999.2500  -999.2500  -999.2500  -999.2500  -999.2500     2.0140  -999.2500 
  291.1250  -999.2500  -999.2500  -999.2500  -999.2500  -999.2500     2.0150  -999.2500 
