~V
VERS. 2.00: Ver 2.00
~W
STRT.M 55.0000:
STOP.M 264.0000:
STEP.M 0.1250:
NULL. -999.2500:
UWI. F10017:
~C
DEPT.M :
DEN.GM/CC :
SP.MV :
GR.API :
CALI.CM :
RXO.OHMM :
RI. :
RML.OHMM :
~A
# ...
  201.2500     2.2910   -46.1830    57.4530    24.1020    31.9770    30.2060    31.1120 
  201.3750     2.2700   -46.1920    57.5910    24.0830    36.0300    31.2470    32.1840 
  201.5000     2.2410   -46.1770    58.2570    24.1580    39.7940    32.2390    33.2060 
  201.6250     2.2140   -46.1650    58.3930    24.2750    40.2270    32.8040    33.7880 
  201.7500     2.2000   -46.1830    57.8540    24.2720    38.7050    32.9320    33.9200 
  201.8750     2.1990   -46.2290    56.7700    24.1380    36.8800    32.8300    33.8150 
  202.0000     2.1990   -46.2440    56.7130    23.9620    36.0290    32.7610    33.7430 
  202.1250     2.1900   -46.2380    60.2560    23.8600    36.7900    32.8790    33.8660 
  202.2500     2.1790   -46.2620    62.3240    23.9580    38.5310    33.1150    34.1080 
  202.3750     2.1760   -46.2690    60.5400    24.1310    40.3770    33.3960    34.3980 
  202.5000     2.1840   -46.2930    57.8050    24.2200    41.1060    33.6750    34.6850 
  202.6250     2.1940   -46.3020    57.7410    24.2420    40.3020    33.9050    34.9220 
  202.7500     2.1910   -46.3170    59.3270    24.2180    39.4130    34.0260    35.0470 
  202.8750     2.1740   -46.3370    60.8380    24.2200    39.9150    33.9550    34.9730 
  203.0000     2.1540   -46.3660    61.4350    24.2490    41.6130    33.6150    34.6230 
  203.1250     2.1460   -46.3420    59.6080    24.2990    41.8970    32.9830    33.9720 
  203.2500     2.1530   -46.2930    59.1460    24.3310    39.9380    32.2610    33.2280 
  203.3750     2.1680   -46.2850    62.6640    24.3490    37.0430    31.6570    32.6070 
  203.5000     2.1850   -46.2990    67.2390    24.3500    35.2840    31.3350    32.2750 
  203.6250     2.2040   -46.2970    67.8180    24.2870    35.3010    31.3750    32.3160 
  203.7500     2.2270   -46.2620    65.1330    24.2120    35.8220    31.5980    32.5460 
  203.8750     2.2510   -46.2550    61.2070    24.1370    37.0400    31.8090    32.7630 
  204.0000     2.2620   -46.2500    57.9370    24.0730    38.4050    31.8190    32.7740 
  204.1250     2.2500   -46.2750    56.9610    24.0540    38.3560    31.4760    32.4200 
  204.2500     2.2260   -46.3510    57.8070    24.0210    36.6840    30.8760    31.8030 
  204.3750     2.2060   -46.3770    59.3300    24.0060    34.9350    30.1740    31.0790 
  204.5000     2.1960   -46.4030    60.8750    24.0030    33.9240    29.6140    30.5020 
  204.6250     2.1910   -46.4160    62.4200    24.0030    32.9820    29.6330    30.5220 
  204.7500     2.1820   -46.4610    62.6850    24.0020    31.8210    30.4950    31.4100 
  204.8750     2.1690   -46.5000    61.6470    23.9970    31.4780    32.4550    33.4280 
  205.0000     2.1610   -46.5490    59.3030    23.9890    33.5270    35.6320    36.7010 
  205.1250     2.1720   -46.5780    58.3300    23.9850    39.2230    39.8280    41.0230 
  205.2500     2.2040   -46.5400    58.1820    23.9970    49.8160    43.8380    45.1530 
  205.3750     2.2340   -46.5160    57.6600    24.0210    60.8160    46.4090    47.8010 
  205.5000     2.2360   -46.5060    56.4490    24.0700    63.9440    46.7540    48.1570 
  205.6250     2.2030   -46.5020    55.2460    24.1440    58.8210    44.8870    46.2340 
  205.7500     2.1780   -46.4390    54.3320    24.1760    51.0440    42.3110    43.5800 
  205.8750     2.1920   -46.3630    54.8980    24.2030    47.3780    40.0220    41.2230 
  206.0000     2.2340   -46.2560    57.5980    24.2110    44.2120    38.5150    39.6710 
  206.1250     2.2560   -46.1660    59.9600    24.1120    41.6750    37.9360    39.0740 
  206.2500     2.2360   -46.1130    60.0440    24.0520    40.9540    37.9460    39.0850 
  206.3750     2.1920   -46.0410    59.6940    24.1040    42.2830    38.3460    39.4960 
  206.5000     2.1520   -45.9330    59.7250    24.1640    44.1460    38.9680    40.1370 
  206.6250     2.1230   -45.8930    58.2580    24.1580    46.4910    39.7810    40.9750 
  206.7500     2.1010   -45.8570    56.0960    24.1220    48.5440    40.8220    42.0470 
  206.8750     2.1060   -45.7790    54.9790    24.1030    49.3350    42.1010    43.3650 
  207.0000     2.1660   -45.6890    54.1470    24.0940    48.3570    43.4550    44.7590 
  207.1250     2.2800   -45.6400    52.1460    24.0740    47.3770    44.4200    45.7530 
  207.2500     2.3800   -45.5970    50.2730    23.9650    49.9740    44.5750    45.9120 
  207.3750     2.4150   -45.5360    50.1470    23.7580    55.2510    43.7030    45.0150 
  207.5000     2.3750   -45.4750    52.7470    23.6120    56.4830    41.9930    43.2530 
  207.6250     2.2950   -45.3150    56.9360    23.6280    48.8090    40.1000    41.3030 
  207.7500     2.2220   -45.1430    59.6150    23.7860    41.0140    38.8410    40.0060 
  207.8750     2.1760   -45.0160    60.3980    23.9380    38.7490    38.7120    39.8730 
  208.0000     2.1550   -44.9200    61.3500    24.0010    40.6430    39.9410    41.1390 
  208.1250     2.1470   -44.8010    61.3460    23.9990    45.2260    42.6280    43.9070 
  208.2500     2.1400   -44.6730    57.8450    23.9980    51.0210    46.0600    47.4420 
  208.3750     2.1330   -44.5680    53.9460    24.0020    57.1310    49.5490    51.0350 
  208.5000     2.1290   -44.4810    53.5860    24.0140    62.6060    52.4470    54.0210 
  208.6250     2.1210   -44.4260    55.1090    23.9970    64.6200    54.1800    55.8050 
  208.7500     2.1110   -44.4020    55.8810    23.8790    63.4790    54.8040    56.4480 
  208.8750     2.1110   -44.3680    57.1080    23.6370    61.4840    54.4450    56.0780 
  209.0000     2.1280   -44.3650    58.6400    23.3450    61.1790    53.4640    55.0680 
  209.1250     2.1550   -44.4220    58.0310    23.1310    60.4360    52.4820    54.0570 
  209.2500     2.1760   -44.4780    56.3810    23.1800    57.1640    51.8760    53.4320 
  209.3750     2.1890   -44.6030    55.8480    23.4030    54.1570    51.0580    52.5900 
  209.5000     2.2050   -44.7370    55.8860    23.5940    55.9930    48.4370    49.8900 
  209.6250     2.2380   -44.9450    56.0660    23.7470    60.9740    42.0420    43.3030 
  209.7500     2.2760   -45.2250    57.5920    23.9090    57.3820    33.4760    34.4800 
  209.8750     2.3080   -45.5290    60.1480    23.9870    41.7040    25.1820    25.9370 
  210.0000     2.3290   -45.8230    62.4900    23.9940    22.8710    18.8310    19.3960 
  210.1250     2.3380   -46.0840    63.1750    23.9320    13.8990    15.0900    15.5420 
  210.2500     2.3340   -46.3780    64.7600    23.8040    11.1320    13.0920    13.4850 
  210.3750     2.3200   -46.6360    66.5610    23.6800    11.8160    12.3500    12.7200 
  210.5000     2.3010   -46.9210    67.0030    23.6460    13.4920    12.5320    12.9080 
  210.6250     2.2930   -47.1960    65.9070    23.6770    14.9900    13.4970    13.9020 
  210.7500     2.3000   -47.3820    63.6450    23.7160    16.1480    14.9130    15.3600 
  210.8750     2.3160   -47.5080    61.8690    23.7360    17.0020    16.6480    17.1470 
  211.0000     2.3270   -47.6040    62.4840    23.7350    18.3850    18.6650    19.2250 
  211.1250     2.3130   -47.6940    63.8930    23.7280    22.2440    20.9840    21.6140 
  211.2500     2.2740   -47.7690    62.5220    23.7160    27.1110    23.3550    24.0560 
  211.3750     2.2300   -47.8030    59.6550    23.7260    30.0880    25.4160    26.1790 
  211.5000     2.2060   -47.7510    58.9940    23.8040    30.0710    26.8180    27.6220 
  211.6250     2.2130   -47.6850    61.0030    23.9290    28.9210    27.2540    27.9300 
  211.7500     2.2280   -47.6780    62.4970    23.9850    28.8300    26.9850    27.4000 
  211.8750     2.2350   -47.6970    62.7430    23.9970    29.5630    26.2900    27.1210 
  212.0000     2.2310   -47.7020    61.8630    23.9970    30.2660    25.4740    26.6550 
  212.1250     2.2210   -47.6960    61.0500    23.9970    28.8890    24.8020    26.2040 
  212.2500     2.2080   -47.6840    61.7310    23.9970    26.4060    24.3700    25.9320 
  212.3750     2.1900   -47.6620    62.6690    23.9970    25.1350    24.1950    25.9300 
