~V
VERS. 2.00: Ver 2.00
~W
STRT.M 59.0000:
STOP.M 275.0000:
STEP.M 0.1250:
NULL. -999.2500:
UWI. F10021:
~C
DEPT.M :
GR.API :
RML.OHMM :
RI. :
RXO.OHMM :
CALI.CM :
DEN.GM/CC :
SP.MV :
~A
# ...
  261.5000    23.9570     3.6770     3.4060     3.5560    23.1660     2.4050    -7.9250 
  261.6250    23.7970     3.6040     3.3510     3.5070    23.3570     2.3630    -7.8800 
  261.7500    24.0210     3.5200     3.2930     3.4300    23.5750     2.3040    -7.8430 
  261.8750    25.2640     3.4540     3.2520     3.3360    23.7910     2.2430    -7.7850 
  262.0000    26.2530     3.4490     3.2540     3.2650    23.9400     2.1980    -7.7190 
  262.1250    25.3050     3.5520     3.3330     3.2450    24.0080     2.1900    -7.6910 
  262.2500    23.7220     3.7400     3.4790     3.2720    24.0520     2.2190    -7.6910 
  262.3750    23.1820     3.9640     3.6590     3.3480    24.0830     2.2770    -7.7080 
  262.5000    23.1820     4.1510     3.8230     3.4550    24.0890     2.3470    -7.7350 
  262.6250    23.1820     4.2100     3.9000     3.5200    24.0170     2.4000    -7.7640 
  262.7500    23.1820     4.1450     3.8810     3.5220    23.8980     2.4220    -7.8040 
  262.8750    23.1820     4.0050     3.7920     3.5150    23.7420     2.4140    -7.8450 
  263.0000    23.1820     3.8660     3.6850     3.5990    23.5600     2.3910    -7.9000 
  263.1250    23.1820     3.8060     3.6160     3.7950    23.3120     2.3750    -7.9640 
  263.2500    23.1820     3.8200     3.5990     3.9930    23.1200     2.3750    -8.0260 
  263.3750    23.1820     3.8720     3.6160     4.1030    23.1010     2.3830    -8.0780 
  263.5000    23.1820     3.9140     3.6360     4.0720    23.2630     2.3830    -8.1220 
  263.6250    23.1820     3.8980     3.6230     3.9450    23.4900     2.3620    -8.1490 
  263.7500    23.1820     3.8300     3.5730     3.8520    23.6450     2.3310    -8.1510 
  263.8750    23.1820     3.7340     3.5000     3.8320    23.6790     2.3030    -8.1390 
  264.0000    23.1820     3.6420     3.4260     3.8360    23.6400     2.2890    -8.1270 
  264.1250    23.1820     3.5880     3.3790     3.8370    23.5740     2.2870    -8.1330 
  264.2500    23.1820     3.5840     3.3690     3.8540    23.4990     2.2850    -8.1420 
  264.3750    23.1820     3.6340     3.4030     3.9080    23.4500     2.2780    -8.1260 
  264.5000    23.1820     3.7280     3.4760     4.0170    23.4840     2.2720    -8.0830 
  264.6250    23.1820     3.8490     3.5790     4.1920    23.6060     2.2780    -8.0410 
  264.7500    23.1820     3.9600     3.6820     4.3550    23.7040     2.2980    -8.0140 
  264.8750    23.1820     4.0310     3.7590     4.4750    23.7860     2.3260    -8.0340 
  265.0000    23.1820     4.0450     3.7880     4.4710    23.8600     2.3530    -8.0520 
  265.1250    23.1820     3.9900     3.7510     4.2890    23.9270     2.3660    -8.0020 
  265.2500    23.1820     3.8970     3.6700     4.0600    23.9870     2.3680    -7.9230 
  265.3750    23.1820     3.7930     3.5690     3.8470    24.0340     2.3600    -7.8560 
  265.5000    23.1820     3.7040     3.4730     3.7250    24.0540     2.3460    -7.8030 
  265.6250    23.1820     3.6500     3.4070     3.7030    24.0320     2.3210    -7.7360 
  265.7500    23.1820     3.6290     3.3730     3.7240    23.9820     2.2860    -7.6610 
  265.8750    23.1820     3.6320     3.3670     3.7450    23.9330     2.2430    -7.5660 
  266.0000    23.1820     3.6490     3.3820     3.7730    23.9010     2.2000    -7.4680 
  266.1250    23.1820     3.6740     3.4100     3.8150    23.8800     2.1670    -7.4210 
  266.2500    23.1820     3.6990     3.4390     3.8660    23.8670     2.1560    -7.4120 
  266.3750    23.1820     3.7210     3.4670     3.8940    23.8620     2.1720    -7.4030 
  266.5000    23.1820     3.7370     3.4890     3.9280    23.8710     2.2150    -7.3740 
  266.6250    23.1820     3.7480     3.5030     3.9520    23.9030     2.2760    -7.3650 
  266.7500    23.1820     3.7570     3.5120     3.9220    23.9550     2.3350    -7.3560 
  266.8750    23.1820     3.7630     3.5160     3.8590    23.9980     2.3760    -7.3300 
  267.0000    23.1820     3.7680     3.5170     3.8660    23.9980     2.3940    -7.3210 
  267.1250    23.1820     3.7730     3.5150     3.9840    23.9680     2.3950    -7.3100 
  267.2500    23.1820     3.7800     3.5150     4.1650    23.9450     2.3900    -7.2690 
  267.3750    23.1820     3.7910     3.5160     4.3110    23.9350     2.3840    -7.2250 
  267.5000    23.1820     3.8020     3.5190     4.2620    23.9260     2.3770    -7.1890 
  267.6250    23.1820     3.8090     3.5210     4.0620    23.9070     2.3650    -7.1340 
  267.7500    23.1820     3.8090     3.5220     3.7650    23.8760     2.3410    -7.0930 
  267.8750    23.1820     3.8050     3.5210     3.6450    23.8360     2.2980    -7.0680 
  268.0000    23.1820     3.7990     3.5200     3.6640    23.7940     2.2440    -7.0520 
  268.1250    23.1820     3.7940     3.5190     3.6640    23.7600     2.2000    -7.0290 
  268.2500    23.1820     3.7910     3.5180     3.6370    23.7220     2.1870    -7.0190 
  268.3750    23.1820     3.7910     3.5180     3.6110    23.6810     2.2080    -7.0300 
  268.5000    23.1820     3.7910     3.5180     3.5730    23.6560     2.2550    -7.0470 
  268.6250    23.1820     3.7910     3.5180     3.5270    23.6500     2.3040    -7.0580 
  268.7500    23.1820     3.7910     3.5180     3.5010    23.6550     2.3360    -7.0800 
  268.8750    23.1820     3.7910     3.5180     3.4850    23.6740     2.3540    -7.1170 
  269.0000    23.1820     3.7910     3.5180     3.4840    23.7050     2.3670    -7.1360 
  269.1250    23.1820     3.7910     3.5180     3.5060    23.7260     2.3810    -7.1500 
  269.2500    23.1820     3.7910     3.5180     3.5200    23.7500     2.3920    -7.1580 
  269.3750    23.1820     3.7910     3.5180     3.5220    23.7870     2.3940    -7.1840 
  269.5000    23.1820     3.7910     3.5180     3.4970    23.8150     2.3900    -7.2210 
  269.6250    23.1820     3.7910     3.5180     3.4810    23.8110     2.3830    -7.2760 
  269.7500    23.1820     3.7910     3.5180     3.6440    23.7910     2.3800    -7.3210 
  269.8750    23.1820     3.7910     3.5180     4.3650    23.7680     2.3840    -7.3440 
  270.0000    23.1820     3.7910     3.5180     6.0660    23.7350     2.3950    -7.3770 
  270.1250    23.1820     3.7910     3.5180     8.6950    23.6510     2.4060    -7.4380 
  270.2500    23.1820     3.7910     3.5180    11.3560    23.4470     2.4060    -7.4950 
  270.3750    23.1820     3.7910     3.5180    12.8300    23.0130     2.3840    -7.5430 
  270.5000    23.1820     3.7910     3.5180    11.2070    22.2330     2.3370    -7.5930 
  270.6250    23.1820     3.7910     3.5180     7.6370    21.0610     2.2680    -7.6420 
  270.7500    23.1820     3.7910     3.5180     5.2210    19.6790     2.1950    -7.6710 
  270.8750    23.1820     3.7910     3.5180     4.2310    18.3630     2.1290    -7.7170 
  271.0000    23.1820     3.7910     3.5180     3.8960    17.2850     2.0720    -7.7510 
  271.1250    23.1820     3.7910     3.5180     3.8270    16.4170     2.0270    -7.7710 
  271.2500    23.1820     3.7910     3.5180     3.8270    15.5820     1.9950    -7.7950 
  271.3750    23.1820     3.7910     3.5180     3.8680    14.8360     1.9780    -7.7980 
  271.5000    23.1820     3.7910     3.5180     3.9360    14.2000     1.9780    -7.7950 
  271.6250    23.1820     3.7910     3.5180     4.0020    13.7300     1.9920    -7.7970 
  271.7500    23.1820     3.7910     3.5180     4.0750    13.4270     2.0100    -7.7990 
  271.8750    23.1820     3.7910     3.5180     4.1090    13.3020     2.0260    -7.8000 
  272.0000    23.1820     3.7910     3.5180     4.1160    13.2730     2.0360  -999.2500 
  272.1250    23.1820     3.7910     3.5180     4.1160    13.2700     2.0390  -999.2500 
  272.2500    23.1820     3.7910     3.5180     4.1160    13.2700     2.0400  -999.2500 
  272.3750    23.1820     3.7910     3.5180     4.1160    13.2700     2.0390  -999.2500 
  272.5000    23.1820     3.7910     3.5180     4.1150    13.2690     2.0380  -999.2500 
  272.6250    23.1820     3.7840     3.5090     4.1150    13.2690     2.0370  -999.2500 
