~V
VERS. 2.00: Ver 2.00
~W
STRT.M 57.0000:
STOP.M 208.0000:
STEP.M 0.1250:
NULL. -999.2500:
UWI. F10012:
~C
DEPT.M :
DEN.GM/CC :
SP.MV :
GR.API :
CALI.CM :
RXO.OHMM :
RI. :
RML.OHMM :
~A
# ...
  180.7500     2.3070   -31.1740    98.4800    24.0420    13.7540    10.4540    11.6790 
  180.8750     2.3080   -31.0320    98.0510    23.9900    14.4160    10.5210    11.7850 
  181.0000     2.3090   -30.9700   100.8410    23.9390    14.5680    10.5880    11.9020 
  181.1250     2.3080   -31.0860   103.7150    23.9010    15.6230    10.6460    11.9960 
  181.2500     2.3020   -31.2530   103.9690    23.7590    17.5890    10.6920    12.0580 
  181.3750     2.2920   -31.5260   103.8160    23.5410    19.6410    10.7510    12.1200 
  181.5000     2.2920   -31.8850   104.8580    23.3530    20.8340    10.8760    12.2450 
  181.6250     2.3140   -32.1490   106.3510    23.0900    20.5520    11.1550    12.5450 
  181.7500     2.3570   -32.3880   107.8190    22.5620    19.8380    11.6040    13.0410 
  181.8750     2.3980   -32.5720   109.2440    21.8710    19.1210    12.2010    13.6910 
  182.0000     2.4100   -32.7080   109.9940    21.2650    18.4180    12.8630    14.3650 
  182.1250     2.3890   -32.7140   109.1230    20.5330    17.4640    13.4030    14.8150 
  182.2500     2.3500   -32.6170   107.6440    19.3950    15.3570    13.6550    14.8840 
  182.3750     2.3170   -32.3770   105.2800    18.2430    12.7650    13.5320    14.5420 
  182.5000     2.3030   -32.0370   103.1470    17.5320    10.9660    13.0630    13.9020 
  182.6250     2.3070   -31.7220   102.3320    17.2720    10.3060    12.3640    13.1590 
  182.7500     2.3160   -31.3420   100.8810    17.3760     9.8390    11.6290    12.4750 
  182.8750     2.3200   -30.9300    97.2300    17.7750     9.0790    10.9500    11.8870 
  183.0000     2.3200   -30.4820    94.6990    18.0550     8.3870    10.3720    11.3850 
  183.1250     2.3200   -30.0360    94.4870    18.0410     8.2250     9.9160    10.9580 
  183.2500     2.3200   -29.5670    94.9390    17.8480     8.2630     9.5400    10.5850 
  183.3750     2.3170   -29.1150    92.8560    17.8190     8.2910     9.2210    10.2670 
  183.5000     2.3100   -28.7250    88.7760    18.0560     8.3510     8.9540    10.0150 
  183.6250     2.2980   -28.3190    84.5620    18.5660     8.4290     8.7600     9.8460 
  183.7500     2.2830   -27.9590    82.3350    19.2540     8.1830     8.6320     9.7390 
  183.8750     2.2780   -27.6180    83.2010    19.9700     7.6320     8.5590     9.6690 
  184.0000     2.2850   -27.2790    84.3680    20.6130     7.0210     8.5190     9.6110 
  184.1250     2.2990   -26.9880    82.7780    21.2170     6.7340     8.4870     9.5480 
  184.2500     2.3140   -26.7300    78.1230    21.8000     6.8620     8.4600     9.4900 
  184.3750     2.3260   -26.4680    73.4980    22.3490     7.0840     8.4520     9.4620 
  184.5000     2.3300   -26.1870    72.2590    22.8030     7.2300     8.4770     9.4710 
  184.6250     2.3250   -25.9920    74.2400    23.0970     7.4670     8.5320     9.4940 
  184.7500     2.3220   -25.8430    77.7560    23.2070     7.8970     8.5910     9.5010 
  184.8750     2.3310   -25.7250    80.7600    23.2120     8.0950     8.6310     9.4920 
  185.0000     2.3430   -25.5960    81.5080    23.2150     7.7710     8.6380     9.4860 
  185.1250     2.3500   -25.3440    80.9480    23.2250     7.1750     8.6070     9.5070 
  185.2500     2.3530   -25.0980    81.3250    23.2400     6.8170     8.5560     9.5490 
  185.3750     2.3590   -24.8530    82.7380    23.2440     6.9140     8.5000     9.5830 
  185.5000     2.3670   -24.5770    82.3610    23.2460     7.3300     8.4460     9.5810 
  185.6250     2.3710   -24.1420    80.2160    23.2430     7.7690     8.3860     9.5220 
  185.7500     2.3780   -23.6440    78.5250    23.2390     8.0990     8.3020     9.4300 
  185.8750     2.3880   -23.0950    76.8450    23.2350     8.4290     8.1900     9.3360 
  186.0000     2.3930   -22.5270    73.1260    23.2330     8.8110     8.0660     9.2720 
  186.1250     2.3890   -22.0440    70.0730    23.2300     9.1230     7.9690     9.2700 
  186.2500     2.3850   -21.6120    71.3820    23.2100     9.3360     7.9250     9.3190 
  186.3750     2.3820   -21.2770    74.8120    23.1870     9.4940     7.9330     9.3930 
  186.5000     2.3750   -21.0210    73.2670    23.2390     9.6460     7.9670     9.4600 
  186.6250     2.3630   -20.9570    68.6700    23.4170     9.7540     7.9870     9.4840 
  186.7500     2.3540   -20.9440    68.2940    23.5570     9.6890     7.9910     9.4770 
  186.8750     2.3490   -21.0280    71.5400    23.5620     9.4140     8.0090     9.4770 
  187.0000     2.3390   -21.2400    71.9250    23.5190     9.0460     8.0860     9.5430 
  187.1250     2.3280   -21.5090    70.6450    23.5000     8.7390     8.2820     9.7620 
  187.2500     2.3280   -21.8470    70.7440    23.4970     8.7240     8.6100    10.1440 
  187.3750     2.3500   -22.1950    71.2640    23.4960     9.0370     9.0670    10.6790 
  187.5000     2.3780   -22.5580    70.0700    23.4950     9.6380     9.6190    11.3120 
  187.6250     2.3950   -22.8460    68.3440    23.4950    10.7320    10.1670    11.9090 
  187.7500     2.3940   -23.1800    67.5700    23.4950    12.5100    10.5840    12.3170 
  187.8750     2.3830   -23.5050    67.8850    23.4990    14.1100    10.7850    12.4360 
  188.0000     2.3800   -23.8140    69.1790    23.5220    14.5920    10.7670    12.2790 
  188.1250     2.3890   -24.1030    69.4990    23.5770    14.0600    10.6180    11.9940 
  188.2500     2.4040   -24.3420    68.3140    23.6320    13.6450    10.4980    11.8190 
  188.3750     2.4130   -24.6410    68.2580    23.6680    13.7590    10.5000    11.8740 
  188.5000     2.4080   -24.9730    69.8570    23.6900    14.7760    10.6490    12.1610 
  188.6250     2.3830   -25.3880    72.4880    23.6670    16.6990    10.8740    12.5300 
  188.7500     2.3450   -25.7510    75.4970    23.5710    18.5520    10.9870    12.7120 
  188.8750     2.3130   -26.0730    77.6960    23.4410    18.9270    10.8220    12.5210 
  189.0000     2.2930   -26.3460    79.2910    23.4470    17.0080    10.3170    11.9420 
  189.1250     2.2800   -26.5550    81.1420    23.5580    13.1720     9.5440    11.1330 
  189.2500     2.2620   -26.6970    82.9250    23.6640    10.1230     8.7420    10.3670 
  189.3750     2.2460   -26.7240    83.9280    23.6980     8.4610     8.0610     9.7800 
  189.5000     2.2380   -26.6750    86.3880    23.7040     7.9850     7.5830     9.4160 
  189.6250     2.2390   -26.5440    90.2350    23.7070     8.1150     7.3590     9.2810 
  189.7500     2.2370   -26.4010    92.5800    23.7180     8.0460     7.3150     9.2790 
  189.8750     2.2300   -26.2350    93.3630    23.7420     7.6170     7.3900     9.3490 
  190.0000     2.2270   -26.0900    94.9340    23.7600     7.1270     7.5110     9.4370 
  190.1250     2.2290   -25.8870    96.6040    23.7450     6.9810     7.6090     9.4700 
  190.2500     2.2290   -25.6320    96.0120    23.7060     7.1430     7.6440     9.4140 
  190.3750     2.2250   -25.3040    95.2070    23.6800     7.5550     7.5990     9.2740 
  190.5000     2.2210   -24.8330    95.7850    23.6760     8.0830     7.4700     9.0810 
  190.6250     2.2270   -24.2120    94.7640    23.6790     8.2470     7.2600     8.8940 
  190.7500     2.2470   -23.4730    89.9240    23.6840     7.8620     7.0110     8.7470 
  190.8750     2.2810   -22.6830    82.5140    23.6920     7.1750     6.7620     8.6420 
  191.0000     2.3130   -21.8620    76.2520    23.7010     6.6270     6.5570     8.5720 
  191.1250     2.3330   -21.1820    71.4440    23.7030     6.3950     6.4480     8.5490 
  191.2500     2.3450   -20.5660    66.8780    23.6930     6.3130     6.4350     8.5720 
  191.3750     2.3550   -20.0420    63.0700    23.6680     6.3500     6.4970     8.6270 
  191.5000     2.3580   -19.6850    61.2760    23.6450     6.5050     6.5900     8.6840 
  191.6250     2.3460   -19.4850    62.6270    23.6360     6.7000     6.6510     8.7020 
  191.7500     2.3280   -19.4290    65.2830    23.6350     6.8660     6.6460     8.6630 
  191.8750     2.3230   -19.4360    66.3190    23.6380     6.9430     6.5740     8.5670 
