~V
VERS. 2.00: Ver 2.00
~W
STRT.M 50.0000:
STOP.M 244.0000:
STEP.M 0.1250:
NULL. -999.2500:
UWI. F10003:
~C
DEPT.M :
GR.API :
RML.OHMM :
RI. :
RXO.OHMM :
CALI.CM :
DEN.GM/CC :
SP.MV :
~A
# ...
  106.2500    56.2980    23.5910    22.8970    27.3080    27.3810     2.1920    -1.9020 
  106.3750    58.7760    22.9510    22.5120    25.8970    27.5220     2.1940    -2.5630 
  106.5000    59.2050    22.5210    22.2290    24.4490    27.5680     2.1980    -3.3070 
  106.6250    58.4410    21.9240    21.7520    23.1510    27.5800     2.2000    -4.1240 
  106.7500    59.4300    20.7820    20.7620    21.3630    27.6360     2.1970    -4.9840 
  106.8750    62.0610    18.9240    19.0780    18.8340    27.4040     2.1900    -5.8950 
  107.0000    63.2430    16.4450    16.7530    15.9490    26.3840     2.1850    -6.8200 
  107.1250    63.7560    13.6760    14.0630    12.6390    25.2540     2.1920    -7.7140 
  107.2500    66.3840    11.0810    11.4720    10.1080    24.7600     2.2110    -8.5430 
  107.3750    71.5830     8.9060     9.2450     8.5830    24.6920     2.2410    -9.2810 
  107.5000    77.6800     7.2560     7.5050     7.5750    24.7030     2.2770    -9.8940 
  107.6250    81.7150     6.2480     6.3730     6.6240    24.6810     2.3170   -10.3010 
  107.7500    84.4470     5.8160     5.7720     6.0490    24.6510     2.3560   -10.5120 
  107.8750    85.2070     5.9980     5.7300     6.3450    24.6450     2.3860   -10.4990 
  108.0000    84.3380     6.8110     6.2810     7.8600    24.6820     2.3980   -10.3070 
  108.1250    83.0680     8.2820     7.5240    10.7350    24.7390     2.3830   -10.0020 
  108.2500    78.6200    10.1170     9.2600    14.5950    24.8460     2.3500    -9.6400 
  108.3750    70.5410    12.0430    11.2820    18.7870    24.9610     2.3110    -9.2320 
  108.5000    61.8800    13.7970    13.3130    21.2780    24.9630     2.2770    -8.8450 
  108.6250    57.7950    15.2130    15.0560    21.0670    24.8910     2.2510    -8.5140 
  108.7500    58.0380    16.4650    16.5040    20.6560    24.8880     2.2320    -8.2580 
  108.8750    58.8240    17.7170    17.7470    21.6380    24.9880     2.2160    -8.1450 
  109.0000    57.1620    18.9560    18.8050    22.9330    25.0890     2.2010    -8.2080 
  109.1250    53.3740    19.7490    19.3690    23.4310    25.1250     2.1910    -8.4140 
  109.2500    50.2520    19.6180    19.1050    23.0930    25.1230     2.1890    -8.6980 
  109.3750    49.9560    18.2850    17.7810    21.8540    25.0750     2.1950    -9.0700 
  109.5000    53.8470    15.9430    15.5590    19.3720    24.9490     2.2090    -9.5120 
  109.6250    62.2520    13.3700    13.1040    15.4360    24.7700     2.2300    -9.9990 
  109.7500    70.8560    11.5100    11.2110    12.0060    24.5800     2.2550   -10.5080 
  109.8750    76.0840    10.7790    10.2140    10.5920    24.3580     2.2810   -11.0040 
  110.0000    76.7090    11.1280    10.1110    11.6270    24.1530     2.3050   -11.4380 
  110.1250    73.2380    12.1640    10.7030    14.6780    24.0270     2.3250   -11.8390 
  110.2500    67.4160    13.0790    11.3990    18.2390    23.8980     2.3400   -12.2300 
  110.3750    63.5560    13.3270    11.7420    20.2050    23.8920     2.3530   -12.5530 
  110.5000    65.5440    12.6810    11.4420    17.6630    24.1920     2.3610   -12.7720 
  110.6250    71.5210    11.3160    10.4990    12.5120    24.5980     2.3620   -12.9230 
  110.7500    76.6400     9.9330     9.4290     9.5300    24.7470     2.3580   -13.0520 
  110.8750    79.6910     8.9850     8.6020     8.8200    24.7150     2.3530   -13.1670 
  111.0000    80.3740     8.6750     8.2220     8.8920    24.7050     2.3480   -13.2340 
  111.1250    80.0800     9.0510     8.3970     9.2690    24.7110     2.3430   -13.2330 
  111.2500    80.9150     9.7920     8.9280     9.8220    24.6810     2.3360   -13.1800 
  111.3750    82.3970    10.6290     9.6200    10.3730    24.6770     2.3230   -13.1330 
  111.5000    81.6530    11.2700    10.2320    11.0780    24.7440     2.3040   -13.1210 
  111.6250    78.0510    11.3690    10.4500    11.5500    24.8160     2.2850   -13.1420 
  111.7500    75.8310    10.9190    10.2040    11.3220    24.7880     2.2740   -13.1630 
  111.8750    75.8290    10.0670     9.5780    10.2630    24.6610     2.2770   -13.1560 
  112.0000    76.8410     9.1000     8.7880     9.0590    24.5550     2.2950   -13.1610 
  112.1250    80.7320     8.3820     8.1310     8.3910    24.5280     2.3230   -13.1880 
  112.2500    85.0650     8.0740     7.7690     8.1340    24.5160     2.3490   -13.2210 
  112.3750    86.8470     8.1910     7.7480     8.3670    24.4600     2.3670   -13.2410 
  112.5000    84.2140     8.6400     8.0290     8.8770    24.3610     2.3750   -13.2380 
  112.6250    80.4340     9.2670     8.5180     9.3640    24.2710     2.3710   -13.2500 
  112.7500    77.9070     9.8470     9.0190     9.6750    24.2020     2.3610   -13.2650 
  112.8750    74.4120    10.2230     9.3800     9.8180    24.1920     2.3470   -13.2750 
  113.0000    69.7250    10.2790     9.4800     9.7580    24.2680     2.3320   -13.2970 
  113.1250    67.1940     9.9200     9.2090     9.5090    24.3850     2.3210   -13.3410 
  113.2500    69.0140     9.2730     8.6660     9.1900    24.4290     2.3160   -13.3990 
  113.3750    74.4850     8.4850     7.9680     8.6270    24.4230     2.3190   -13.4670 
  113.5000    80.1740     7.7440     7.2720     7.8000    24.4320     2.3280   -13.5390 
  113.6250    83.7810     7.2910     6.7800     7.3990    24.4100     2.3450   -13.6010 
  113.7500    84.7770     7.1960     6.5730     7.4790    24.3510     2.3690   -13.6590 
  113.8750    83.7120     7.4560     6.6720     8.0670    24.2780     2.3980   -13.7140 
  114.0000    81.2120     7.9870     7.0430     9.0880    24.2050     2.4280   -13.7380 
  114.1250    79.4870     8.6570     7.6230    10.1130    24.1830     2.4470   -13.7450 
  114.2500    77.9660     9.3000     8.2650    10.5860    24.2480     2.4470   -13.7450 
  114.3750    75.0740     9.8390     8.8800    10.3840    24.3760     2.4260   -13.7650 
  114.5000    72.6090    10.2690     9.4250    10.2840    24.4970     2.3900   -13.7840 
  114.6250    73.0060    10.6120     9.8790    10.7050    24.5870     2.3510   -13.7500 
  114.7500    74.3840    10.8810    10.2500    11.0190    24.6580     2.3190   -13.7090 
  114.8750    74.3100    11.0210    10.4970    11.0220    24.6910     2.2980   -13.7470 
  115.0000    73.5880    10.9630    10.5390    10.7840    24.6810     2.2840   -13.8730 
  115.1250    74.0140    10.5910    10.2490    10.5560    24.6070     2.2760   -14.0200 
  115.2500    74.9790    10.0130     9.6700     9.9920    24.5690     2.2730   -14.1520 
  115.3750    75.5720     9.3190     8.8850     9.0620    24.5460     2.2780   -14.2200 
  115.5000    75.8330     8.6070     8.0170     7.9770    24.5180     2.2900   -14.2490 
  115.6250    78.0620     7.9870     7.2140     7.1250    24.5130     2.3100   -14.2880 
  115.7500    83.1820     7.3190     6.5670     6.7270    24.5280     2.3300   -14.3090 
  115.8750    88.3550     6.9190     6.1330     6.5040    24.5470     2.3470   -14.2840 
  116.0000    90.9880     6.8320     5.9500     6.2800    24.5570     2.3610   -14.2100 
  116.1250    90.8650     7.1280     6.0850     6.4980    24.5490     2.3690   -14.1390 
  116.2500    90.6930     7.7140     6.4740     7.1800    24.5350     2.3710   -14.0800 
  116.3750    89.6040     8.4900     7.0600     8.2140    24.5300     2.3650   -14.0260 
  116.5000    85.3870     9.3030     7.7390     9.4970    24.5220     2.3530   -13.9750 
  116.6250    80.0120     9.9560     8.3630    10.5380    24.5420     2.3380   -13.9000 
  116.7500    76.0220    10.4110     8.8480    11.1140    24.5660     2.3230   -13.8180 
  116.8750    73.5550    10.8150     9.2400    11.4320    24.5920     2.3090   -13.7370 
  117.0000    71.8890    11.5060     9.7300    11.9080    24.5860     2.2960   -13.6490 
  117.1250    72.3570    13.1170    10.7620    13.5440    24.5460     2.2790   -13.5220 
  117.2500    73.5480    15.9290    12.6540    17.1460    24.5140     2.2580   -13.3490 
  117.3750    71.1920    20.0370    15.6380    22.9270    24.5120     2.2350   -13.1530 
