~V
VERS. 2.00: Ver 2.00
~W
STRT.M 57.0000:
STOP.M 307.0000:
STEP.M 0.1250:
NULL. -999.2500:
UWI. F10042:
~C
DEPT.M :
GR.API :
RML.OHMM :
RI. :
RXO.OHMM :
CALI.CM :
DEN.GM/CC :
SP.MV :
~A
# ...
  203.2500    54.3670    28.4530    24.9170    29.4680    26.0650     2.4540    -7.4240 
  203.3750    52.4220    28.3430    24.4610    28.3590    26.0340     2.4350    -7.5830 
  203.5000    53.3110    27.1270    23.2700    26.4470    25.9170     2.4300    -7.7400 
  203.6250    55.5120    25.1110    21.7320    24.2390    25.7540     2.4360    -7.8760 
  203.7500    56.9730    23.0660    20.3520    20.5730    25.5700     2.4440    -8.0960 
  203.8750    57.0630    21.4550    19.3490    18.4930    25.4270     2.4510    -8.4100 
  204.0000    57.8730    20.4730    18.7780    18.9580    25.3910     2.4580    -8.7580 
  204.1250    59.7620    20.1350    18.6300    19.6640    25.3890     2.4650    -9.0000 
  204.2500    60.7680    20.1050    18.6910    20.9200    25.3570     2.4750    -9.0640 
  204.3750    60.0640    20.1540    18.7980    21.5450    25.3160     2.4880    -8.9970 
  204.5000    57.8440    20.1340    18.8370    20.6780    25.2990     2.5040    -8.8970 
  204.6250    55.5200    20.0020    18.7660    19.7120    25.3580     2.5220    -8.8070 
  204.7500    53.7180    19.8320    18.6500    19.9450    25.4190     2.5380    -8.6780 
  204.8750    54.7010    19.6460    18.4940    20.5060    25.4540     2.5470    -8.4930 
  205.0000    58.3840    19.3720    18.2040    20.7840    25.4510     2.5470    -8.2390 
  205.1250    60.8140    18.7890    17.5460    20.2000    25.4600     2.5330    -7.9530 
  205.2500    59.3450    17.7980    16.4920    19.3910    25.4680     2.5090    -7.7430 
  205.3750    56.1720    16.4130    15.1610    18.0510    25.4790     2.4800    -7.7080 
  205.5000    57.0900    14.8030    13.7940    15.4200    25.4820     2.4530    -7.7400 
  205.6250    62.5100    13.2850    12.7090    12.3700    25.4630     2.4400    -7.6700 
  205.7500    65.5180    12.1340    12.0320    11.2300    25.4370     2.4410    -7.5670 
  205.8750    63.7520    11.4950    11.7960    11.3580    25.4050     2.4520    -7.5280 
  206.0000    60.0830    11.3860    11.9590    12.1390    25.3740     2.4660    -7.5670 
  206.1250    58.7230    11.7590    12.4440    12.3330    25.3830     2.4760    -7.6420 
  206.2500    59.3290    12.3460    13.0230    12.4320    25.4180     2.4830    -7.7000 
  206.3750    60.2850    12.9430    13.5210    12.8400    25.4840     2.4880    -7.7230 
  206.5000    59.9370    13.3670    13.7910    13.4410    25.5860     2.4900    -7.7660 
  206.6250    57.2060    13.4320    13.7030    13.5930    25.6750     2.4870    -7.8510 
  206.7500    53.6740    13.1640    13.3330    13.6540    25.7420     2.4770    -7.9160 
  206.8750    52.8180    12.6430    12.7910    13.6710    25.8070     2.4640    -7.9110 
  207.0000    56.7040    12.0200    12.2230    13.1740    25.8850     2.4510    -7.8930 
  207.1250    63.1620    11.5030    11.8010    12.2480    25.9600     2.4390    -7.9540 
  207.2500    67.2030    11.2230    11.5860    11.6040    25.9680     2.4290    -8.1120 
  207.3750    66.0650    11.2230    11.5900    11.6750    25.8580     2.4220    -8.2700 
  207.5000    61.9210    11.4670    11.7840    12.5190    25.6990     2.4190    -8.3580 
  207.6250    59.7320    11.8730    12.1170    13.1280    25.6800     2.4200    -8.4500 
  207.7500    60.4540    12.3070    12.4940    13.5790    25.7790     2.4210    -8.5880 
  207.8750    62.0720    12.7230    12.8810    14.1420    25.9180     2.4200    -8.7710 
  208.0000    61.0520    13.1320    13.2740    14.8210    25.9790     2.4160    -9.0100 
  208.1250    59.6600    13.5840    13.6980    15.1010    25.9260     2.4110    -9.3310 
  208.2500    61.2390    14.0740    14.1430    15.6500    25.6850     2.4110    -9.6690 
  208.3750    65.2140    14.5340    14.5610    17.0300    25.3660     2.4170    -9.9970 
  208.5000    69.7000    14.8770    14.8830    18.8960    25.2920     2.4280   -10.2880 
  208.6250    72.0380    15.0310    15.0570    18.7190    25.4760     2.4400   -10.5010 
  208.7500    72.5550    15.0770    15.1430    17.5070    25.7310     2.4470   -10.7000 
  208.8750    73.4350    15.1070    15.1990    16.0790    25.8230     2.4480   -10.8650 
  209.0000    74.1200    15.1730    15.2400    15.2120    25.7340     2.4450   -10.9200 
  209.1250    72.3520    15.1830    15.1490    15.7170    25.6090     2.4430   -10.7680 
  209.2500    69.0720    14.9410    14.7770    16.2660    25.7030     2.4450   -10.4910 
  209.3750    67.8600    14.2900    14.0320    16.3020    25.8580     2.4490   -10.1780 
  209.5000    68.7090    13.2230    12.9750    15.1210    25.9830     2.4510    -9.8420 
  209.6250    68.1960    11.9240    11.8160    12.7840    26.0380     2.4450    -9.4630 
  209.7500    66.8440    10.7450    10.8120    10.4750    26.0500     2.4320    -9.0740 
  209.8750    64.8090     9.8890    10.0880     9.6470    26.0550     2.4120    -8.7440 
  210.0000    62.0230     9.4250     9.6790     9.7910    26.0990     2.3890    -8.5310 
  210.1250    59.3760     9.3560     9.6050    10.0510    26.0710     2.3670    -8.4230 
  210.2500    58.2180     9.5370     9.7590    10.5460    25.9340     2.3530    -8.2920 
  210.3750    58.3690     9.9100    10.0790    10.7910    25.7200     2.3490    -8.1160 
  210.5000    59.3210    10.4270    10.5260    10.8660    25.4650     2.3560    -8.0460 
  210.6250    61.6580    11.0640    11.1300    11.5580    25.2970     2.3740    -8.1570 
  210.7500    63.5580    11.7850    11.8810    12.8100    25.2370     2.3990    -8.2590 
  210.8750    63.4610    12.5700    12.7300    14.7220    25.2760     2.4300    -8.2850 
  211.0000    62.4670    13.3650    13.5660    15.8710    25.2690     2.4660    -8.2050 
  211.1250    62.2810    14.0250    14.1890    16.9260    25.2050     2.5020    -8.0440 
  211.2500    62.9030    14.4310    14.4940    17.6370    25.1480     2.5260    -7.9390 
  211.3750    64.0400    14.5270    14.4730    17.1800    25.1960     2.5290    -7.9290 
  211.5000    65.5330    14.3700    14.2300    15.4560    25.2840     2.5080    -7.9330 
  211.6250    65.2860    14.0980    13.9120    14.6460    25.4090     2.4730    -7.8880 
  211.7500    62.7650    13.8590    13.6260    14.3390    25.5670     2.4440    -7.8290 
  211.8750    61.1340    13.6890    13.3880    14.1610    25.6640     2.4340    -7.7960 
  212.0000    61.0970    13.5630    13.1710    14.0730    25.6660     2.4430    -7.8860 
  212.1250    61.0410    13.4330    12.9240    13.8030    25.6570     2.4630    -8.1550 
  212.2500    61.7380    13.2790    12.6520    12.8550    25.6980     2.4840    -8.4550 
  212.3750    64.2850    13.1250    12.4200    12.2960    25.7560     2.5000    -8.7240 
  212.5000    65.1170    13.0390    12.3120    12.5320    25.7910     2.5100    -9.0100 
  212.6250    62.2070    13.1630    12.4380    12.9500    25.8200     2.5100    -9.2520 
  212.7500    60.2820    13.5620    12.7950    13.0120    25.7830     2.5000    -9.4560 
  212.8750    61.1650    14.2480    13.3620    13.3330    25.6820     2.4880    -9.6410 
  213.0000    63.3210    15.1460    14.0730    14.3800    25.4960     2.4820    -9.7690 
  213.1250    64.9540    16.1080    14.8300    16.2470    25.2970     2.4940    -9.8590 
  213.2500    67.6110    16.9890    15.5430    17.8720    25.1820     2.5200    -9.9220 
  213.3750    71.4110    17.7340    16.1490    18.6290    25.1890     2.5480    -9.9150 
  213.5000    74.1370    18.3110    16.5670    18.8600    25.2940     2.5680    -9.8550 
  213.6250    74.7490    18.5940    16.6230    19.8150    25.5080     2.5670    -9.8540 
  213.7500    74.7960    18.4680    16.2620    20.6290    25.7410     2.5400    -9.9420 
  213.8750    75.6800    17.8150    15.4740    20.3490    25.9020     2.4870   -10.0850 
  214.0000    75.9290    16.6350    14.3540    18.0690    25.9960     2.4120   -10.1750 
  214.1250    74.2710    15.0790    13.0930    13.5800    26.0110     2.3300   -10.1380 
  214.2500    74.0700    13.5200    11.9300    11.2310    25.9520     2.2650   -10.0880 
  214.3750    73.9230    12.2180    11.0100    10.0300    25.9050     2.2310   -10.1430 
