~V
VERS. 2.00: Ver 2.00
~W
STRT.M 60.0000:
STOP.M 245.0000:
STEP.M 0.1250:
NULL. -999.2500:
UWI. F10050:
~C
DEPT.M :
SP.MV :
GR.API :
RML.OHMM :
RI. :
RXO.OHMM :
CALI.CM :
DEN.GM/CC :
~A
# ...
  105.0000   -26.2910    73.4650     6.2970     4.8970     6.0510    23.6880     2.3770 
  105.1250   -26.4930    74.2450     6.2560     4.9100     5.9310    23.6860     2.3750 
  105.2500   -26.7030    69.7420     6.2400     4.9320     5.9670    23.6870     2.3560 
  105.3750   -26.9230    68.1710     6.3070     4.9910     6.1790    23.6890     2.3190 
  105.5000   -27.1450    71.6290     6.4840     5.1040     6.4660    23.6870     2.2750 
  105.6250   -27.3600    72.3760     6.8040     5.2940     6.7060    23.6880     2.2470 
  105.7500   -27.5600    66.8850     7.2610     5.5630     6.8440    23.6900     2.2550 
  105.8750   -27.6960    60.8500     7.8600     5.9300     6.9490    23.7070     2.3070 
  106.0000   -27.7920    59.8410     8.5870     6.4090     7.2340    23.7590     2.3910 
  106.1250   -27.9110    63.6810     9.3920     6.9960     7.7640    23.8280     2.4620 
  106.2500   -27.9780    67.5570    10.1500     7.6080     8.1710    23.8000     2.4760 
  106.3750   -27.9710    67.7740    10.7080     8.1440     8.5200    23.6550     2.4360 
  106.5000   -27.9560    65.0910    10.9330     8.5020     8.7300    23.5520     2.3720 
  106.6250   -27.9190    62.5780    10.7790     8.6080     8.9240    23.6030     2.3120 
  106.7500   -27.8460    60.5000    10.4650     8.5570     9.1460    23.8940     2.2740 
  106.8750   -27.7720    56.5950    10.1560     8.4390     9.3000    24.4380     2.2590 
  107.0000   -27.6690    53.8400     9.9480     8.3290     9.2920    24.9940     2.2530 
  107.1250   -27.4290    56.2590     9.8580     8.2660     9.1310    25.3670     2.2380 
  107.2500   -27.1400    58.6380     9.8140     8.2360     8.9160    25.6670     2.2100 
  107.3750   -26.8430    56.8260     9.7710     8.2140     8.7140    25.8910     2.1730 
  107.5000   -26.5270    52.6850     9.7120     8.1810     8.5140    25.9940     2.1310 
  107.6250   -26.2210    50.3460     9.6190     8.1110     8.3200    25.9570     2.0980 
  107.7500   -25.9530    49.5650     9.4620     7.9830     8.1700    25.6930     2.0860 
  107.8750   -25.7210    50.4890     9.2030     7.7740     8.0670    25.0360     2.1030 
  108.0000   -25.5560    54.1680     8.8260     7.4780     7.8440    24.0430     2.1440 
  108.1250   -25.4910    59.2520     8.3710     7.1160     7.3830    23.2680     2.1950 
  108.2500   -25.4970    62.2710     7.9810     6.7710     7.0110    22.9660     2.2300 
  108.3750   -25.5720    62.1850     7.7840     6.5280     6.8980    22.9090     2.2430 
  108.5000   -25.6710    62.4000     7.8760     6.4620     7.0260    22.9080     2.2420 
  108.6250   -25.7810    64.0360     8.3360     6.6540     7.2840    22.9090     2.2410 
  108.7500   -25.8930    64.4920     9.0420     7.0480     7.6560    22.9280     2.2460 
  108.8750   -25.9930    63.8340     9.8400     7.5690     8.3150    22.9980     2.2490 
  109.0000   -26.0850    64.8190    10.5230     8.0950     9.7880    23.1520     2.2430 
  109.1250   -26.1970    68.2690    10.8420     8.4630    13.3730    23.3550     2.2260 
  109.2500   -26.2620    69.2040    10.8050     8.6240    16.3810    23.6300     2.2100 
  109.3750   -26.2960    68.1640    10.5290     8.6060    13.6220    23.9330     2.2090 
  109.5000   -26.3290    67.6170    10.1990     8.4950    10.3250    24.1440     2.2270 
  109.6250   -26.2660    68.8970     9.9820     8.4020     9.2130    24.2570     2.2510 
  109.7500   -26.1640    70.8320     9.8670     8.3690     9.3650    24.3600     2.2640 
  109.8750   -26.0710    71.0310     9.7520     8.3570     9.4180    24.4370     2.2600 
  110.0000   -25.9500    67.5650     9.4940     8.2690     9.2470    24.4660     2.2440 
  110.1250   -25.7760    62.7130     8.9340     7.9590     8.9700    24.4600     2.2310 
  110.2500   -25.6200    61.5450     8.1520     7.4340     8.5400    24.4100     2.2340 
  110.3750   -25.4830    65.3680     7.3200     6.7890     7.7310    24.2630     2.2560 
  110.5000   -25.3210    69.5610     6.6380     6.1780     6.6930    24.0130     2.2890 
  110.6250   -25.2380    69.9280     6.3140     5.7860     6.0240    23.7900     2.3120 
  110.7500   -25.2230    69.5670     6.3450     5.6480     5.9380    23.5930     2.3120 
  110.8750   -25.2120    69.6420     6.6790     5.7380     6.2080    23.4700     2.2930 
  111.0000   -25.2100    68.1860     7.1640     5.9620     6.7640    23.4220     2.2670 
  111.1250   -25.2250    62.6920     7.5150     6.1520     7.0850    23.4180     2.2510 
  111.2500   -25.2310    60.6620     7.5040     6.1600     7.0450    23.4280     2.2480 
  111.3750   -25.2370    64.4420     7.0960     5.9400     6.6210    23.4530     2.2550 
  111.5000   -25.2520    68.6390     6.4780     5.5600     6.0940    23.4870     2.2660 
  111.6250   -25.2690    69.9260     6.0000     5.1930     6.0570    23.5020     2.2760 
  111.7500   -25.2860    70.0830     5.8910     5.0140     6.0150    23.5060     2.2860 
  111.8750   -25.3020    71.1330     6.2640     5.1550     5.7480    23.5060     2.3070 
  112.0000   -25.3500    70.9660     7.1810     5.7160     6.0210    23.5060     2.3510 
  112.1250   -25.4780    66.9440     8.7480     6.8330     6.8350    23.4960     2.4300 
  112.2500   -25.6090    60.9360    10.7340     8.3580     7.7440    23.4360     2.5150 
  112.3750   -25.7260    56.0820    12.7380    10.0240     8.4540    23.2980     2.5600 
  112.5000   -25.9040    56.9860    14.0960    11.3580     8.9550    23.1470     2.5350 
  112.6250   -26.0630    61.9450    14.0730    11.7600     9.2980    23.0000     2.4520 
  112.7500   -26.1880    66.0550    13.1360    11.3960     9.5210    22.9160     2.3590 
  112.8750   -26.3500    69.0920    11.9500    10.6570     9.6690    22.9760     2.2820 
  113.0000   -26.5020    70.8700    10.9930     9.9130     9.5550    23.0520     2.2380 
  113.1250   -26.5900    69.9110    10.4750     9.3950     9.4890    23.0740     2.2340 
  113.2500   -26.7210    67.8700    10.2700     9.0930     9.4360    23.0750     2.2520 
  113.3750   -26.8980    67.7810    10.2610     8.9570     9.4350    23.0860     2.2710 
  113.5000   -27.0200    69.3020    10.3370     8.9290     9.3350    23.1390     2.2720 
  113.6250   -27.1470    68.9920    10.4130     8.9640     9.0990    23.3910     2.2460 
  113.7500   -27.3040    66.2220    10.4420     9.0090     8.8290    23.8730     2.2080 
  113.8750   -27.4060    63.5240    10.4020     9.0320     8.9000    24.3610     2.1730 
  114.0000   -27.4770    62.8770    10.2790     9.0050     9.1990    24.4110     2.1580 
  114.1250   -27.5570    63.2320    10.0570     8.9000     9.3570    23.9440     2.1680 
  114.2500   -27.5930    63.0660     9.7860     8.7390     9.2490    23.3640     2.1870 
  114.3750   -27.6070    62.8890     9.5370     8.5570     9.0150    22.9640     2.2030 
  114.5000   -27.6290    64.0030     9.3840     8.4040     8.9400    22.8210     2.2130 
  114.6250   -27.6370    64.6790     9.3910     8.3410     9.0150    22.8270     2.2170 
  114.7500   -27.6350    64.0040     9.5140     8.3710     9.2360    22.9120     2.2180 
  114.8750   -27.6340    62.6590     9.6830     8.4760     9.5160    23.1820     2.2170 
  115.0000   -27.6410    60.1680     9.8180     8.6120     9.7050    23.6730     2.2120 
  115.1250   -27.6360    57.7340     9.8440     8.7200     9.7850    23.9540     2.2080 
  115.2500   -27.6410    57.5610     9.7750     8.7810     9.8800    24.0740     2.2070 
  115.3750   -27.6360    58.9060     9.6540     8.8060     9.8070    24.1050     2.2080 
  115.5000   -27.6100    59.9050     9.5300     8.8190     9.4710    24.1140     2.2050 
  115.6250   -27.5530    59.7030     9.4220     8.8270     9.2290    24.1090     2.1970 
  115.7500   -27.4970    58.5230     9.3030     8.8070     9.1740    24.0650     2.1890 
  115.8750   -27.4810    56.9830     9.1310     8.7180     9.1380    23.9300     2.1920 
  116.0000   -27.4380    56.0570     8.8760     8.5250     9.0340    23.7000     2.2090 
  116.1250   -27.3670    58.0820     8.5290     8.2010     8.6680    23.5370     2.2360 
