~V
VERS. 2.00: Ver 2.00
~W
STRT.M 56.0000:
STOP.M 268.0000:
STEP.M 0.1250:
NULL. -999.2500:
UWI. F10027:
~C
DEPT.M :
GR.API :
RML.OHMM :
RI. :
RXO.OHMM :
CALI.CM :
DEN.GM/CC :
SP.MV :
~A
# ...
  236.0000    39.2000     5.7360     5.2940     4.4960    23.9250     2.2650    -6.8240 
  236.1250    37.2410     5.6770     5.1940     4.8300    23.9840     2.2670    -6.6830 
  236.2500    35.2190     5.6320     5.1590     5.2390    24.0590     2.2690    -6.5920 
  236.3750    35.6290     5.6040     5.1620     5.3640    24.1360     2.2770    -6.4910 
  236.5000    38.3460     5.5910     5.1620     5.3930    24.1650     2.2960    -6.3900 
  236.6250    38.8650     5.5670     5.1070     5.3320    24.1290     2.3260    -6.3060 
  236.7500    35.4060     5.4880     4.9930     5.2680    24.0550     2.3520    -6.2100 
  236.8750    30.3060     5.3490     4.8360     5.0550    23.9870     2.3630    -6.1000 
  237.0000    26.2250     5.1850     4.6690     4.6560    23.9480     2.3550    -6.0120 
  237.1250    25.0160     5.0640     4.5390     4.4980    23.9180     2.3400    -5.9070 
  237.2500    26.9760     5.0150     4.4660     4.5840    23.9190     2.3350    -5.7800 
  237.3750    30.0760     5.0180     4.4520     4.7500    24.0190     2.3440    -5.6630 
  237.5000    32.0590     5.0430     4.4760     4.8800    24.1130     2.3580    -5.5660 
  237.6250    32.8950     5.0210     4.4990     4.8470    24.1110     2.3660    -5.4930 
  237.7500    33.8630     4.9480     4.4890     4.7690    24.0220     2.3640    -5.4080 
  237.8750    33.5100     4.8730     4.4440     4.6070    23.9320     2.3560    -5.3630 
  238.0000    31.8830     4.8140     4.3800     4.4480    23.8950     2.3430    -5.3410 
  238.1250    32.0640     4.7620     4.3240     4.4280    23.9590     2.3240    -5.2890 
  238.2500    32.6400     4.7360     4.2890     4.4180    24.0430     2.2990    -5.2550 
  238.3750    30.9470     4.7480     4.2790     4.4560    24.0680     2.2750    -5.2580 
  238.5000    27.6370     4.7820     4.2880     4.5470    24.1260     2.2590    -5.2860 
  238.6250    26.4410     4.7980     4.3100     4.5900    24.1800     2.2570    -5.3070 
  238.7500    27.2770     4.7530     4.3350     4.5760    24.2000     2.2620    -5.3280 
  238.8750    27.8590     4.6990     4.3540     4.6050    24.2050     2.2730    -5.3680 
  239.0000    27.1790     4.6640     4.3610     4.6300    24.1810     2.2860    -5.4140 
  239.1250    25.9000     4.6540     4.3490     4.6280    24.0930     2.3060    -5.4820 
  239.2500    26.3870     4.6820     4.3310     4.6080    24.0020     2.3310    -5.5910 
  239.3750    29.6450     4.7730     4.3210     4.5990    23.9560     2.3540    -5.6900 
  239.5000    34.0830     4.9020     4.3360     4.6190    23.9460     2.3710    -5.7310 
  239.6250    37.5310     5.0690     4.3910     4.9340    23.9410     2.3760    -5.7600 
  239.7500    40.1080     5.2360     4.4670     5.5230    23.9270     2.3770    -5.8110 
  239.8750    41.3870     5.3580     4.5360     5.9290    23.9080     2.3750    -5.8110 
  240.0000    40.3980     5.3920     4.5670     5.6230    23.9030     2.3750    -5.7490 
  240.1250    36.4240     5.3200     4.5340     4.9040    23.9140     2.3720    -5.6880 
  240.2500    32.9380     5.1970     4.4620     4.5260    23.9230     2.3670    -5.6210 
  240.3750    31.1400     5.0760     4.3820     4.3420    23.9090     2.3590    -5.5310 
  240.5000    29.7900     4.9930     4.3220     4.2830    23.8950     2.3500    -5.4260 
  240.6250    28.5330     4.9630     4.2950     4.4290    23.9240     2.3450    -5.3210 
  240.7500    27.5530     4.9580     4.2870     4.5110    23.9990     2.3440    -5.2250 
  240.8750    27.2630     4.9460     4.2790     4.4820    24.0820     2.3470    -5.1470 
  241.0000    26.8530     4.8910     4.2590     4.4180    24.1240     2.3530    -5.1030 
  241.1250    26.8210     4.8180     4.2210     4.4340    24.1340     2.3620    -5.0840 
  241.2500    27.5140     4.7410     4.1750     4.4500    24.1450     2.3720    -5.0930 
  241.3750    27.8420     4.6620     4.1310     4.5140    24.1550     2.3770    -5.1210 
  241.5000    28.6370     4.5990     4.0980     4.6300    24.1420     2.3740    -5.1640 
  241.6250    32.6760     4.6170     4.0910     4.8440    24.0800     2.3650    -5.2570 
  241.7500    38.1470     4.7350     4.1140     5.0450    24.0140     2.3670    -5.3500 
  241.8750    42.8790     4.9320     4.1830     5.1030    23.9970     2.3840    -5.4380 
  242.0000    46.0810     5.1590     4.3170     5.4480    24.0410     2.4110    -5.5110 
  242.1250    48.7160     5.4600     4.5520     5.8790    24.0920     2.4270    -5.5270 
  242.2500    50.0690     5.8580     4.8790     5.8360    24.1390     2.4280    -5.5080 
  242.3750    48.9330     6.3320     5.2740     5.4840    24.1650     2.4260    -5.4860 
  242.5000    47.1560     6.8000     5.6770     5.4810    24.1700     2.4370    -5.4440 
  242.6250    47.6810     7.1050     5.9770     5.8110    24.1010     2.4600    -5.3680 
  242.7500    50.3080     7.1540     6.0950     5.9280    23.8550     2.4730    -5.2920 
  242.8750    51.3670     6.9370     6.0020     5.7410    23.4180     2.4580    -5.1930 
  243.0000    48.5240     6.5340     5.7300     5.5220    23.0140     2.4180    -5.0720 
  243.1250    42.8050     6.0840     5.3590     5.3710    23.0700     2.3760    -4.9880 
  243.2500    37.0630     5.7080     4.9950     5.2420    23.4300     2.3540    -4.8830 
  243.3750    32.1530     5.4390     4.6890     4.9780    23.7830     2.3540    -4.7360 
  243.5000    28.9630     5.2600     4.4590     4.5830    23.9640     2.3650    -4.6140 
  243.6250    28.3410     5.1380     4.3150     4.2870    24.0230     2.3750    -4.5230 
  243.7500    29.0760     5.0320     4.2280     4.0960    24.0760     2.3750    -4.4310 
  243.8750    29.6040     4.9240     4.1860     4.1110    24.1290     2.3670    -4.3530 
  244.0000    29.3870     4.8150     4.1760     4.2610    24.1460     2.3530    -4.3090 
  244.1250    28.1390     4.7320     4.1880     4.4290    24.1030     2.3340    -4.2880 
  244.2500    27.2090     4.7020     4.2110     4.4940    24.0090     2.3100    -4.3370 
  244.3750    27.5320     4.7390     4.2460     4.4710    23.8780     2.2840    -4.4590 
  244.5000    28.1900     4.8450     4.2950     4.4910    23.7060     2.2580    -4.6080 
  244.6250    26.7930     5.0060     4.3650     4.6450    23.5870     2.2390    -4.7780 
  244.7500    24.9970     5.1780     4.4450     4.8440    23.6050     2.2310    -4.9740 
  244.8750    25.2850     5.3150     4.5200     5.0310    23.6940     2.2310    -5.2440 
  245.0000    27.0860     5.3740     4.5670     5.1350    23.7020     2.2380    -5.5360 
  245.1250    28.0430     5.3150     4.5540     4.8780    23.6530     2.2530    -5.7530 
  245.2500    28.2660     5.1820     4.4860     4.5940    23.6390     2.2750    -5.8960 
  245.3750    29.2260     5.0320     4.3800     4.4620    23.7110     2.3010    -5.9710 
  245.5000    30.2140     4.9240     4.2720     4.4860    23.8190     2.3280    -5.9810 
  245.6250    29.5050     4.8920     4.2030     4.5310    23.8660     2.3500    -5.9300 
  245.7500    28.3360     4.9120     4.1820     4.5370    23.8770     2.3640    -5.8260 
  245.8750    27.9800     4.9610     4.2020     4.5240    23.8780     2.3710    -5.6300 
  246.0000    28.9370     5.0190     4.2460     4.4920    23.8810     2.3740    -5.4080 
  246.1250    31.5730     5.0850     4.3010     4.5640    23.8800     2.3740    -5.2670 
  246.2500    35.8460     5.1610     4.3600     4.6900    23.8790     2.3730    -5.1330 
  246.3750    40.5910     5.2390     4.4120     4.8210    23.8750     2.3710    -4.9940 
  246.5000    43.6240     5.2930     4.4380     4.8780    23.8760     2.3690    -4.9070 
  246.6250    43.8310     5.2600     4.4020     5.0720    23.8760     2.3670    -4.8480 
  246.7500    41.8320     5.1100     4.3050     5.1520    23.8750     2.3650    -4.7550 
  246.8750    39.8920     4.8520     4.1620     5.0380    23.8650     2.3610    -4.6800 
  247.0000    40.6350     4.5610     4.0160     5.0070    23.8400     2.3530    -4.6630 
  247.1250    44.7130     4.4130     3.9470     5.0920    23.8050     2.3440    -4.6340 
