~V
VERS. 2.00: Ver 2.00
~W
STRT.M 55.0000:
STOP.M 310.0000:
STEP.M 0.1250:
NULL. -999.2500:
UWI. F10049:
~C
DEPT.M :
GR.API :
RML.OHMM :
RI. :
RXO.OHMM :
CALI.CM :
DEN.GM/CC :
SP.MV :
~A
# ...
  133.7500    65.5770     9.6900     8.1830     9.4390    23.4110     2.1830   -18.1280 
  133.8750    64.0160     9.6940     8.1650     9.7670    23.7290     2.1550   -18.6160 
  134.0000    66.5070     9.6640     8.1020     9.7230    24.0160     2.1220   -19.0710 
  134.1250    67.3500     9.6200     8.0550     9.2080    23.9110     2.1020   -19.4810 
  134.2500    67.0400     9.5410     8.0520     9.2760    23.7430     2.1010   -19.8630 
  134.3750    69.0770     9.3960     8.0880     9.4590    23.7030     2.1150   -20.1860 
  134.5000    72.1180     9.1870     8.1440     9.4450    23.8370     2.1340   -20.3940 
  134.6250    73.7850     8.9520     8.2010     9.1750    24.1030     2.1470   -20.4840 
  134.7500    74.0640     8.7510     8.2450     8.9640    24.4080     2.1510   -20.4810 
  134.8750    73.7730     8.6070     8.2560     9.2730    24.6390     2.1510   -20.3670 
  135.0000    73.7200     8.5080     8.2110     9.6170    24.7630     2.1510   -20.0040 
  135.1250    75.6280     8.4120     8.0730     9.4290    24.7980     2.1550   -19.3060 
  135.2500    79.0530     8.2650     7.8440     8.6560    24.8160     2.1630   -18.3290 
  135.3750    80.9670     8.0310     7.5410     7.7110    24.8430     2.1700   -17.2270 
  135.5000    82.0600     7.7010     7.1980     7.1700    24.8620     2.1760   -16.0430 
  135.6250    85.8160     7.2990     6.8560     7.3130    24.8030     2.1820   -14.5860 
  135.7500    90.0020     6.9220     6.5660     6.9210    24.7030     2.1930   -12.9880 
  135.8750    92.6470     6.6590     6.3780     6.3810    24.6440     2.2110   -11.4660 
  136.0000    94.8130     6.5860     6.3350     5.8220    24.6760     2.2350   -10.3160 
  136.1250    96.1440     6.7560     6.4850     5.8310    24.8310     2.2570    -9.6030 
  136.2500    92.7640     7.0730     6.7720     6.2070    25.0110     2.2690    -9.3390 
  136.3750    84.6560     7.4510     7.1210     6.8420    25.1010     2.2680    -9.5340 
  136.5000    78.3140     7.8220     7.4390     7.6060    25.0270     2.2510   -10.1550 
  136.6250    76.9610     8.1550     7.6630     8.0090    24.8590     2.2220   -11.3940 
  136.7500    75.6900     8.4640     7.8290     8.4900    24.5820     2.1870   -12.9920 
  136.8750    73.3280     8.7570     7.9770     8.6540    24.1740     2.1550   -14.7710 
  137.0000    71.4010     9.0250     8.1210     8.4370    23.8510     2.1290   -16.4800 
  137.1250    71.6890     9.2310     8.2220     8.4640    23.7950     2.1160   -18.1850 
  137.2500    73.2210     9.3480     8.2370     8.7710    23.9880     2.1130   -19.6820 
  137.3750    74.5110     9.3600     8.1640     8.7760    24.2730     2.1200   -20.7610 
  137.5000    75.8070     9.2620     8.0350     8.6420    24.4880     2.1310   -21.4480 
  137.6250    76.7140     9.0430     7.8590     8.5030    24.5860     2.1440   -21.6830 
  137.7500    75.1070     8.7410     7.6170     8.5940    24.6260     2.1540   -21.5620 
  137.8750    73.2920     8.4000     7.3070     8.5890    24.6590     2.1620   -21.0180 
  138.0000    75.9290     8.0920     6.9900     8.4790    24.6530     2.1710   -20.1860 
  138.1250    81.1260     7.9240     6.8110     7.6960    24.5930     2.1830   -18.9750 
  138.2500    80.3380     7.9230     6.8630     6.5340    24.5850     2.1950   -17.7620 
  138.3750    73.5980     8.0630     7.1780     6.1220    24.6830     2.1970   -16.9260 
  138.5000    69.3180     8.2500     7.6750     7.1590    24.7870     2.1840   -16.4460 
  138.6250    72.6850     8.2910     8.0840     8.3430    24.7450     2.1580   -15.9710 
  138.7500    80.5100     8.0640     8.1110     8.6810    24.6910     2.1400   -15.3210 
  138.8750    88.7400     7.5710     7.6630     8.1460    24.7100     2.1440   -14.4500 
  139.0000    94.1050     6.9480     6.9080     6.9050    24.8150     2.1760   -13.2970 
  139.1250    96.1190     6.4500     6.1760     5.5290    25.1010     2.2270   -12.0990 
  139.2500    95.2540     6.2460     5.6960     4.9920    25.4010     2.2740   -10.9540 
  139.3750    91.6330     6.3820     5.5380     5.0550    25.5330     2.3030    -9.6630 
  139.5000    87.3790     6.7860     5.6810     5.2970    25.4740     2.3080    -8.2150 
  139.6250    86.3430     7.3120     6.0590     5.9360    25.3630     2.2910    -7.0600 
  139.7500    84.9660     7.7770     6.5020     6.7890    25.2160     2.2660    -6.4890 
  139.8750    81.1920     8.0830     6.8810     7.8390    24.9540     2.2420    -6.6690 
  140.0000    79.7630     8.1800     7.1070     8.2330    24.6620     2.2250    -7.5430 
  140.1250    83.7510     8.0280     7.1280     8.1680    24.4700     2.2170    -8.8560 
  140.2500    86.0510     7.7010     7.0110     7.7960    24.3780     2.2100   -10.2520 
  140.3750    83.1640     7.2780     6.8140     7.4960    24.3130     2.1990   -11.6390 
  140.5000    78.2520     6.8800     6.6020     7.7830    24.2470     2.1840   -12.9680 
  140.6250    76.0830     6.7080     6.4810     8.3830    24.2520     2.1670   -14.2120 
  140.7500    75.0040     6.9030     6.5590     9.0400    24.3060     2.1590   -15.3080 
  140.8750    72.3100     7.5830     6.9540     9.4960    24.3820     2.1690   -16.0870 
  141.0000    68.3660     8.7880     7.7640    10.1280    24.4270     2.2050   -16.4730 
  141.1250    66.3130    10.3830     9.0210    13.6150    24.4480     2.2670   -16.2930 
  141.2500    66.3280    11.7980    10.3200    21.4440    24.5670     2.3370   -15.6200 
  141.3750    67.5440    12.4480    11.0600    26.3680    24.8750     2.3970   -14.6100 
  141.5000    72.2910    11.9800    10.7330    24.4780    25.2700     2.4350   -13.3850 
  141.6250    81.7720    10.4750     9.3630    16.2010    25.4240     2.4430   -11.8670 
  141.7500    89.6400     8.7570     7.8170     9.7490    25.3020     2.4290   -10.2490 
  141.8750    91.7490     7.3810     6.5790     6.9870    25.0830     2.4000    -8.8580 
  142.0000    88.8460     6.6020     5.8180     6.9150    24.9350     2.3590    -7.9130 
  142.1250    87.9140     6.4530     5.5810     6.9180    24.8110     2.3140    -7.5600 
  142.2500    89.3260     6.6130     5.6680     7.3960    24.6290     2.2730    -7.5770 
  142.3750    88.9620     6.8480     5.9100     7.3300    24.4830     2.2440    -7.6890 
  142.5000    87.1420     6.9790     6.1270     7.0250    24.4230     2.2290    -7.8120 
  142.6250    90.4030     6.9140     6.1940     6.6010    24.4170     2.2280    -8.0080 
  142.7500    97.1510     6.7520     6.1580     6.3380    24.4170     2.2330    -8.1640 
  142.8750   100.2320     6.5950     6.0850     6.0930    24.4140     2.2390    -8.0940 
  143.0000    97.7990     6.5120     6.0220     6.0270    24.4030     2.2440    -7.7990 
  143.1250    94.8300     6.5180     5.9780     6.0080    24.3710     2.2470    -7.3370 
  143.2500    91.6680     6.5470     5.9400     6.1240    24.3380     2.2490    -6.8150 
  143.3750    89.5700     6.5330     5.9030     6.0410    24.3280     2.2530    -6.3380 
  143.5000    91.4360     6.4430     5.8650     5.6320    24.3620     2.2570    -5.8920 
  143.6250    94.8220     6.3080     5.8320     5.5450    24.4810     2.2620    -5.4420 
  143.7500    94.1130     6.2300     5.8070     5.6750    24.6420     2.2640    -5.0160 
  143.8750    91.4480     6.2670     5.7930     5.7400    24.7710     2.2630    -4.6100 
  144.0000    91.7390     6.4070     5.7950     5.5280    24.9100     2.2620    -4.1730 
  144.1250    94.5140     6.5660     5.8020     5.4510    25.1610     2.2630    -3.7480 
  144.2500    95.5770     6.6510     5.7760     5.6770    25.3900     2.2670    -3.3980 
  144.3750    96.7660     6.6230     5.6800     5.7420    25.3780     2.2730    -3.0920 
  144.5000   101.2960     6.4810     5.5120     5.4910    25.2700     2.2800    -2.8030 
  144.6250   104.1570     6.2380     5.3070     5.2180    25.3770     2.2840    -2.5430 
  144.7500   103.1160     5.9480     5.1110     5.0220    25.5430     2.2870    -2.2500 
  144.8750   101.8620     5.6710     4.9320     4.8480    25.6360     2.2910    -2.0010 
