~V
VERS. 2.00: Ver 2.00
~W
STRT.M 55.0000:
STOP.M 264.0000:
STEP.M 0.1250:
NULL. -999.2500:
UWI. F10017:
~C
DEPT.M :
DEN.GM/CC :
SP.MV :
GR.API :
CALI.CM :
RXO.OHMM :
RI. :
RML.OHMM :
~A
# ...
  167.5000     2.5060   -49.4710    53.6390    24.2950    23.9060    20.2060    20.8080 
  167.6250     2.5460   -49.3690    53.5340    24.2730    21.9240    20.0640    20.5110 
  167.7500     2.5750   -49.2360    53.2660    24.1960    20.3950    19.8040    20.1110 
  167.8750     2.5770   -49.1170    52.7150    24.1100    20.3700    19.6050    19.8440 
  168.0000     2.5530   -48.9710    52.4740    24.0410    20.8850    19.5810    19.8950 
  168.1250     2.5240   -48.8500    51.7480    24.0070    21.8860    19.7460    20.2590 
  168.2500     2.5120   -48.7270    50.6730    24.0050    23.2900    19.9070    20.5780 
  168.3750     2.5150   -48.5800    50.5190    24.0730    24.3190    19.8410    20.4950 
  168.5000     2.5140   -48.4520    51.9850    24.1430    23.9650    19.3790    19.8200 
  168.6250     2.4860   -48.4280    53.3190    24.1890    22.0950    18.4560    18.6310 
  168.7500     2.4460   -48.4000    53.3590    24.2150    19.5430    17.3350    17.3270 
  168.8750     2.4180   -48.4190    53.0470    24.2270    17.2360    16.2500    16.1200 
  169.0000     2.4100   -48.5130    53.8010    24.2220    15.6940    15.3860    15.0590 
  169.1250     2.4080   -48.6430    54.9250    24.2110    15.1930    14.8900    14.2170 
  169.2500     2.3990   -48.6930    55.1160    24.2040    15.5400    14.6800    13.6890 
  169.3750     2.3860   -48.7250    54.7150    24.2060    16.1300    14.6350    13.5310 
  169.5000     2.3700   -48.7570    55.9090    24.2010    16.2040    14.6080    13.6870 
  169.6250     2.3550   -48.7700    57.7670    24.1860    16.1880    14.4770    13.9690 
  169.7500     2.3520   -48.8060    57.6620    24.1980    16.1290    14.2740    14.1670 
  169.8750     2.3660   -48.8340    56.9500    24.2190    15.6600    14.1090    14.3180 
  170.0000     2.3860   -48.8430    58.0430    24.2290    14.8700    14.1190    14.5850 
  170.1250     2.3930   -48.8460    59.5850    24.2290    15.3010    14.4690    15.1150 
  170.2500     2.3860   -48.8730    58.3670    24.2290    17.5030    15.1230    15.7990 
  170.3750     2.3780   -48.9190    56.3950    24.2290    20.5110    15.9950    16.4720 
  170.5000     2.3690   -48.9770    55.6890    24.2330    22.8410    16.9060    16.9860 
  170.6250     2.3530   -49.0360    56.1590    24.2490    23.4420    17.5640    17.2160 
  170.7500     2.3360   -49.0710    57.1870    24.2630    22.6640    17.8390    17.2060 
  170.8750     2.3340   -49.0610    57.5210    24.2430    21.2260    17.7610    17.0530 
  171.0000     2.3500   -49.0380    56.4030    24.1930    19.6480    17.4560    16.8900 
  171.1250     2.3670   -48.9850    55.7570    24.1750    18.4950    17.0540    16.7830 
  171.2500     2.3770   -48.9160    57.1510    24.1800    18.3550    16.6470    16.6150 
  171.3750     2.3890   -48.8110    58.1560    24.1760    18.9980    16.2530    16.2670 
  171.5000     2.4080   -48.7080    56.4950    24.1740    19.1420    15.8630    15.8110 
  171.6250     2.4250   -48.6190    55.4900    24.1890    18.2430    15.4630    15.4660 
  171.7500     2.4320   -48.4890    57.4290    24.2150    17.3730    15.0690    15.2900 
  171.8750     2.4370   -48.3590    59.7080    24.2220    17.0580    14.7270    15.1820 
  172.0000     2.4460   -48.2450    59.7700    24.2090    16.9650    14.4870    15.0140 
  172.1250     2.4510   -48.1600    58.7120    24.1900    16.7080    14.4300    14.8450 
  172.2500     2.4500   -48.1380    58.6580    24.2010    16.9410    14.5770    14.9690 
  172.3750     2.4490   -48.1440    58.1960    24.2200    18.2150    14.9650    15.5710 
  172.5000     2.4580   -48.1290    57.1330    24.2290    19.7580    15.6340    16.5980 
  172.6250     2.4710   -48.0800    56.6680    24.2280    20.5580    16.6680    17.9170 
  172.7500     2.4730   -48.0410    56.2480    24.2270    21.7460    17.9600    19.4010 
  172.8750     2.4570   -47.9730    54.1400    24.2270    24.1330    19.3180    20.9480 
  173.0000     2.4310   -47.8910    49.9860    24.2270    26.9210    20.4460    22.3220 
  173.1250     2.4140   -47.7510    46.6890    24.2220    27.5510    20.9470    23.0390 
  173.2500     2.4140   -47.5620    45.5790    24.1950    26.3190    20.8410    22.9420 
  173.3750     2.4280   -47.3360    46.2950    24.1400    23.6560    20.3180    22.2230 
  173.5000     2.4440   -47.0740    46.1680    24.0950    21.3490    19.6930    21.3780 
  173.6250     2.4320   -46.7700    45.8840    24.1050    21.1810    19.2860    20.8850 
  173.7500     2.3800   -46.4390    47.8220    24.0960    22.3330    19.1510    20.6930 
  173.8750     2.3110   -46.0990    51.0960    24.0610    23.5400    19.1980    20.6420 
  174.0000     2.2690   -45.7380    53.7890    23.9580    23.5190    19.2540    20.6510 
  174.1250     2.2810   -45.3870    54.8840    23.7120    22.4400    19.0970    20.6730 
  174.2500     2.3110   -45.0550    54.5520    23.3820    20.8890    18.7070    20.6520 
  174.3750     2.3310   -44.8000    52.1760    23.1420    19.6050    18.2100    20.5680 
  174.5000     2.3320   -44.6400    50.4830    23.0730    18.6410    17.8080    20.4610 
  174.6250     2.3230   -44.6170    52.8680    23.3430    18.5560    17.7410    20.5500 
  174.7500     2.3200   -44.6890    56.1210    23.7320    19.0570    18.0600    20.9790 
  174.8750     2.3240   -44.8290    57.7410    24.0200    20.5390    18.7440    21.6760 
  175.0000     2.3250   -45.0360    57.4700    24.1360    23.0910    19.6620    22.3610 
  175.1250     2.3150   -45.3090    55.3640    24.0730    25.9200    20.5330    22.6600 
  175.2500     2.3050   -45.5700    51.9860    23.9280    26.6860    21.0540    22.5950 
  175.3750     2.3030   -45.8130    49.7430    23.8770    25.2960    21.0700    22.2390 
  175.5000     2.3100   -46.0490    50.9590    23.9890    23.0700    20.6160    21.6530 
  175.6250     2.3190   -46.2330    53.1580    24.0820    21.5850    19.8680    20.8500 
  175.7500     2.3310   -46.4000    53.2930    24.0850    20.7930    19.1120    19.9980 
  175.8750     2.3470   -46.5610    52.6250    24.0800    20.4920    18.4830    19.3360 
  176.0000     2.3640   -46.7080    53.8620    24.0670    20.2680    18.0490    19.0470 
  176.1250     2.3750   -46.8620    55.6640    24.0360    19.6770    17.8700    19.1720 
  176.2500     2.3820   -47.0310    54.7050    24.0250    19.1810    17.9120    19.5190 
  176.3750     2.3960   -47.2190    52.2880    24.0330    19.1370    18.1540    19.9710 
  176.5000     2.4260   -47.3970    50.8710    24.0520    19.8400    18.5450    20.4310 
  176.6250     2.4630   -47.5560    49.8770    24.0670    20.8960    19.0040    20.7540 
  176.7500     2.4810   -47.6870    49.1360    24.0480    21.6620    19.4370    20.9630 
  176.8750     2.4700   -47.7720    50.4580    24.0230    21.8520    19.8070    21.1550 
  177.0000     2.4420   -47.8550    53.5260    24.0130    21.6950    20.1090    21.4050 
  177.1250     2.4250   -47.9170    56.0900    24.0130    21.6310    20.3530    21.6770 
  177.2500     2.4290   -47.9400    56.7850    24.0180    22.5100    20.5770    21.8310 
  177.3750     2.4460   -47.9220    55.5640    24.0140    23.6630    20.7910    21.7770 
  177.5000     2.4560   -47.8850    52.7680    24.0050    23.7290    20.9740    21.5580 
  177.6250     2.4510   -47.8150    50.4930    23.9630    22.5780    21.0660    21.3340 
  177.7500     2.4410   -47.7570    50.5160    23.9970    21.8850    21.0450    21.1740 
  177.8750     2.4330   -47.7360    51.3030    24.0400    21.8110    20.9090    20.9830 
  178.0000     2.4280   -47.6960    51.8980    24.0860    21.8560    20.6820    20.6890 
  178.1250     2.4260   -47.6580    52.5120    24.0820    22.0040    20.4000    20.3640 
  178.2500     2.4270   -47.6410    52.5950    24.0810    22.1430    20.1110    20.2170 
  178.3750     2.4310   -47.6110    51.6760    24.0820    22.2850    19.8350    20.3360 
  178.5000     2.4370   -47.5980    50.7360    24.0390    22.0720    19.5820    20.5990 
  178.6250     2.4470   -47.6230    50.1470    24.0000    21.4260    19.3710    20.6910 
