~V
VERS. 2.00: Ver 2.00
~W
STRT.M 55.0000:
STOP.M 293.0000:
STEP.M 0.1250:
NULL. -999.2500:
UWI. F10038:
~C
DEPT.M :
SP.MV :
DEN.GM/CC :
GR.API :
RML.OHMM :
RI. :
RXO.OHMM :
CALI.CM :
~A
   55.0000   105.3660     2.0540    40.8060     7.0170     0.5650     2.6620    25.3630 
   55.1250   105.2500     2.0590    42.9380     6.9990     0.5680     2.6490    25.3630 
   55.2500   105.3360     2.0680    44.6390     7.0170     0.5720     2.6440    25.3630 
   55.3750   105.6090     2.0770    45.6650     7.0160     0.5750     2.6440    25.3620 
   55.5000   105.8970     2.0820    47.7130     6.9420     0.5770     2.6400    25.3590 
   55.6250   105.9730     2.0810    50.4980     6.7630     0.5780     2.6200    25.3520 
   55.7500   105.7960     2.0750    50.6720     6.5180     0.5780     2.5710    25.3360 
   55.8750   105.4130     2.0670    47.1230     6.2460     0.5790     2.4920    25.3120 
   56.0000   104.8290     2.0600    42.8430     5.9860     0.5810     2.4060    25.2940 
   56.1250   103.7320     2.0540    41.8460     5.8070     0.5830     2.3190    25.2890 
   56.2500   101.9360     2.0520    42.6760     5.7790     0.5840     2.2340    25.2870 
   56.3750    99.2750     2.0540    42.9930     5.9300     0.5850     2.1590    25.2860 
   56.5000    95.7650     2.0620    43.3210     6.1960     0.5830     2.0050    25.2810 
   56.6250    91.4330     2.0730    44.3360     6.3100     0.5770     1.7630    25.2740 
   56.7500    86.5430     2.0860    45.3570     5.9570     0.5670     1.3510    25.2610 
   56.8750    81.1670     2.1070    46.4320     4.9100     0.5510     0.7190    25.2350 
   57.0000    75.3180     2.1490    47.1620     3.2350     0.5280     0.2950    25.2080 
   57.1250    69.1200     2.2360    46.6640     1.6460     0.5000    -0.0450    25.1720 
   57.2500    62.7630     2.3590    46.1520     0.7380     0.4700    -0.1330    25.1130 
   57.3750    56.3520     2.4920    47.3420     0.3380     0.4430    -0.0460    25.0190 
   57.5000    49.8670     2.5910    49.0930     0.1780     0.4260     0.2430    24.8990 
   57.6250    43.1390     2.6190    50.3750     0.2200     0.4580     1.1160    24.7270 
   57.7500    36.0850     2.5900    55.1820     0.5310     0.5980     2.4960    24.5100 
   57.8750    28.8800     2.5310    66.2410     1.2310     0.9150     4.0050    24.2260 
   58.0000    21.8640     2.4650    81.0320     2.3520     1.4560     5.4800    23.8630 
   58.1250    15.4150     2.4110    91.6630     3.7450     2.2260     5.9380    23.5250 
   58.2500     9.5650     2.3720    94.4320     4.9080     3.0640     5.8350    23.2570 
   58.3750     4.3600     2.3450    92.6500     5.4070     3.8160     5.7310    23.0570 
   58.5000    -0.0720     2.3270    91.7680     5.3030     4.3920     5.7760    22.9300 
   58.6250    -3.4750     2.3130    93.9350     5.1350     4.8070     5.8200    22.9130 
   58.7500    -5.9130     2.3030    96.2060     5.1730     5.1770     5.8190    22.9840 
   58.8750    -7.6060     2.2960    96.1870     5.4070     5.5530     5.8870    23.0520 
   59.0000    -8.8310     2.2880    94.5310     5.7710     5.9530     6.0670    23.0110 
   59.1250    -9.7560     2.2780    92.5520     6.2040     6.3710     6.3460    22.8680 
   59.2500   -10.5090     2.2650    90.5710     6.6280     6.7740     6.6380    22.7220 
   59.3750   -11.0850     2.2530    87.1260     6.9890     7.1120     6.9880    22.6180 
   59.5000   -11.5350     2.2440    81.8620     7.2320     7.3280     7.2610    22.5100 
   59.6250   -11.7770     2.2410    78.9410     7.2920     7.3500     7.2020    22.3620 
   59.7500   -11.8950     2.2420    80.7640     7.1900     7.2020     7.0000    22.2940 
   59.8750   -11.9210     2.2470    86.2960     6.9640     6.9270     6.7720    22.3460 
   60.0000   -11.8580     2.2580    92.8440     6.6850     6.5980     6.6110    22.5200 
   60.1250   -11.6920     2.2780    97.1360     6.4640     6.3110     6.3770    22.8240 
   60.2500   -11.4650     2.3060    96.4530     6.3620     6.1200     6.0190    23.0670 
   60.3750   -11.2510     2.3370    91.6190     6.3830     6.0290     5.9380    23.2160 
   60.5000   -11.0710     2.3590    87.4930     6.4780     6.0040     6.0790    23.3050 
   60.6250   -10.9860     2.3620    90.1750     6.5510     5.9840     6.4350    23.3750 
   60.7500   -10.9700     2.3510    95.0050     6.5300     5.9230     6.5410    23.4450 
   60.8750   -11.0060     2.3350    97.1670     6.4220     5.8210     6.0700    23.5130 
   61.0000   -11.0890     2.3240    97.1020     6.3010     5.7140     5.5440    23.5250 
   61.1250   -11.2670     2.3240    97.7940     6.2690     5.6710     5.2980    23.4650 
   61.2500   -11.5350     2.3250    97.6990     6.3420     5.7110     5.3440    23.3740 
   61.3750   -11.8590     2.3210    96.7180     6.4810     5.8110     5.4820    23.2530 
   61.5000   -12.2130     2.3070    97.4960     6.6080     5.9160     5.6590    23.0750 
   61.6250   -12.5790     2.2910   100.3030     6.6190     5.9420     5.6620    22.7800 
   61.7500   -12.9450     2.2830   101.8900     6.4970     5.8590     5.5470    22.3480 
   61.8750   -13.3110     2.2860   101.2430     6.2780     5.6810     5.3790    21.8720 
   62.0000   -13.6840     2.2980    99.4280     6.0280     5.4550     5.1880    21.6090 
   62.1250   -14.0640     2.3110    97.3960     5.8210     5.2510     5.0370    21.8170 
   62.2500   -14.4280     2.3190    95.2700     5.7040     5.1260     5.0830    22.3980 
   62.3750   -14.7700     2.3230    92.8970     5.7200     5.1280     5.3050    23.1160 
   62.5000   -15.1060     2.3310    90.5700     5.9190     5.2970     5.6160    23.7450 
   62.6250   -15.4750     2.3530    91.7510     6.3610     5.6690     6.0860    24.1430 
   62.7500   -15.9210     2.3820    93.8920     6.9550     6.1550     6.8430    24.3990 
   62.8750   -16.4760     2.4050    91.3570     7.5690     6.6470     7.7150    24.5820 
   63.0000   -17.1630     2.4060    83.6990     8.0250     7.0230     8.9180    24.6620 
   63.1250   -18.0000     2.3750    77.2920     8.1480     7.1580     9.4420    24.6680 
   63.2500   -18.9660     2.3280    76.1010     8.0430     7.1050     8.7550    24.6490 
   63.3750   -20.0380     2.2790    76.4000     7.8880     6.9700     7.6980    24.6110 
   63.5000   -21.1480     2.2420    73.7460     7.8410     6.8700     7.8450    24.5690 
   63.6250   -22.2260     2.2210    69.6020     7.9820     6.9000     8.5450    24.5590 
   63.7500   -23.1990     2.2080    67.3510     8.2370     7.0390     9.1400    24.5460 
   63.8750   -24.0220     2.1990    66.7380     8.5200     7.2350     9.2680    24.5250 
   64.0000   -24.6580     2.1920    65.4380     8.7570     7.4260     9.2340    24.5280 
   64.1250   -25.0260     2.1880    62.6240     8.9100     7.5600     9.2310    24.5550 
   64.2500   -25.1830     2.1880    61.1450     9.0230     7.6400     9.3710    24.5500 
   64.3750   -25.1750     2.1950    61.8780     9.1180     7.6770     9.6060    24.4940 
   64.5000   -25.0490     2.2050    63.2910     9.1860     7.6740     9.7680    24.3830 
   64.6250   -24.8290     2.2120    63.8290     9.1850     7.6180     9.7480    24.2130 
   64.7500   -24.5850     2.2130    63.4150     9.1160     7.5170     9.5960    24.0190 
   64.8750   -24.3410     2.2060    63.5210     8.9960     7.3850     9.2590    23.7760 
   65.0000   -24.1150     2.1950    64.7290     8.8630     7.2470     8.5850    23.5050 
   65.1250   -23.9440     2.1860    66.4340     8.7630     7.1420     8.0200    23.3180 
   65.2500   -23.8010     2.1840    67.6140     8.7130     7.0910     7.7150    23.2260 
   65.3750   -23.6800     2.1910    67.2670     8.7230     7.1040     7.6620    23.1900 
   65.5000   -23.5840     2.2040    66.3980     8.7910     7.1780     7.8520    23.1590 
   65.6250   -23.5310     2.2180    66.1800     8.9160     7.3040     8.2240    23.1060 
   65.7500   -23.4590     2.2270    64.8990     9.0630     7.4460     8.5760    23.0970 
   65.8750   -23.3190     2.2300    62.9440     9.2020     7.5790     8.7340    23.1400 
   66.0000   -23.0840     2.2270    62.7480     9.2920     7.6720     8.7200    23.2500 
   66.1250   -22.7340     2.2180    66.6150     9.2720     7.6780     8.5440    23.3390 
