~V
VERS. 2.00: Ver 2.00
~W
STRT.M 55.0000:
STOP.M 314.0000:
STEP.M 0.1250:
NULL. -999.2500:
UWI. F10048:
~C
DEPT.M :
DEN.GM/CC :
GR.API :
RML.OHMM :
RI. :
RXO.OHMM :
CALI.CM :
SP.MV :
~A
# ...
  201.2500     2.5750    66.8970    19.6250    17.8390    17.6360    22.7230    -5.4230 
  201.3750     2.5720    67.7660    19.9150    18.0850    18.0550    22.6740    -5.4540 
  201.5000     2.5710    68.6890    20.0040    18.2120    18.5930    22.6540    -5.5090 
  201.6250     2.5750    68.1660    19.8000    18.1230    18.4990    22.6480    -5.5680 
  201.7500     2.5830    67.6210    19.4190    17.8740    17.9910    22.6660    -5.6060 
  201.8750     2.5920    68.0670    19.0000    17.5610    17.4450    22.6980    -5.5850 
  202.0000     2.5980    68.3560    18.6720    17.2970    17.2970    22.7200    -5.5270 
  202.1250     2.5990    67.8850    18.5220    17.1670    16.8550    22.7040    -5.4810 
  202.2500     2.5960    66.8510    18.4660    17.1220    16.7940    22.6700    -5.4230 
  202.3750     2.5910    65.0440    18.3840    17.0670    16.9880    22.6420    -5.3100 
  202.5000     2.5870    62.7380    18.1540    16.8950    16.7000    22.6260    -5.1610 
  202.6250     2.5870    60.9010    17.6890    16.5150    15.2710    22.6200    -5.0430 
  202.7500     2.5910    60.6560    17.0900    15.9940    13.5550    22.6350    -4.9530 
  202.8750     2.5970    61.0040    16.4850    15.4350    12.4580    22.6920    -4.8680 
  203.0000     2.6040    60.9420    15.9880    14.9400    12.0160    22.8090    -4.7520 
  203.1250     2.6060    60.9430    15.6600    14.5800    11.7120    23.0080    -4.6880 
  203.2500     2.6020    60.8380    15.4310    14.3170    11.5360    23.2150    -4.7030 
  203.3750     2.5900    60.4620    15.2480    14.1120    11.7160    23.3340    -4.8100 
  203.5000     2.5720    61.7880    15.1010    13.9460    12.1700    23.3190    -4.9530 
  203.6250     2.5540    66.3290    15.0700    13.8740    12.5900    23.1860    -5.0920 
  203.7500     2.5440    70.2040    15.2330    13.9650    12.7930    22.9910    -5.2550 
  203.8750     2.5450    68.7240    15.6340    14.2880    13.3550    22.7670    -5.5060 
  204.0000     2.5540    63.1860    16.2540    14.8640    14.3950    22.5530    -5.8510 
  204.1250     2.5650    61.6440    17.0000    15.6480    15.4920    22.4160    -6.1510 
  204.2500     2.5710    64.1680    17.6730    16.4290    16.0460    22.3390    -6.3880 
  204.3750     2.5730    67.0450    18.0860    16.9960    16.4710    22.3420    -6.5920 
  204.5000     2.5730    68.8000    18.0980    17.1640    16.8560    22.4340    -6.7970 
  204.6250     2.5700    70.5270    17.6180    16.7960    16.9560    22.6470    -6.9890 
  204.7500     2.5670    72.1830    16.8660    16.0970    16.2990    22.9440    -7.1320 
  204.8750     2.5650    72.7580    16.0640    15.2830    15.2070    23.2580    -7.2300 
  205.0000     2.5650    72.7280    15.4250    14.5650    14.0440    23.5070    -7.3280 
  205.1250     2.5690    71.1080    15.1200    14.1270    13.4520    23.6370    -7.4590 
  205.2500     2.5750    68.4430    15.0570    13.9270    13.2870    23.6850    -7.6420 
  205.3750     2.5800    67.5380    15.0830    13.8670    13.3380    23.6970    -7.8620 
  205.5000     2.5820    68.6190    15.0340    13.8120    13.3010    23.7070    -8.1090 
  205.6250     2.5760    70.4100    14.7880    13.6400    13.1070    23.7360    -8.4570 
  205.7500     2.5640    71.9490    14.4160    13.3600    12.8010    23.7940    -8.9150 
  205.8750     2.5480    73.5900    14.0440    13.0500    12.5590    23.8860    -9.4040 
  206.0000     2.5320    74.4400    13.7980    12.8000    12.5700    23.9900    -9.8540 
  206.1250     2.5180    73.6520    13.7510    12.6840    13.0200    24.0710   -10.3810 
  206.2500     2.5090    73.0240    13.8120    12.6590    13.6570    24.0850   -10.9780 
  206.3750     2.5020    72.7690    13.8750    12.6620    14.2410    24.0290   -11.6110 
  206.5000     2.4950    70.9150    13.8550    12.6270    14.3670    23.9470   -12.3200 
  206.6250     2.4860    68.2270    13.7310    12.5250    14.0170    23.9080   -13.0950 
  206.7500     2.4770    68.4340    13.6150    12.4180    13.8750    23.9240   -13.9710 
  206.8750     2.4680    71.5530    13.6420    12.3900    14.1940    23.9510   -15.0620 
  207.0000     2.4610    72.9490    13.9360    12.5300    14.8250    23.9380   -16.4400 
  207.1250     2.4530    69.5740    14.6120    12.9430    15.8430    23.8190   -18.0380 
  207.2500     2.4420    67.2030    15.5670    13.5870    17.4340    23.6170   -19.7910 
  207.3750     2.4270    67.9980    16.6580    14.3950    19.4230    23.3720   -21.6590 
  207.5000     2.4100    68.3850    17.6930    15.2410    21.4000    23.1500   -23.5510 
  207.6250     2.3920    64.8510    18.3960    15.9260    23.7050    23.0100   -25.4470 
  207.7500     2.3770    60.3400    18.6590    16.3140    25.9210    22.9430   -27.2400 
  207.8750     2.3680    57.7930    18.4750    16.3480    26.8950    22.9240   -28.7950 
  208.0000     2.3640    57.8890    17.9690    16.0740    26.7450    22.9350   -30.0690 
  208.1250     2.3650    59.2750    17.3780    15.6270    25.7810    22.9680   -31.1160 
  208.2500     2.3670    60.7580    16.9600    15.2160    24.8570    23.0170   -31.9400 
  208.3750     2.3640    60.7100    16.8360    14.9630    24.3940    23.0810   -32.5670 
  208.5000     2.3550    59.6360    17.0050    14.9220    24.6550    23.1670   -33.0420 
  208.6250     2.3400    58.3600    17.3480    15.0810    25.6190    23.2980   -33.3870 
  208.7500     2.3240    55.8930    17.6350    15.2920    26.1940    23.5030   -33.6920 
  208.8750     2.3110    53.5640    17.7040    15.4190    25.9920    23.7590   -33.9330 
  209.0000     2.3040    53.1050    17.4620    15.3480    25.4390    23.9480   -34.0850 
  209.1250     2.3040    53.7420    16.8890    14.9990    24.5330    23.9570   -34.1160 
  209.2500     2.3080    53.3090    16.1720    14.4850    23.2280    23.8210   -34.0670 
  209.3750     2.3140    52.8310    15.4680    13.9330    21.4050    23.5330   -33.9500 
  209.5000     2.3170    54.5880    14.9030    13.4530    19.1030    23.0740   -33.7560 
  209.6250     2.3180    57.3400    14.5520    13.1310    16.8740    22.4400   -33.4370 
  209.7500     2.3200    59.4920    14.3270    12.9250    15.3120    21.7700   -33.0330 
  209.8750     2.3250    61.4120    14.1410    12.7720    14.6270    21.1680   -32.6830 
  210.0000     2.3350    62.1670    13.9150    12.5910    14.3020    20.7320   -32.4370 
  210.1250     2.3460    60.2440    13.6020    12.3030    13.9180    20.5640   -32.2570 
  210.2500     2.3490    58.3830    13.2230    11.9160    13.5110    20.6290   -32.1290 
  210.3750     2.3380    58.7880    12.8160    11.4750    13.1110    20.8950   -32.0420 
  210.5000     2.3150    60.6610    12.4200    11.0470    12.6970    21.3130   -32.0160 
  210.6250     2.2910    60.8570    11.9030    10.7110    12.5840    21.8200   -32.0350 
  210.7500     2.2770    60.0950    11.3550    10.4810    12.6170    22.2730   -32.0440 
  210.8750     2.2790    60.2150    10.9600    10.3480    12.5510    22.5440   -31.9750 
  211.0000     2.2940    59.6060    10.7460    10.2840    12.3920    22.6220   -31.8520 
  211.1250     2.3120    56.3410    10.7010    10.2660    12.2090    22.5630   -31.7190 
  211.2500     2.3210    53.9740    10.7320    10.2690    12.1530    22.4210   -31.5860 
  211.3750     2.3200    55.4480    10.7880    10.2880    12.2230    22.1900   -31.4810 
  211.5000     2.3140    59.1600    10.8530    10.3220    12.4440    21.9010   -31.3820 
  211.6250     2.3100    59.7660    10.9140    10.3630    12.7430    21.6870   -31.3940 
  211.7500     2.3110    58.7750    10.9630    10.3950    13.0520    21.7020   -31.5160 
  211.8750     2.3160    58.6390    10.9940    10.4030    13.3050    21.9550   -31.7020 
  212.0000     2.3210    58.4960    11.0070    10.3830    13.4600    22.3070   -31.8700 
  212.1250     2.3190    56.8500    11.0100    10.3370    13.4890    22.6580   -32.0160 
  212.2500     2.3120    56.0310    11.0240    10.2910    13.4460    23.0550   -32.1540 
  212.3750     2.3020    58.5750    11.0710    10.2670    13.4470    23.5070   -32.2410 
