~V
VERS. 2.00: Ver 2.00
~W
STRT.M 60.0000:
STOP.M 217.0000:
STEP.M 0.1250:
NULL. -999.2500:
UWI. F10010:
~C
DEPT.M :
DEN.GM/CC :
GR.API :
RML.OHMM :
RI. :
RXO.OHMM :
CALI.CM :
SP.MV :
~A
# ...
   82.5000     2.2220    73.8080    19.0330    14.0870    25.7670    22.7840   -35.8680 
   82.6250     2.1660    64.7730    26.0620    19.5190    41.8080    23.3700   -35.9910 
   82.7500     2.1230    59.9900    33.5940    26.0720    43.4130    24.0180   -36.1750 
   82.8750     2.0990    59.8350    38.3010    31.0350    40.8650    24.5000   -36.4280 
   83.0000     2.0970    62.8840    36.9320    31.0720    43.5170    24.4170   -36.7210 
   83.1250     2.1190    67.6590    29.8050    25.8170    42.8690    24.2260   -37.0270 
   83.2500     2.1580    71.2100    22.0730    19.6620    28.8400    24.0490   -37.3300 
   83.3750     2.2090    73.3140    16.0150    14.6020    14.7120    23.8870   -37.6060 
   83.5000     2.2630    76.4770    12.0390    11.0730     8.3230    23.6800   -37.8850 
   83.6250     2.3060    81.3480     9.9520     8.9970     7.3720    23.5460   -38.1860 
   83.7500     2.3340    85.2690     8.8810     7.7670     7.5290    23.4830   -38.4400 
   83.8750     2.3460    87.4840     8.3960     7.0920     6.9000    23.4780   -38.5980 
   84.0000     2.3480    88.5480     8.1740     6.7320     5.8050    23.4580   -38.6710 
   84.1250     2.3440    89.7300     7.9790     6.5120     5.1260    23.4120   -38.7290 
   84.2500     2.3400    92.0310     7.7280     6.3060     4.7250    23.3660   -38.8170 
   84.3750     2.3390    96.9120     7.4800     6.1270     4.4930    23.2320   -38.9150 
   84.5000     2.3380   101.5280     7.3270     6.0150     4.5480    22.8760   -38.9690 
   84.6250     2.3330   100.6080     7.3640     6.0280     5.0080    22.5390   -38.9460 
   84.7500     2.3240    97.3970     7.5860     6.1820     5.4670    22.4380   -38.8950 
   84.8750     2.3160    96.0110     7.9790     6.4730     5.7370    22.5040   -38.8770 
   85.0000     2.3110    96.9390     8.4820     6.8680     6.2480    22.6040   -38.9010 
   85.1250     2.3060    95.8900     8.9570     7.2810     7.3060    22.7040   -38.8970 
   85.2500     2.2970    92.5670     9.2720     7.5970     8.1800    22.8310   -38.8240 
   85.3750     2.2840    89.9180     9.3840     7.7470     8.1420    23.0140   -38.6950 
   85.5000     2.2700    89.3730     9.3370     7.7220     7.4700    23.2090   -38.5820 
   85.6250     2.2620    89.1660     9.2360     7.5930     7.1220    23.3590   -38.4960 
   85.7500     2.2610    88.6420     9.1620     7.4530     7.0940    23.4490   -38.3980 
   85.8750     2.2630    88.0310     9.1070     7.3250     6.9740    23.5070   -38.2500 
   86.0000     2.2660    87.5120     9.0360     7.1960     6.7540    23.5940   -38.0070 
   86.1250     2.2720    87.6980     8.8880     7.0130     6.6830    23.7210   -37.7180 
   86.2500     2.2820    89.6850     8.6340     6.7530     6.4880    23.7050   -37.4480 
   86.3750     2.2950    93.0580     8.2720     6.4120     5.9560    23.5010   -37.1960 
   86.5000     2.3100    95.5080     7.8360     6.0250     5.3320    23.2920   -36.9070 
   86.6250     2.3230    96.8560     7.4320     5.6730     5.0000    23.1380   -36.5480 
   86.7500     2.3310    97.5240     7.2300     5.4520     4.9660    23.0070   -36.1530 
   86.8750     2.3330    97.0590     7.4290     5.5010     5.2700    22.8220   -35.7660 
   87.0000     2.3240    95.5680     8.2050     5.9480     5.9780    22.5950   -35.4230 
   87.1250     2.2970    92.5830     9.7800     6.9760     7.3320    22.3590   -35.0900 
   87.2500     2.2530    88.1150    12.0140     8.5490     9.9710    22.1240   -34.7290 
   87.3750     2.2000    82.0170    14.6850    10.5770    14.1030    22.0610   -34.3740 
   87.5000     2.1510    75.7590    17.3580    12.8040    17.5300    22.5690   -34.1030 
   87.6250     2.1190    71.9050    19.3640    14.7190    17.3310    23.5000   -33.9750 
   87.7500     2.1010    71.1240    20.4870    15.9770    16.2700    24.3100   -33.9380 
   87.8750     2.0920    72.6400    20.7450    16.4920    16.2980    24.7100   -33.9560 
   88.0000     2.0880    74.3450    20.2350    16.2970    16.6270    24.8290   -34.0100 
   88.1250     2.0920    75.7580    18.9220    15.3880    16.3230    24.8000   -34.1380 
   88.2500     2.1100    78.1790    17.0390    13.9940    15.1870    24.7130   -34.3510 
   88.3750     2.1470    82.2780    14.8540    12.3190    12.6560    24.6060   -34.6330 
   88.5000     2.1970    88.1230    12.7870    10.6800     9.4580    24.4970   -34.9060 
   88.6250     2.2440    94.9440    11.3350     9.4360     7.6060    24.4300   -35.1010 
   88.7500     2.2730    99.0090    10.5250     8.6510     7.3760    24.4180   -35.2200 
   88.8750     2.2870    97.4840    10.2570     8.3040     8.1010    24.4390   -35.2430 
   89.0000     2.2960    90.7970    10.3820     8.3210     8.8900    24.4560   -35.2220 
   89.1250     2.3080    84.9680    10.7630     8.6450     8.8300    24.4390   -35.1880 
   89.2500     2.3170    83.8250    11.1890     9.0780     8.2080    24.3440   -35.1240 
   89.3750     2.3100    85.8350    11.5180     9.4800     7.9670    24.1460   -34.9860 
   89.5000     2.2830    86.3830    11.6230     9.7370     8.3750    23.9340   -34.7760 
   89.6250     2.2480    83.4420    11.3350     9.6840     8.7210    23.9930   -34.5590 
   89.7500     2.2270    82.1160    10.7200     9.3450     8.2950    24.2190   -34.3810 
   89.8750     2.2290    85.1890     9.9240     8.8090     7.3920    24.3760   -34.2820 
   90.0000     2.2470    90.6000     9.1690     8.2200     6.4860    24.4090   -34.2250 
   90.1250     2.2630    92.0370     8.7450     7.7990     6.1170    24.4080   -34.1130 
   90.2500     2.2660    89.3650     8.7520     7.6670     6.4520    24.4290   -33.9310 
   90.3750     2.2570    85.8620     9.1900     7.8720     7.3010    24.4510   -33.7170 
   90.5000     2.2430    84.5680     9.9300     8.3610     8.4410    24.4570   -33.5340 
   90.6250     2.2370    85.2360    10.6950     8.9440     9.6930    24.4610   -33.3600 
   90.7500     2.2460    84.5030    11.1560     9.3650    10.5210    24.4600   -33.1430 
   90.8750     2.2680    82.6630    11.1550     9.4710    10.5100    24.4460   -32.8530 
   91.0000     2.2930    82.6950    10.8110     9.2970     9.7950    24.4150   -32.4770 
   91.1250     2.3080    85.8570    10.5720     9.1280     8.8270    24.4110   -32.2670 
   91.2500     2.3020    89.1470    10.9340     9.3090     8.4640    24.4350   -32.0430 
   91.3750     2.2750    88.3300    12.2800    10.1280    10.0270    24.4630   -31.8100 
   91.5000     2.2360    82.7170    14.8830    11.8570    15.2820    24.4940   -31.6370 
   91.6250     2.1990    75.5720    19.0230    14.8990    25.7440    24.5560   -31.4960 
   91.7500     2.1750    71.0640    24.0880    19.0090    35.2300    24.6140   -31.2570 
   91.8750     2.1670    68.4700    29.2000    23.6250    36.6530    24.6550   -30.9340 
   92.0000     2.1690    65.2940    33.2230    27.7010    33.0810    24.6690   -30.6260 
   92.1250     2.1730    61.0530    35.1170    30.0170    31.0820    24.6390   -30.3910 
   92.2500     2.1710    56.6270    35.5350    30.8800    31.7600    24.6270   -30.2020 
   92.3750     2.1640    54.0000    35.2550    30.9320    33.5990    24.6390   -30.0360 
   92.5000     2.1540    57.5750    34.8110    30.6820    33.9940    24.6460   -29.8560 
   92.6250     2.1470    65.8390    34.3190    30.2870    31.7360    24.6380   -29.6140 
   92.7500     2.1450    69.8540    33.6640    29.7290    29.1790    24.6440   -29.4780 
   92.8750     2.1470    68.1110    32.7390    28.9550    28.1410    24.6520   -29.4800 
   93.0000     2.1520    66.5890    31.5650    27.9770    28.3230    24.6550   -29.3360 
   93.1250     2.1580    68.4180    30.3440    26.9430    27.8180    24.6450   -29.1490 
   93.2500     2.1650    70.2850    29.4350    26.1440    26.1630    24.6260   -28.7810 
   93.3750     2.1680    71.7490    29.2230    25.8830    25.0890    24.6150   -28.6990 
   93.5000     2.1600    72.8610    30.0740    26.4630    25.7640    24.6420   -28.6010 
   93.6250     2.1400    71.8090    32.4680    28.3340    28.4080    24.6770   -28.5340 
