~V
VERS. 2.00: Ver 2.00
~W
STRT.M 55.0000:
STOP.M 264.0000:
STEP.M 0.1250:
NULL. -999.2500:
UWI. F10017:
~C
DEPT.M :
DEN.GM/CC :
SP.MV :
GR.API :
CALI.CM :
RXO.OHMM :
RI. :
RML.OHMM :
~A
# ...
  246.2500     2.3350   -47.9000    92.9940    23.5380    24.8580    14.6870    18.7690 
  246.3750     2.3280   -47.4810    93.8460    23.5150    21.6730    12.6910    15.4410 
  246.5000     2.3020   -46.9150    91.9160    23.4860    15.8550    10.4230    12.0640 
  246.6250     2.2740   -46.2670    83.0730    23.4260    10.0560     8.5590     9.6250 
  246.7500     2.2570   -45.4940    71.2650    23.3990     7.3920     7.1630     8.0710 
  246.8750     2.2390   -44.6890    60.2820    23.4600     6.7490     6.1490     7.2020 
  247.0000     2.2130   -44.0050    50.8940    23.7110     6.2450     5.4020     6.7150 
  247.1250     2.1780   -43.5160    42.6560    24.0930     5.3550     4.8530     6.3170 
  247.2500     2.1450   -43.1480    35.1950    24.8470     4.4510     4.4340     5.8470 
  247.3750     2.1210   -42.8910    30.1420    26.3020     4.1060     4.1380     5.3730 
  247.5000     2.1040   -42.7000    29.1920    28.0480     4.1090     3.9640     5.1090 
  247.6250     2.0810   -42.5700    32.0100    28.7360     4.2740     3.9150     5.2950 
  247.7500     2.0560   -42.5570    34.0950    27.7610     4.4430     3.9330     5.6110 
  247.8750     2.0460   -42.5570    33.4150    25.7330     4.4680     3.9670     5.6080 
  248.0000     2.0590   -42.5600    30.7090    24.2510     4.3020     3.9770     5.0850 
  248.1250     2.0910   -42.5980    27.9330    23.8580     4.0750     3.9420     4.3290 
  248.2500     2.1300   -42.6390    26.4610    23.8390     3.9640     3.8900     3.9300 
  248.3750     2.1710   -42.6940    27.0230    23.8840     3.9280     3.8410     4.1460 
  248.5000     2.2120   -42.7490    28.3320    23.9340     3.8880     3.8120     4.8290 
  248.6250     2.2430   -42.8340    28.0610    23.9230     3.9800     3.8120     5.5350 
  248.7500     2.2580   -42.9290    26.8780    23.8120     4.1370     3.8250     5.8940 
  248.8750     2.2590   -43.0740    25.9830    23.5840     4.1730     3.8330     5.8790 
  249.0000     2.2530   -43.2120    26.1200    23.4500     4.0600     3.8270     5.6120 
  249.1250     2.2540   -43.2830    27.4010    23.5970     4.0010     3.7960     5.2460 
  249.2500     2.2600   -43.3590    29.0700    23.7670     4.0260     3.7440     4.9330 
  249.3750     2.2590   -43.4440    30.5360    23.7630     4.0390     3.6760     4.7450 
  249.5000     2.2400   -43.5840    30.2830    23.6930     4.0790     3.6030     4.6380 
  249.6250     2.2190   -43.7780    29.2420    23.7670     4.1720     3.5660     4.5600 
  249.7500     2.2210   -43.9750    29.1800    24.0000     4.2990     3.6060     4.5820 
  249.8750     2.2510   -44.1030    30.7940    24.2170     4.5390     3.7610     4.8300 
  250.0000     2.2930   -44.1700    34.7830    24.2280     5.0200     4.0410     5.3930 
  250.1250     2.3250   -44.2540    41.3860    24.1120     5.8850     4.4170     6.2670 
  250.2500     2.3380   -44.2800    48.7250    23.8270     6.6600     4.7650     7.0990 
  250.3750     2.3320   -44.2190    53.2620    23.3790     6.8760     4.9650     7.4840 
  250.5000     2.3120   -44.0480    52.1000    22.9670     6.2900     4.9320     7.1630 
  250.6250     2.2810   -43.8530    46.5410    23.1940     5.4040     4.6520     6.2070 
  250.7500     2.2470   -43.6970    41.1640    23.7440     4.7180     4.2840     5.1660 
  250.8750     2.2230   -43.6740    37.9350    24.0320     4.3710     3.9620     4.3750 
  251.0000     2.2150   -43.7980    36.2480    23.9640     4.3470     3.7830     4.0250 
  251.1250     2.2200   -44.0440    34.4930    23.9340     4.6880     3.8330     4.1720 
  251.2500     2.2250   -44.3810    32.9010    23.9450     5.4530     4.0770     4.6130 
  251.3750     2.2260   -44.7860    32.7320    23.9320     6.4000     4.4730     5.2890 
  251.5000     2.2260   -45.2620    34.6400    23.8830     7.1220     4.9470     6.1540 
  251.6250     2.2240   -45.7290    36.8280    23.8880     7.3360     5.3840     7.0750 
  251.7500     2.2100   -46.0920    37.0800    23.8940     7.2590     5.6830     7.7630 
  251.8750     2.1920   -46.2490    35.6930    23.9060     7.0400     5.7890     7.9320 
  252.0000     2.1910   -46.1890    34.2050    23.9240     6.7360     5.7040     7.4570 
  252.1250     2.2200   -45.9680    33.5010    23.9700     6.1090     5.4650     6.5200 
  252.2500     2.2550   -45.6460    33.7380    24.0590     5.3880     5.1700     5.7040 
  252.3750     2.2720   -45.3250    33.9070    24.1910     4.9500     4.8740     5.3060 
  252.5000     2.2690   -45.0120    32.4540    24.2300     5.0080     4.6210     5.3070 
  252.6250     2.2720   -44.6980    29.5310    24.1630     5.2460     4.4770     5.5060 
  252.7500     2.2890   -44.5510    27.3730    24.1120     5.3910     4.4660     5.6810 
  252.8750     2.3030   -44.6470    26.4460    24.0750     5.5990     4.6020     5.8420 
  253.0000     2.3010   -44.9140    27.2100    24.0110     6.5140     4.8760     6.1410 
  253.1250     2.2860   -45.2030    27.2100    23.9740     8.0910     5.2550     6.7680 
  253.2500     2.2700   -45.5400    27.2100    23.9640     9.1120     5.6500     7.5760 
  253.3750     2.2510   -45.9310    27.2100    23.9630     9.1000     6.0010     8.3130 
  253.5000     2.2260   -46.3360    27.2100    23.9620     8.5440     6.2850     8.8030 
  253.6250     2.2090   -46.7020    27.2100    23.9620     8.4190     6.5200     9.0220 
  253.7500     2.2120   -46.9610    27.2100    23.9610     8.5680     6.7570     9.1560 
  253.8750     2.2300   -47.1190    27.2100    23.9610     9.3380     7.0280     9.3290 
  254.0000     2.2500   -47.2200    27.2100    23.9620    10.4870     7.3160     9.5470 
  254.1250     2.2600   -47.2860    27.2100    23.9630    11.2390     7.5060     9.6380 
  254.2500     2.2570   -47.3150    27.2100    23.9610    11.5580     7.5230     9.4840 
  254.3750     2.2440   -47.2800    27.2100    23.9590    11.2920     7.3920     9.1380 
  254.5000     2.2310   -47.1840    27.2100    23.9590     9.8590     7.2070     8.7720 
  254.6250     2.2250   -47.0750    27.2100    23.9590     8.5850     7.0720     8.5690 
  254.7500     2.2250   -46.8910    27.2100    23.9590     9.0410     6.9980     8.4960 
  254.8750     2.2280   -46.6100    27.2100    23.9590    10.5580     6.9080     8.3950 
  255.0000     2.2360   -46.2690    27.2100    23.9540    10.3130     6.6830     8.0620 
  255.1250     2.2480   -45.9180    27.2100    23.9480     8.0970     6.2330     7.3370 
  255.2500     2.2590   -45.6190    27.2100    23.9450     6.0880     5.6720     6.4450 
  255.3750     2.2690   -45.3660    27.2100    23.9530     5.2970     5.1420     5.6510 
  255.5000     2.2800   -45.1400    27.2100    23.9580     5.1710     4.7680     5.1440 
  255.6250     2.2830   -44.9340    27.2100    23.9460     5.4190     4.6570     5.0890 
  255.7500     2.2720   -44.7680    27.2100    23.9210     5.8690     4.7550     5.3780 
  255.8750     2.2550   -44.5830    27.2100    23.8970     6.4920     4.9720     5.8570 
  256.0000     2.2490   -44.3470    27.2100    23.8950     7.0310     5.1830     6.2810 
  256.1250     2.2550   -44.0650    27.2100    23.9180     6.7390     5.2320     6.3750 
  256.2500     2.2610   -43.7250    27.2100    23.9450     6.0050     5.0910     6.1660 
  256.3750     2.2610   -43.2930    27.2100    23.9570     5.3350     4.8010     5.7770 
  256.5000     2.2620   -42.8340    27.2100    23.9590     4.8240     4.4480     5.3530 
  256.6250     2.2610   -42.4030    27.2100    23.9280     4.3180     4.1370     4.9970 
  256.7500     2.2510   -41.9950    27.2100    23.8550     3.9910     3.9180     4.7190 
  256.8750     2.2350   -41.6570    27.2100    23.7740     4.0440     3.8000     4.4970 
  257.0000     2.2290   -41.4740    27.2100    23.7290     4.3790     3.7650     4.3070 
  257.1250     2.2380   -41.4080    27.2100    23.7470     4.6090     3.7820     4.1930 
  257.2500     2.2460   -41.3890    27.2100    23.8610     4.4340     3.8080     4.2050 
  257.3750     2.2390   -41.4600    27.2100    24.0970     4.1120     3.8250     4.3580 
