~V
VERS. 2.00: Ver 2.00
~W
STRT.M 56.0000:
STOP.M 261.0000:
STEP.M 0.1250:
NULL. -999.2500:
UWI. F10028:
~C
DEPT.M :
GR.API :
RML.OHMM :
RI. :
RXO.OHMM :
CALI.CM :
DEN.GM/CC :
SP.MV :
~A
# ...
  236.0000    60.8670    51.7290    54.6550    52.0720    24.7630     2.2430    -8.1400 
  236.1250    59.0700    53.4170    55.9930    48.4540    24.7100     2.2430    -7.7420 
  236.2500    57.3960    57.3060    59.6660    52.3230    24.6870     2.2400    -7.4260 
  236.3750    57.6600    64.2840    66.6940    61.7270    24.6910     2.2310    -7.1490 
  236.5000    58.7970    75.4540    78.3560    73.2870    24.7170     2.2210    -6.9160 
  236.6250    56.3230    92.9350    96.8000    88.5940    24.8010     2.2300    -6.6970 
  236.7500    51.4530   116.0290   120.6300   120.4560    24.8840     2.2740    -6.4720 
  236.8750    48.6900   142.1150   146.3070   177.7150    24.7950     2.3560    -6.2350 
  237.0000    49.4110   164.0540   166.6530   258.6790    24.4160     2.4620    -5.9830 
  237.1250    50.6190   168.3640   170.1510   279.2190    24.2750     2.5630    -5.7620 
  237.2500    52.0720   152.8330   155.7910   239.1520    24.2590     2.6370    -5.5510 
  237.3750    55.3750   122.0110   127.0140   182.6550    24.2840     2.6790    -5.3240 
  237.5000    56.9970    85.1070    90.6350   126.6030    24.2940     2.6870    -5.1020 
  237.6250    54.5330    53.5060    57.0360    91.9320    24.3220     2.6490    -4.9160 
  237.7500    51.7300    31.3820    32.8400    59.5700    24.3580     2.5650    -4.7120 
  237.8750    50.1240    17.8140    18.1900    29.6290    24.2830     2.4460    -4.5150 
  238.0000    46.5880    10.3130    10.3430     9.4570    24.0460     2.3290    -4.3490 
  238.1250    39.8250     7.1410     6.9750     5.6540    23.8980     2.2780    -4.1980 
  238.2500    33.3250     6.3750     5.7760     6.8030    23.9370     2.3130    -4.0600 
  238.3750    27.6680     7.6480     6.3230    15.6760    24.0720     2.4180    -3.9440 
  238.5000    23.9090    11.0640     8.8510    39.6840    24.2170     2.5490    -3.8270 
  238.6250    23.3940    17.0590    14.2270    95.4650    24.2690     2.6520    -3.6980 
  238.7500    24.1660    23.3340    20.7880   172.1050    24.2850     2.7090    -3.6030 
  238.8750    24.8740    25.3020    24.0690   242.2460    24.3010     2.7180    -3.5280 
  239.0000    26.2730    20.8950    20.9760   175.0580    24.3200     2.6870    -3.4340 
  239.1250    30.8470    13.9890    14.8210    64.4550    24.3120     2.6170    -3.3300 
  239.2500    36.5160     8.3170     9.9060    23.4420    24.2830     2.5260    -3.2430 
  239.3750    40.1610     5.6060     6.7530     9.9250    24.1980     2.4320    -3.1650 
  239.5000    39.5130     4.2070     4.9420     5.8650    24.0520     2.3540    -3.0690 
  239.6250    34.4630     3.7780     4.1190     4.7500    23.9790     2.3140    -2.9580 
  239.7500    29.8240     3.8250     3.8240     4.4180    23.9710     2.3070    -2.8640 
  239.8750    28.0730     4.1030     3.8540     4.3980    23.9720     2.3260    -2.8000 
  240.0000    28.5170     4.4100     4.0250     4.4920    23.9400     2.3570    -2.7430 
  240.1250    28.9160     4.5950     4.1920     4.6900    23.8990     2.3820    -2.6930 
  240.2500    29.1730     4.6640     4.3050     4.8310    23.8540     2.3930    -2.6280 
  240.3750    30.4570     4.6840     4.3850     4.8300    23.8780     2.3890    -2.5760 
  240.5000    32.1470     4.7280     4.4750     4.6280    23.9250     2.3770    -2.5810 
  240.6250    33.8400     4.8430     4.5970     4.6850    23.9670     2.3680    -2.6520 
  240.7500    36.2680     4.9860     4.7190     5.0760    23.9810     2.3650    -2.7550 
  240.8750    38.4080     5.0860     4.7880     5.9180    23.9840     2.3640    -2.8320 
  241.0000    37.9400     5.0850     4.7600     6.4650    23.9830     2.3600    -2.8730 
  241.1250    34.4240     4.9690     4.6260     5.9060    23.9700     2.3520    -2.8890 
  241.2500    31.2920     4.8290     4.4610     4.9350    23.9480     2.3450    -2.9260 
  241.3750    30.3950     4.7390     4.3250     4.5520    23.9300     2.3440    -2.9670 
  241.5000    31.2880     4.7270     4.2490     4.7130    23.9190     2.3510    -2.9850 
  241.6250    32.6670     4.7690     4.2360     4.8230    23.9200     2.3660    -2.9500 
  241.7500    32.7740     4.8000     4.2400     4.8950    23.9420     2.3810    -2.8780 
  241.8750    31.7230     4.7890     4.2300     4.7970    23.9930     2.3930    -2.7980 
  242.0000    30.7240     4.7440     4.1950     4.6040    24.0320     2.4010    -2.7430 
  242.1250    30.9080     4.7080     4.1470     4.4280    24.0480     2.4070    -2.7150 
  242.2500    31.1690     4.7020     4.1080     4.3550    24.0590     2.4130    -2.6900 
  242.3750    30.0870     4.7140     4.0800     4.3680    24.0770     2.4200    -2.6770 
  242.5000    27.6450     4.7230     4.0560     4.3790    24.0800     2.4240    -2.6760 
  242.6250    25.9070     4.7060     4.0150     4.3970    24.0580     2.4210    -2.6870 
  242.7500    25.7470     4.6650     3.9500     4.2240    24.0380     2.4100    -2.6840 
  242.8750    26.3360     4.6170     3.8690     3.9970    24.0230     2.3940    -2.6860 
  243.0000    26.8300     4.5760     3.7840     3.9100    24.0250     2.3790    -2.7100 
  243.1250    27.5600     4.5380     3.7110     3.9290    24.0120     2.3710    -2.7310 
  243.2500    27.9060     4.4910     3.6540     3.9750    23.9890     2.3700    -2.7100 
  243.3750    27.3880     4.4410     3.6110     3.9990    23.9720     2.3740    -2.6630 
  243.5000    26.7050     4.4120     3.5890     3.9330    23.9430     2.3750    -2.6140 
  243.6250    26.4620     4.4470     3.6070     3.9030    23.8810     2.3680    -2.5720 
  243.7500    26.1050     4.5650     3.6800     3.8820    23.8450     2.3570    -2.5300 
  243.8750    25.7750     4.7640     3.8110     3.9640    23.8800     2.3490    -2.4960 
  244.0000    25.8070     5.0080     3.9850     4.2060    23.9360     2.3520    -2.4570 
  244.1250    25.9200     5.2260     4.1570     4.6980    23.9670     2.3680    -2.4400 
  244.2500    25.3080     5.3490     4.2740     5.0720    23.9720     2.3840    -2.4790 
  244.3750    24.5640     5.3500     4.3070     4.9680    23.9660     2.3920    -2.5520 
  244.5000    24.3400     5.2560     4.2720     4.5930    23.9480     2.3860    -2.6870 
  244.6250    24.8320     5.1530     4.2210     4.3990    23.8990     2.3700    -2.8680 
  244.7500    25.9930     5.1250     4.2140     4.4070    23.7520     2.3580    -3.0890 
  244.8750    27.6310     5.2070     4.2770     4.6440    23.5000     2.3580    -3.3340 
  245.0000    30.1460     5.3890     4.4110     5.1140    23.2290     2.3720    -3.5800 
  245.1250    31.9190     5.6170     4.5870     5.5050    23.1960     2.3890    -3.8050 
  245.2500    31.9320     5.8010     4.7440     5.4360    23.3600     2.3960    -3.9930 
  245.3750    31.2110     5.8910     4.8410     5.1380    23.6300     2.3850    -4.1430 
  245.5000    31.9360     5.8730     4.8550     5.0200    23.9130     2.3630    -4.2150 
  245.6250    34.1660     5.7560     4.7830     5.2470    24.1180     2.3420    -4.1910 
  245.7500    34.9130     5.5960     4.6670     5.1100    24.2300     2.3290    -4.1050 
  245.8750    32.9240     5.4390     4.5450     4.8330    24.2840     2.3250    -3.9690 
  246.0000    30.5010     5.3260     4.4500     4.5200    24.3240     2.3280    -3.8270 
  246.1250    31.0280     5.3100     4.4180     4.5180    24.3960     2.3360    -3.6940 
  246.2500    33.6450     5.4010     4.4610     4.7290    24.4810     2.3490    -3.5580 
  246.3750    35.0720     5.5710     4.5730     5.0940    24.5330     2.3650    -3.4090 
  246.5000    34.3640     5.7570     4.7230     5.1700    24.5290     2.3780    -3.2490 
  246.6250    33.9490     5.8740     4.8550     5.0350    24.4660     2.3850    -3.1130 
  246.7500    34.3780     5.8990     4.9280     4.6890    24.4040     2.3870    -3.0040 
  246.8750    34.8660     5.8440     4.9300     4.4770    24.3820     2.3910    -2.9170 
  247.0000    35.6570     5.7490     4.8790     4.5330    24.4060     2.4010    -2.8110 
  247.1250    35.4650     5.6660     4.8170     5.4640    24.4310     2.4150    -2.6980 
