~V
VERS. 2.00: Ver 2.00
~W
STRT.M 51.0000:
STOP.M 242.0000:
STEP.M 0.1250:
NULL. -999.2500:
UWI. F10056:
~C
DEPT.M :
GR.API :
RML.OHMM :
RI. :
RXO.OHMM :
CALI.CM :
SP.MV :
DEN.GM/CC :
~A
# ...
   62.2500    66.0280     8.0470     6.1630     7.4930    25.1300   -11.3470     2.2740 
   62.3750    63.9220     7.9190     6.1540     7.9710    25.9350   -12.9590     2.2420 
   62.5000    64.1540     7.6990     6.0620     8.0700    26.2830   -14.5110     2.1980 
   62.6250    63.2780     7.4610     5.9300     7.8250    26.1830   -16.0160     2.1620 
   62.7500    59.6820     7.2670     5.8090     7.7410    26.0080   -17.3760     2.1430 
   62.8750    56.8280     7.1420     5.7250     7.8720    26.0710   -18.6150     2.1380 
   63.0000    56.7240     7.0890     5.6890     7.9710    26.3680   -19.7540     2.1370 
   63.1250    57.0260     7.0970     5.6980     7.9450    26.4910   -20.7760     2.1310 
   63.2500    57.5480     7.1280     5.7270     7.8430    26.3630   -21.7700     2.1220 
   63.3750    59.4470     7.1540     5.7570     7.6940    26.2140   -22.5860     2.1170 
   63.5000    62.2140     7.1450     5.7670     7.5620    26.1680   -23.2840     2.1230 
   63.6250    64.0900     7.0780     5.7350     7.4380    26.1890   -23.7870     2.1380 
   63.7500    62.6010     6.9720     5.6670     7.3970    26.2020   -24.2220     2.1460 
   63.8750    58.4200     6.8580     5.5820     7.5570    26.2560   -24.6780     2.1330 
   64.0000    54.4400     6.7770     5.5030     7.5820    26.3980   -25.0730     2.0930 
   64.1250    53.9530     6.7750     5.4670     7.3170    26.3550   -25.2690     2.0380 
   64.2500    56.4700     6.8520     5.4840     6.9830    25.9860   -25.2150     1.9990 
   64.3750    59.6990     6.9920     5.5490     6.8110    25.3380   -24.8860     1.9950 
   64.5000    62.4790     7.1490     5.6420     6.8260    24.6230   -24.2870     2.0300 
   64.6250    63.9330     7.2420     5.7140     7.3620    24.0960   -23.3860     2.0880 
   64.7500    64.9110     7.2140     5.7190     7.7840    23.7870   -22.1090     2.1430 
   64.8750    66.5900     7.0590     5.6390     7.3840    23.6750   -20.3950     2.1840 
   65.0000    70.0470     6.8120     5.4860     6.8450    23.6900   -18.3790     2.2140 
   65.1250    76.8760     6.5460     5.2970     6.5490    23.7960   -16.1650     2.2370 
   65.2500    84.6360     6.3490     5.1380     6.1960    23.8340   -13.9750     2.2600 
   65.3750    90.1820     6.2810     5.0530     6.0420    23.8270   -11.9280     2.2790 
   65.5000    92.1680     6.3640     5.0680     6.1000    23.8640   -10.0800     2.2860 
   65.6250    91.1080     6.5990     5.2000     6.1130    23.9600    -8.5450     2.2750 
   65.7500    86.8810     6.8940     5.4000     6.2880    24.1390    -7.3360     2.2570 
   65.8750    82.4330     7.1510     5.6100     6.6770    24.4390    -6.2790     2.2440 
   66.0000    82.8770     7.2640     5.7550     6.7900    24.7080    -5.2490     2.2460 
   66.1250    91.0380     7.1410     5.7470     6.5680    24.7510    -4.2370     2.2650 
   66.2500    99.6950     6.8360     5.5980     6.1420    24.6950    -3.2000     2.2860 
   66.3750   104.3100     6.4250     5.3440     5.4690    24.7440    -2.2600     2.3020 
   66.5000   105.7390     6.0080     5.0550     4.9860    24.8140    -1.3400     2.3090 
   66.6250   104.0310     5.7110     4.8240     4.7440    24.6980    -0.4040     2.3180 
   66.7500   101.2280     5.5760     4.7010     4.6560    24.3950     0.5060     2.3340 
   66.8750    99.9020     5.6080     4.7000     4.7410    24.0660     1.1410     2.3520 
   67.0000    99.6770     5.7890     4.8140     4.9830    23.9090     1.3560     2.3610 
   67.1250    98.3180     6.1210     5.0420     5.5540    24.1330     1.0340     2.3480 
   67.2500    95.6040     6.5780     5.3590     6.1900    24.5690     0.3200     2.3230 
   67.3750    91.9090     7.1590     5.7610     6.4180    25.0830    -0.5980     2.2970 
   67.5000    85.4210     7.8310     6.2330     6.7030    25.5150    -1.6590     2.2790 
   67.6250    77.2780     8.4830     6.7190     7.4720    25.7600    -2.9310     2.2650 
   67.7500    70.7330     8.9570     7.1180     8.2800    26.0220    -4.3140     2.2450 
   67.8750    65.4770     9.1570     7.3550     8.7450    26.5700    -5.6780     2.2090 
   68.0000    60.6070     9.1630     7.4580     8.4900    27.4320    -6.9910     2.1570 
   68.1250    57.2640     9.3370     7.6220     8.1740    28.2010    -8.1240     2.1060 
   68.2500    55.5470    10.0400     8.0830     8.1600    28.6270    -9.0430     2.0850 
   68.3750    54.9270    11.4580     8.9930     8.4710    28.4600    -9.7850     2.1140 
   68.5000    55.1690    13.4970    10.3620    10.6040    27.2860   -10.4390     2.1900 
   68.6250    55.9320    15.5420    11.8840    16.9620    25.9190   -10.9780     2.2750 
   68.7500    55.9860    16.6000    12.8450    22.3110    25.0200   -11.5090     2.3210 
   68.8750    55.2400    16.1220    12.7460    16.7900    24.5030   -12.1430     2.3080 
   69.0000    54.9470    14.4150    11.6900    11.4230    24.1730   -12.7970     2.2490 
   69.1250    56.5400    12.4340    10.2830     9.5570    24.3400   -13.5500     2.1820 
   69.2500    58.1560    10.9690     9.1270     9.0730    24.9910   -14.2840     2.1410 
   69.3750    58.6120    10.1930     8.3970     8.8870    25.7060   -14.9710     2.1300 
   69.5000    58.8440     9.9740     8.0720     9.1180    26.0740   -15.5680     2.1410 
   69.6250    59.6690    10.0770     8.0510     9.4630    26.2260   -16.0250     2.1630 
   69.7500    59.4320    10.2410     8.1440     9.7420    26.4210   -16.3030     2.1810 
   69.8750    58.3580    10.3910     8.2730     9.9520    26.6490   -16.4030     2.1880 
   70.0000    59.6920    10.5130     8.4040    10.0580    26.8200   -16.3530     2.1810 
   70.1250    63.0230    10.6000     8.5130     9.8950    26.5970   -16.0550     2.1650 
   70.2500    64.3260    10.6520     8.5900     9.5350    25.7440   -15.6860     2.1510 
   70.3750    63.2890    10.6600     8.6270     9.2120    24.5980   -15.2610     2.1470 
   70.5000    62.8530    10.6240     8.6220     9.0650    23.8210   -14.9100     2.1550 
   70.6250    63.9330    10.5510     8.5780     9.1420    23.5410   -14.6480     2.1690 
   70.7500    64.6220    10.4720     8.5200     9.2040    23.4980   -14.4840     2.1790 
   70.8750    64.5240    10.4030     8.4620     9.1370    23.7550   -14.4060     2.1810 
   71.0000    64.5080    10.3530     8.4180     9.1120    24.3400   -14.4500     2.1770 
   71.1250    64.4530    10.3230     8.3960     9.0360    25.1570   -14.6020     2.1740 
   71.2500    63.4840    10.3060     8.3880     8.8930    25.4820   -14.8160     2.1780 
   71.3750    61.7410    10.2970     8.3900     8.7880    25.4540   -15.0240     2.1850 
   71.5000    60.4930    10.2880     8.3910     8.8290    25.3950   -15.0660     2.1880 
   71.6250    61.8880    10.2390     8.3650     8.9010    25.4750   -14.8680     2.1730 
   71.7500    64.3600    10.1060     8.2800     8.8760    25.5870   -14.3410     2.1480 
   71.8750    65.7960     9.8620     8.1190     8.7480    25.6250   -13.4440     2.1300 
   72.0000    66.7390     9.5310     7.8940     8.6350    25.5590   -12.0990     2.1390 
   72.1250    70.0390     9.1810     7.6430     8.1760    25.3410   -10.4980     2.1770 
   72.2500    74.8010     8.8830     7.4110     7.5200    25.0270    -8.8200     2.2200 
   72.3750    78.7290     8.6620     7.2170     7.3020    24.6930    -7.1620     2.2470 
   72.5000    80.0270     8.5050     7.0610     7.4640    24.4520    -5.5470     2.2520 
   72.6250    80.1140     8.3700     6.9310     7.1910    24.4290    -4.0400     2.2440 
   72.7500    81.3840     8.2160     6.8090     6.5450    24.5580    -2.8310     2.2390 
   72.8750    83.7260     8.0380     6.6930     6.1510    24.7560    -2.0480     2.2390 
   73.0000    84.7690     7.8630     6.5930     6.3210    24.8910    -1.7600     2.2420 
   73.1250    83.0800     7.7410     6.5370     6.8450    24.9710    -1.7840     2.2430 
   73.2500    81.2590     7.6950     6.5380     7.1500    25.0400    -1.8690     2.2450 
   73.3750    81.0650     7.7360     6.6030     7.0740    25.0960    -1.9890     2.2490 
