~V
VERS. 2.00: Ver 2.00
~W
STRT.M 62.0000:
STOP.M 254.0000:
STEP.M 0.1250:
NULL. -999.2500:
UWI. F10030:
~C
DEPT.M :
DEN.GM/CC :
GR.API :
RML.OHMM :
RI. :
RXO.OHMM :
CALI.CM :
SP.MV :
~A
# ...
  118.2500     2.2760    80.4680     7.4140     6.8240     7.1490    22.9300   -21.3340 
  118.3750     2.2720    84.1640     7.1330     6.7920     7.6600    22.9740   -21.2690 
  118.5000     2.2660    87.8010     6.9730     6.7790     8.0200    23.0180   -21.3740 
  118.6250     2.2640    87.2320     6.8950     6.7440     8.0340    23.0610   -21.6950 
  118.7500     2.2640    84.0790     6.8750     6.7060     7.6270    23.0820   -22.1950 
  118.8750     2.2650    80.8680     6.9780     6.7130     7.5630    23.0530   -22.7870 
  119.0000     2.2650    77.5700     7.2570     6.8100     7.7790    23.0000   -23.4370 
  119.1250     2.2630    74.2900     7.6980     7.0190     8.6420    22.9640   -24.1210 
  119.2500     2.2540    71.9450     8.1340     7.2740     9.8830    22.9330   -24.7930 
  119.3750     2.2360    69.4950     8.4450     7.5140    11.3680    22.8820   -25.3820 
  119.5000     2.2060    65.7510     8.6380     7.7270    12.1970    22.8320   -25.9030 
  119.6250     2.1690    61.7440     8.9820     8.0520    12.3350    22.8470   -26.3260 
  119.7500     2.1450    61.3700     9.8120     8.6950    12.3140    22.9160   -26.5810 
  119.8750     2.1560    63.5170    11.3120     9.8260    12.6860    23.0090   -26.7440 
  120.0000     2.2170    64.0860    13.3560    11.4540    14.8510    23.1420   -26.8440 
  120.1250     2.3150    60.9640    15.2650    13.2150    22.9410    23.3300   -26.8480 
  120.2500     2.3950    58.2940    16.1400    14.3670    33.2270    23.4860   -26.8900 
  120.3750     2.4160    58.6000    15.5660    14.4190    28.7440    23.5390   -26.9900 
  120.5000     2.3710    60.7210    13.9050    13.4650    16.8940    23.4830   -27.0880 
  120.6250     2.2970    62.9660    12.1810    12.1700    13.3860    23.3950   -27.2390 
  120.7500     2.2580    64.2360    11.2700    11.2970    14.4190    23.3330   -27.4330 
  120.8750     2.2790    63.4430    11.4140    11.1460    20.3810    23.2890   -27.6360 
  121.0000     2.3440    61.4400    12.4040    11.7030    33.2520    23.2510   -27.8760 
  121.1250     2.4060    59.7850    13.6240    12.6660    52.6320    23.1540   -28.1060 
  121.2500     2.4260    59.7270    14.2740    13.3890    59.3070    22.9050   -28.2910 
  121.3750     2.3980    61.3040    13.9810    13.4540    42.6450    22.4630   -28.4570 
  121.5000     2.3370    63.1460    12.8710    12.7970    22.8460    21.9560   -28.5660 
  121.6250     2.2700    63.2520    11.4540    11.6820    15.2440    21.6160   -28.5910 
  121.7500     2.2170    61.1890    10.2790    10.5860    12.6100    21.5360   -28.6050 
  121.8750     2.1850    58.2670     9.5330     9.7290    11.6660    21.6950   -28.5600 
  122.0000     2.1720    57.4070     9.2010     9.1780    11.0620    22.0000   -28.4740 
  122.1250     2.1750    60.2840     9.1910     8.9240    10.8430    22.3600   -28.3670 
  122.2500     2.1840    64.0500     9.2970     8.8060    10.8980    22.6930   -28.2090 
  122.3750     2.1930    65.1530     9.4100     8.7240    11.0570    22.9240   -28.0550 
  122.5000     2.1980    64.4830     9.4710     8.6190    11.3440    23.0090   -27.9430 
  122.6250     2.1970    66.1610     9.4760     8.4890    11.8590    22.9790   -27.8520 
  122.7500     2.1920    67.6470     9.5640     8.3830    11.9410    22.9420   -27.8030 
  122.8750     2.1850    65.5520     9.8400     8.3490    11.4350    22.9260   -27.8050 
  123.0000     2.1790    62.2530    10.0810     8.4200    10.7420    22.9120   -27.8090 
  123.1250     2.1720    63.5950    10.2380     8.6120    10.7700    22.8700   -27.8810 
  123.2500     2.1640    67.2560    10.3590     8.8650    10.8860    22.8340   -28.0080 
  123.3750     2.1560    68.3430    10.4820     9.1170    10.9470    22.8620   -28.1020 
  123.5000     2.1500    66.9770    10.5640     9.3080    11.0770    22.9630   -28.2120 
  123.6250     2.1500    65.9460    10.5750     9.3910    11.2860    23.0680   -28.3450 
  123.7500     2.1560    64.6510    10.5510     9.3950    11.2140    23.0810   -28.3860 
  123.8750     2.1650    61.5840    10.5350     9.3640    10.8230    22.9800   -28.3770 
  124.0000     2.1740    58.5290    10.5640     9.3440    10.5190    22.7870   -28.3220 
  124.1250     2.1780    59.8100    10.6630     9.3690    10.4320    22.5270   -28.1260 
  124.2500     2.1780    62.6180    10.7990     9.4180    10.5010    22.2690   -27.8370 
  124.3750     2.1730    63.8650    10.9200     9.4480    10.5400    22.0440   -27.4530 
  124.5000     2.1640    63.0970    10.9580     9.4040    10.5980    21.8430   -26.9490 
  124.6250     2.1540    63.2690    10.8220     9.2220    10.6290    21.6510   -26.3270 
  124.7500     2.1500    65.8220    10.5160     8.9160    10.5640    21.4720   -25.6250 
  124.8750     2.1570    69.3700    10.0830     8.5170    10.3550    21.3120   -24.8820 
  125.0000     2.1770    73.5930     9.6040     8.0750    10.0950    21.1530   -24.1120 
  125.1250     2.2060    77.7310     9.1810     7.6570    10.0700    21.0020   -23.3500 
  125.2500     2.2340    79.7090     8.8740     7.3170    10.7840    20.9250   -22.6220 
  125.3750     2.2560    78.7910     8.7230     7.1110    11.6690    20.9690   -21.9130 
  125.5000     2.2680    76.8730     8.7700     7.0940    11.8380    21.1630   -21.1880 
  125.6250     2.2770    76.2710     9.0810     7.3350    11.0860    21.5300   -20.5050 
  125.7500     2.2920    75.3880     9.5700     7.7620    10.1700    21.9900   -19.8940 
  125.8750     2.3180    74.3350    10.0930     8.2690     9.8520    22.4750   -19.3250 
  126.0000     2.3500    74.4240    10.4280     8.6920    11.0170    22.8980   -18.8510 
  126.1250     2.3710    75.5080    10.2820     8.8070    12.1430    23.1400   -18.4490 
  126.2500     2.3710    76.4900     9.6920     8.5840    10.4510    23.2350   -18.0790 
  126.3750     2.3530    78.7070     8.8330     8.0970     8.6270    23.3010   -17.8270 
  126.5000     2.3300    84.0940     7.9630     7.5060     7.5690    23.4330   -17.6850 
  126.6250     2.3180    92.4770     7.3500     7.0010     7.0080    23.6200   -17.6300 
  126.7500     2.3160    99.0420     7.0470     6.6740     6.8590    23.7460   -17.6760 
  126.8750     2.3180    98.9160     7.0180     6.5330     7.0870    23.7750   -17.7630 
  127.0000     2.3170    92.2650     7.1760     6.5290     7.0820    23.7110   -17.8500 
  127.1250     2.3110    86.1110     7.4260     6.5840     7.0630    23.5760   -17.9420 
  127.2500     2.3050    84.4550     7.6640     6.6220     7.3480    23.4640   -18.0180 
  127.3750     2.2970    86.3670     7.8270     6.6120     7.5550    23.4420   -18.1040 
  127.5000     2.2850    89.1570     7.8700     6.5450     7.4490    23.5040   -18.2040 
  127.6250     2.2680    91.4900     7.7600     6.4190     7.4010    23.5690   -18.2980 
  127.7500     2.2560    91.3670     7.5620     6.2630     7.5060    23.5790   -18.3820 
  127.8750     2.2580    90.0620     7.3730     6.1230     7.5500    23.5760   -18.4660 
  128.0000     2.2730    89.3920     7.3100     6.0670     7.1950    23.6150   -18.5710 
  128.1250     2.2880    87.6840     7.5080     6.1900     7.0680    23.6580   -18.7100 
  128.2500     2.2860    84.3800     7.9320     6.4910     7.2150    23.6130   -18.8670 
  128.3750     2.2660    80.2610     8.4740     6.9180     7.8390    23.4490   -18.9650 
  128.5000     2.2370    78.7680     8.9480     7.3500     8.8930    23.2240   -18.9920 
  128.6250     2.2170    81.8330     9.1040     7.5910     9.3080    23.0410   -18.9650 
  128.7500     2.2150    83.7190     8.9110     7.5730     8.7260    22.9320   -18.8520 
  128.8750     2.2290    82.5590     8.4630     7.3350     7.9950    22.9120   -18.6930 
  129.0000     2.2510    82.6920     7.9350     7.0010     7.4940    23.0060   -18.4980 
  129.1250     2.2730    88.6030     7.5300     6.7150     7.1500    23.1950   -18.2560 
  129.2500     2.2880    93.1820     7.3200     6.5320     7.0600    23.3550   -18.0190 
  129.3750     2.2950    93.7030     7.2980     6.4330     7.2010    23.4380   -17.8420 
