~V
VERS. 2.00: Ver 2.00
~W
STRT.M 57.0000:
STOP.M 177.0000:
STEP.M 0.1250:
NULL. -999.2500:
UWI. F10011:
~C
DEPT.M :
DEN.GM/CC :
SP.MV :
GR.API :
CALI.CM :
RXO.OHMM :
RI. :
RML.OHMM :
~A
# ...
  169.5000     2.3080   -19.1660    76.9380    23.7290     7.6220     7.5000     9.7570 
  169.6250     2.2990   -19.4210    76.9380    23.7300     8.4200     7.4340     9.7690 
  169.7500     2.2840   -19.6690    76.9380    23.7310     9.4080     7.3590     9.7270 
  169.8750     2.2700   -19.8950    76.9380    23.7330    10.4510     7.2770     9.6530 
  170.0000     2.2660   -20.0450    76.9380    23.7340    11.5360     7.1970     9.5830 
  170.1250     2.2800   -20.0280    76.9380    23.7340    13.7630     7.1350     9.5370 
  170.2500     2.3100   -19.9230    76.9380    23.7260    17.6500     7.1000     9.5010 
  170.3750     2.3550   -19.7670    76.9380    23.6950    22.8510     7.0920     9.4670 
  170.5000     2.4110   -19.6360    76.9380    23.6260    27.6990     7.1010     9.4420 
  170.6250     2.4640   -19.5830    76.9380    23.5860    30.1890     7.1120     9.4390 
  170.7500     2.5070   -19.5870    76.9380    23.5590    30.3670     7.1120     9.4480 
  170.8750     2.5380   -19.6880    76.9380    23.5320    28.3230     7.1070     9.4530 
  171.0000     2.5460   -20.0450    76.9380    23.5150    23.4520     7.1090     9.4440 
  171.1250     2.5140   -20.7090    76.9380    23.5100    17.1400     7.1300     9.4330 
  171.2500     2.4530   -21.4450    76.9380    23.5100    13.0180     7.1530     9.4390 
  171.3750     2.3840   -22.1700    76.9380    23.5100    11.1870     7.1620     9.4690 
  171.5000     2.3310   -22.8630    76.9380    23.5100    10.3400     7.1510     9.5080 
  171.6250     2.3020   -23.5280    76.9380    23.5100     9.8270     7.1300     9.5320 
  171.7500     2.2880   -24.1130    76.9380    23.5090     9.7070     7.1210     9.5390 
  171.8750     2.2850   -24.5750    76.9380    23.5090     9.7870     7.1300     9.5380 
  172.0000     2.2890   -24.9060    76.9380    23.5100     9.7690     7.1490     9.5370 
  172.1250     2.2940   -25.0570    76.9380    23.5100     9.5730     7.1490     9.5370 
  172.2500     2.2960   -25.1530    76.9380    23.5090     9.2800     7.1490     9.5370 
  172.3750     2.2970   -25.2220    76.9380    23.5070     8.8580     7.1490     9.5370 
  172.5000     2.2970   -25.2780    76.9380    23.5060     8.4690     7.1490     9.5370 
  172.6250     2.2940   -25.2630    76.9380    23.5070     8.5040     7.1490     9.5370 
  172.7500     2.2900   -25.2450    76.9380    23.5100     9.0610     7.1490     9.5370 
  172.8750     2.2890   -25.2720    76.9380    23.5200     9.7400     7.1490     9.5370 
  173.0000     2.2930   -25.2360    76.9380    23.5420    10.0960     7.1490     9.5370 
  173.1250     2.2960   -25.1810    76.9380    23.5670     9.8370     7.1490     9.5370 
  173.2500     2.2960   -25.1560    76.9380    23.5770     9.2480     7.1490     9.5370 
  173.3750     2.2900   -25.1780    76.9380    23.5790     8.7330     7.1490     9.5370 
  173.5000     2.2750   -25.2660    76.9380    23.5790     8.5220     7.1490     9.5370 
  173.6250     2.2570   -25.3410    76.9380    23.5790     8.4340     7.1490     9.5370 
  173.7500     2.2470   -25.4000    76.9380    23.5790     8.2510     7.1490     9.5370 
  173.8750     2.2430   -25.4420    76.9380    23.5790     7.9730     7.1490     9.5370 
  174.0000     2.2400   -25.5220    76.9380    23.5790     7.7150     7.1490     9.5370 
  174.1250     2.2350   -25.6260    76.9380    23.5460     7.5350     7.1490     9.5370 
  174.2500     2.2280   -25.7120    76.9380    23.3420     7.3940     7.1490     9.5370 
  174.3750     2.2160   -25.7420    76.9380    22.8160     7.1960     7.1490     9.5370 
  174.5000     2.2000   -25.7420    76.9380    22.0410     6.7280     7.1490     9.5370 
  174.6250     2.1920  -999.2500    76.9380    20.4480     5.8660     7.1490     9.5370 
  174.7500     2.1880  -999.2500    76.9380    17.4710     5.0890     7.1490     9.5370 
  174.8750     2.1820  -999.2500    76.9380    14.1220     4.6930     7.1490     9.5370 
  175.0000     2.1800  -999.2500    76.9380    12.3480     4.5880     7.1490     9.5370 
  175.1250     2.1890  -999.2500    76.9380    12.0600     4.5860     7.1490     9.5370 
  175.2500     2.2000  -999.2500    76.9380    12.0540     4.5860     7.1490     9.5370 
  175.3750     2.2270  -999.2500    76.9380    12.0510     4.5850     7.1490     9.5370 
  175.5000     2.0570  -999.2500    76.9380    12.0500     4.5860     7.1490     9.5370 
  175.6250     2.3720  -999.2500    76.9380    12.0490     4.5870     7.1490     9.5370 
  175.7500     3.1490  -999.2500    76.9380    12.0490     4.5870     7.1490     9.5370 
  175.8750     2.5870  -999.2500    76.9380    12.0490     4.5880     7.1490     9.5370 
  176.0000     0.5100  -999.2500    76.9380    12.0480     4.5880     7.1490     9.5370 
  176.1250    -0.1640  -999.2500    76.9380    12.0480     4.5880     7.1490     9.5370 
  176.2500     1.5550  -999.2500    76.9380    12.0470     4.5860     7.1490     9.5370 
  176.3750     4.2540  -999.2500    76.9380    12.0490     4.5850     7.1490     9.5370 
  176.5000     5.7310  -999.2500    76.9380    12.0510     4.5860     7.1490     9.5370 
  176.6250     4.3840  -999.2500    76.9380    12.0530     4.5860     7.1490     9.5370 
  176.7500     1.6760  -999.2500    76.9380    12.0550     4.5870     7.1490     9.5370 
  176.8750     0.2410  -999.2500    76.9380    12.0550     4.5880     7.1490     9.5370 
  177.0000     1.0490  -999.2500    76.9380    12.0550     4.5890     7.1490     9.5370 
