~V
VERS. 2.00: Ver 2.00
~W
STRT.M 50.0000:
STOP.M 293.0000:
STEP.M 0.1250:
NULL. -999.2500:
UWI. F10037:
~C
DEPT.M :
GR.API :
RML.OHMM :
RI. :
RXO.OHMM :
CALI.CM :
SP.MV :
DEN.GM/CC :
~A
# ...
  286.2500    26.9460     4.9620     4.7350     4.9350    24.9980    -8.6430     2.4120 
  286.3750    26.9460     4.9610     4.7360     4.6360    24.9970    -8.5370     2.4180 
  286.5000    26.9460     4.9580     4.7360     4.3840    24.9970    -8.4230     2.4200 
  286.6250    26.9460     4.9540     4.7390     4.3360    24.9940    -8.3470     2.4170 
  286.7500    26.9460     4.9530     4.7440     4.2970    24.9860    -8.2700     2.4130 
  286.8750    26.9460     4.9530     4.7500     4.1700    24.9680    -8.2210     2.4140 
  287.0000    26.9460     4.9550     4.7550     4.0740    24.9380    -8.1970     2.4220 
  287.1250    26.9460     4.9570     4.7570     4.0600    24.9020    -8.1850     2.4340 
  287.2500    26.9460     4.9590     4.7570     4.1170    24.8730    -8.1760     2.4460 
  287.3750    26.9460     4.9600     4.7540     4.2470    24.8620    -8.1340     2.4530 
  287.5000    26.9460     4.9590     4.7510     4.4550    24.8600    -8.0630     2.4560 
  287.6250    26.9460     4.9560     4.7470     4.6830    24.8600    -7.9770     2.4590 
  287.7500    26.9460     4.9530     4.7460     4.8470    24.8600    -7.8920     2.4630 
  287.8750    26.9460     4.9500     4.7480     4.9240    24.8600    -7.8110     2.4690 
  288.0000    26.9460     4.9490     4.7500     4.9940    24.8600    -7.6970     2.4760 
  288.1250    26.9460     4.9480     4.7530     5.0390    24.8600    -7.5790     2.4760 
  288.2500    26.9460     4.9490     4.7550     5.2440    24.8600    -7.5320     2.4670 
  288.3750    26.9460     4.9490     4.7560     5.4140    24.8600    -7.5210     2.4500 
  288.5000    26.9460     4.9500     4.7560     5.2410    24.8600    -7.5260     2.4330 
  288.6250    26.9460     4.9500     4.7560     4.8310    24.8620    -7.5580     2.4250 
  288.7500    26.9460     4.9500     4.7560     4.4720    24.8660    -7.5870     2.4300 
  288.8750    26.9460     4.9500     4.7560     4.3360    24.8740    -7.6160     2.4430 
  289.0000    26.9460     4.9500     4.7560     4.3020    24.8830    -7.7090     2.4590 
  289.1250    26.9460     4.9500     4.7560     4.3020    24.8730    -7.8280     2.4680 
  289.2500    26.9460     4.9500     4.7560     4.3160    24.8280    -7.8890     2.4690 
  289.3750    26.9460     4.9500     4.7560     4.3250    24.7500    -7.9310     2.4650 
  289.5000    26.9460     4.9500     4.7560     4.3260    24.6700    -7.9710     2.4590 
  289.6250    26.9460     4.9500     4.7560     4.3290    24.6480    -8.0050     2.4550 
  289.7500    26.9460     4.9500     4.7560     4.3650    24.7260    -8.0510     2.4530 
  289.8750    26.9460     4.9500     4.7560     4.4550    24.8420    -8.0730     2.4560 
  290.0000    26.9460     4.9500     4.7560     4.5820    24.9080    -8.0630     2.4610 
  290.1250    26.9460     4.9500     4.7560     4.6090    24.9000    -8.0510     2.4670 
  290.2500    26.9460     4.9500     4.7560     4.5270    24.7730    -8.1020     2.4720 
  290.3750    26.9460     4.9500     4.7560     4.3720    24.4020    -8.1820     2.4720 
  290.5000    26.9460     4.9500     4.7560     4.2380    23.6780    -8.2400     2.4660 
  290.6250    26.9460     4.9500     4.7560     4.2720    22.4930    -8.2810     2.4550 
  290.7500    26.9460     4.9500     4.7560     4.3380    21.1540    -8.3100     2.4410 
  290.8750    26.9460     4.9500     4.7560     4.3900    20.1260    -8.3660     2.4280 
  291.0000    26.9460     4.9500     4.7560     4.4080    19.6760    -8.3800     2.4170 
  291.1250    26.9460     4.9500     4.7560     4.4060    19.6030    -8.4290     2.4100 
  291.2500    26.9460     4.9500     4.7560     4.4060    19.5980    -8.4690     2.4060 
  291.3750    26.9460     4.9500     4.7560     4.4060    19.5970    -8.4720     2.4030 
  291.5000    26.9460     4.9500     4.7560     4.4060    19.5970    -8.4720     2.4000 
  291.6250    26.9460     4.9500     4.7560     4.4060    19.5970  -999.2500     2.3990 
  291.7500    26.9460     4.9500     4.7560     4.4060    19.5970  -999.2500     2.3980 
  291.8750    26.9460     4.9500     4.7560     4.4050    19.5970  -999.2500     2.4000 
  292.0000    26.9460     4.9500     4.7560     4.4050    19.5970  -999.2500     2.4030 
  292.1250    26.9460     4.9500     4.7560     4.4050    19.5970  -999.2500     2.4070 
  292.2500    26.9460     4.9500     4.7560     4.4050    19.5970  -999.2500     2.4110 
  292.3750    26.9460     4.9500     4.7560     4.4060    19.5950  -999.2500     2.4140 
  292.5000    26.9460     4.9500     4.7560     4.4060    19.5940  -999.2500     2.4140 
  292.6250    26.9460     4.9500     4.7560     4.4060    19.5910  -999.2500     2.4140 
  292.7500    26.9460     4.9500     4.7560     4.4050    19.5890  -999.2500     2.4130 
  292.8750    26.9460     4.9500     4.7560     4.4050    19.5880  -999.2500  -999.2500 
  293.0000    26.9460     4.9500     4.7560     4.4050    19.5870  -999.2500  -999.2500 
