~V
VERS. 2.00: Ver 2.00
~W
STRT.M 56.0000:
STOP.M 312.0000:
STEP.M 0.1250:
NULL. -999.2500:
UWI. F10077:
~C
DEPT.M :
GR.API :
RML.OHMM :
RI. :
RXO.OHMM :
CALI.CM :
DEN.GM/CC :
SP.MV :
~A
# ...
  236.0000    41.4670     7.5850     6.5890     7.1070    24.8580     2.4200    -2.1550 
  236.1250    39.9550     7.4780     6.4760     7.1690    24.8270     2.4050    -2.1810 
  236.2500    37.9310     7.3460     6.3160     7.0830    24.7830     2.3930    -2.1940 
  236.3750    34.4270     7.2030     6.1460     6.7200    24.7850     2.3880    -2.1730 
  236.5000    31.2030     7.0820     6.0080     6.3960    24.8340     2.3920    -2.1440 
  236.6250    33.6540     7.0400     5.9600     6.2200    24.8620     2.4060    -2.1660 
  236.7500    38.6520     7.0940     6.0050     6.2140    24.8000     2.4230    -2.2460 
  236.8750    41.2640     7.2310     6.1300     6.3740    24.7070     2.4380    -2.3870 
  237.0000    41.2510     7.4050     6.2950     6.8120    24.6590     2.4490    -2.5450 
  237.1250    42.5430     7.5430     6.4440     7.1690    24.6790     2.4520    -2.6690 
  237.2500    44.3440     7.6190     6.5380     7.2720    24.6730     2.4500    -2.7620 
  237.3750    43.9780     7.6490     6.5730     7.2530    24.6350     2.4470    -2.8760 
  237.5000    43.4070     7.6720     6.5600     7.2520    24.6050     2.4450    -3.0340 
  237.6250    45.2450     7.7280     6.5270     7.3290    24.5850     2.4420    -3.2100 
  237.7500    46.6120     7.8120     6.5030     7.3620    24.5620     2.4380    -3.3390 
  237.8750    46.2460     7.8870     6.5000     7.2490    24.5490     2.4340    -3.3690 
  238.0000    44.9320     7.9070     6.5160     7.2540    24.5450     2.4330    -3.3800 
  238.1250    42.8490     7.8370     6.5310     7.2690    24.5350     2.4360    -3.4680 
  238.2500    40.4670     7.7090     6.5160     7.2780    24.5040     2.4400    -3.6190 
  238.3750    38.6420     7.5620     6.4570     7.1630    24.4310     2.4410    -3.7740 
  238.5000    39.0270     7.4320     6.3650     6.9370    24.3310     2.4380    -3.8580 
  238.6250    40.3720     7.3540     6.2740     6.7210    24.3100     2.4320    -3.8330 
  238.7500    40.3910     7.3460     6.2280     6.6840    24.4080     2.4250    -3.7650 
  238.8750    38.7680     7.4160     6.2430     6.7440    24.4700     2.4200    -3.7000 
  239.0000    37.5670     7.5360     6.3120     6.8620    24.4470     2.4180    -3.6160 
  239.1250    38.1510     7.6400     6.4060     7.1460    24.4590     2.4200    -3.5190 
  239.2500    37.9200     7.6650     6.4800     7.5670    24.5340     2.4220    -3.3990 
  239.3750    36.1680     7.5960     6.5060     7.5020    24.5920     2.4220    -3.2590 
  239.5000    35.4510     7.4540     6.4740     6.8640    24.5410     2.4170    -3.1660 
  239.6250    37.4860     7.2910     6.3800     6.6570    24.3740     2.4070    -3.1480 
  239.7500    39.3450     7.1480     6.2560     6.7830    24.2120     2.4000    -3.1850 
  239.8750    38.9160     7.0360     6.1250     6.6710    24.1300     2.3970    -3.2470 
  240.0000    37.0480     6.9600     6.0110     6.2040    24.1720     2.4010    -3.2650 
  240.1250    35.1940     6.9330     5.9380     6.0820    24.2670     2.4090    -3.1910 
  240.2500    34.3230     6.9520     5.9080     6.1620    24.4150     2.4190    -3.0560 
  240.3750    34.0890     7.0200     5.9230     6.3230    24.5600     2.4300    -2.8850 
  240.5000    34.3410     7.1300     5.9810     6.3900    24.6360     2.4410    -2.6550 
  240.6250    33.8960     7.2670     6.0800     6.4040    24.7040     2.4460    -2.3650 
  240.7500    33.2350     7.3960     6.1940     6.5330    24.7900     2.4440    -2.0340 
  240.8750    33.9590     7.4930     6.2940     6.7000    24.8120     2.4360    -1.7280 
  241.0000    35.2840     7.5180     6.3480     6.9170    24.7520     2.4260    -1.5350 
  241.1250    34.7760     7.4190     6.3220     6.9280    24.6660     2.4190    -1.4300 
  241.2500    33.6330     7.2210     6.2370     6.6850    24.5610     2.4190    -1.3560 
  241.3750    33.9180     6.9850     6.1170     6.3380    24.4350     2.4260    -1.3150 
  241.5000    35.1750     6.8000     5.9880     6.0820    24.3260     2.4380    -1.3150 
  241.6250    34.3960     6.7500     5.8840     5.9890    24.2870     2.4500    -1.3750 
  241.7500    32.4670     6.8080     5.8290     6.0520    24.2950     2.4570    -1.5430 
  241.8750    32.5960     6.9230     5.8380     6.1850    24.3370     2.4600    -1.7390 
  242.0000    35.0770     7.0410     5.9050     6.3270    24.4280     2.4570    -1.8860 
  242.1250    36.5370     7.1390     6.0170     6.5080    24.4900     2.4540    -1.9820 
  242.2500    35.4050     7.2360     6.1500     6.8570    24.5330     2.4530    -2.0510 
  242.3750    34.2540     7.3460     6.2930     7.1800    24.5570     2.4520    -2.1320 
  242.5000    35.6950     7.4610     6.4360     7.2330    24.5860     2.4520    -2.2430 
  242.6250    38.4170     7.5600     6.5580     7.3960    24.6000     2.4510    -2.3780 
  242.7500    40.5550     7.6220     6.6320     8.1820    24.6070     2.4490    -2.4930 
  242.8750    42.4230     7.6180     6.6350     8.9100    24.6080     2.4510    -2.5840 
  243.0000    44.6340     7.5370     6.5670     8.4090    24.6110     2.4560    -2.6330 
  243.1250    44.7170     7.4320     6.4580     7.5470    24.6130     2.4640    -2.6610 
  243.2500    42.2740     7.3850     6.3610     7.1160    24.6240     2.4690    -2.7210 
  243.3750    41.0630     7.4310     6.3080     6.9300    24.6480     2.4700    -2.7690 
  243.5000    42.6710     7.5530     6.3070     6.8110    24.6580     2.4670    -2.7600 
  243.6250    43.9230     7.6820     6.3370     6.7490    24.6490     2.4620    -2.6980 
  243.7500    41.8720     7.7430     6.3520     6.9170    24.6430     2.4570    -2.5920 
  243.8750    38.3730     7.7210     6.3340     6.9420    24.6580     2.4520    -2.4660 
  244.0000    36.1080     7.6490     6.2940     6.6310    24.6730     2.4450    -2.3530 
  244.1250    35.3990     7.5880     6.2710     6.4660    24.6730     2.4350    -2.2560 
  244.2500    35.6530     7.5830     6.2910     6.5820    24.6640     2.4250    -2.1960 
  244.3750    36.6900     7.6570     6.3570     6.9660    24.6460     2.4180    -2.1910 
  244.5000    38.3320     7.7850     6.4490     7.5290    24.6280     2.4160    -2.2540 
  244.6250    39.0330     7.8790     6.5220     7.5340    24.6380     2.4190    -2.3410 
  244.7500    37.8180     7.8860     6.5420     7.1690    24.6670     2.4240    -2.3670 
  244.8750    36.7790     7.8090     6.5000     6.9330    24.7250     2.4310    -2.3480 
  245.0000    37.7390     7.7000     6.4150     6.7850    24.8050     2.4370    -2.3480 
  245.1250    40.5350     7.6190     6.3260     6.7050    24.8580     2.4410    -2.3790 
  245.2500    43.0160     7.5720     6.2680     6.8380    24.8980     2.4440    -2.3860 
  245.3750    43.7850     7.5330     6.2470     6.9880    24.9340     2.4450    -2.3310 
  245.5000    43.0540     7.4740     6.2540     6.8390    24.9530     2.4460    -2.2050 
  245.6250    41.3370     7.3880     6.2640     6.6530    24.8690     2.4460    -2.0810 
  245.7500    39.7280     7.3030     6.2550     6.6250    24.7370     2.4460    -2.0430 
  245.8750    38.0650     7.2400     6.2260     6.6210    24.5890     2.4460    -2.0580 
  246.0000    37.3050     7.2160     6.1880     6.5920    24.4730     2.4450    -2.0670 
  246.1250    38.2650     7.2380     6.1600     6.5630    24.4590     2.4420    -2.0520 
  246.2500    39.6970     7.2810     6.1470     6.5100    24.4940     2.4350    -1.9960 
  246.3750    41.3480     7.3130     6.1500     6.4840    24.5370     2.4250    -1.9560 
  246.5000    43.3670     7.3060     6.1640     6.5210    24.5030     2.4170    -1.9690 
  246.6250    44.2580     7.2540     6.1820     6.5440    24.4770     2.4170    -1.9750 
  246.7500    43.2290     7.1890     6.1940     6.3970    24.4290     2.4250    -1.9470 
  246.8750    41.7660     7.1390     6.1980     6.3830    24.4360     2.4370    -1.8930 
  247.0000    41.0940     7.1270     6.1950     6.4430    24.5080     2.4460    -1.7710 
  247.1250    41.0930     7.1530     6.1920     6.5020    24.6150     2.4480    -1.5870 
