~V
VERS. 2.00: Ver 2.00
~W
STRT.M 56.0000:
STOP.M 312.0000:
STEP.M 0.1250:
NULL. -999.2500:
UWI. F10077:
~C
DEPT.M :
GR.API :
RML.OHMM :
RI. :
RXO.OHMM :
CALI.CM :
DEN.GM/CC :
SP.MV :
~A
# ...
  224.7500    53.6890    13.9800    13.7240    14.9220    24.9610     2.5190    -2.4880 
  224.8750    53.8570    14.0330    13.8030    14.5840    25.0930     2.5200    -2.2890 
  225.0000    52.8960    13.8670    13.6550    13.9660    25.1910     2.5250    -2.1060 
  225.1250    51.5130    13.5140    13.3210    13.5950    25.1840     2.5270    -1.9780 
  225.2500    51.0000    13.1050    12.9170    13.4010    25.1660     2.5250    -1.8560 
  225.3750    51.8160    12.7270    12.5120    12.7930    25.1760     2.5190    -1.7250 
  225.5000    53.1160    12.4340    12.1600    12.3470    25.1690     2.5110    -1.5950 
  225.6250    53.5730    12.2630    11.9210    12.7850    25.1220     2.5070    -1.4700 
  225.7500    52.9430    12.1950    11.8000    12.6920    25.0930     2.5090    -1.3860 
  225.8750    51.6690    12.2480    11.8150    12.5690    25.1450     2.5160    -1.3600 
  226.0000    50.9130    12.4500    11.9760    13.1060    25.2160     2.5240    -1.3920 
  226.1250    52.8360    12.8270    12.3010    14.1660    25.2130     2.5290    -1.4550 
  226.2500    56.3250    13.3010    12.7270    14.7450    25.1530     2.5320    -1.5370 
  226.3750    58.8350    13.7740    13.1890    15.2060    25.0580     2.5340    -1.6570 
  226.5000    59.3340    14.1390    13.5940    16.0320    24.9510     2.5360    -1.8090 
  226.6250    57.8220    14.2990    13.8320    16.9990    24.8630     2.5380    -2.0010 
  226.7500    56.1090    14.3180    13.9200    17.3250    24.8970     2.5380    -2.1770 
  226.8750    54.8840    14.2980    13.9270    16.7730    24.9700     2.5350    -2.2950 
  227.0000    54.1410    14.3570    13.9460    15.4940    24.9930     2.5290    -2.3200 
  227.1250    53.9250    14.6040    14.0650    15.3270    24.9920     2.5230    -2.2430 
  227.2500    53.4420    14.9980    14.2750    16.6420    24.9840     2.5170    -2.1170 
  227.3750    53.4820    15.4530    14.5350    17.5690    24.9660     2.5080    -1.9580 
  227.5000    54.5910    15.8720    14.7990    18.1710    24.9470     2.4940    -1.7760 
  227.6250    56.2800    16.1780    15.0480    19.1020    24.9170     2.4790    -1.5800 
  227.7500    57.9720    16.3790    15.2770    18.7110    24.8590     2.4690    -1.4030 
  227.8750    59.1970    16.4860    15.4670    17.8100    24.8360     2.4730    -1.2630 
  228.0000    60.6770    16.4970    15.5800    18.2380    24.8080     2.4880    -1.1880 
  228.1250    61.7480    16.3530    15.5330    18.9540    24.8290     2.5060    -1.1970 
  228.2500    60.6520    16.0510    15.3200    17.4680    24.8150     2.5120    -1.2930 
  228.3750    57.6800    15.6410    14.9870    15.4500    24.7390     2.5040    -1.4510 
  228.5000    55.9900    15.2450    14.6460    15.6050    24.6640     2.4870    -1.6660 
  228.6250    57.5400    15.0950    14.4940    17.0150    24.6440     2.4760    -1.9340 
  228.7500    58.4230    15.3040    14.6470    17.9310    24.6620     2.4790    -2.2020 
  228.8750    57.0250    15.8790    15.1350    19.5140    24.7420     2.4960    -2.4780 
  229.0000    55.4980    16.6890    15.8680    21.6910    24.8050     2.5150    -2.7870 
  229.1250    55.9190    17.4480    16.6080    22.9870    24.8250     2.5210    -3.1250 
  229.2500    57.1880    17.7790    16.9980    23.0000    24.7690     2.5120    -3.4270 
  229.3750    58.9630    17.3520    16.7040    21.2330    24.6280     2.4930    -3.6960 
  229.5000    61.2710    16.0400    15.5710    18.4370    24.5010     2.4740    -3.9240 
  229.6250    64.2190    14.0110    13.7390    16.6680    24.4470     2.4620    -4.0630 
  229.7500    66.5210    11.8930    11.7830    15.5210    24.5030     2.4560    -4.1330 
  229.8750    65.5690    10.1010    10.0570    12.0120    24.6750     2.4560    -4.1370 
  230.0000    59.0140     8.8590     8.7500     8.6300    24.8810     2.4650    -4.0450 
  230.1250    49.7310     8.2400     7.9540     8.3250    24.9030     2.4880    -3.8730 
  230.2500    43.9590     7.9750     7.5000     8.8870    24.8640     2.5210    -3.6660 
  230.3750    42.3140     7.8800     7.2710     8.8450    24.8500     2.5540    -3.4300 
  230.5000    42.5460     7.7840     7.1470     8.1530    24.8980     2.5760    -3.1390 
  230.6250    42.3580     7.5660     7.0250     7.6290    24.9130     2.5760    -2.8600 
  230.7500    41.7040     7.2820     6.8750     7.3110    24.8970     2.5560    -2.6410 
  230.8750    40.3470     7.0560     6.7450     7.2500    24.8700     2.5230    -2.4930 
  231.0000    39.2940     6.9970     6.7060     7.2700    24.8560     2.4870    -2.4020 
  231.1250    40.2060     7.1810     6.8270     7.3670    24.8810     2.4600    -2.3540 
  231.2500    42.2020     7.5330     7.0860     7.8050    24.8860     2.4470    -2.3830 
  231.3750    43.8200     7.9820     7.4420     8.5980    24.8770     2.4480    -2.4530 
  231.5000    43.7360     8.4380     7.8260     9.3440    24.8680     2.4600    -2.5560 
  231.6250    42.5080     8.7740     8.1230     9.7840    24.8720     2.4780    -2.6770 
  231.7500    41.1020     8.9150     8.2580     9.6780    24.8710     2.4960    -2.7790 
  231.8750    39.7340     8.8430     8.2050     9.3000    24.7800     2.5100    -2.8640 
  232.0000    39.9840     8.6140     8.0020     9.3880    24.5950     2.5100    -2.9630 
  232.1250    43.0550     8.3200     7.7080     8.9000    24.3680     2.4830    -3.0890 
  232.2500    47.0190     8.0600     7.4110     8.3460    24.1940     2.4350    -3.1850 
  232.3750    49.3480     7.8810     7.1580     7.8110    24.1130     2.3810    -3.2570 
  232.5000    49.9370     7.7850     6.9710     7.6820    24.1550     2.3400    -3.3200 
  232.6250    51.4230     7.7370     6.8520     7.4870    24.2460     2.3340    -3.3500 
  232.7500    53.4130     7.6870     6.7710     7.3040    24.4160     2.3560    -3.3640 
  232.8750    53.3820     7.6250     6.7100     7.3590    24.5620     2.3950    -3.3690 
  233.0000    49.8400     7.5700     6.6660     7.3960    24.6330     2.4380    -3.3420 
  233.1250    45.3650     7.5650     6.6560     7.3770    24.6000     2.4720    -3.2730 
  233.2500    42.7570     7.6140     6.6830     7.3110    24.4520     2.4940    -3.2130 
  233.3750    40.9650     7.6910     6.7340     7.2440    24.2670     2.5000    -3.1690 
  233.5000    39.3020     7.7540     6.7770     7.1130    24.0780     2.4950    -3.1390 
  233.6250    39.2180     7.7630     6.7770     7.3090    23.9610     2.4870    -3.1330 
  233.7500    39.3430     7.7340     6.7490     7.2880    23.8620     2.4840    -3.1250 
  233.8750    37.7490     7.7080     6.7300     7.1000    23.7970     2.4860    -3.0960 
  234.0000    35.3550     7.7270     6.7530     7.2600    23.7730     2.4870    -3.0730 
  234.1250    36.2030     7.8190     6.8340     8.0200    23.7730     2.4800    -3.0440 
  234.2500    39.0270     7.9410     6.9280     8.5990    23.8070     2.4690    -2.9490 
  234.3750    41.1660     8.0270     6.9860     8.8390    23.9340     2.4590    -2.7720 
  234.5000    42.2300     8.0250     6.9750     8.7330    24.1310     2.4540    -2.5730 
  234.6250    43.6900     7.9240     6.8870     7.8770    24.2420     2.4530    -2.4000 
  234.7500    46.1910     7.7930     6.7730     7.4650    24.2690     2.4520    -2.2540 
  234.8750    48.7420     7.6800     6.6680     7.4810    24.2790     2.4500    -2.1210 
  235.0000    49.6680     7.6090     6.5960     7.7480    24.3010     2.4490    -2.0120 
  235.1250    48.4190     7.5840     6.5630     7.6350    24.2980     2.4540    -1.9440 
  235.2500    47.1860     7.5850     6.5490     7.0240    24.2100     2.4610    -1.9300 
  235.3750    45.9280     7.6030     6.5480     6.5160    24.0930     2.4660    -1.9900 
  235.5000    44.0230     7.6320     6.5600     6.4160    24.1090     2.4660    -2.0620 
  235.6250    42.2070     7.6650     6.5890     6.7100    24.3130     2.4590    -2.0850 
  235.7500    42.2440     7.6770     6.6200     7.0330    24.6110     2.4480    -2.0950 
  235.8750    42.4430     7.6510     6.6290     7.1140    24.8070     2.4350    -2.1210 
