~V
VERS. 2.00: Ver 2.00
~W
STRT.M 57.0000:
STOP.M 307.0000:
STEP.M 0.1250:
NULL. -999.2500:
UWI. F10042:
~C
DEPT.M :
GR.API :
RML.OHMM :
RI. :
RXO.OHMM :
CALI.CM :
DEN.GM/CC :
SP.MV :
~A
# ...
   68.2500    62.5390     9.8490     8.8030     8.6510    25.8260     2.1720   -13.7570 
   68.3750    60.0680     9.6040     8.5680     8.6420    25.7930     2.1480   -14.1130 
   68.5000    58.5330     9.4040     8.3770     8.5900    25.7940     2.1280   -14.3330 
   68.6250    61.3230     9.3410     8.3160     8.5320    25.8100     2.1120   -14.4260 
   68.7500    64.7870     9.3780     8.3530     8.5610    25.7580     2.0980   -14.4020 
   68.8750    65.5490     9.4340     8.4060     8.7330    25.5890     2.0850   -14.3090 
   69.0000    64.4580     9.3830     8.3570     8.9640    25.3620     2.0800   -14.1460 
   69.1250    66.1570     9.0930     8.0790     8.9700    25.1480     2.0920   -13.9220 
   69.2500    72.1080     8.6160     7.6230     8.5270    25.0060     2.1210   -13.5480 
   69.3750    79.1780     8.0570     7.0880     7.5090    25.0430     2.1600   -12.9390 
   69.5000    83.1420     7.5310     6.5850     6.3630    25.2450     2.1940   -12.2570 
   69.6250    83.1590     7.1700     6.2390     6.2160    25.2170     2.2070   -11.6670 
   69.7500    82.4440     7.0490     6.1230     6.7390    24.9600     2.1990   -11.2320 
   69.8750    81.2640     7.2630     6.3280     7.5000    24.6810     2.1870   -10.9130 
   70.0000    78.8710     7.9020     6.9390     7.9030    24.5010     2.1920   -10.5870 
   70.1250    77.7240     9.1720     8.0450     9.8820    24.4240     2.2390   -10.2130 
   70.2500    77.8870    11.1880     9.3960    15.9340    24.3570     2.3160    -9.9620 
   70.3750    75.9540    13.0620    10.5960    24.2560    24.2380     2.3960    -9.9850 
   70.5000    71.5090    14.1490    11.1630    27.0510    24.1910     2.4420   -10.1410 
   70.6250    70.2660    13.9470    10.7670    18.1450    24.3400     2.4260   -10.2860 
   70.7500    72.9130    12.8380     9.8770    11.2160    24.5880     2.3700   -10.3910 
   70.8750    75.8570    11.3660     8.9370     8.3530    24.8400     2.3030   -10.4760 
   71.0000    75.5410    10.1220     8.2300     7.6560    25.0320     2.2510   -10.6940 
   71.1250    72.0640     9.5250     7.8870     7.7540    25.1300     2.2230   -11.1590 
   71.2500    69.5720     9.4150     7.7850     7.9430    25.2050     2.2030   -11.7680 
   71.3750    69.9510     9.5700     7.8060     8.2570    25.2940     2.1850   -12.4710 
   71.5000    71.1020     9.7800     7.8550     8.6170    25.3540     2.1670   -13.1750 
   71.6250    68.5530     9.9230     7.8920     8.7360    25.4160     2.1540   -13.8300 
   71.7500    63.7510    10.0010     7.9260     8.6640    25.4990     2.1450   -14.4260 
   71.8750    59.4490    10.0370     7.9650     8.6980    25.6070     2.1370   -14.9610 
   72.0000    56.8050    10.0280     7.9980     8.7770    25.6910     2.1260   -15.4240 
   72.1250    57.4490     9.9410     8.0120     8.7520    25.6910     2.1140   -15.7800 
   72.2500    60.4900     9.7960     8.0260     8.5870    25.5940     2.1040   -15.9360 
   72.3750    63.5010     9.6530     8.0720     8.4050    25.3620     2.0970   -15.8080 
   72.5000    65.5210     9.5980     8.1730     8.2060    25.0330     2.0960   -15.4640 
   72.6250    68.8830     9.7340     8.3420     7.9390    24.7800     2.0970   -15.0250 
   72.7500    72.3470    10.0310     8.5400     7.5650    24.6450     2.0970   -14.5490 
   72.8750    72.5350    10.4030     8.7060     7.5080    24.5770     2.0970   -14.0630 
   73.0000    69.4610    10.6920     8.7490     7.5990    24.5200     2.0980   -13.5340 
   73.1250    68.6140    10.6670     8.5460     7.6320    24.4840     2.1060   -12.8740 
   73.2500    70.4310    10.2810     8.1180     7.5370    24.5010     2.1220   -12.2200 
   73.3750    73.3200     9.5920     7.5280     7.0640    24.5990     2.1440   -11.6120 
   73.5000    77.5580     8.7500     6.8800     6.1410    24.6850     2.1680   -11.0200 
   73.6250    85.1590     7.9480     6.3040     5.2700    24.7750     2.1890   -10.4360 
   73.7500    93.6710     7.3050     5.8650     5.3350    24.9250     2.2020    -9.8450 
   73.8750   100.1060     6.8580     5.5750     5.6260    25.1320     2.2080    -9.2550 
   74.0000   102.3000     6.6010     5.4210     5.5130    25.2420     2.2060    -8.6980 
   74.1250    99.5010     6.5280     5.3950     5.3270    25.2230     2.1990    -8.2140 
   74.2500    94.7700     6.5710     5.4400     5.2020    25.1420     2.1910    -7.7760 
   74.3750    90.9230     6.6800     5.5130     5.0170    25.0560     2.1830    -7.4490 
   74.5000    89.9130     6.7950     5.5820     5.0270    24.9980     2.1770    -7.2810 
   74.6250    91.8300     6.8450     5.6070     5.2890    24.9350     2.1730    -7.1210 
   74.7500    94.7810     6.8120     5.5740     5.5970    24.8600     2.1750    -6.9610 
   74.8750    96.1440     6.7160     5.4890     5.4740    24.8390     2.1880    -6.7920 
   75.0000    94.4200     6.6060     5.3880     5.1270    24.8010     2.2070    -6.5890 
   75.1250    93.8840     6.5620     5.3240     4.7410    24.6100     2.2220    -6.4340 
   75.2500    96.9630     6.6290     5.3370     4.6630    24.3340     2.2260    -6.3890 
   75.3750    98.9980     6.8200     5.4480     4.8090    24.0810     2.2150    -6.3890 
   75.5000    96.8920     7.1030     5.6380     5.1320    23.8480     2.1970    -6.3890 
   75.6250    93.7820     7.3940     5.8370     5.3760    23.7140     2.1830    -6.4810 
   75.7500    92.8970     7.5830     5.9590     5.7140    23.6670     2.1830    -6.6620 
   75.8750    91.0930     7.6000     5.9600     5.8870    23.6670     2.1980    -6.9030 
   76.0000    87.4760     7.4360     5.8490     5.6670    23.6710     2.2190    -7.1610 
   76.1250    89.2780     7.1660     5.6940     5.1130    23.6770     2.2320    -7.3420 
   76.2500    96.8150     6.9600     5.5990     4.9490    23.6830     2.2290    -7.4470 
   76.3750   103.3360     6.9540     5.6310     5.2100    23.6800     2.2080    -7.5770 
   76.5000   102.6250     7.2260     5.8120     5.6350    23.6750     2.1800    -7.7530 
   76.6250    95.0390     7.7770     6.1070     6.1760    23.7340     2.1600    -7.9580 
   76.7500    88.3950     8.3750     6.3690     6.5760    23.9140     2.1540    -8.1120 
   76.8750    86.2540     8.7620     6.4560     6.7080    24.1370     2.1580    -8.1620 
   77.0000    89.5470     8.7230     6.2970     6.5450    24.2800     2.1670    -8.1320 
   77.1250    96.0610     8.1720     5.9440     5.9980    24.3490     2.1810    -7.9890 
   77.2500   101.0810     7.4390     5.6120     5.3900    24.4400     2.2020    -7.7330 
   77.3750   103.0710     6.8600     5.4470     5.0390    24.5630     2.2330    -7.3870 
   77.5000   100.3610     6.6970     5.5270     5.1310    24.6640     2.2620    -7.0480 
   77.6250    92.7780     7.0940     5.8750     7.0770    24.8210     2.2650    -6.8120 
   77.7500    84.3820     7.7670     6.3100    10.4710    25.1520     2.2310    -6.7220 
   77.8750    78.8050     8.3780     6.6350    10.8050    25.6000     2.1670    -6.7870 
   78.0000    77.0980     8.6220     6.7090     8.7110    25.8610     2.0980    -6.9550 
   78.1250    79.4180     8.3520     6.5480     7.2160    25.7720     2.0640    -7.2170 
   78.2500    83.7110     7.9010     6.3890     6.3240    25.5310     2.0810    -7.5070 
   78.3750    86.0960     7.6110     6.3880     5.7220    25.3310     2.1420    -7.8010 
   78.5000    83.4870     7.7040     6.5980     7.1850    25.1290     2.2210    -7.9920 
   78.6250    76.9190     8.1590     6.9060    10.9900    24.8740     2.2740    -7.9430 
   78.7500    72.5170     8.5770     7.0370    12.1720    24.5930     2.2880    -7.7130 
   78.8750    75.4130     8.6080     6.8100     8.7990    24.3770     2.2730    -7.3640 
   79.0000    84.7160     8.0790     6.2240     6.3240    24.2850     2.2560    -6.9410 
   79.1250    94.8250     7.0690     5.4630     5.1010    24.3230     2.2640    -6.5110 
   79.2500   100.2630     6.0160     4.8010     4.1610    24.4960     2.2870    -6.0330 
   79.3750   102.3750     5.2300     4.3810     3.8390    24.8550     2.3040    -5.5710 
