~V
VERS. 2.00: Ver 2.00
~W
STRT.M 55.0000:
STOP.M 181.0000:
STEP.M 0.1250:
NULL. -999.2500:
UWI. F10008:
~C
DEPT.M :
SP.MV :
GR.API :
RML.OHMM :
RI. :
RXO.OHMM :
CALI.CM :
DEN.GM/CC :
~A
# ...
  122.5000    -2.0310    56.2940    16.5500    15.9140    16.5040    24.1120     2.4910 
  122.6250    -2.2190    52.4890    16.3490    15.6610    17.9650    23.9760     2.4800 
  122.7500    -2.4200    48.8980    16.6110    15.7620    20.1540    23.8830     2.4660 
  122.8750    -2.5910    48.5240    17.2430    16.1910    21.2560    23.8430     2.4540 
  123.0000    -2.7360    52.5430    18.1160    16.8840    22.1830    23.8200     2.4460 
  123.1250    -2.9190    56.7580    19.2190    17.8470    23.9020    23.8390     2.4410 
  123.2500    -3.0410    58.2820    20.6340    19.1060    25.7340    23.8970     2.4390 
  123.3750    -3.1890    57.7610    22.4680    20.7450    27.1200    23.9570     2.4360 
  123.5000    -3.4410    57.1430    24.6470    22.7410    28.4840    24.0050     2.4360 
  123.6250    -3.7330    57.7420    26.7600    24.8140    32.0330    24.0580     2.4410 
  123.7500    -4.0720    59.7770    28.2190    26.3980    37.2650    24.0900     2.4540 
  123.8750    -4.4660    62.9260    28.5930    27.0260    38.1780    24.0780     2.4750 
  124.0000    -4.9180    67.0600    27.8670    26.5930    33.1270    24.0530     2.4970 
  124.1250    -5.4210    72.2160    26.4850    25.3970    29.1320    23.9900     2.5100 
  124.2500    -5.9480    75.7530    25.2320    24.1620    27.0500    23.9180     2.5070 
  124.3750    -6.4100    76.4620    24.5460    23.3030    27.8970    23.8450     2.4880 
  124.5000    -6.8040    75.7870    24.5940    23.0050    29.6280    23.8560     2.4590 
  124.6250    -7.1210    76.1830    25.3360    23.3100    30.5730    23.9220     2.4300 
  124.7500    -7.4050    75.8430    26.4220    23.9950    30.1830    23.9170     2.4080 
  124.8750    -7.6840    74.0260    27.8430    25.0830    31.3420    23.8630     2.3970 
  125.0000    -7.8580    73.8780    29.9450    26.8440    33.4340    23.8780     2.3960 
  125.1250    -7.8970    75.0870    33.7130    30.1010    37.1170    23.9170     2.4070 
  125.2500    -7.8820    72.6840    39.7360    35.3830    44.2700    23.9250     2.4280 
  125.3750    -7.8620    66.3040    50.9180    43.1110    56.6470    23.9230     2.4560 
  125.5000    -7.8850    59.6700    63.0200    52.9710    76.2750    23.9000     2.4830 
  125.6250    -8.1030    55.4270    74.0140    63.0100    92.5230    23.9090     2.4920 
  125.7500    -8.3620    53.6370    80.9560    70.1480   102.9310    24.0260     2.4720 
  125.8750    -8.5800    54.6030    82.1280    72.6950    94.0670    24.2030     2.4290 
  126.0000    -8.8520    55.6750    78.9440    71.2480    82.3700    24.3470     2.3780 
  126.1250    -9.1470    54.5620    74.7630    68.0540    77.2310    24.3710     2.3390 
  126.2500    -9.4090    54.5510    72.0430    65.4720    76.0830    24.3290     2.3160 
  126.3750    -9.6660    57.1240    71.1360    64.1520    78.3290    24.3160     2.2970 
  126.5000    -9.8930    59.1550    71.4440    63.8760    82.2520    24.3330     2.2730 
  126.6250    -9.9480    57.6830    71.9390    64.0180    84.6360    24.3530     2.2410 
  126.7500    -9.9160    55.2980    71.8150    63.9450    85.6310    24.3020     2.2110 
  126.8750    -9.8840    55.3320    70.9190    63.4730    77.1840    24.2790     2.1920 
  127.0000    -9.8660    56.4790    69.5200    62.6940    69.0910    24.3660     2.1890 
  127.1250    -9.8200    55.9090    68.0340    61.8330    67.5720    24.3830     2.1960 
  127.2500    -9.7650    54.1920    66.7140    61.0540    68.9170    24.3220     2.2030 
  127.3750    -9.7350    53.9440    65.5740    60.3850    69.7800    24.2580     2.2040 
  127.5000    -9.7250    54.3500    64.5860    59.8640    66.7190    24.2290     2.1970 
  127.6250    -9.7670    52.5660    64.0010    59.7440    65.3090    24.2250     2.1860 
  127.7500    -9.8990    52.0480    64.1630    60.3090    64.2900    24.2340     2.1790 
  127.8750   -10.0670    54.8060    65.3390    61.7910    67.2640    24.2650     2.1740 
  128.0000   -10.1810    58.0250    67.3970    64.0900    72.0750    24.2890     2.1700 
  128.1250   -10.3140    58.4050    69.3150    66.3160    78.3590    24.2480     2.1690 
  128.2500   -10.4970    57.5230    69.4740    66.9720    83.4440    24.1450     2.1760 
  128.3750   -10.6040    57.0440    66.8840    65.0650    90.4840    24.0870     2.2000 
  128.5000   -10.6180    56.3600    62.0030    60.8590    84.3470    24.1730     2.2420 
  128.6250   -10.5540    56.8700    56.6860    55.9090    66.6400    24.3560     2.2960 
  128.7500   -10.3660    59.0050    52.7380    51.9850    54.5550    24.4990     2.3450 
  128.8750   -10.1330    60.6740    50.8100    49.8000    50.0770    24.5570     2.3830 
  129.0000    -9.9870    60.4970    50.7430    49.3460    50.8890    24.5480     2.4070 
  129.1250    -9.8240    60.0150    51.7620    50.1170    56.7960    24.4900     2.4160 
  129.2500    -9.6510    59.1580    52.7350    51.0990    56.3260    24.4270     2.4100 
  129.3750    -9.6140    57.4250    53.5010    52.0510    55.7360    24.4360     2.3850 
  129.5000    -9.6840    56.7110    54.6070    53.3540    58.9710    24.3840     2.3430 
  129.6250    -9.8120    57.8410    56.9270    55.7570    61.8280    24.3460     2.2940 
  129.7500    -9.9970    58.0670    60.2720    59.1040    69.2620    24.2890     2.2550 
  129.8750   -10.1910    57.1950    63.6180    62.5220    85.2530    24.2370     2.2350 
  130.0000   -10.3160    57.2260    65.1940    64.4060   115.9270    24.1770     2.2330 
  130.1250   -10.4280    58.9190    63.1460    62.8830    94.4360    24.1560     2.2410 
  130.2500   -10.5470    60.5330    58.8780    59.0090    71.1180    24.2080     2.2520 
  130.3750   -10.6460    61.5970    54.3640    54.5480    60.7320    24.1510     2.2630 
  130.5000   -10.7250    61.5530    51.1040    51.0280    60.6120    24.0940     2.2740 
  130.6250   -10.7470    59.6440    50.0140    49.5490    63.7210    24.0320     2.2860 
  130.7500   -10.7690    57.7790    50.5530    49.8270    71.6370    24.0210     2.2990 
  130.8750   -10.8410    57.2070    52.0350    51.3140    72.8610    23.9880     2.3100 
  131.0000   -11.0070    58.3050    53.7380    53.2560    70.7660    23.9740     2.3170 
  131.1250   -11.2590    60.1790    55.3150    55.1060    70.5150    23.9620     2.3120 
  131.2500   -11.4700    60.1640    56.8730    56.7850    72.9750    23.9500     2.2970 
  131.3750   -11.5610    57.1040    58.4470    58.2880    71.3880    23.9640     2.2750 
  131.5000   -11.6520    54.3420    59.8370    59.4670    70.5190    24.0690     2.2570 
  131.6250   -11.8770    55.3740    60.4680    59.8410    73.5940    24.2470     2.2510 
  131.7500   -12.1620    57.4370    59.9840    59.1540    79.1910    24.3290     2.2540 
  131.8750   -12.4070    56.5470    58.3990    57.4140    76.0300    24.3050     2.2620 
  132.0000   -12.5580    53.2450    56.2820    55.0930    67.0260    24.2400     2.2690 
  132.1250   -12.6600    52.7550    54.5680    53.0170    67.2140    24.1600     2.2720 
  132.2500   -12.8570    55.4350    53.8390    51.7890    62.4610    24.1370     2.2700 
  132.3750   -13.2190    58.3360    54.3440    51.7370    54.7400    24.2090     2.2650 
  132.5000   -13.6590    58.4310    56.1120    52.9880    53.0270    24.2480     2.2600 
  132.6250   -14.0850    56.1920    59.1420    55.6230    60.9780    24.1920     2.2580 
  132.7500   -14.5050    54.0120    62.9990    59.1320    64.1060    24.1370     2.2580 
  132.8750   -14.9450    52.6690    67.4510    63.1850    63.0390    24.1690     2.2580 
  133.0000   -15.4180    51.6910    72.1490    67.4030    66.8620    24.2500     2.2530 
  133.1250   -15.8480    49.9490    76.2600    71.0700    77.5050    24.2890     2.2440 
  133.2500   -16.1770    48.2020    78.7540    73.3700    90.2630    24.2980     2.2350 
  133.3750   -16.3750    47.7780    78.6640    73.5000    91.2980    24.3110     2.2270 
  133.5000   -16.4320    50.2050    75.5490    70.9850    86.7330    24.3460     2.2170 
  133.6250   -16.3260    54.4600    69.7060    65.8300    81.7170    24.3400     2.2030 
