~V
VERS. 2.00: Ver 2.00
~W
STRT.M 50.0000:
STOP.M 266.0000:
STEP.M 0.1250:
NULL. -999.2500:
UWI. F10057:
~C
DEPT.M :
GR.API :
RML.OHMM :
RI. :
RXO.OHMM :
CALI.CM :
DEN.GM/CC :
SP.MV :
~A
   50.0000    51.6640     0.8610     0.5740     1.8690    24.9730  -999.2500  -999.2500 
   50.1250    51.9120     0.8710     0.5750     1.8240    24.9730  -999.2500  -999.2500 
   50.2500    52.0480     0.8680     0.6010     1.8130    24.9730  -999.2500  -999.2500 
   50.3750    52.7630     0.8520     0.6460     1.8050    24.9730  -999.2500  -999.2500 
   50.5000    55.0110     0.8250     0.6950     1.7910    24.9730  -999.2500  -999.2500 
   50.6250    56.2320     0.8120     0.7320     1.8100    24.9730  -999.2500  -999.2500 
   50.7500    55.5110     0.8090     0.7430     1.8870    24.9710  -999.2500  -999.2500 
   50.8750    54.5760     0.8090     0.7360     1.9750    24.9810  -999.2500  -999.2500 
   51.0000    53.6750     0.8120     0.7270     2.0340    25.0180  -999.2500  -999.2500 
   51.1250    53.1930     0.8180     0.7290     2.0710    25.0700  -999.2500  -999.2500 
   51.2500    54.0030     0.8210     0.7370     2.1160    25.1030  -999.2500  -999.2500 
   51.3750    55.5070     0.8240     0.7370     2.1610    25.1080  -999.2500  -999.2500 
   51.5000    55.8590     0.8300     0.7230     2.1860    25.1080  -999.2500  -999.2500 
   51.6250    54.3080     0.8330     0.6990     2.1930    25.1060  -999.2500  -999.2500 
   51.7500    53.0550     0.8340     0.6730     2.1900    25.0790  -999.2500  -999.2500 
   51.8750    51.5140     0.8330     0.6580     2.1720    25.0290  -999.2500  -999.2500 
   52.0000    49.6840     0.8300     0.6510     2.1210    24.9840  -999.2500  -999.2500 
   52.1250    48.1130     0.8220     0.6420     2.0500    24.9730  -999.2500  -999.2500 
   52.2500    46.8690     0.8140     0.6460     1.9850    24.9690  -999.2500  -999.2500 
   52.3750    46.2940     0.8040     0.6590     1.9640    24.9370  -999.2500  -999.2500 
   52.5000    46.2840     0.7900     0.6800     1.9430    24.8850  -999.2500  -999.2500 
   52.6250    46.1820     0.7810     0.7040     1.8990    24.8470  -999.2500  -999.2500 
   52.7500    46.0840     0.7720     0.7100     1.8740    24.8380  -999.2500  -999.2500 
   52.8750    46.9280     0.7650     0.6980     1.8710    24.8390  -999.2500  -999.2500 
   53.0000    48.6370     0.7620     0.6780     1.8960    24.8380  -999.2500  -999.2500 
   53.1250    48.7570     0.7600     0.6580     1.9270    24.8570  -999.2500  -999.2500 
   53.2500    47.6320     0.7600     0.6430     1.9640    24.9110  -999.2500  -999.2500 
   53.3750    47.2960     0.7600     0.6200     1.9900    24.9900  -999.2500  -999.2500 
   53.5000    47.7020     0.7430     0.5900     2.0000    25.0660  -999.2500  -999.2500 
   53.6250    46.7070     0.7310     0.5630     2.0000    25.1000  -999.2500  -999.2500 
   53.7500    44.5030     0.7170     0.5430     2.0000    25.0810  -999.2500  -999.2500 
   53.8750    43.3140     0.7050     0.5390     1.9950    25.0290  -999.2500  -999.2500 
   54.0000    44.4260     0.6890     0.5500     1.9820    24.9840  -999.2500  -999.2500 
   54.1250    48.6430     0.6590     0.5670     1.9550    24.9710  -999.2500  -999.2500 
   54.2500    53.7710     0.6200     0.5770     1.9440    24.9730  -999.2500  -999.2500 
   54.3750    55.3810     0.6000     0.5740     1.9470    24.9730  -999.2500  -999.2500 
   54.5000    52.3000     0.5950     0.5630     1.9620    24.9730  -999.2500  -999.2500 
   54.6250    48.7290     0.5980     0.5400     1.9730    24.9730  -999.2500  -999.2500 
   54.7500    47.6220     0.6050     0.5170     1.9850    24.9750  -999.2500  -999.2500 
   54.8750    48.1510     0.6130     0.5040     1.9980    24.9820  -999.2500  -999.2500 
   55.0000    49.2520     0.6210     0.5040     2.0190    24.9310  -999.2500  -999.2500 
   55.1250    50.5290     0.6260     0.5090     2.0500    24.8590  -999.2500  -999.2500 
   55.2500    50.5420     0.6300     0.5060     2.0810    24.8490  -999.2500  -999.2500 
   55.3750    49.6480     0.6270     0.4870     2.0930    24.8390  -999.2500  -999.2500 
   55.5000    48.9040     0.6190     0.4620     2.0940    24.8400  -999.2500  -999.2500 
   55.6250    47.9230     0.6180     0.4480     2.0880    24.8400  -999.2500  -999.2500 
   55.7500    46.5120     0.6230     0.4490     2.0660    24.8400  -999.2500  -999.2500 
   55.8750    46.1760     0.6300     0.4570     2.0300    24.8410  -999.2500  -999.2500 
   56.0000    48.1820     0.6330     0.4660     2.0060    24.8430  -999.2500  -999.2500 
   56.1250    50.9190     0.6370     0.4760     2.0000    24.8210  -999.2500  -999.2500 
   56.2500    51.8010     0.6470     0.4990     1.9980    24.7740  -999.2500  -999.2500 
   56.3750    50.8850     0.6690     0.5330     1.9920    24.7290  -999.2500  -999.2500 
   56.5000    50.7830     0.7110     0.5600     1.9730    24.6920  -999.2500  -999.2500 
   56.6250    52.3990     0.7320     0.5640     1.9470    24.7930  -999.2500  -999.2500 
   56.7500    53.0110     0.7420     0.5610     1.9100    24.8330  -999.2500  -999.2500 
   56.8750    51.2190     0.7510     0.5660     1.8770    24.8410    -0.0300  -999.2500 
   57.0000    49.1290     0.7580     0.5850     1.8520    24.7660    -0.0300  -999.2500 
   57.1250    50.1360     0.7600     0.6060     1.8300    24.7720     0.5210  -999.2500 
   57.2500    51.3420     0.7600     0.6110     1.8190    24.8100     2.1760  -999.2500 
   57.3750    49.1350     0.7600     0.6000     1.8560    24.8390     2.1750  -999.2500 
   57.5000    45.0430     0.7540     0.5860     1.9570    24.8410     2.1720  -999.2500 
   57.6250    43.0620     0.7330     0.5850     2.0010    24.8560     2.1710  -999.2500 
   57.7500    42.5380     0.7050     0.5940     2.0090    24.8640     2.1740  -999.2500 
   57.8750    42.8260     0.6880     0.5990     2.0160    24.8210     2.1810  -999.2500 
   58.0000    44.4110     0.6810     0.5910     2.0440    24.8550     2.1880  -999.2500 
   58.1250    46.4490     0.6770     0.5760     2.1290    24.9800     2.1900  -999.2500 
   58.2500    46.8660     0.6790     0.5660     2.2490    25.1020     2.1880  -999.2500 
   58.3750    46.2150     0.6840     0.5710     2.1580    25.1700     2.1840  -999.2500 
   58.5000    46.7300     0.6910     0.5910     1.9990    25.1980     2.1820  -999.2500 
   58.6250    47.5800     0.6990     0.6170     1.9170    25.2160     2.1860  -999.2500 
   58.7500    46.5200     0.7200     0.6360     1.9120    25.2120     2.1960  -999.2500 
   58.8750    44.1950     0.7600     0.6450     2.0040    25.1710     2.2090  -999.2500 
   59.0000    43.2110     0.7910     0.6390     2.0900    25.0910     2.2210  -999.2500 
   59.1250    45.6660     0.8050     0.6260     2.1390    24.9880     2.2290  -999.2500 
   59.2500    47.8850     0.8080     0.6260     2.1380    24.9040     2.2320  -999.2500 
   59.3750    48.4930     0.8090     0.6430     2.1160    24.8580     2.2300  -999.2500 
   59.5000    48.7690     0.8090     0.6660     2.0860    24.8500     2.2260  -999.2500 
   59.6250    49.4980     0.8090     0.6890     2.0560    24.8520     2.2220  -999.2500 
   59.7500    48.5960     0.8090     0.7050     2.0240    24.8400     2.2150  -999.2500 
   59.8750    46.0210     0.8080     0.7120     1.9970    24.8650     2.2000  -999.2500 
   60.0000    44.3950     0.8050     0.7060     1.9990    24.9770     2.1740  -999.2500 
   60.1250    44.9280     0.7990     0.6850     2.0420    25.1310     2.1380  -999.2500 
   60.2500    45.1000     0.7970     0.6610     2.0850    25.2190     2.1010  -999.2500 
   60.3750    44.2930     0.7960     0.6460     2.1120    25.2300     2.0660  -999.2500 
   60.5000    43.4100     0.7970     0.6490     2.1230    25.2220     2.0340  -999.2500 
   60.6250    43.2220     0.8010     0.6640     2.1370    25.2230     2.0090  -999.2500 
   60.7500    43.6700     0.8090     0.6700     2.1560    25.2250     1.9990  -999.2500 
   60.8750    44.5860     0.8170     0.6640     2.1620    25.2310     2.0120    20.6050 
   61.0000    46.2910     0.8240     0.6580     2.1270    25.2350     2.0490    20.6050 
   61.1250    47.2450     0.8430     0.6610     2.0930    25.2310     2.1040    46.8000 
