~V
VERS. 2.00: Ver 2.00
~W
STRT.M 50.0000:
STOP.M 274.0000:
STEP.M 0.1250:
NULL. -999.2500:
UWI. F10029:
~C
DEPT.M :
DEN.GM/CC :
SP.MV :
GR.API :
CALI.CM :
RXO.OHMM :
RI. :
RML.OHMM :
~A
# ...
  207.5000     2.2230   -13.9200    96.5980    23.5920    24.2520    23.6820    25.7810 
  207.6250     2.2180   -13.8010    94.2580    23.3940    21.3550    21.9000    23.8710 
  207.7500     2.2190   -13.7890    91.8020    23.2680    20.3340    20.9960    22.9030 
  207.8750     2.2250   -13.7910    91.5720    23.2430    20.6700    20.8330    22.7280 
  208.0000     2.2390   -13.7250    90.9060    23.3060    21.8360    21.2520    23.1780 
  208.1250     2.2520   -13.7370    88.2540    23.3400    23.4140    22.1470    24.1360 
  208.2500     2.2490   -13.7950    86.3350    23.3440    24.1360    23.3140    25.3850 
  208.3750     2.2300   -13.8850    84.7130    23.3160    23.9920    24.6930    26.8630 
  208.5000     2.2050   -14.0670    87.6830    23.2640    24.3290    26.2560    28.5380 
  208.6250     2.1890   -14.2310    94.5100    23.2240    27.0720    27.9590    30.3610 
  208.7500     2.1900   -14.3500    96.1100    23.1640    31.5710    29.5990    32.1190 
  208.8750     2.1980   -14.5060    90.1090    23.0920    35.1290    30.9400    33.5550 
  209.0000     2.2020   -14.7070    84.3460    23.1030    35.5300    31.8060    34.4820 
  209.1250     2.1950   -14.8570    85.3240    23.0840    34.2490    32.1780    34.8810 
  209.2500     2.1880   -15.0430    84.1520    22.9850    33.5440    32.4160    35.1360 
  209.3750     2.1890   -15.1920    82.2880    22.8300    33.5430    32.8260    35.5750 
  209.5000     2.2020   -15.2010    84.1890    22.6820    34.4530    33.6240    36.4300 
  209.6250     2.2260   -15.2420    86.3390    22.6280    36.3620    34.9060    37.8030 
  209.7500     2.2520   -15.3050    83.5160    22.5930    38.5350    36.3850    39.3870 
  209.8750     2.2640   -15.2850    77.9940    22.5780    40.1020    37.7250    40.8230 
  210.0000     2.2520   -15.2380    75.3780    22.6380    41.3360    38.5780    41.7370 
  210.1250     2.2200   -15.2230    76.1190    22.9650    42.3710    38.6020    41.7630 
  210.2500     2.1910   -15.1490    76.8870    23.2260    42.0500    38.0200    41.1390 
  210.3750     2.1790   -15.0490    76.5850    23.3920    40.3440    37.1720    40.2310 
  210.5000     2.1840   -15.0360    75.1400    23.5230    39.0970    36.4480    39.4550 
  210.6250     2.1910   -15.0330    74.3620    23.7500    39.6560    36.1930    39.1820 
  210.7500     2.1870   -14.9880    73.9420    23.8920    42.0200    36.3980    39.4010 
  210.8750     2.1740   -14.9650    73.1110    23.9170    44.1700    36.9670    40.0110 
  211.0000     2.1600   -14.9630    73.7840    23.8590    44.6300    37.7770    40.8790 
  211.1250     2.1610   -14.8980    82.4640    23.7740    42.8790    38.7320    41.9020 
  211.2500     2.1800   -14.8500    90.8430    23.6910    39.6770    39.6610    42.8970 
  211.3750     2.2090   -14.8900    88.8570    23.5660    37.4940    40.2650    43.5440 
  211.5000     2.2330   -14.8900    79.2120    23.4300    38.8090    40.0630    43.3270 
  211.6250     2.2450   -14.8340    73.3670    23.2960    43.0750    38.4050    41.5520 
  211.7500     2.2540   -14.8380    74.3660    23.1790    44.1830    35.6410    38.5910 
  211.8750     2.2650   -14.8520    77.6060    23.1310    38.9000    32.4290    35.1500 
  212.0000     2.2810   -14.9020    81.5450    23.1240    30.2590    29.5180    32.0320 
  212.1250     2.3100   -15.0520    81.7180    23.1070    25.4480    27.5670    29.9420 
  212.2500     2.3550   -15.2010    76.4770    23.0560    24.6170    26.5510    28.8530 
  212.3750     2.4110   -15.3280    70.4790    22.9790    26.1840    26.3200    28.6060 
  212.5000     2.4510   -15.4940    67.7890    22.9310    27.5400    26.5950    28.9010 
  212.6250     2.4440   -15.6830    67.9780    22.8970    27.3670    26.9510    29.2820 
  212.7500     2.4060   -15.8360    68.6610    22.8330    27.2230    26.9960    29.3300 
  212.8750     2.3680   -16.0250    70.2370    22.7800    28.6870    26.6930    29.0050 
  213.0000     2.3470   -16.1590    72.0940    22.8410    30.4780    26.3280    28.6140 
  213.1250     2.3400   -16.1570    72.2100    23.1030    29.8560    26.4220    28.7150 
  213.2500     2.3410   -16.1500    70.5880    23.2430    27.3040    27.2000    29.5480 
  213.3750     2.3490   -16.1010    67.9550    23.1950    27.4310    28.6560    31.1080 
  213.5000     2.3500   -15.9820    66.0290    23.0290    33.2440    30.4940    33.0770 
  213.6250     2.3260   -15.8280    67.6230    22.8960    41.6590    31.9840    34.6740 
  213.7500     2.2890   -15.6710    71.2610    22.9580    42.5880    32.5140    35.2410 
  213.8750     2.2590   -15.4820    74.4590    23.2650    37.2430    31.9500    34.6370 
  214.0000     2.2430   -15.2930    75.3690    23.7020    31.8750    30.6610    33.2560 
  214.1250     2.2340   -15.2040    77.1950    23.8850    30.5170    29.3060    31.8050 
  214.2500     2.2230   -15.1280    81.6660    23.8800    30.9330    28.3820    30.8150 
  214.3750     2.2120   -15.0700    85.4410    23.7960    31.8050    27.9950    30.4000 
  214.5000     2.2050   -15.0300    85.9480    23.8150    32.2430    28.0160    30.4230 
  214.6250     2.2040   -15.0400    81.3520    24.0310    31.7340    28.2290    30.6510 
  214.7500     2.2080   -15.0850    77.6000    24.2060    31.4620    28.4200    30.8550 
  214.8750     2.2120   -15.1450    78.4690    24.2010    31.5940    28.5250    30.9680 
  215.0000     2.2090   -15.2010    82.0330    24.0190    31.8080    28.5420    30.9860 
  215.1250     2.2000   -15.2390    84.0520    23.7070    32.2490    28.4830    30.9230 
  215.2500     2.1970   -15.2930    82.2150    23.4540    32.7910    28.3780    30.8100 
  215.3750     2.2030   -15.3690    78.9190    23.3710    33.0370    28.2450    30.6680 
  215.5000     2.2090   -15.4760    75.8280    23.3830    32.6860    28.1150    30.5280 
  215.6250     2.1990   -15.6220    73.4750    23.3730    31.7960    28.0340    30.4420 
  215.7500     2.1830   -15.7230    73.3230    23.3910    31.0880    28.0170    30.4240 
  215.8750     2.1800   -15.7680    74.7440    23.5070    30.9180    28.0540    30.4630 
  216.0000     2.1900   -15.8540    74.7890    23.6420    31.2940    28.1060    30.5190 
  216.1250     2.1980   -15.9840    71.9320    23.6270    31.8510    28.1120    30.5260 
  216.2500     2.1960   -16.0860    74.7890    23.5080    31.9100    28.0390    30.4470 
  216.3750     2.1940   -16.1420    86.0070    23.3970    31.3650    27.8860    30.2830 
  216.5000     2.1990   -16.1950    94.2310    23.3470    30.5200    27.6790    30.0620 
  216.6250     2.2060   -16.1620    88.4530    23.3380    29.9200    27.4500    29.8160 
  216.7500     2.2060   -16.1440    79.7360    23.3480    29.4900    27.2250    29.5750 
  216.8750     2.2070   -16.2030    75.9500    23.3760    29.0310    27.0060    29.3410 
  217.0000     2.2160   -16.2200    76.5480    23.4220    28.6000    26.7790    29.0980 
  217.1250     2.2300   -16.1360    80.5230    23.4680    28.4970    26.5220    28.8230 
  217.2500     2.2360   -16.0770    86.6840    23.4910    28.6660    26.2420    28.5220 
  217.3750     2.2300   -16.0720    89.3080    23.4370    28.6220    25.9710    28.2320 
  217.5000     2.2190   -16.0860    84.1320    23.3140    28.3210    25.7640    28.0100 
  217.6250     2.2080   -16.1450    78.8600    23.1480    28.2450    25.7190    27.9620 
  217.7500     2.2000   -16.2170    81.1190    23.0030    28.6510    25.8830    28.1370 
  217.8750     2.2020   -16.2430    85.1980    22.9490    29.2390    26.3050    28.5900 
  218.0000     2.2190   -16.3110    85.4690    22.9890    29.7710    27.0180    29.3530 
  218.1250     2.2440   -16.4300    82.4630    23.1100    30.7160    28.0700    30.4810 
  218.2500     2.2580   -16.4880    79.7850    23.1970    32.5700    29.3810    31.8850 
  218.3750     2.2500   -16.5330    77.5990    23.2530    35.1820    30.9040    33.5160 
  218.5000     2.2280   -16.5920    76.7970    23.3240    37.9050    32.5650    35.2960 
  218.6250     2.2060   -16.6270    78.4800    23.3950    39.9940    34.2340    37.0830 
