~V
VERS. 2.00: Ver 2.00
~W
STRT.M 50.0000:
STOP.M 293.0000:
STEP.M 0.1250:
NULL. -999.2500:
UWI. F10045:
~C
DEPT.M :
DEN.GM/CC :
SP.MV :
GR.API :
CALI.CM :
RXO.OHMM :
RI. :
RML.OHMM :
~A
# ...
  252.5000     2.3150   -12.7310    87.8550    24.1780    22.6760    26.5880    28.8550 
  252.6250     2.3170   -12.7830    82.4270    24.2010    22.9870    26.4480    28.7040 
  252.7500     2.3030   -12.7860    78.3290    24.1650    24.5280    26.5710    28.8360 
  252.8750     2.2800   -12.7840    75.1960    23.9900    25.1600    26.8260    29.1130 
  253.0000     2.2560   -12.8470    75.0290    23.6310    24.2950    27.1080    29.4170 
  253.1250     2.2360   -12.9340    79.8780    23.1670    24.2340    27.3270    29.6530 
  253.2500     2.2190   -13.0170    83.6930    22.8230    25.9490    27.4430    29.7790 
  253.3750     2.2010   -13.1010    82.9750    22.6620    27.0810    27.4470    29.7840 
  253.5000     2.1850   -13.1520    79.8160    22.8010    26.0930    27.3840    29.7150 
  253.6250     2.1800   -13.2460    78.4410    23.3410    24.1010    27.3870    29.7190 
  253.7500     2.1830   -13.3710    82.9490    23.9370    23.9660    27.6520    30.0050 
  253.8750     2.1880   -13.5280    90.3930    24.2230    25.7540    28.4290    30.8450 
  254.0000     2.1890   -13.6580    94.3420    24.2850    27.7930    30.0120    32.5570 
  254.1250     2.1820   -13.7920    93.8120    24.2880    30.1540    32.9270    35.7090 
  254.2500     2.1740   -13.9870    93.3320    24.2870    34.7180    37.2190    40.3490 
  254.3750     2.1700   -14.1820    92.9420    24.2710    41.6110    42.8940    46.4850 
  254.5000     2.1810   -14.3110    88.3950    24.2380    48.9630    49.6700    53.8110 
  254.6250     2.2110   -14.3960    82.7840    24.2190    57.0840    56.7470    61.4630 
  254.7500     2.2440   -14.4970    79.8380    24.2130    65.1020    62.7830    67.9880 
  254.8750     2.2740   -14.5150    76.0350    24.2130    71.7920    66.7150    72.2400 
  255.0000     2.3110   -14.5060    71.5540    24.2130    77.0640    68.1890    73.8340 
  255.1250     2.3710   -14.4740    70.9540    24.2060    75.7480    67.6980    73.3030 
  255.2500     2.4450   -14.3530    74.2700    24.1670    68.6190    67.0050    72.5540 
  255.3750     2.5080   -14.2280    77.0410    24.0760    59.5820    67.4090    72.9910 
  255.5000     2.5430   -14.1030    77.4270    23.9820    54.8430    69.7030    75.4710 
  255.6250     2.5550   -13.8910    76.4500    23.9200    59.4120    73.7020    79.7940 
  255.7500     2.5680   -13.6790    73.9490    23.8750    74.7540    76.9130    83.2660 
  255.8750     2.5930   -13.5180    70.9630    23.7970    88.1720    76.3740    82.6830 
  256.0000     2.6240   -13.3220    69.4330    23.6870    82.4040    70.3750    76.1970 
  256.1250     2.6400   -13.1740    70.7190    23.5880    60.0620    60.1200    65.1100 
  256.2500     2.6290   -13.0510    72.3770    23.4900    42.8190    50.0930    54.2680 
  256.3750     2.5950   -12.8450    73.1790    23.4410    35.4170    42.6710    46.2440 
  256.5000     2.5670   -12.6510    73.3960    23.4480    33.8820    38.6260    41.8700 
  256.6250     2.5840   -12.5290    72.5770    23.4670    33.1120    38.4200    41.6480 
  256.7500     2.6280   -12.3490    71.6860    23.5300    31.2800    41.2200    44.6750 
  256.8750     2.6610   -12.1010    73.3640    23.6790    33.6100    46.1520    50.0070 
  257.0000     2.6580   -11.8160    78.4680    23.8750    43.7570    50.3750    54.5730 
  257.1250     2.6200   -11.4340    83.2820    23.9900    51.7970    47.4870    51.4510 
  257.2500     2.5700   -11.0470    85.7460    24.0390    48.7940    37.4620    40.6120 
  257.3750     2.5190   -10.6870    89.0280    24.0020    36.7690    25.5300    27.7110 
  257.5000     2.4710   -10.2850    94.3760    23.9270    22.3420    16.1430    17.5620 
  257.6250     2.4340    -9.8940    96.4090    23.8730    12.0040    10.7130    11.6900 
  257.7500     2.4130    -9.5590    91.6560    23.8010     7.1020     7.7050     8.4390 
  257.8750     2.4090    -9.2460    83.1710    23.6840     6.0920     6.2530     6.8680 
  258.0000     2.4140    -9.0220    76.3720    23.5730     6.4540     5.8110     6.3910 
  258.1250     2.4130    -8.8620    77.8040    23.5760     6.9450     6.1220     6.7270 
  258.2500     2.3990    -8.7110    82.8480    23.7040     7.1500     6.7140     7.3670 
  258.3750     2.3710    -8.6190    83.3920    23.8910     7.2720     7.2160     7.9100 
  258.5000     2.3360    -8.6070    77.4730    23.9940     7.4110     7.3350     8.0390 
  258.6250     2.3090    -8.6190    71.6340    23.9790     7.3430     6.9570     7.6300 
  258.7500     2.3000    -8.6380    71.2720    23.8970     6.8210     6.3500     6.9740 
  258.8750     2.3130    -8.6970    76.6960    23.7900     5.9900     5.7330     6.3070 
  259.0000     2.3400    -8.7410    84.3220    23.6870     5.2240     5.2720     5.8080 
  259.1250     2.3680    -8.7690    86.7100    23.6570     4.9230     5.1030     5.6260 
  259.2500     2.3830    -8.7960    82.0880    23.7950     5.1920     5.2060     5.7370 
  259.3750     2.3790    -8.7870    78.1800    24.0390     5.9420     5.5350     6.0930 
  259.5000     2.3620    -8.7780    86.7790    24.3090     6.7230     5.9860     6.5800 
  259.6250     2.3500    -8.7470   106.9920    24.4850     6.9860     6.3940     7.0220 
  259.7500     2.3490    -8.7500   123.3530    24.5470     7.0060     6.6460     7.2940 
  259.8750     2.3490    -8.7440   129.9520    24.5400     6.9690     6.7190     7.3730 
  260.0000     2.3420    -8.7530   131.8540    24.5160     7.0530     6.6680     7.3170 
  260.1250     2.3330    -8.8300   134.0640    24.4910     7.2710     6.5950     7.2390 
  260.2500     2.3310    -8.9030   133.9870    24.4650     7.5140     6.6060     7.2510 
  260.3750     2.3360    -8.9900   132.5590    24.4530     7.7410     6.7600     7.4170 
  260.5000     2.3410    -9.1190   132.2830    24.4520     8.1010     7.0880     7.7710 
  260.6250     2.3440    -9.2570   129.3830    24.4410     9.0540     7.6470     8.3760 
  260.7500     2.3450    -9.3390   121.9560    24.4100    10.4930     8.4430     9.2360 
  260.8750     2.3430    -9.4850   117.8660    24.3630    12.0060     9.5310    10.4130 
  261.0000     2.3380    -9.6500   119.5530    24.3350    13.1340    10.9420    11.9390 
  261.1250     2.3330    -9.7370   117.4120    24.3190    14.8310    12.6090    13.7410 
  261.2500     2.3260    -9.8420   109.4940    24.2840    18.6880    14.2060    15.4670 
  261.3750     2.3160    -9.9160   104.9720    24.2160    23.1090    15.3850    16.7420 
  261.5000     2.3040    -9.9310   107.1930    24.1310    23.4550    15.8920    17.2900 
  261.6250     2.2970    -9.9830   110.4560    24.0820    18.5220    15.5950    16.9690 
  261.7500     2.2970   -10.0350   112.0810    24.0450    15.2120    14.7700    16.0770 
  261.8750     2.3010   -10.0130   114.0020    24.0240    15.1960    13.5820    14.7930 
  262.0000     2.3100    -9.9860   116.5640    23.9860    16.0560    12.1870    13.2840 
  262.1250     2.3220   -10.0130   118.8060    23.8300    14.3050    10.7960    11.7800 
  262.2500     2.3280   -10.0010   120.7990    23.5520    11.1100     9.6340    10.5250 
  262.3750     2.3270   -10.0390   121.4210    23.3270     8.7980     8.8600     9.6870 
  262.5000     2.3180   -10.1080   119.9040    23.1860     8.5180     8.5620     9.3650 
  262.6250     2.2960   -10.1670   118.0630    23.1500    10.1740     8.8650     9.6930 
  262.7500     2.2620   -10.2210   117.4360    23.1350    12.4240     9.6890    10.5830 
  262.8750     2.2310   -10.2780   119.0290    23.1350    14.1270    11.0150    12.0170 
  263.0000     2.2310   -10.3390   120.5600    23.1350    14.8520    12.8250    13.9740 
  263.1250     2.2840   -10.3150   118.7940    23.1480    15.3740    15.2040    16.5460 
  263.2500     2.3610   -10.2970   114.7220    23.1820    16.9470    17.9780    19.5460 
  263.3750     2.4240   -10.2740   108.9150    23.2290    20.2290    20.6660    22.4520 
  263.5000     2.4450   -10.1990   102.5380    23.2920    25.2650    22.2320    24.1450 
  263.6250     2.4240   -10.0630    99.7830    23.4950    28.8230    21.1910    23.0200 
