~V
VERS. 2.00: Ver 2.00
~W
STRT.M 50.0000:
STOP.M 293.0000:
STEP.M 0.1250:
NULL. -999.2500:
UWI. F10037:
~C
DEPT.M :
GR.API :
RML.OHMM :
RI. :
RXO.OHMM :
CALI.CM :
SP.MV :
DEN.GM/CC :
~A
# ...
   95.0000    71.1020     5.5570     4.8400     5.3870    23.5780    -5.5660     2.2670 
   95.1250    75.9290     5.1870     4.4630     4.8360    23.5030    -4.8430     2.2980 
   95.2500    78.0080     4.9960     4.2250     4.6110    23.4400    -4.1560     2.3210 
   95.3750    77.7770     4.9260     4.1030     4.5240    23.4790    -3.5060     2.3360 
   95.5000    78.9330     4.9010     4.0550     4.4680    23.6530    -2.9660     2.3450 
   95.6250    84.8710     4.8560     4.0350     4.4500    23.8730    -2.5190     2.3510 
   95.7500    89.6130     4.7800     4.0140     4.4920    24.0000    -2.2160     2.3600 
   95.8750    89.9480     4.7080     4.0000     4.5550    24.0070    -2.0310     2.3710 
   96.0000    87.4010     4.6990     4.0240     4.6330    23.9690    -2.0020     2.3810 
   96.1250    85.0850     4.8240     4.1350     4.7420    23.9300    -2.0400     2.3840 
   96.2500    83.4090     5.0780     4.3360     4.9380    23.8810    -2.1610     2.3760 
   96.3750    81.8160     5.4280     4.6130     5.2600    23.8160    -2.3770     2.3580 
   96.5000    79.2430     5.8120     4.9240     5.6840    23.7350    -2.6250     2.3350 
   96.6250    73.5370     6.1300     5.1980     5.9730    23.6480    -2.9620     2.3160 
   96.7500    67.7080     6.3150     5.3780     6.0100    23.5740    -3.2710     2.3040 
   96.8750    67.0730     6.3240     5.4270     5.8660    23.5240    -3.6040     2.2990 
   97.0000    71.2910     6.1450     5.3320     5.7920    23.4920    -3.9000     2.2970 
   97.1250    74.4760     5.7850     5.0940     5.7990    23.4610    -4.1930     2.2940 
   97.2500    75.2680     5.3680     4.7980     5.8060    23.3990    -4.4800     2.2900 
   97.3750    75.3390     5.0360     4.5430     5.7480    23.3240    -4.7670     2.2880 
   97.5000    74.6030     4.9600     4.4420     5.5180    23.2500    -5.0900     2.2920 
   97.6250    72.5140     5.3430     4.6470     5.5580    23.2100    -5.4960     2.3110 
   97.7500    71.0610     6.1280     5.1440     6.4960    23.1980    -6.0240     2.3450 
   97.8750    69.2140     7.1690     5.8640     8.1820    23.2170    -6.6440     2.3890 
   98.0000    64.1220     8.2070     6.6530    10.1800    23.2410    -7.3490     2.4310 
   98.1250    58.1710     8.8550     7.2620    11.5030    23.2690    -8.0400     2.4440 
   98.2500    56.2210     8.9910     7.5530    10.7820    23.3070    -8.6880     2.4250 
   98.3750    58.4250     8.7090     7.5250     9.5180    23.3220    -9.2270     2.3810 
   98.5000    61.0660     8.2530     7.2970     8.9760    23.3340    -9.6310     2.3300 
   98.6250    62.1640     7.8610     7.0180     8.8180    23.3480    -9.8020     2.2930 
   98.7500    64.0660     7.5750     6.7700     8.6330    23.3370    -9.7960     2.2730 
   98.8750    68.6460     7.3460     6.5480     8.3550    23.2970    -9.5570     2.2650 
   99.0000    74.1810     7.1310     6.3320     7.9830    23.2350    -9.1800     2.2650 
   99.1250    76.8210     6.9610     6.1410     7.5120    23.1630    -8.7510     2.2680 
   99.2500    75.4060     6.8950     6.0210     7.0420    23.1100    -8.3860     2.2700 
   99.3750    73.2920     6.9750     6.0090     6.8250    23.0530    -8.2090     2.2710 
   99.5000    72.8800     7.1880     6.1090     7.0470    22.9830    -8.1970     2.2690 
   99.6250    71.8310     7.4700     6.2910     7.6170    22.8970    -8.4260     2.2640 
   99.7500    67.9870     7.7050     6.4740     8.0910    22.8440    -8.7620     2.2550 
   99.8750    64.3990     7.8230     6.5980     8.1510    22.8200    -9.2300     2.2440 
  100.0000    64.6850     7.8020     6.6310     7.9700    22.8140    -9.7290     2.2320 
  100.1250    65.6060     7.6660     6.5670     7.8080    22.7760   -10.2450     2.2230 
  100.2500    63.3220     7.5050     6.4580     7.6990    22.6870   -10.6600     2.2200 
  100.3750    60.9310     7.3700     6.3400     7.5520    22.5670   -10.9280     2.2230 
  100.5000    61.6620     7.2800     6.2370     7.3470    22.4210   -11.0660     2.2310 
  100.6250    64.1040     7.2370     6.1670     7.2480    22.2640   -11.0820     2.2410 
  100.7500    65.0280     7.2260     6.1290     7.3450    22.1200   -11.0660     2.2490 
  100.8750    64.3520     7.2480     6.1250     7.5240    22.0180   -11.0670     2.2550 
  101.0000    63.8640     7.3000     6.1540     7.7070    21.9800   -11.1450     2.2610 
  101.1250    65.9950     7.3700     6.2060     7.8980    22.0550   -11.2660     2.2620 
  101.2500    67.7610     7.4240     6.2560     8.0630    22.1810   -11.4870     2.2570 
  101.3750    66.1970     7.4320     6.2830     8.1290    22.3420   -11.7490     2.2420 
  101.5000    63.5470     7.3860     6.2740     8.1150    22.5410   -12.0790     2.2190 
  101.6250    63.2270     7.2990     6.2240     7.9510    22.7600   -12.3820     2.1930 
  101.7500    62.8000     7.2080     6.1560     7.7160    22.9550   -12.6590     2.1740 
  101.8750    61.4340     7.1350     6.0860     7.5160    23.0990   -12.8430     2.1660 
  102.0000    62.1910     7.0800     6.0270     7.4120    23.1980   -12.9390     2.1710 
  102.1250    64.1350     7.0390     5.9900     7.5240    23.2300   -12.9100     2.1840 
  102.2500    64.9330     7.0200     5.9860     7.6750    23.2040   -12.7840     2.1960 
  102.3750    66.0640     7.0660     6.0410     7.7590    23.1620   -12.5700     2.2040 
  102.5000    65.4610     7.2350     6.1860     7.7520    23.1550   -12.2380     2.2050 
  102.6250    59.1150     7.5860     6.4650     7.7200    23.2370   -11.8160     2.2040 
  102.7500    54.2200     8.0470     6.8320     7.7800    23.3980   -11.2910     2.2090 
  102.8750    55.8540     8.4890     7.2050     7.8960    23.5300   -10.7160     2.2260 
  103.0000    60.2780     8.7430     7.4650     8.0230    23.5740   -10.0340     2.2520 
  103.1250    60.3040     8.6060     7.4530     8.1090    23.5580    -9.3060     2.2770 
  103.2500    58.5860     8.1260     7.1690     7.9800    23.5440    -8.4750     2.2940 
  103.3750    60.4290     7.4340     6.6780     7.5340    23.5350    -7.6290     2.2990 
  103.5000    67.2080     6.7150     6.1000     6.9140    23.5310    -6.8120     2.2990 
  103.6250    74.6310     6.1560     5.5820     6.5460    23.5390    -6.0710     2.3010 
  103.7500    78.8410     5.8030     5.1980     6.4140    23.5590    -5.4720     2.3070 
  103.8750    82.2440     5.6490     4.9720     6.2680    23.5640    -4.9730     2.3150 
  104.0000    84.4600     5.6530     4.8900     6.0320    23.5580    -4.6390     2.3230 
  104.1250    81.8520     5.7570     4.9250     5.8820    23.5500    -4.4310     2.3240 
  104.2500    76.5520     5.8650     5.0000     5.9180    23.5490    -4.3730     2.3180 
  104.3750    71.7060     5.9160     5.0610     5.9860    23.5530    -4.3840     2.3060 
  104.5000    70.0520     5.8750     5.0720     5.9050    23.5730    -4.4310     2.2890 
  104.6250    72.6450     5.7540     5.0240     5.6930    23.6090    -4.4880     2.2760 
  104.7500    76.8360     5.6370     4.9640     5.6010    23.6440    -4.5720     2.2700 
  104.8750    80.1440     5.6020     4.9440     5.6130    23.6690    -4.6870     2.2720 
  105.0000    81.7070     5.6990     5.0010     5.8360    23.6660    -4.8520     2.2770 
  105.1250    80.6100     5.9360     5.1530     6.2850    23.6440    -5.0310     2.2800 
  105.2500    77.2100     6.2170     5.3420     6.7260    23.6140    -5.1940     2.2810 
  105.3750    75.2650     6.4390     5.5040     7.0260    23.5930    -5.3300     2.2810 
  105.5000    77.9490     6.5110     5.5710     7.0430    23.5840    -5.4570     2.2800 
  105.6250    82.5440     6.3570     5.4810     6.9340    23.5720    -5.5630     2.2800 
  105.7500    86.5260     6.0610     5.2800     6.8940    23.5420    -5.6090     2.2790 
  105.8750    88.8110     5.7390     5.0450     6.7380    23.5050    -5.6180     2.2720 
  106.0000    86.6170     5.5350     4.8810     6.4300    23.4790    -5.5600     2.2560 
  106.1250    80.1620     5.6450     4.9460     6.4200    23.4810    -5.5360     2.2340 
