~V
VERS. 2.00: Ver 2.00
~W
STRT.M 50.0000:
STOP.M 278.0000:
STEP.M 0.1250:
NULL. -999.2500:
UWI. F10031:
~C
DEPT.M :
GR.API :
RML.OHMM :
RI. :
RXO.OHMM :
CALI.CM :
DEN.GM/CC :
SP.MV :
~A
# ...
  117.5000    64.5080     6.8800     5.9670     6.8450    22.7310     2.2000   -22.4500 
  117.6250    66.0210     6.7880     5.8970     6.7890    22.6430     2.1820   -21.7680 
  117.7500    68.2920     6.8360     5.9300     7.1520    22.5980     2.1650   -21.0010 
  117.8750    70.8760     6.9840     6.0420     7.9140    22.6220     2.1640   -20.1640 
  118.0000    71.9900     7.1400     6.1740     9.1390    22.7120     2.1910   -19.2590 
  118.1250    71.8630     7.1680     6.2220    10.1710    22.8320     2.2500   -18.2890 
  118.2500    73.4500     7.0140     6.1300    10.8420    22.9310     2.3190   -17.3280 
  118.3750    76.6610     6.6910     5.8960    10.2610    23.0390     2.3750   -16.4140 
  118.5000    79.1260     6.2810     5.5700     7.5630    23.1950     2.4000   -15.5780 
  118.6250    80.8390     5.9070     5.2450     6.0280    23.3460     2.3910   -14.8770 
  118.7500    83.4750     5.6440     4.9950     5.4490    23.4030     2.3700   -14.3360 
  118.8750    85.2580     5.5100     4.8490     5.3760    23.3710     2.3540   -13.9460 
  119.0000    84.3710     5.4860     4.8030     5.3800    23.3170     2.3480   -13.6720 
  119.1250    82.0590     5.5280     4.8340     5.3900    23.3360     2.3460   -13.5080 
  119.2500    80.3540     5.5690     4.8850     5.3450    23.3330     2.3410   -13.4040 
  119.3750    79.0140     5.5760     4.9220     5.4190    23.2490     2.3310   -13.3380 
  119.5000    77.7230     5.5290     4.9240     5.5030    23.0990     2.3190   -13.3030 
  119.6250    78.0280     5.4260     4.8750     5.3520    22.9350     2.3090   -13.2950 
  119.7500    79.5510     5.3040     4.7940     5.0920    22.8300     2.3060   -13.2810 
  119.8750    80.7190     5.2030     4.7050     4.9610    22.7900     2.3100   -13.2350 
  120.0000    81.5760     5.1570     4.6390     4.9260    22.8200     2.3170   -13.1980 
  120.1250    82.7010     5.1970     4.6290     4.9510    22.9310     2.3250   -13.2450 
  120.2500    84.2190     5.3090     4.6760     5.0870    23.1060     2.3310   -13.3790 
  120.3750    84.7620     5.4720     4.7720     5.2910    23.2900     2.3380   -13.6020 
  120.5000    83.8880     5.6600     4.8930     5.4700    23.4010     2.3450   -13.9060 
  120.6250    83.0630     5.8270     5.0040     5.5750    23.4150     2.3520   -14.2850 
  120.7500    81.7070     5.9240     5.0700     5.6790    23.3740     2.3520   -14.7340 
  120.8750    80.4760     5.9180     5.0710     5.8360    23.2880     2.3470   -15.2660 
  121.0000    79.8580     5.8130     5.0080     6.0400    23.1440     2.3370   -15.8320 
  121.1250    79.4090     5.6890     4.9290     6.2090    23.0070     2.3280   -16.3730 
  121.2500    77.9210     5.7220     4.9400     6.3630    22.9120     2.3180   -16.8700 
  121.3750    75.8460     6.1010     5.1730     6.7390    22.8770     2.3090   -17.3210 
  121.5000    74.6520     6.9750     5.7520     7.6840    22.8690     2.3040   -17.7260 
  121.6250    72.6640     8.4090     6.7900     9.7750    22.8530     2.3160   -18.0760 
  121.7500    68.8640    10.0500     8.0910    13.4070    22.7980     2.3540   -18.4230 
  121.8750    64.6280    11.4750     9.3700    18.2360    22.6740     2.4140   -18.8250 
  122.0000    61.5550    12.2390    10.2600    23.1010    22.4820     2.4750   -19.3370 
  122.1250    60.6330    11.9380    10.3420    25.4780    22.2560     2.5010   -19.9160 
  122.2500    62.1940    10.9120     9.7590    22.6260    22.0970     2.4750   -20.4820 
  122.3750    65.2210     9.6180     8.8250    16.1120    22.1330     2.4110   -20.9910 
  122.5000    67.4230     8.4950     7.9020    10.6820    22.3740     2.3360   -21.4250 
  122.6250    67.9250     7.8650     7.2780     8.7800    22.6750     2.2790   -21.7630 
  122.7500    68.0680     7.6480     6.9620     8.1010    22.8050     2.2460   -21.9610 
  122.8750    68.0600     7.7060     6.8830     7.8090    22.8280     2.2330   -21.9350 
  123.0000    67.0380     7.8550     6.9140     7.6230    22.7860     2.2300   -21.6080 
  123.1250    66.8600     7.8710     6.8890     7.5080    22.6880     2.2320   -20.9630 
  123.2500    69.4890     7.6300     6.6870     7.2650    22.5640     2.2360   -20.1400 
  123.3750    74.0270     7.0950     6.2670     6.7970    22.4820     2.2460   -19.2440 
  123.5000    78.9570     6.3350     5.6680     6.0770    22.4820     2.2640   -18.3510 
  123.6250    84.0810     5.5230     5.0100     5.2820    22.5370     2.2930   -17.5320 
  123.7500    91.0700     4.8750     4.4530     4.5950    22.5430     2.3240   -16.8410 
  123.8750    98.8040     4.5390     4.1050     4.1860    22.4740     2.3490   -16.3510 
  124.0000   102.3780     4.6070     4.0430     4.1870    22.3890     2.3620   -16.1470 
  124.1250    98.0080     5.1970     4.3780     4.7110    22.3320     2.3590   -16.3290 
  124.2500    89.2980     6.1940     5.0630     5.6120    22.2810     2.3460   -16.8010 
  124.3750    81.2030     7.4630     6.0350     6.9380    22.2390     2.3330   -17.4790 
  124.5000    76.2280     8.7700     7.1400     8.9540    22.2550     2.3270   -18.2680 
  124.6250    76.0510     9.7390     8.0920    11.0360    22.3660     2.3280   -19.0900 
  124.7500    78.5360    10.1640     8.6520    12.8370    22.5010     2.3270   -19.8830 
  124.8750    80.2650     9.9940     8.7150    13.5190    22.5600     2.3140   -20.6190 
  125.0000    78.8780     9.3680     8.3420    11.3630    22.5180     2.2870   -21.2550 
  125.1250    75.2410     8.5620     7.7210     8.9350    22.4400     2.2540   -21.7110 
  125.2500    72.6860     7.8920     7.1360     8.0650    22.4550     2.2300   -22.0360 
  125.3750    71.7630     7.5110     6.7320     7.8360    22.5350     2.2240   -22.2620 
  125.5000    71.1550     7.4660     6.5740     7.7110    22.5560     2.2360   -22.4230 
  125.6250    69.0240     7.7290     6.6760     7.6830    22.4500     2.2530   -22.5340 
  125.7500    65.4310     8.1010     6.9070     7.7520    22.2210     2.2610   -22.6120 
  125.8750    62.9700     8.4240     7.1560     7.8810    21.9250     2.2530   -22.6520 
  126.0000    62.8690     8.5840     7.3270     7.9840    21.7240     2.2310   -22.6590 
  126.1250    65.3190     8.5100     7.3400     7.9910    21.7930     2.2030   -22.6150 
  126.2500    67.2790     8.2990     7.2330     8.0080    21.9870     2.1810   -22.4890 
  126.3750    67.5670     8.0520     7.0640     8.0550    22.1690     2.1690   -22.2500 
  126.5000    67.7410     7.8390     6.8860     8.0820    22.3190     2.1680   -21.8730 
  126.6250    68.7180     7.6650     6.7170     7.9700    22.4170     2.1740   -21.3050 
  126.7500    70.0190     7.4690     6.5340     7.6980    22.3900     2.1830   -20.5280 
  126.8750    70.9250     7.2130     6.3140     7.3220    22.3320     2.1970   -19.4940 
  127.0000    72.0960     6.9010     6.0610     6.9820    22.4330     2.2180   -18.2230 
  127.1250    76.3220     6.5900     5.8030     6.7800    22.7660     2.2540   -16.8380 
  127.2500    83.0670     6.3450     5.5810     6.7880    23.0960     2.2990   -15.4940 
  127.3750    88.1400     6.2000     5.4220     7.0570    23.3990     2.3440   -14.2710 
  127.5000    88.2980     6.1480     5.3330     7.2570    23.6120     2.3750   -13.2200 
  127.6250    86.0230     6.1570     5.3070     6.9760    23.7040     2.3780   -12.4050 
  127.7500    85.6340     6.1640     5.3070     6.1070    23.6900     2.3590   -11.7960 
  127.8750    86.1450     6.1390     5.3100     5.9510    23.5980     2.3310   -11.3740 
  128.0000    85.4850     6.0720     5.3030     6.1670    23.4990     2.3070   -11.0780 
  128.1250    85.1420     5.9820     5.2850     6.1040    23.5210     2.3030   -10.8280 
  128.2500    86.0740     5.9100     5.2700     5.7800    23.6270     2.3160   -10.5710 
  128.3750    88.0120     5.8800     5.2680     5.5210    23.7430     2.3390   -10.3110 
  128.5000    91.1130     5.8960     5.2800     5.5100    23.7990     2.3600   -10.0350 
  128.6250    92.8550     5.9300     5.2940     5.6020    23.7900     2.3650    -9.7350 
