~V
VERS. 2.00: Ver 2.00
~W
STRT.M 60.0000:
STOP.M 242.0000:
STEP.M 0.1250:
NULL. -999.2500:
UWI. F10022:
~C
DEPT.M :
GR.API :
RML.OHMM :
RI. :
RXO.OHMM :
CALI.CM :
DEN.GM/CC :
SP.MV :
~A
# ...
  116.2500    75.3970     6.9970     6.1050     7.0580    23.3950     2.2920    -6.5910 
  116.3750    77.2270     6.6440     5.7830     6.6040    23.5430     2.3110    -6.6770 
  116.5000    81.3970     6.3270     5.4580     6.1960    23.7150     2.3350    -6.8050 
  116.6250    84.1500     6.1590     5.2310     5.8170    23.8050     2.3510    -7.0440 
  116.7500    84.3890     6.1490     5.1310     5.6650    23.7310     2.3470    -7.3590 
  116.8750    82.3660     6.2930     5.1720     5.8620    23.5820     2.3210    -7.6920 
  117.0000    79.3140     6.5880     5.3610     6.3750    23.4960     2.2850    -7.9980 
  117.1250    75.9000     7.0600     5.7280     6.9940    23.5110     2.2630    -8.3250 
  117.2500    72.8680     7.6650     6.2320     7.5680    23.5610     2.2680    -8.7170 
  117.3750    69.1530     8.3490     6.8240     8.1210    23.5620     2.2980    -9.1630 
  117.5000    64.3220     9.0240     7.4300     8.8790    23.4280     2.3330    -9.6490 
  117.6250    60.5820     9.5600     7.9400    10.1560    23.2150     2.3440   -10.1090 
  117.7500    58.4610     9.9060     8.2990    11.0750    23.1770     2.3280   -10.5230 
  117.8750    57.4870    10.0730     8.5060    11.0460    23.4210     2.2940   -10.9140 
  118.0000    57.8440    10.1240     8.6040    10.7180    23.7190     2.2600   -11.3120 
  118.1250    59.4450    10.1390     8.6550    10.8480    23.8590     2.2360   -11.7240 
  118.2500    59.6560    10.1740     8.7140    11.1360    23.9230     2.2190   -12.1280 
  118.3750    57.7130    10.2310     8.7900    11.2870    23.9950     2.2050   -12.4950 
  118.5000    56.0940    10.2840     8.8630    11.3110    24.0850     2.1950   -12.7730 
  118.6250    57.0990    10.2930     8.8960    11.0730    24.0850     2.1900   -12.9340 
  118.7500    57.6970    10.2480     8.8760    10.8020    24.0450     2.1900   -13.0030 
  118.8750    56.4770    10.1420     8.7990    10.6320    24.0060     2.1920   -12.9990 
  119.0000    54.4990     9.9690     8.6620    10.5670    23.9970     2.1960   -12.9400 
  119.1250    53.1040     9.7190     8.4590    10.4450    24.0190     2.2030   -12.8200 
  119.2500    53.9270     9.4230     8.2170    10.1640    24.0050     2.2110   -12.6610 
  119.3750    56.7740     9.1100     7.9650     9.8270    23.9440     2.2190   -12.4600 
  119.5000    58.9400     8.8240     7.7450     9.6170    23.8800     2.2220   -12.2170 
  119.6250    59.5790     8.6580     7.6310     9.7110    24.0020     2.2180   -11.9490 
  119.7500    59.8880     8.7070     7.6880    10.1080    24.2310     2.2170   -11.6660 
  119.8750    59.2130     9.0810     7.9950    10.6400    24.4130     2.2270   -11.3780 
  120.0000    57.4110     9.8350     8.6020    11.6380    24.4100     2.2520   -11.0720 
  120.1250    58.0100    10.8950     9.4800    14.6960    24.1550     2.2840   -10.6570 
  120.2500    60.1220    11.8820    10.3560    19.2490    23.8040     2.3050   -10.1300 
  120.3750    59.5000    12.4050    10.9190    24.0360    23.5160     2.3010    -9.5200 
  120.5000    55.8280    12.1540    10.8770    27.5120    23.3850     2.2750    -8.8650 
  120.6250    57.1240    10.9740    10.0170    23.4610    23.4370     2.2460    -8.1970 
  120.7500    65.4620     9.3550     8.6950    14.3590    23.5970     2.2370    -7.5450 
  120.8750    76.8970     7.7420     7.2750     8.5710    23.7330     2.2570    -6.9290 
  121.0000    85.8410     6.4570     6.0480     6.1020    23.8760     2.2970    -6.3650 
  121.1250    89.1070     5.6610     5.1890     5.1810    23.9850     2.3420    -5.9200 
  121.2500    89.5840     5.1830     4.6070     4.8910    24.0270     2.3800    -5.5790 
  121.3750    89.2080     4.8850     4.2230     4.8180    24.0180     2.4080    -5.3390 
  121.5000    89.2960     4.6760     3.9710     4.7640    23.9780     2.4320    -5.2020 
  121.6250    91.2830     4.5870     3.8600     4.6760    23.9240     2.4530    -5.2130 
  121.7500    92.2610     4.7070     3.9190     4.6920    23.9010     2.4660    -5.3560 
  121.8750    91.0020     5.1360     4.2080     5.0050    23.8810     2.4580    -5.5900 
  122.0000    88.0450     5.8840     4.7530     5.7940    23.8210     2.4220    -5.9130 
  122.1250    82.8440     6.8230     5.5150     7.1070    23.7170     2.3560    -6.2690 
  122.2500    75.0030     7.6300     6.2820     8.6370    23.7120     2.2820    -6.5910 
  122.3750    66.5050     8.0620     6.8540     9.8230    23.8060     2.2210    -6.8640 
  122.5000    60.7760     8.0340     7.1010     9.9310    23.8420     2.1920    -7.0810 
  122.6250    62.0630     7.6990     7.0320     9.3060    23.7160     2.2120    -7.1820 
  122.7500    65.8650     7.4600     6.9190     8.5820    23.5050     2.2700    -7.1490 
  122.8750    67.5030     7.5330     6.9460     8.2860    23.3860     2.3520    -6.9880 
  123.0000    65.5310     7.9010     7.1530     8.9940    23.3790     2.4350    -6.6990 
  123.1250    63.1310     8.2930     7.3950    10.9670    23.3940     2.4920    -6.3630 
  123.2500    64.1030     8.3670     7.4320    12.6670    23.3970     2.5120    -6.0930 
  123.3750    68.1390     7.9700     7.1240    13.0490    23.3840     2.4980    -5.8600 
  123.5000    74.4440     7.1810     6.4940    11.2970    23.3550     2.4610    -5.6520 
  123.6250    80.5520     6.3190     5.7560     8.3120    23.3370     2.4200    -5.4330 
  123.7500    83.6570     5.7450     5.1980     6.3930    23.3300     2.3880    -5.2290 
  123.8750    85.0470     5.6090     4.9550     5.9540    23.3300     2.3660    -5.0760 
  124.0000    85.8550     5.8870     5.0390     6.3790    23.3300     2.3490    -4.9710 
  124.1250    84.2030     6.4380     5.3880     7.0400    23.3430     2.3310    -4.9200 
  124.2500    79.8230     6.9730     5.8010     7.4990    23.3820     2.3130    -4.8620 
  124.3750    76.9590     7.3000     6.1240     7.5930    23.4330     2.2960    -4.7910 
  124.5000    77.8790     7.3190     6.2550     7.3960    23.4630     2.2870    -4.6870 
  124.6250    79.9910     7.0380     6.1490     7.0650    23.4660     2.2890    -4.5970 
  124.7500    81.0510     6.6670     5.9280     6.8100    23.4460     2.2990    -4.5410 
  124.8750    82.8350     6.3740     5.7060     6.6140    23.3960     2.3120    -4.4860 
  125.0000    86.3890     6.2770     5.5840     6.4750    23.3430     2.3270    -4.4210 
  125.1250    87.6370     6.4530     5.6500     6.5790    23.2960     2.3420    -4.2960 
  125.2500    85.2840     6.7950     5.8640     7.0450    23.2550     2.3570    -4.1140 
  125.3750    81.5640     7.1760     6.1530     7.6710    23.2780     2.3700    -3.8990 
  125.5000    77.7750     7.4560     6.4140     8.4070    23.4060     2.3790    -3.6730 
  125.6250    75.8710     7.4950     6.5220     9.0060    23.6830     2.3780    -3.4730 
  125.7500    75.3130     7.3430     6.4750     9.1090    23.9290     2.3700    -3.3020 
  125.8750    75.0200     7.1290     6.3450     8.7680    24.0110     2.3620    -3.1530 
  126.0000    74.5540     7.0300     6.2610     8.0390    23.9010     2.3570    -3.0220 
  126.1250    75.2120     7.2180     6.3750     7.7710    23.6830     2.3560    -2.8890 
  126.2500    76.6690     7.6330     6.6860     8.1960    23.5670     2.3530    -2.7730 
  126.3750    74.9200     8.1250     7.1150     8.9080    23.5260     2.3450    -2.7080 
  126.5000    67.7160     8.4920     7.5150     9.5270    23.4880     2.3330    -2.6950 
  126.6250    61.7110     8.5070     7.6830     9.4480    23.3860     2.3270    -2.6550 
  126.7500    65.5770     8.1960     7.5730     8.7010    23.3550     2.3290    -2.5380 
  126.8750    76.3370     7.6770     7.2370     7.7300    23.5530     2.3380    -2.3430 
  127.0000    84.5740     7.1180     6.8000     7.0360    23.9040     2.3470    -2.0940 
  127.1250    86.4240     6.6850     6.4090     6.8340    24.1070     2.3500    -1.8590 
  127.2500    87.1320     6.4030     6.1240     6.7480    24.1690     2.3470    -1.6610 
  127.3750    86.6950     6.2360     5.9380     6.6930    24.1750     2.3440    -1.4780 
