~V
VERS. 2.00: Ver 2.00
~W
STRT.M 60.0000:
STOP.M 271.0000:
STEP.M 0.1250:
NULL. -999.2500:
UWI. F10035:
~C
DEPT.M :
GR.API :
RML.OHMM :
RI. :
RXO.OHMM :
CALI.CM :
DEN.GM/CC :
SP.MV :
~A
# ...
  116.2500    59.8620    12.2110    11.1110    10.8290    23.9720     2.4500   -11.3590 
  116.3750    61.3240     9.9450     8.8220     9.1460    23.9690     2.3330   -12.4300 
  116.5000    61.7560     8.8520     7.5220     9.0610    24.0280     2.2500   -13.5070 
  116.6250    62.5420     8.8260     7.0540     9.1140    23.9740     2.2070   -14.5610 
  116.7500    62.7560     9.2360     7.0440     9.5000    23.8380     2.1850   -15.5580 
  116.8750    60.3900     9.7350     7.2760     9.6790    23.7980     2.1730   -16.4430 
  117.0000    56.7140    10.0980     7.5560     9.6130    23.8730     2.1640   -17.1790 
  117.1250    56.1250    10.2170     7.7460     9.2940    23.9090     2.1580   -17.8070 
  117.2500    58.1460    10.1620     7.8300     8.7910    23.7920     2.1520   -18.3870 
  117.3750    60.5300     9.9870     7.8270     8.4120    23.6200     2.1470   -18.9050 
  117.5000    62.1020     9.7590     7.7700     8.3140    23.5640     2.1450   -19.3500 
  117.6250    61.3400     9.5590     7.6970     8.4820    23.6770     2.1500   -19.7230 
  117.7500    59.3750     9.4410     7.6370     8.4440    23.8670     2.1600   -19.9780 
  117.8750    58.7370     9.4150     7.6040     8.4560    24.0050     2.1710   -20.0860 
  118.0000    59.7090     9.4580     7.5950     8.7670    23.9140     2.1780   -20.0680 
  118.1250    59.9960     9.5260     7.5980     9.2860    23.7520     2.1790   -19.9780 
  118.2500    59.0900     9.5850     7.5980     9.3400    23.7230     2.1770   -19.9040 
  118.3750    59.0270     9.6160     7.5900     8.9770    23.7370     2.1760   -19.8960 
  118.5000    61.6060     9.6010     7.5740     8.7040    23.7480     2.1760   -19.9840 
  118.6250    64.2740     9.5240     7.5550     8.5730    23.7380     2.1760   -20.1100 
  118.7500    64.2210     9.4160     7.5390     8.4380    23.7220     2.1720   -20.2300 
  118.8750    62.4350     9.3080     7.5290     8.4960    23.7410     2.1660   -20.3490 
  119.0000    62.1760     9.2120     7.5120     8.5920    23.7820     2.1600   -20.4390 
  119.1250    62.3460     9.1040     7.4640     8.6440    23.7670     2.1540   -20.4260 
  119.2500    60.0600     8.9340     7.3700     8.8600    23.6060     2.1480   -20.3310 
  119.3750    59.0610     8.6800     7.2230     8.9690    23.4140     2.1420   -20.1250 
  119.5000    61.9340     8.3770     7.0330     8.6630    23.3270     2.1350   -19.7090 
  119.6250    65.8400     8.1100     6.8350     8.1290    23.3520     2.1280   -19.0000 
  119.7500    67.8940     7.9300     6.6680     7.6060    23.4100     2.1240   -18.1450 
  119.8750    69.3950     7.8250     6.5380     7.2230    23.4570     2.1250   -17.1820 
  120.0000    72.2990     7.7200     6.4140     7.0440    23.4730     2.1320   -16.0970 
  120.1250    74.3710     7.4980     6.2360     6.9260    23.4710     2.1480   -14.8610 
  120.2500    74.3260     7.1340     5.9780     6.8070    23.5150     2.1710   -13.4260 
  120.3750    75.3040     6.6790     5.6590     6.6140    23.6090     2.2000   -11.7840 
  120.5000    78.5160     6.2250     5.3280     6.1090    23.7560     2.2290   -10.0370 
  120.6250    81.6670     5.8910     5.0560     5.5310    23.9890     2.2510    -8.4040 
  120.7500    80.4530     5.7140     4.8730     5.4350    24.3110     2.2650    -6.9390 
  120.8750    76.0470     5.6910     4.7870     5.7090    24.6290     2.2710    -5.6710 
  121.0000    74.6190     5.7750     4.7870     5.6950    24.8200     2.2740    -4.6180 
  121.1250    77.5030     5.9050     4.8570     5.4880    24.8800     2.2800    -3.8260 
  121.2500    80.1060     6.0330     4.9680     5.2610    24.8650     2.2910    -3.3200 
  121.3750    80.5540     6.1650     5.1150     5.4620    24.8120     2.3030    -3.1330 
  121.5000    78.9370     6.3260     5.2970     5.7610    24.7560     2.3120    -3.2180 
  121.6250    77.4260     6.5160     5.4970     5.6490    24.6810     2.3110    -3.4950 
  121.7500    76.6820     6.6700     5.6680     5.5850    24.5860     2.3000    -3.8200 
  121.8750    75.5500     6.7200     5.7550     5.9510    24.4670     2.2860    -4.0590 
  122.0000    73.5640     6.6370     5.7200     6.3750    24.3540     2.2760    -4.1580 
  122.1250    72.5940     6.4590     5.5570     6.0640    24.3180     2.2800    -4.1280 
  122.2500    74.8060     6.2750     5.3400     5.8810    24.4220     2.2930    -4.0080 
  122.3750    78.8430     6.1240     5.1200     5.6510    24.6340     2.3090    -3.8120 
  122.5000    82.0860     6.0220     4.9350     5.4400    24.7930     2.3200    -3.5830 
  122.6250    83.9910     5.9870     4.8160     5.5300    24.8430     2.3250    -3.3370 
  122.7500    81.9300     5.9850     4.7410     5.8680    24.8420     2.3260    -3.1380 
  122.8750    75.6820     5.9840     4.6960     6.0260    24.8190     2.3190    -3.1540 
  123.0000    71.6070     5.9900     4.6870     6.0440    24.7490     2.3010    -3.4880 
  123.1250    73.5080     6.1140     4.7880     6.2620    24.6480     2.2660    -4.0840 
  123.2500    75.2740     6.5140     5.0810     6.8770    24.5800     2.2320    -4.7200 
  123.3750    71.9130     7.3910     5.6850     7.7910    24.4980     2.2230    -5.2750 
  123.5000    64.4340     8.9430     6.7490     9.1960    24.2670     2.2650    -5.6770 
  123.6250    59.1630    11.4680     8.5730    12.2260    23.9020     2.3680    -5.8920 
  123.7500    58.4390    14.8010    11.1580    17.5230    23.7450     2.4980    -5.9580 
  123.8750    60.2860    18.5740    14.3340    23.4000    23.9400     2.6190    -5.8760 
  124.0000    61.0410    21.9100    17.4460    29.2350    24.3050     2.6970    -5.6890 
  124.1250    59.6840    23.0710    18.9900    31.3450    24.4860     2.7090    -5.5180 
  124.2500    59.4860    21.6590    18.3520    31.7400    24.5110     2.6710    -5.5390 
  124.3750    60.2460    18.4230    15.9810    27.6820    24.3820     2.5970    -5.8830 
  124.5000    60.7550    14.6680    12.9370    19.7970    24.0770     2.5010    -6.5740 
  124.6250    62.2840    11.5180    10.1960    12.5580    23.7880     2.3990    -7.5070 
  124.7500    64.6200     9.2500     8.0950     9.4000    23.6590     2.3080    -8.4220 
  124.8750    67.9100     7.8140     6.6500     8.2160    23.6050     2.2450    -9.1450 
  125.0000    73.0890     7.0290     5.7630     7.2720    23.5850     2.2180    -9.5710 
  125.1250    78.0440     6.7200     5.3510     6.0090    23.6560     2.2240    -9.6590 
  125.2500    78.7960     6.6230     5.2010     5.5050    23.8700     2.2420    -9.5290 
  125.3750    75.4020     6.6370     5.2090     5.8070    24.1230     2.2550    -9.2190 
  125.5000    72.2980     6.7170     5.3070     6.4890    24.3490     2.2600    -8.7450 
  125.6250    72.4650     6.8650     5.4650     6.8590    24.4790     2.2590    -8.1650 
  125.7500    73.0060     7.0610     5.6550     6.6450    24.5950     2.2580    -7.7200 
  125.8750    71.8450     7.2640     5.8490     6.4920    24.6450     2.2520    -7.6010 
  126.0000    69.8460     7.4030     6.0040     6.8020    24.5560     2.2370    -7.8120 
  126.1250    68.2240     7.3780     6.0560     7.4800    24.1810     2.2160    -8.1610 
  126.2500    68.1180     7.2010     6.0010     7.7210    23.6540     2.2030    -8.3360 
  126.3750    69.7130     6.9400     5.8680     7.4790    23.3960     2.2060    -8.1830 
  126.5000    74.0470     6.6980     5.7170     6.5460    23.6820     2.2220    -7.7460 
  126.6250    78.2250     6.5830     5.6200     6.2820    24.3090     2.2430    -7.1410 
  126.7500    77.7700     6.5950     5.5990     5.9690    24.6680     2.2550    -6.4390 
  126.8750    74.5080     6.6840     5.6370     6.2540    24.8060     2.2580    -5.6170 
  127.0000    73.3010     6.7680     5.6830     6.5950    24.8220     2.2560    -4.6900 
  127.1250    76.8770     6.7550     5.6700     6.3920    24.7800     2.2600    -3.7880 
  127.2500    80.4220     6.6490     5.5850     5.9260    24.7430     2.2710    -3.0720 
  127.3750    81.0440     6.4960     5.4490     5.7980    24.7400     2.2880    -2.6110 
