~V
VERS. 2.00: Ver 2.00
~W
STRT.M 55.0000:
STOP.M 314.0000:
STEP.M 0.1250:
NULL. -999.2500:
UWI. F10048:
~C
DEPT.M :
DEN.GM/CC :
GR.API :
RML.OHMM :
RI. :
RXO.OHMM :
CALI.CM :
SP.MV :
~A
# ...
  122.5000     2.3000    67.9090     7.6090     6.7210     9.7010    22.8310   -17.7220 
  122.6250     2.2820    63.5140     7.6580     6.7450     9.7870    22.9000   -18.1170 
  122.7500     2.2620    60.2370     7.7770     6.8240     9.9990    22.9520   -18.5890 
  122.8750     2.2490    60.9910     7.9420     6.9400    10.2570    22.9580   -19.1100 
  123.0000     2.2440    64.7550     8.1200     7.0720    10.5170    22.9290   -19.6570 
  123.1250     2.2450    65.9400     8.2890     7.1990    10.8130    22.9120   -20.2270 
  123.2500     2.2480    64.0860     8.4490     7.3110    11.1030    22.9210   -20.7610 
  123.3750     2.2490    61.9820     8.5980     7.4000    11.2870    22.9910   -21.1990 
  123.5000     2.2480    60.0550     8.7170     7.4530    11.4040    23.1300   -21.5180 
  123.6250     2.2440    58.2190     8.7560     7.4410    11.6250    23.2450   -21.6600 
  123.7500     2.2380    57.2350     8.6920     7.3670    11.8790    23.3040   -21.6620 
  123.8750     2.2340    57.4920     8.5390     7.2490    11.9710    23.3270   -21.5760 
  124.0000     2.2310    58.7060     8.3610     7.1300    11.9400    23.3440   -21.3900 
  124.1250     2.2310    62.1600     8.2840     7.0920    11.8960    23.3590   -21.0480 
  124.2500     2.2350    66.2050     8.3930     7.1930    11.8370    23.3620   -20.5630 
  124.3750     2.2450    66.0230     8.7110     7.4630    11.9600    23.3420   -19.9310 
  124.5000     2.2660    60.9360     9.1720     7.8780    12.3190    23.2980   -19.2050 
  124.6250     2.3040    56.6810     9.6020     8.3290    12.5920    23.2400   -18.3660 
  124.7500     2.3470    56.3380     9.8070     8.6450    12.6210    23.1860   -17.4260 
  124.8750     2.3810    58.1090     9.6630     8.6890    12.3740    23.1540   -16.3490 
  125.0000     2.3890    59.3580     9.1450     8.4020    11.7660    23.1390   -15.1460 
  125.1250     2.3690    61.6200     8.3310     7.8110    10.7970    23.1430   -13.8420 
  125.2500     2.3420    66.5190     7.4740     7.1260     9.6820    23.1710   -12.4910 
  125.3750     2.3220    73.0090     6.7370     6.4910     8.4990    23.2210   -11.2190 
  125.5000     2.3150    79.1750     6.2050     5.9910     7.2790    23.2820   -10.0990 
  125.6250     2.3180    84.3690     5.9150     5.6740     6.4380    23.3240    -9.2120 
  125.7500     2.3220    87.3410     5.7750     5.4880     6.2620    23.3480    -8.5030 
  125.8750     2.3270    87.0220     5.7300     5.3990     6.2980    23.3630    -7.9850 
  126.0000     2.3320    86.2670     5.7490     5.3810     6.3350    23.3720    -7.6690 
  126.1250     2.3340    87.4920     5.8280     5.4300     6.3510    23.3520    -7.6080 
  126.2500     2.3300    87.1500     5.9570     5.5290     6.7820    23.3050    -7.7370 
  126.3750     2.3220    83.6430     6.1340     5.6750     7.3820    23.2450    -7.9240 
  126.5000     2.3150    81.3890     6.3480     5.8560     7.7920    23.2030    -8.0840 
  126.6250     2.3150    84.7710     6.5730     6.0510     7.8650    23.1890    -8.2390 
  126.7500     2.3240    87.7520     6.7800     6.2320     7.9010    23.1990    -8.3840 
  126.8750     2.3400    84.9690     6.9430     6.3800     8.1370    23.2260    -8.4780 
  127.0000     2.3570    79.9240     7.0390     6.4730     8.3720    23.2630    -8.5120 
  127.1250     2.3690    80.2560     7.0550     6.4790     8.2270    23.2950    -8.4800 
  127.2500     2.3700    82.1360     7.0240     6.4030     7.6250    23.3060    -8.4660 
  127.3750     2.3590    81.6480     6.9710     6.2610     7.1700    23.3020    -8.5300 
  127.5000     2.3380    79.5600     6.9150     6.0890     6.9650    23.3020    -8.6770 
  127.6250     2.3120    78.8560     6.8540     5.9440     7.0280    23.3250    -8.8290 
  127.7500     2.2900    78.1930     6.7750     5.8560     7.2070    23.3560    -8.9570 
  127.8750     2.2740    76.8620     6.6920     5.8400     7.2610    23.3970    -9.1130 
  128.0000     2.2640    75.4000     6.6730     5.9120     7.1350    23.4430    -9.3110 
  128.1250     2.2590    74.7800     6.8680     6.1300     7.2890    23.4830    -9.5310 
  128.2500     2.2600    74.9650     7.3250     6.4980     7.7940    23.5100    -9.6590 
  128.3750     2.2730    76.0230     7.9990     6.9940     8.6830    23.5310    -9.6130 
  128.5000     2.3040    75.9880     8.7220     7.5260     9.7740    23.5680    -9.4030 
  128.6250     2.3520    74.4320     9.1860     7.9000    10.9200    23.6170    -9.0930 
  128.7500     2.3990    74.2970     9.2050     7.9760    11.5910    23.6280    -8.7500 
  128.8750     2.4260    75.8260     8.7400     7.7040    11.2040    23.6000    -8.3740 
  129.0000     2.4250    77.1920     7.9160     7.1500     9.5130    23.5760    -7.9990 
  129.1250     2.3990    78.4280     6.9820     6.4760     7.6990    23.5880    -7.6370 
  129.2500     2.3720    81.9240     6.2010     5.8820     6.6700    23.6340    -7.3340 
  129.3750     2.3540    85.8010     5.7000     5.4630     6.2520    23.7020    -7.1540 
  129.5000     2.3470    85.8420     5.5130     5.2460     5.9490    23.7610    -7.0960 
  129.6250     2.3420    82.6010     5.6340     5.2330     5.9040    23.7740    -7.1640 
  129.7500     2.3300    80.9300     5.9030     5.3380     6.0460    23.7140    -7.3060 
  129.8750     2.3130    80.5710     6.1930     5.4990     6.4500    23.5700    -7.4570 
  130.0000     2.2960    79.9420     6.3900     5.6540     6.9260    23.4000    -7.5780 
  130.1250     2.2880    77.7510     6.4000     5.7280     7.1220    23.3420    -7.6160 
  130.2500     2.2900    75.5660     6.2620     5.6960     7.0770    23.4230    -7.6150 
  130.3750     2.3020    75.5290     6.0290     5.5620     6.7810    23.5980    -7.5990 
  130.5000     2.3210    78.4850     5.7620     5.3550     6.3400    23.7930    -7.5780 
  130.6250     2.3400    80.7990     5.5060     5.1240     6.0010    23.9170    -7.5150 
  130.7500     2.3520    80.8040     5.2810     4.9180     5.8720    23.9450    -7.4830 
  130.8750     2.3530    81.8240     5.1160     4.7680     5.7740    23.9070    -7.5930 
  131.0000     2.3430    85.4720     5.0660     4.7050     5.7890    23.8220    -7.8890 
  131.1250     2.3240    87.4550     5.2470     4.7970     6.0290    23.6740    -8.4290 
  131.2500     2.3060    84.8820     5.6890     5.0730     6.5680    23.4930    -9.0700 
  131.3750     2.3030    80.7320     6.3890     5.5540     7.5700    23.3360    -9.7250 
  131.5000     2.3240    75.6790     7.2590     6.2100     9.2880    23.2620   -10.3240 
  131.6250     2.3740    69.1320     8.1030     6.9280    11.5390    23.2990   -10.9150 
  131.7500     2.4310    63.0070     8.7040     7.5240    13.7590    23.3690   -11.5050 
  131.8750     2.4690    58.9250     8.9220     7.8510    15.2390    23.3970   -12.0270 
  132.0000     2.4660    57.7570     8.7170     7.8380    14.8280    23.3540   -12.3810 
  132.1250     2.4200    59.3280     8.1310     7.4690    12.3670    23.2760   -12.4240 
  132.2500     2.3630    62.9430     7.3960     6.9200     9.9600    23.2110   -12.1800 
  132.3750     2.3210    66.0590     6.6630     6.3090     8.7680    23.1970   -11.6930 
  132.5000     2.3070    68.1140     6.0380     5.7320     8.0580    23.2310   -11.0320 
  132.6250     2.3210    71.0270     5.6070     5.2710     7.1930    23.2790   -10.2240 
  132.7500     2.3440    74.8980     5.3530     4.9440     6.2270    23.3190    -9.3420 
  132.8750     2.3630    79.6210     5.2600     4.7610     5.5760    23.3510    -8.4460 
  133.0000     2.3720    83.1000     5.3000     4.7120     5.4380    23.3740    -7.6020 
  133.1250     2.3680    82.2250     5.4320     4.7760     5.5520    23.3830    -6.9220 
  133.2500     2.3600    80.1240     5.5700     4.8790     5.6000    23.3900    -6.4700 
  133.3750     2.3530    79.6590     5.6450     4.9660     5.5610    23.3980    -6.2660 
  133.5000     2.3520    79.0930     5.6050     4.9940     5.4740    23.4110    -6.3140 
  133.6250     2.3580    76.5640     5.4240     4.9380     5.4240    23.4180    -6.5810 
