~V
VERS. 2.00: Ver 2.00
~W
STRT.M 60.0000:
STOP.M 262.0000:
STEP.M 0.1250:
NULL. -999.2500:
UWI. F10018:
~C
DEPT.M :
GR.API :
RML.OHMM :
RI. :
RXO.OHMM :
CALI.CM :
DEN.GM/CC :
SP.MV :
~A
# ...
   93.7500    67.3490     8.4070     6.8220     7.9300    24.0920     2.2410    -6.0610 
   93.8750    65.4110     8.4690     6.9330     7.9960    24.0810     2.2500    -6.1580 
   94.0000    65.0210     8.3900     6.9090     8.3470    24.0250     2.2770    -6.1250 
   94.1250    68.9030     8.2080     6.7660     8.5100    23.8710     2.3170    -6.0040 
   94.2500    73.9420     7.9830     6.5630     8.1000    23.7440     2.3550    -5.8680 
   94.3750    77.4990     7.7570     6.3410     7.1980    23.6900     2.3810    -5.7060 
   94.5000    77.7990     7.5640     6.1350     7.2770    23.6850     2.3910    -5.5020 
   94.6250    75.5440     7.4380     5.9810     7.2810    23.6880     2.3880    -5.2870 
   94.7500    73.6000     7.3870     5.8930     7.0710    23.7120     2.3770    -5.0450 
   94.8750    74.3050     7.4350     5.8920     7.0500    23.7920     2.3590    -4.8280 
   95.0000    75.5510     7.6050     5.9970     7.1610    23.9140     2.3340    -4.7310 
   95.1250    72.0780     7.9500     6.2430     7.5650    24.0660     2.3040    -4.7900 
   95.2500    67.2190     8.4400     6.6070     7.8500    24.2110     2.2710    -4.9430 
   95.3750    64.5410     9.0080     7.0520     8.2890    24.3710     2.2400    -5.2080 
   95.5000    63.3770     9.5370     7.5050     9.1010    24.5590     2.2170    -5.5710 
   95.6250    62.2220     9.8680     7.8540     9.8500    24.6690     2.2070    -5.9470 
   95.7500    63.3320     9.9780     8.0560     9.7760    24.6950     2.2070    -6.3100 
   95.8750    66.4120     9.9340     8.1270     8.9620    24.6640     2.2120    -6.6260 
   96.0000    67.4270     9.8720     8.1430     8.6240    24.6360     2.2180    -6.8910 
   96.1250    64.8930     9.9490     8.2030     8.9840    24.6730     2.2180    -7.1880 
   96.2500    62.2840    10.1800     8.3420     9.6640    24.7090     2.2110    -7.5090 
   96.3750    60.8010    10.4880     8.5240    10.2970    24.7320     2.2020    -7.8080 
   96.5000    59.2500    10.7230     8.6620    10.7420    24.7620     2.1950    -8.0580 
   96.6250    58.6220    10.6610     8.6080    10.7710    24.8110     2.1960    -8.2300 
   96.7500    61.5430    10.2780     8.3360    10.1390    24.8140     2.2030    -8.3370 
   96.8750    66.8670     9.6980     7.9200     9.4050    24.7710     2.2060    -8.4410 
   97.0000    69.7500     9.1540     7.5110     8.6990    24.6750     2.2010    -8.5230 
   97.1250    68.4340     8.9400     7.3090     8.0180    24.4590     2.1980    -8.5260 
   97.2500    66.7720     9.1300     7.3800     8.0060    24.2610     2.2120    -8.5250 
   97.3750    66.7060     9.6870     7.7350     9.2680    24.1600     2.2440    -8.5280 
   97.5000    66.7420    10.4500     8.3020    12.5660    24.1840     2.2800    -8.5330 
   97.6250    66.3430    11.1250     8.9100    15.1900    24.2970     2.2900    -8.6230 
   97.7500    65.6440    11.4970     9.3560    13.2630    24.4180     2.2690    -8.8420 
   97.8750    64.2800    11.5300     9.5590    11.8450    24.5880     2.2310    -9.1420 
   98.0000    61.4990    11.3340     9.5540    11.6750    24.6840     2.1980    -9.4620 
   98.1250    57.5200    11.0920     9.4500    11.8430    24.6870     2.1820    -9.7640 
   98.2500    56.8520    10.9510     9.3830    11.7880    24.6490     2.1750   -10.0500 
   98.3750    60.4570    10.9480     9.4020    11.7960    24.6750     2.1690   -10.2810 
   98.5000    63.5000    11.0540     9.4990    11.6920    24.6960     2.1580   -10.4410 
   98.6250    61.9410    11.2190     9.6370    11.3830    24.6590     2.1460   -10.5200 
   98.7500    60.0550    11.3570     9.7520    11.2740    24.5960     2.1370   -10.5270 
   98.8750    59.9120    11.3790     9.7790    11.4260    24.5980     2.1350   -10.5200 
   99.0000    59.1590    11.2050     9.6590    11.5880    24.6720     2.1390   -10.5150 
   99.1250    59.1280    10.7890     9.3530    11.4600    24.8100     2.1490   -10.4370 
   99.2500    64.2260    10.2640     8.9520    11.0070    24.8720     2.1620   -10.2780 
   99.3750    72.0180     9.7720     8.5570    10.2770    24.8440     2.1780   -10.1180 
   99.5000    75.9550     9.4510     8.2660     9.6130    24.6820     2.1930   -10.0210 
   99.6250    74.0570     9.4290     8.1830     9.5280    24.5820     2.2010   -10.0180 
   99.7500    70.8520     9.6580     8.2930    10.4450    24.6490     2.2020   -10.0400 
   99.8750    67.5540    10.0610     8.5610    11.9200    24.6910     2.2000    -9.9960 
  100.0000    64.4420    10.5290     8.9220    13.3390    24.6160     2.2020    -9.9070 
  100.1250    61.9880    10.9380     9.2900    12.8020    24.4940     2.2100    -9.8710 
  100.2500    60.3440    11.2370     9.6010    12.3700    24.4950     2.2170    -9.9090 
  100.3750    59.9740    11.4390     9.8430    12.0750    24.4170     2.2120    -9.9920 
  100.5000    61.2390    11.5910    10.0350    12.0810    24.2260     2.1930   -10.0900 
  100.6250    62.1770    11.7280    10.1970    12.0900    24.2990     2.1660   -10.1290 
  100.7500    60.5080    11.8550    10.3370    12.3900    24.5480     2.1440   -10.1390 
  100.8750    59.4960    11.9490    10.4410    12.6870    24.6560     2.1370   -10.1970 
  101.0000    62.2590    11.9880    10.4880    13.0040    24.6970     2.1430   -10.2880 
  101.1250    66.1280    11.9620    10.4670    12.7450    24.7170     2.1560   -10.3560 
  101.2500    65.6120    11.9130    10.4100    12.2670    24.7320     2.1670   -10.3960 
  101.3750    61.3200    11.8790    10.3510    11.8220    24.7000     2.1730   -10.4450 
  101.5000    57.2230    11.8820    10.3140    11.7350    24.6540     2.1730   -10.5100 
  101.6250    57.2910    11.9290    10.3050    12.1690    24.7190     2.1660   -10.5760 
  101.7500    59.1440    11.9860    10.3010    12.7350    24.7730     2.1550   -10.6140 
  101.8750    59.2880    12.0110    10.2810    12.8150    24.7850     2.1460   -10.5970 
  102.0000    58.6280    11.9670    10.2280    12.4080    24.7340     2.1430   -10.5740 
  102.1250    60.3340    11.8420    10.1420    12.1630    24.7060     2.1510   -10.5820 
  102.2500    62.1370    11.7230    10.0740    12.2250    24.6720     2.1590   -10.5970 
  102.3750    62.0990    11.7130    10.0870    12.4400    24.5650     2.1580   -10.5780 
  102.5000    61.5120    11.8780    10.2290    12.6560    24.3730     2.1450   -10.4710 
  102.6250    62.5060    12.2240    10.5150    12.8750    24.1760     2.1300   -10.3540 
  102.7500    62.8480    12.6120    10.8540    14.3310    23.9690     2.1270   -10.3220 
  102.8750    61.6350    12.8950    11.1390    17.9100    23.9030     2.1390   -10.3640 
  103.0000    60.4080    12.9630    11.2680    19.1690    24.0670     2.1570   -10.4510 
  103.1250    58.5340    12.7770    11.1800    15.1710    24.4630     2.1680   -10.5860 
  103.2500    56.1180    12.4800    10.9720    13.2050    24.7030     2.1670   -10.7250 
  103.3750    54.1460    12.1790    10.7300    12.8350    24.7560     2.1610   -10.8350 
  103.5000    53.4510    11.9430    10.5250    12.6690    24.6440     2.1560   -10.9800 
  103.6250    53.5230    11.8000    10.4080    12.4030    24.5120     2.1570   -11.1730 
  103.7500    53.8200    11.6980    10.3570    12.0260    24.4200     2.1620   -11.3230 
  103.8750    56.0390    11.6070    10.3450    11.7800    24.3790     2.1680   -11.4300 
  104.0000    59.7140    11.5430    10.3640    11.8380    24.3560     2.1710   -11.5190 
  104.1250    60.5160    11.5590    10.4390    12.1950    24.4280     2.1720   -11.5720 
  104.2500    58.8980    11.6610    10.5770    12.7280    24.5740     2.1700   -11.5780 
  104.3750    57.7340    11.8510    10.7750    13.1510    24.7030     2.1690   -11.5660 
  104.5000    57.8530    12.1210    11.0220    13.3610    24.7330     2.1660   -11.5630 
  104.6250    56.5800    12.4280    11.2630    13.5310    24.7200     2.1590   -11.5250 
  104.7500    54.8100    12.6130    11.3750    13.4980    24.7180     2.1440   -11.4220 
  104.8750    55.0150    12.4400    11.1800    13.1020    24.7200     2.1240   -11.2970 
