~V
VERS. 2.00: Ver 2.00
~W
STRT.M 60.0000:
STOP.M 242.0000:
STEP.M 0.1250:
NULL. -999.2500:
UWI. F10022:
~C
DEPT.M :
GR.API :
RML.OHMM :
RI. :
RXO.OHMM :
CALI.CM :
DEN.GM/CC :
SP.MV :
~A
# ...
  228.7500    31.0000     4.3430     3.9110     4.1100    23.6910     2.4230    -4.5550 
  228.8750    34.9510     4.2250     3.8350     4.1900    23.6420     2.3910    -4.5700 
  229.0000    39.5580     4.1700     3.8030     4.2490    23.5730     2.3690    -4.6410 
  229.1250    42.3710     4.2540     3.8570     4.4900    23.5110     2.3690    -4.6910 
  229.2500    43.8230     4.4690     3.9980     5.0000    23.4740     2.3880    -4.7920 
  229.3750    44.9750     4.7840     4.2150     5.7550    23.4390     2.4160    -4.9070 
  229.5000    46.2790     5.1440     4.4820     6.5450    23.4060     2.4420    -5.0220 
  229.6250    46.7900     5.4840     4.7600     6.9360    23.4140     2.4490    -5.1150 
  229.7500    46.7360     5.7580     5.0080     7.0560    23.4280     2.4380    -5.1610 
  229.8750    46.8940     5.9440     5.1940     7.0220    23.4460     2.4160    -5.1620 
  230.0000    46.8810     6.0300     5.2970     6.8230    23.4770     2.3900    -5.1160 
  230.1250    46.1890     5.9990     5.2780     6.9350    23.4630     2.3680    -5.0580 
  230.2500    45.1600     5.8680     5.1530     7.0040    23.3850     2.3520    -4.9560 
  230.3750    44.8420     5.6420     4.9350     6.7430    23.2970     2.3430    -4.8270 
  230.5000    45.7290     5.3370     4.6530     5.9660    23.3410     2.3410    -4.6800 
  230.6250    46.6010     4.9930     4.3490     5.1280    23.3930     2.3490    -4.4990 
  230.7500    46.9930     4.6780     4.0730     4.8070    23.3840     2.3650    -4.3330 
  230.8750    47.3680     4.4470     3.8560     4.5590    23.3590     2.3830    -4.2040 
  231.0000    47.6240     4.3300     3.7110     4.1040    23.3440     2.4000    -4.0840 
  231.1250    46.8140     4.3280     3.6520     3.9080    23.3120     2.4120    -3.9720 
  231.2500    44.6420     4.3710     3.6490     3.9310    23.2890     2.4190    -3.9110 
  231.3750    43.3610     4.4100     3.6750     4.0900    23.2550     2.4200    -3.9010 
  231.5000    43.9910     4.4160     3.7040     4.1950    23.1820     2.4160    -3.9100 
  231.6250    43.9670     4.3880     3.7150     4.0310    23.1050     2.4130    -3.9380 
  231.7500    43.1480     4.3530     3.7020     3.8280    23.0590     2.4170    -3.9810 
  231.8750    43.1480     4.3310     3.6720     3.7700    23.0860     2.4260    -4.0570 
  232.0000    43.1480     4.3270     3.6360     3.8100    23.2190     2.4330    -4.1930 
  232.1250    43.1480     4.3400     3.6070     3.8710    23.4230     2.4190    -4.3620 
  232.2500    43.1480     4.3590     3.5840     3.9170    23.6190     2.3840    -4.5120 
  232.3750    43.1480     4.3690     3.5610     3.9190    23.8110     2.3370    -4.6440 
  232.5000    43.1480     4.3550     3.5300     3.8910    23.9660     2.2940    -4.8180 
  232.6250    43.1480     4.3030     3.4920     3.8790    23.9080     2.2740    -5.0650 
  232.7500    43.1480     4.2400     3.4610     3.9080    23.6440     2.2790    -5.3540 
  232.8750    43.1480     4.2090     3.4570     3.9870    23.3180     2.3060    -5.6340 
  233.0000    43.1480     4.2670     3.5060     4.1110    23.1280     2.3460    -5.8340 
  233.1250    43.1480     4.4750     3.6480     4.2920    23.1130     2.3850    -6.0190 
  233.2500    43.1480     4.8020     3.8740     4.5960    23.1610     2.4160    -6.2470 
  233.3750    43.1480     5.1850     4.1550     4.9780    23.2140     2.4330    -6.4800 
  233.5000    43.1480     5.5280     4.4320     5.3180    23.3060     2.4350    -6.6300 
  233.6250    43.1480     5.7000     4.6120     5.3450    23.4150     2.4220    -6.6630 
  233.7500    43.1480     5.6690     4.6580     5.1520    23.5200     2.4040    -6.6530 
  233.8750    43.1480     5.4640     4.5720     4.8130    23.5890     2.3840    -6.6060 
  234.0000    43.1480     5.1760     4.4010     4.6200    23.5530     2.3670    -6.5290 
  234.1250    43.1480     4.9410     4.2240     4.7220    23.5150     2.3560    -6.4080 
  234.2500    43.1480     4.8310     4.0980     4.8560    23.4950     2.3490    -6.2370 
  234.3750    43.1480     4.8410     4.0400     4.8400    23.4760     2.3440    -6.0580 
  234.5000    43.1480     4.9160     4.0380     4.7920    23.4290     2.3410    -5.9460 
  234.6250    43.1480     4.9710     4.0640     4.7830    23.3700     2.3410    -5.8820 
  234.7500    43.1480     4.9580     4.0810     4.7290    23.3150     2.3490    -5.8130 
  234.8750    43.1480     4.8790     4.0760     4.5960    23.2590     2.3650    -5.7940 
  235.0000    43.1480     4.7710     4.0500     4.4940    23.2280     2.3920    -5.8260 
  235.1250    43.1480     4.6750     4.0160     4.4290    23.2190     2.4230    -5.9180 
  235.2500    43.1480     4.6130     3.9870     4.3790    23.2070     2.4530    -6.0410 
  235.3750    43.1480     4.5900     3.9710     4.3250    23.1790     2.4730    -6.1550 
  235.5000    43.1480     4.5960     3.9650     4.3110    23.1580     2.4790    -6.2130 
  235.6250    43.1480     4.6140     3.9640     4.4110    23.1510     2.4660    -6.2830 
  235.7500    43.1480     4.6220     3.9600     4.6370    23.1510     2.4430    -6.3250 
  235.8750    43.1480     4.6110     3.9540     4.9190    23.1490     2.4200    -6.3250 
  236.0000    43.1480     4.5860     3.9470     5.1610    23.1470     2.4060    -6.3380 
  236.1250    43.1480     4.5650     3.9430     5.0870    23.1390     2.4080    -6.3170 
  236.2500    43.1480     4.5630     3.9420     4.8530    23.1140     2.4200    -6.2690 
  236.3750    43.1480     4.5810     3.9420     4.6750    23.0820     2.4360    -6.2440 
  236.5000    43.1480     4.6060     3.9440     4.5830    23.0490     2.4520    -6.2250 
  236.6250    43.1480     4.6170     3.9460     4.4850    22.9950     2.4630    -6.1870 
  236.7500    43.1480     4.6130     3.9470     4.3600    22.9220     2.4680    -6.1860 
  236.8750    43.1480     4.6010     3.9480     4.3570    22.8260     2.4600    -6.2180 
  237.0000    43.1480     4.5930     3.9480     4.4270    22.6940     2.4300    -6.2270 
  237.1250    43.1480     4.5940     3.9480     4.5170    22.5440     2.3690    -6.2080 
  237.2500    43.1480     4.6000     3.9480     4.5020    22.3660     2.2910    -6.1950 
  237.3750    43.1480     4.6070     3.9480     4.3710    21.8350     2.2090    -6.1770 
  237.5000    43.1480     4.6110     3.9480     4.2520    20.6140     2.1380    -6.1570 
  237.6250    43.1480     4.6130     3.9480     4.2730    18.7460     2.0840    -6.1560 
  237.7500    43.1480     4.6130     3.9480     4.3630    17.7330     2.0420    -6.1400 
  237.8750    43.1480     4.6130     3.9480     4.4760    17.3850     2.0060    -6.1140 
  238.0000    43.1480     4.6130     3.9480     4.6110    17.2180     1.9750    -6.0860 
  238.1250    43.1480     4.6130     3.9480     4.6770    16.7960     1.9520    -6.1070 
  238.2500    43.1480     4.6130     3.9480     4.6970    16.0110     1.9400    -6.1330 
  238.3750    43.1480     4.6130     3.9480     4.6710    15.1990     1.9360    -6.1460 
  238.5000    43.1480     4.6130     3.9480     4.7900    14.7570     1.9350    -6.1680 
  238.6250    43.1480     4.6130     3.9480     5.2860    14.5840     1.9350    -6.2160 
  238.7500    43.1480     4.6130     3.9480     6.3260    14.4410     1.9340    -6.2850 
  238.8750    43.1480     4.6130     3.9480     7.8710    14.2810     1.9350    -6.3000 
  239.0000    43.1480     4.6130     3.9480     9.5070    14.1610     1.9370    -6.2810 
  239.1250    43.1480     4.6130     3.9480    10.7200    14.1000     1.9380    -6.2600 
  239.2500    43.1480     4.6130     3.9480    10.9190    14.0810     1.9320    -6.2730 
  239.3750    43.1480     4.6130     3.9480    10.3980    14.0670     1.9190    -6.2990 
  239.5000    43.1480     4.6130     3.9480    10.0070    14.0130     1.9000    -6.3620 
  239.6250    43.1480     4.6130     3.9480    10.2340    13.8460     1.8830    -6.3600 
  239.7500    43.1480     4.6130     3.9480    10.5820    13.5850     1.8730    -6.3640 
  239.8750    43.1480     4.6130     3.9480    10.3640    13.2330     1.8700    -6.4130 
