~V
VERS. 2.00: Ver 2.00
~W
STRT.M 50.0000:
STOP.M 212.0000:
STEP.M 0.1250:
NULL. -999.2500:
UWI. F10013:
~C
DEPT.M :
GR.API :
RML.OHMM :
RI. :
RXO.OHMM :
CALI.CM :
DEN.GM/CC :
SP.MV :
~A
# ...
   72.5000    93.2710    10.5960     9.6840    10.9390    22.8330     2.2590   -23.5240 
   72.6250    91.2220    10.1320     9.3670    10.6880    22.8510     2.2570   -23.5000 
   72.7500    91.6450     9.8150     9.1150    10.4950    22.8570     2.2550   -23.4520 
   72.8750    92.7430     9.6290     8.9710    10.4960    22.8630     2.2580   -23.3950 
   73.0000    90.8920     9.5570     8.9410    10.2780    22.8780     2.2680   -23.3490 
   73.1250    86.7230     9.6150     9.0520     9.8750    22.8890     2.2880   -23.2970 
   73.2500    83.0100     9.7910     9.2310     9.9150    22.8940     2.3110   -23.2320 
   73.3750    81.0930    10.0790     9.3440    10.3490    22.8790     2.3310   -23.1710 
   73.5000    81.8560    10.4500     9.4680    10.4000    22.8480     2.3390   -23.1260 
   73.6250    84.5460    10.8450     9.6620    10.8130    22.7210     2.3290   -23.1190 
   73.7500    85.0810    11.1750     9.8530    11.3630    22.4190     2.3070   -23.1360 
   73.8750    83.8210    11.3570     9.9630    11.4990    22.0280     2.2840   -23.1630 
   74.0000    84.3470    11.3240     9.9360    11.2170    21.7530     2.2670   -23.1770 
   74.1250    89.7730    10.9990     9.7160    10.6130    21.6410     2.2640   -23.1590 
   74.2500    93.7740    10.4430     9.3440    10.1430    21.5830     2.2720   -23.1140 
   74.3750    93.3070     9.7330     8.8740     9.8620    21.5750     2.2860   -23.0740 
   74.5000    92.8210     9.0100     8.3860     9.5470    21.6350     2.3020   -23.0510 
   74.6250    94.3400     8.5480     7.9930     8.9930    21.7580     2.3160   -23.0110 
   74.7500    92.9520     8.5980     7.7940     8.7570    21.8880     2.3250   -22.9210 
   74.8750    85.8140     9.4060     7.8730     8.9430    21.9770     2.3280   -22.7500 
   75.0000    77.3120    11.1650     8.2490     9.9230    22.0150     2.3210   -22.5230 
   75.1250    73.5540    14.0360     9.2210    12.7940    21.9830     2.3000   -22.3430 
   75.2500    71.5540    17.4450    11.1660    17.5370    21.8530     2.2690   -22.2010 
   75.3750    69.1120    20.6070    13.8160    21.9320    21.6580     2.2350   -22.0810 
   75.5000    66.9180    22.6610    16.2020    23.2870    21.4960     2.2060   -21.9640 
   75.6250    67.9140    23.0570    17.4940    22.8930    21.4210     2.1900   -21.8300 
   75.7500    70.7410    22.6950    18.0400    21.4770    21.4050     2.1830   -21.7090 
   75.8750    72.7890    22.5210    18.3760    18.8360    21.4450     2.1810   -21.6510 
   76.0000    73.3930    23.1160    18.9700    16.6670    21.4530     2.1800   -21.6730 
   76.1250    74.0280    24.3220    19.8970    17.9340    21.3170     2.1770   -21.7100 
   76.2500    75.9460    25.0560    20.5650    20.9800    20.9870     2.1740   -21.7570 
   76.3750    78.8630    24.3970    20.2950    22.2380    20.5590     2.1750   -21.7850 
   76.5000    81.8860    22.0650    18.7530    19.4150    20.2820     2.1820   -21.8220 
   76.6250    85.4280    18.6630    16.4790    14.6770    20.2970     2.1960   -21.8970 
   76.7500    89.5300    15.5130    14.6160    11.2940    20.4220     2.2150   -21.9910 
   76.8750    92.1690    13.2800    13.4200    10.2450    20.3900     2.2370   -22.0940 
   77.0000    91.0270    12.0940    12.5230     9.8600    20.1810     2.2560   -22.1790 
   77.1250    87.7550    11.8000    11.8540     9.9920    19.8620     2.2670   -22.2080 
   77.2500    86.5080    11.8660    11.4970    10.4880    19.4810     2.2700   -22.1800 
   77.3750    86.3290    11.9980    11.3590    10.5020    19.1900     2.2690   -22.1380 
   77.5000    85.0340    12.0230    11.1950     9.8740    19.1520     2.2650   -22.0890 
   77.6250    82.1510    11.8680    10.9160     9.6510    19.4100     2.2570   -22.0380 
   77.7500    81.7220    11.6330    10.6090    10.0980    19.7590     2.2500   -21.9690 
   77.8750    86.6390    11.4460    10.4260    10.7130    19.9780     2.2480   -21.8440 
   78.0000    93.6980    11.4600    10.4310    10.8180    20.0480     2.2520   -21.6580 
   78.1250    94.8810    11.9000    10.6300    10.2610    20.0290     2.2550   -21.4590 
   78.2500    88.8710    12.8330    11.0110    10.4780    19.9100     2.2470   -21.2780 
   78.3750    80.6670    14.3190    11.6960    11.8060    19.5660     2.2250   -21.1020 
   78.5000    76.0250    16.3580    13.0580    13.2940    18.9930     2.1990   -20.9100 
   78.6250    77.0620    18.8960    15.1030    13.8580    18.3290     2.1840   -20.7000 
   78.7500    79.6140    21.5520    17.3700    14.2180    17.8900     2.1810   -20.4900 
   78.8750    78.4480    23.8380    19.4270    14.8230    17.6930     2.1810   -20.2850 
   79.0000    72.9880    25.1640    20.7970    15.4840    17.7750     2.1760   -20.1010 
   79.1250    70.4190    24.8260    20.8090    16.3430    18.2470     2.1640   -19.9810 
   79.2500    73.8630    23.1240    19.4200    17.5380    19.0030     2.1560   -19.8910 
   79.3750    79.2780    20.5950    16.9940    18.4860    19.9200     2.1570   -19.8300 
   79.5000    82.8180    17.9580    14.8300    16.7290    20.7840     2.1720   -19.7740 
   79.6250    81.6700    15.9810    13.9110    14.1120    21.3670     2.1950   -19.7090 
   79.7500    78.8380    14.9240    13.8870    13.6210    21.6210     2.2190   -19.6470 
   79.8750    77.1910    14.8540    14.2410    13.9800    21.7180     2.2380   -19.5800 
   80.0000    78.6050    15.6860    14.6220    14.4940    21.7750     2.2500   -19.4770 
   80.1250    81.7270    17.1280    14.9320    14.7360    21.8300     2.2480   -19.2960 
   80.2500    82.2790    18.3510    15.3060    15.8290    21.8900     2.2340   -19.0690 
   80.3750    81.8930    18.5820    15.7570    17.7720    21.9350     2.2110   -18.8060 
   80.5000    84.1390    17.3930    16.0610    19.5670    21.9600     2.1890   -18.5030 
   80.6250    90.5930    15.0450    14.8230    18.9890    21.9710     2.1860   -18.1480 
   80.7500    97.0050    12.8070    12.4440    14.8520    21.9770     2.2080   -17.7560 
   80.8750    97.0430    11.6600    10.2540    11.6320    21.9780     2.2500   -17.3650 
   81.0000    89.8340    12.2570     9.2890    11.0220    21.9760     2.2930   -16.9860 
   81.1250    79.3130    15.2730    10.7720    15.3490    21.9680     2.3070   -16.6150 
   81.2500    71.4890    20.2730    14.1480    26.8480    21.9370     2.2850   -16.2240 
   81.3750    67.7760    26.6010    19.2970    39.3160    21.8690     2.2350   -15.7730 
   81.5000    67.2380    32.9560    25.3340    41.3890    21.8090     2.1790   -15.3090 
   81.6250    68.8000    37.3790    30.5510    36.9170    21.7980     2.1420   -14.9230 
   81.7500    70.3380    39.4260    33.8720    33.8080    21.8460     2.1280   -14.6060 
   81.8750    70.4940    39.6700    35.3590    33.4840    21.8710     2.1300   -14.3160 
   82.0000    69.1510    39.1110    35.7210    34.6840    21.7710     2.1380   -14.0420 
   82.1250    67.5660    38.5120    35.6150    35.0720    21.6170     2.1440   -13.7730 
   82.2500    68.2380    38.0930    35.4130    33.1980    21.5230     2.1440   -13.5310 
   82.3750    70.7530    37.7980    35.1600    31.3810    21.5210     2.1400   -13.3480 
   82.5000    70.2230    37.5430    34.8590    34.6240    21.6660     2.1330   -13.2030 
   82.6250    64.8950    37.2610    34.5230    51.6220    21.9820     2.1280   -13.0410 
   82.7500    61.4910    36.9360    34.1970    67.2080    22.3290     2.1250   -12.8590 
   82.8750    63.3380    36.5910    33.9290    58.0640    22.5280     2.1250   -12.6720 
   83.0000    66.0560    36.2950    33.7810    39.9840    22.5390     2.1280   -12.4660 
   83.1250    64.2200    36.1710    33.8470    34.8050    22.4930     2.1300   -12.2780 
   83.2500    62.0820    36.2470    34.1110    35.4970    22.5460     2.1340   -12.1170 
   83.3750    63.8250    36.4720    34.5180    37.4760    22.7350     2.1400   -11.9690 
   83.5000    66.4730    36.7150    34.9370    40.5060    22.9610     2.1480   -11.8340 
   83.6250    63.8770    36.7590    35.1430    41.3920    23.1040     2.1550   -11.6900 
