~V
VERS. 2.00: Ver 2.00
~W
STRT.M 51.0000:
STOP.M 242.0000:
STEP.M 0.1250:
NULL. -999.2500:
UWI. F10056:
~C
DEPT.M :
GR.API :
RML.OHMM :
RI. :
RXO.OHMM :
CALI.CM :
SP.MV :
DEN.GM/CC :
~A
# ...
  163.5000    58.5260   121.2990   109.7040   104.7180    25.3370   -11.8010     2.1960 
  163.6250    60.9000   119.7290   108.7130   104.6560    25.1740   -11.8360     2.2020 
  163.7500    61.8760   117.3290   107.0020   110.2800    25.0740   -11.9730     2.2100 
  163.8750    63.4350   114.7330   105.0880   112.0340    25.0640   -12.1410     2.2180 
  164.0000    65.1920   112.6660   103.5920   107.1170    25.0910   -12.3290     2.2240 
  164.1250    64.0230   111.8750   103.1650    97.4070    25.1110   -12.3750     2.2240 
  164.2500    60.5740   112.2930   103.7780    92.3950    25.1290   -12.5430     2.2200 
  164.3750    58.8260   113.5020   105.0930    94.6620    25.1770   -12.7150     2.2140 
  164.5000    59.6830   114.6710   106.4060    93.3290    25.2850   -12.8640     2.2080 
  164.6250    61.0300   114.6940   106.7060    92.1530    25.3750   -12.9960     2.2080 
  164.7500    62.0490   113.4890   105.8180    91.0520    25.4200   -13.1050     2.2160 
  164.8750    63.2170   111.5340   104.0620    90.8580    25.4260   -13.2590     2.2290 
  165.0000    64.2490   109.5960   102.0570    87.7970    25.4050   -13.4060     2.2420 
  165.1250    64.7390   108.7300   100.7080    85.8190    25.3760   -13.5910     2.2500 
  165.2500    64.7460   109.5720   100.6850    83.8170    25.3550   -13.6600     2.2480 
  165.3750    64.2750   112.7410   102.6090    87.5100    25.3560   -13.6990     2.2370 
  165.5000    62.7730   118.9540   107.1720    92.7870    25.3470   -13.7040     2.2200 
  165.6250    61.3740   129.8330   115.9440    91.3910    25.3610   -13.7540     2.2050 
  165.7500    60.9930   145.1430   128.8980   102.8650    25.4050   -13.8090     2.1930 
  165.8750    60.8790   163.7400   145.2190   122.9270    25.4460   -13.8450     2.1880 
  166.0000    59.7300   182.2420   162.1770   141.4530    25.4560   -13.8740     2.1880 
  166.1250    58.4750   193.6370   174.0490   188.3790    25.4150   -13.7740     2.1970 
  166.2500    59.4920   194.6640   177.5610   211.6400    25.3250   -13.7450     2.2110 
  166.3750    62.1520   186.4650   172.8380   178.2690    25.2150   -13.8130     2.2270 
  166.5000    64.3440   173.4740   162.9850   138.3730    25.1170   -13.8600     2.2360 
  166.6250    64.2930   160.1620   151.7730   121.6400    25.0690   -13.8720     2.2350 
  166.7500    62.0210   148.3090   141.4280   134.8800    25.0620   -13.8570     2.2280 
  166.8750    58.9110   137.9160   132.2980   154.5740    25.0580   -13.8060     2.2220 
  167.0000    57.6200   128.9430   124.4840   130.5470    25.0070   -13.7380     2.2220 
  167.1250    58.6140   122.2410   118.7630    98.7350    24.8640   -13.8420     2.2310 
  167.2500    58.9560   117.8970   115.2240    82.9490    24.7280   -13.9140     2.2440 
  167.3750    58.6470   115.5750   113.5800    80.6720    24.6090   -13.7740     2.2550 
  167.5000    59.1040   114.3080   112.9770    80.0320    24.4910   -13.6770     2.2620 
  167.6250    60.4910   112.3740   111.9000    88.2380    24.4360   -13.5370     2.2650 
  167.7500    61.8170   108.4000   108.9840    93.3020    24.4120   -13.3760     2.2670 
  167.8750    62.9220   102.2570   103.8640    80.3790    24.3770   -13.2350     2.2690 
  168.0000    63.6310    95.1700    97.4480    62.6220    24.3200   -13.1490     2.2710 
  168.1250    63.3780    89.2580    91.6310    59.5970    24.2640   -12.9690     2.2730 
  168.2500    63.7660    85.8810    87.9530    60.2150    24.1980   -12.7630     2.2750 
  168.3750    65.2200    85.9400    87.4810    62.4100    24.1380   -12.7030     2.2770 
  168.5000    65.8670    90.0320    90.9850    62.2550    24.1020   -12.7290     2.2790 
  168.6250    66.1950    98.9660    99.4200    68.3590    24.0700   -12.7510     2.2780 
  168.7500    67.9540   111.2080   111.2960    73.9020    23.9900   -12.8580     2.2720 
  168.8750    69.2420   124.7020   124.6320    88.8040    23.7900   -12.9540     2.2620 
  169.0000    67.7820   136.2670   136.4150   108.9480    23.3940   -13.0470     2.2530 
  169.1250    67.1550   142.1460   143.0540   153.3310    22.7410   -13.1560     2.2480 
  169.2500    69.4850   143.4080   145.2370   140.8680    21.9820   -13.2470     2.2490 
  169.3750    69.2850   142.3400   144.9060    90.7210    21.3790   -13.3280     2.2490 
  169.5000    63.9050   140.4740   143.5190    71.7780    20.9690   -13.2640     2.2440 
  169.6250    58.3020   136.9240   140.3730    98.4550    20.4950   -13.2590     2.2320 
  169.7500    57.8780   130.2110   134.1430   151.8770    19.9630   -13.2370     2.2200 
  169.8750    60.5410   120.0170   124.3540   159.9930    19.6650   -13.2050     2.2120 
  170.0000    63.1130   108.2690   112.5820   114.6990    19.6840   -13.1960     2.2130 
  170.1250    65.0560    99.0920   102.6420    75.3320    19.9100   -13.1610     2.2200 
  170.2500    66.7060    95.1930    97.4950    66.3410    20.2090   -13.1290     2.2270 
  170.3750    66.1280    97.9730    98.7950    68.1310    20.5870   -13.1220     2.2330 
  170.5000    62.5740   107.9910   107.3090    75.6310    21.1080   -13.1620     2.2350 
  170.6250    58.2060   125.9970   123.9310    97.4130    21.7420   -13.2790     2.2360 
  170.7500    56.2580   149.0790   145.7440   139.3010    22.3220   -13.3080     2.2370 
  170.8750    57.9570   174.6160   170.1160   170.8040    22.7280   -13.3320     2.2360 
  171.0000    61.5850   200.3840   194.7820   176.9440    22.9410   -13.3450     2.2310 
  171.1250    62.0210   226.6870   219.8190   175.7240    23.0020   -13.4570     2.2220 
  171.2500    58.6730   256.3400   247.7090   201.7530    23.0090   -13.6330     2.2100 
  171.3750    54.9830   291.7630   280.4330   253.5150    23.0100   -13.7130     2.1980 
  171.5000    53.8920   332.3320   316.9000   317.1350    23.0350   -13.8130     2.1910 
  171.6250    53.2590   370.7110   349.7520   382.5710    23.1400   -13.8530     2.1910 
  171.7500    51.3530   396.8450   370.5660   478.3060    23.3140   -14.0640     2.1940 
  171.8750    49.6450   405.8330   375.8920   487.6850    23.4820   -14.2330     2.1980 
  172.0000    50.1320   400.4840   368.8510   408.2220    23.6750   -14.3280     2.1990 
  172.1250    52.6060   388.0980   356.1850   351.8880    23.9570   -14.4430     2.1990 
  172.2500    53.4940   375.9320   344.3480   335.5380    24.1550   -14.4260     2.2000 
  172.3750    52.2370   365.1060   334.5230   343.9740    24.2240   -14.4800     2.2020 
  172.5000    50.9070   352.6950   324.3470   357.2590    24.2320   -14.6390     2.2030 
  172.6250    52.4230   333.2820   309.0080   343.6350    24.2320   -14.6330     2.1990 
  172.7500    56.2640   308.3930   288.8420   321.6300    24.2320   -14.5140     2.1920 
  172.8750    58.8720   283.6130   268.0490   301.3560    24.2320   -14.4720     2.1850 
  173.0000    57.8430   265.1190   252.1520   269.0010    24.2380   -14.3410     2.1810 
  173.1250    54.4140   258.6750   247.1380   221.1720    24.2760   -14.1530     2.1810 
  173.2500    52.6310   261.3910   251.1920   198.9360    24.3450   -14.1180     2.1800 
  173.3750    52.3750   265.2660   257.3630   219.4280    24.4070   -13.9860     2.1770 
  173.5000    51.8750   257.5580   254.1960   241.4890    24.4510   -13.6300     2.1740 
  173.6250    51.5430   227.9260   230.5790   225.6110    24.5000   -13.5220     2.1780 
  173.7500    53.9390   188.6170   194.6490   188.4060    24.5400   -13.4710     2.1910 
  173.8750    58.6470   152.5880   158.0700   135.3700    24.5590   -13.3540     2.2110 
  174.0000    62.3230   127.0210   129.8470    87.3960    24.5800   -13.4000     2.2330 
  174.1250    62.1520   114.7870   115.1840    65.0450    24.6370   -13.5220     2.2470 
  174.2500    59.8200   112.3270   111.1350    65.4850    24.7050   -13.5050     2.2480 
  174.3750    57.8560   118.5530   116.3200    74.9840    24.7540   -13.5440     2.2390 
  174.5000    55.9130   133.3810   130.3930    81.7810    24.7330   -13.7320     2.2290 
  174.6250    52.8790   159.3600   155.7430    90.1310    24.6750   -13.7080     2.2480 
