~V
VERS. 2.00: Ver 2.00
~W
STRT.M 55.0000:
STOP.M 292.0000:
STEP.M 0.1250:
NULL. -999.2500:
UWI. F10078:
~C
DEPT.M :
GR.API :
RML.OHMM :
RI. :
RXO.OHMM :
CALI.CM :
DEN.GM/CC :
SP.MV :
~A
# ...
  178.7500    49.5610    16.8460    16.0740    15.6500    23.1530     2.5590    -1.4070 
  178.8750    49.0620    16.1490    15.4470    14.8790    23.2430     2.5600    -1.5080 
  179.0000    48.2880    15.4900    14.6910    13.6650    23.4230     2.5550    -1.5440 
  179.1250    49.4590    15.0130    13.9820    12.4330    23.6470     2.5420    -1.5980 
  179.2500    52.4980    14.7470    13.4530    11.6090    23.8780     2.5250    -1.7030 
  179.3750    55.1010    14.6980    13.1680    11.3470    24.0730     2.5080    -1.7580 
  179.5000    54.3670    14.8530    13.1400    11.7450    24.2110     2.4920    -1.8130 
  179.6250    52.9160    15.2070    13.3850    12.5240    24.2840     2.4770    -1.9470 
  179.7500    55.2410    15.6770    13.8100    13.2460    24.2890     2.4630    -2.0570 
  179.8750    59.8270    16.2120    14.3510    13.8490    24.2680     2.4520    -2.1710 
  180.0000    61.9940    16.7530    14.9220    14.5500    24.2370     2.4470    -2.3560 
  180.1250    58.8080    17.2130    15.4120    15.2990    24.1940     2.4530    -2.5710 
  180.2500    55.7190    17.5380    15.7570    15.7710    24.1490     2.4660    -2.7220 
  180.3750    56.0900    17.6910    15.9280    16.0070    24.1200     2.4830    -2.8820 
  180.5000    57.5610    17.6550    15.9290    15.9270    24.0950     2.4960    -3.0400 
  180.6250    57.0730    17.4160    15.7670    15.8420    24.0650     2.5040    -3.1370 
  180.7500    57.0770    17.0630    15.4980    15.9030    24.0420     2.5070    -3.2650 
  180.8750    58.9360    16.6110    15.1300    15.7380    24.0470     2.5090    -3.3570 
  181.0000    60.5770    16.1250    14.6580    14.9630    24.1310     2.5120    -3.4000 
  181.1250    59.8640    15.4700    14.0570    13.8850    24.2460     2.5170    -3.4530 
  181.2500    59.4220    14.7540    13.3580    13.1310    24.3040     2.5230    -3.5030 
  181.3750    58.9010    13.9270    12.6150    12.5480    24.3010     2.5280    -3.5810 
  181.5000    56.4970    13.0710    11.9300    12.1790    24.2750     2.5290    -3.7110 
  181.6250    55.3110    12.9610    11.4800    11.7030    24.2430     2.5240    -3.8180 
  181.7500    58.2440    13.0790    11.3590    11.4580    24.2150     2.5150    -3.9370 
  181.8750    63.6010    13.4980    11.6270    11.9420    24.1980     2.5060    -4.0790 
  182.0000    66.9950    14.2360    12.2770    13.2470    24.1810     2.4990    -4.2360 
  182.1250    66.2990    15.2430    13.2470    15.0490    24.1530     2.4970    -4.4160 
  182.2500    65.9010    16.2900    14.3060    16.3700    24.1310     2.4960    -4.5680 
  182.3750    66.4490    17.1840    15.2650    17.2390    24.1480     2.4970    -4.6300 
  182.5000    65.9790    17.7920    15.9690    17.9430    24.1980     2.5000    -4.5780 
  182.6250    64.3670    18.0370    16.2810    18.9390    24.2230     2.5070    -4.5530 
  182.7500    63.8860    18.0290    16.2740    19.5170    24.2190     2.5160    -4.5530 
  182.8750    64.3770    17.8200    16.0100    19.2810    24.1980     2.5230    -4.5390 
  183.0000    63.3250    17.4510    15.5660    18.2480    24.1720     2.5240    -4.4560 
  183.1250    61.7210    16.9640    15.0310    17.2000    24.1300     2.5160    -4.3210 
  183.2500    63.4590    16.4910    14.5350    15.6860    24.0650     2.5060    -4.2390 
  183.3750    65.7360    16.1490    14.1860    14.3400    23.9370     2.4970    -4.1840 
  183.5000    65.9600    16.0260    14.0600    13.5350    23.7120     2.4940    -4.1990 
  183.6250    64.4900    16.1680    14.1960    13.7230    23.3840     2.4970    -4.1900 
  183.7500    63.3040    16.4490    14.4660    14.7570    23.1230     2.5020    -4.0590 
  183.8750    63.7110    16.7510    14.7340    15.8680    22.9720     2.5080    -3.9370 
  184.0000    66.0970    16.9400    14.8590    16.2300    22.9200     2.5120    -3.8700 
  184.1250    69.5460    16.8600    14.7210    15.9510    22.9170     2.5140    -3.7770 
  184.2500    70.8670    16.5290    14.3990    15.1640    22.9200     2.5150    -3.7290 
  184.3750    70.1170    16.0140    14.0090    14.1010    22.9180     2.5140    -3.7000 
  184.5000    70.0580    15.4280    13.6770    13.1100    22.9030     2.5110    -3.6380 
  184.6250    68.5210    14.9280    13.5120    13.0350    22.8670     2.5070    -3.6360 
  184.7500    65.8600    14.6170    13.4900    13.3610    22.7950     2.5040    -3.6930 
  184.8750    65.0550    14.5850    13.5530    13.6670    22.6970     2.5030    -3.7310 
  185.0000    66.6710    14.6800    13.6330    13.6840    22.6540     2.5040    -3.7600 
  185.1250    68.3350    14.8240    13.6920    13.3630    22.8090     2.5060    -3.7950 
  185.2500    67.6410    14.9450    13.7610    13.1560    23.1260     2.5050    -3.7260 
  185.3750    64.8300    14.9980    13.8870    12.9490    23.5540     2.5010    -3.6580 
  185.5000    61.4140    15.0550    14.0750    12.8200    23.9550     2.4930    -3.6620 
  185.6250    61.0080    14.9740    14.1730    13.1690    24.1040     2.4820    -3.6180 
  185.7500    63.4140    14.4880    13.9340    13.7460    24.1350     2.4670    -3.5640 
  185.8750    65.8130    13.4700    13.1500    14.0030    24.1280     2.4460    -3.5520 
  186.0000    69.5580    11.9000    11.7820    13.2540    24.1140     2.4150    -3.5460 
  186.1250    77.6250    10.1480    10.0180    11.1680    24.0360     2.3760    -3.5290 
  186.2500    86.3960     8.5670     8.3120     8.1530    23.9520     2.3390    -3.6010 
  186.3750    90.9670     7.2690     6.9460     5.6380    24.0040     2.3150    -3.6910 
  186.5000    90.4030     6.4120     6.0440     4.2590    24.2150     2.3080    -3.7050 
  186.6250    88.0890     6.1530     5.6620     3.9680    24.5000     2.3200    -3.7320 
  186.7500    87.8770     6.2380     5.6300     4.0550    24.7240     2.3420    -3.8120 
  186.8750    88.8270     6.5150     5.8440     4.2790    24.8180     2.3640    -3.8730 
  187.0000    88.8460     6.8690     6.2060     4.5660    24.7640     2.3810    -3.9370 
  187.1250    88.8930     7.2370     6.6430     4.8080    24.6620     2.3910    -4.0880 
  187.2500    90.0110     7.6090     7.1020     5.1340    24.6290     2.3960    -4.2270 
  187.3750    92.9050     8.0120     7.5780     5.5810    24.7250     2.4000    -4.4020 
  187.5000    97.8180     8.4700     8.0710     6.2220    24.9260     2.4030    -4.6510 
  187.6250   100.0880     8.9900     8.5630     7.1090    25.0390     2.4070    -4.9210 
  187.7500    95.7210     9.5220     9.0110     7.9850    24.9890     2.4110    -5.2150 
  187.8750    87.9340    10.0110     9.3700     8.5050    25.0350     2.4140    -5.5420 
  188.0000    83.6600    10.4140     9.6050     8.6370    25.2180     2.4140    -5.8900 
  188.1250    85.0470    10.7240     9.7070     8.8090    25.4020     2.4110    -6.2740 
  188.2500    88.7810    11.0260     9.7640     9.2830    25.4430     2.4060    -6.7050 
  188.3750    92.8170    11.4320     9.8820    10.2060    25.4010     2.3990    -7.1440 
  188.5000    94.2740    12.0690    10.1800    11.5100    25.3410     2.3910    -7.6350 
  188.6250    91.5600    13.1040    10.8140    13.1200    25.3230     2.3840    -8.1890 
  188.7500    86.0300    14.5280    11.7970    15.4430    25.4130     2.3780    -8.7220 
  188.8750    78.6690    16.3460    13.1410    18.1070    25.5400     2.3730    -9.2770 
  189.0000    72.2410    18.5750    14.8510    21.0400    25.6500     2.3680    -9.8820 
  189.1250    70.8980    21.4180    17.0590    23.7950    25.7110     2.3630   -10.4100 
  189.2500    73.3770    25.0580    19.8770    25.8790    25.7430     2.3580   -10.8790 
  189.3750    75.2020    29.8300    23.5970    29.7240    25.7790     2.3470   -11.3310 
  189.5000    73.3650    36.0200    28.5390    36.7760    25.8460     2.3290   -11.7190 
  189.6250    68.7840    43.8520    35.0950    47.2010    25.9610     2.3030   -12.0130 
  189.7500    64.1670    52.5470    42.7320    57.3450    26.0770     2.2750   -12.3050 
  189.8750    61.1390    61.2010    50.7100    65.9340    26.1640     2.2520   -12.5690 
