~V
VERS. 2.00: Ver 2.00
~W
STRT.M 50.0000:
STOP.M 279.0000:
STEP.M 0.1250:
NULL. -999.2500:
UWI. F10075:
~C
DEPT.M :
GR.API :
RML.OHMM :
RI. :
RXO.OHMM :
CALI.CM :
DEN.GM/CC :
SP.MV :
~A
# ...
  106.2500    75.2750     8.5740     7.0550     8.3750    23.2560     2.1700   -13.4560 
  106.3750    75.4200     8.7170     7.1550     9.1160    23.0010     2.1680   -13.4160 
  106.5000    74.2880     8.8410     7.2370     9.7110    22.7930     2.1680   -13.3420 
  106.6250    73.9220     8.8580     7.2450     9.2310    22.7450     2.1710   -13.2530 
  106.7500    74.9490     8.7300     7.1680     8.7300    22.8950     2.1750   -13.1740 
  106.8750    75.4810     8.4850     7.0250     8.2900    23.2480     2.1800   -13.0750 
  107.0000    73.9560     8.2200     6.8610     7.8120    23.7260     2.1870   -12.9520 
  107.1250    72.1190     8.0590     6.7420     8.1280    24.1600     2.1950   -12.8750 
  107.2500    72.2810     8.0320     6.6980     8.0650    24.4340     2.2010   -12.7640 
  107.3750    72.2480     8.1270     6.7450     7.7320    24.5270     2.2000   -12.6130 
  107.5000    71.2150     8.2940     6.8750     8.3850    24.5210     2.1930   -12.5490 
  107.6250    70.9160     8.4910     7.0660     8.7100    24.4240     2.1870   -12.6420 
  107.7500    72.3020     8.6870     7.2690     8.9010    24.3350     2.1850   -12.8350 
  107.8750    74.0400     8.8600     7.4510     8.8850    24.2820     2.1860   -13.0930 
  108.0000    74.8740     8.9940     7.5930     8.7980    24.2740     2.1870   -13.3420 
  108.1250    75.5380     9.0920     7.6880     8.6470    24.2320     2.1830   -13.5750 
  108.2500    74.7790     9.1830     7.7650     8.7520    24.0740     2.1780   -13.9020 
  108.3750    71.2570     9.2780     7.8360     8.7580    23.8420     2.1760   -14.2500 
  108.5000    67.4550     9.3740     7.9070     8.5060    23.5740     2.1790   -14.4830 
  108.6250    68.8120     9.4800     7.9890     8.6200    23.4240     2.1850   -14.6070 
  108.7500    72.8840     9.6020     8.0880     8.9030    23.4280     2.1860   -14.6680 
  108.8750    73.1270     9.7480     8.2070     9.0250    23.5360     2.1780   -14.6880 
  109.0000    67.4800     9.9200     8.3380     9.0950    23.6030     2.1620   -14.7110 
  109.1250    61.2210    10.0870     8.4560     9.2580    23.4630     2.1440   -14.7400 
  109.2500    59.0330    10.1970     8.5370     9.1460    23.1470     2.1340   -14.7750 
  109.3750    59.8330    10.2220     8.5680     8.7740    22.8350     2.1350   -14.7850 
  109.5000    60.6970    10.1610     8.5540     8.2730    22.6430     2.1450   -14.8250 
  109.6250    61.1480    10.0420     8.5060     8.0840    22.6010     2.1570   -14.9500 
  109.7500    63.1150     9.9310     8.4590     8.1010    22.6270     2.1630   -15.1110 
  109.8750    66.6910     9.8890     8.4470     8.1590    22.6520     2.1640   -15.2920 
  110.0000    69.0810     9.9620     8.5040     8.1450    22.6210     2.1690   -15.4700 
  110.1250    69.3300    10.2030     8.6750     8.2330    22.5320     2.1940   -15.6010 
  110.2500    69.9420    10.5720     8.9410     8.6200    22.4620     2.2390   -15.6810 
  110.3750    70.3800    10.9980     9.2570     9.8690    22.4940     2.2900   -15.7920 
  110.5000    69.0240    11.3690     9.5470    12.0810    22.6790     2.3230   -15.9060 
  110.6250    65.2640    11.5220     9.6890    12.8300    23.0190     2.3140   -15.9630 
  110.7500    62.8730    11.4270     9.6510    11.1840    23.3670     2.2750   -16.0070 
  110.8750    62.0300    11.1270     9.4580     9.6430    23.5080     2.2250   -16.0410 
  111.0000    62.3810    10.7310     9.1780     8.9140    23.4250     2.1850   -16.1140 
  111.1250    64.7980    10.3730     8.9000     8.5080    23.1960     2.1660   -16.2870 
  111.2500    67.6120    10.1310     8.6880     7.8960    23.1540     2.1590   -16.4640 
  111.3750    68.0760    10.0180     8.5700     7.6800    23.4420     2.1580   -16.5950 
  111.5000    65.3910    10.0150     8.5430     8.2280    23.9630     2.1570   -16.7520 
  111.6250    62.9000    10.0730     8.5870     9.9100    24.2290     2.1570   -17.0090 
  111.7500    62.7820    10.1230     8.6500    12.0430    24.1780     2.1580   -17.2790 
  111.8750    63.9060    10.1330     8.6990    12.8860    23.9770     2.1620   -17.5450 
  112.0000    64.7740    10.0970     8.7140    12.6100    23.8630     2.1660   -17.8130 
  112.1250    66.8100    10.0240     8.6900    11.1960    23.8990     2.1650   -18.0480 
  112.2500    68.7280     9.9380     8.6420     9.7990    23.9080     2.1590   -18.2260 
  112.3750    68.4260     9.8530     8.5790     9.1850    23.9000     2.1490   -18.3740 
  112.5000    65.8680     9.7730     8.4960     8.9180    23.9930     2.1380   -18.5380 
  112.6250    62.4460     9.7070     8.3960     8.8610    24.2430     2.1320   -18.5780 
  112.7500    60.1400     9.6820     8.3080     8.7540    24.4560     2.1350   -18.5520 
  112.8750    58.8000     9.7260     8.2660     8.8090    24.4560     2.1510   -18.5400 
  113.0000    58.9430     9.8540     8.2930     8.6380    24.2490     2.1790   -18.4980 
  113.1250    60.8090    10.0520     8.3870     8.5500    23.9130     2.2110   -18.4310 
  113.2500    61.7330    10.2420     8.4920     8.6990    23.7470     2.2310   -18.4170 
  113.3750    60.5580    10.3430     8.5490     8.8490    23.8530     2.2270   -18.4290 
  113.5000    57.9840    10.2950     8.5150     9.0850    24.1490     2.2000   -18.4310 
  113.6250    57.3040    10.0830     8.3860     8.9200    24.5120     2.1610   -18.5100 
  113.7500    57.0980     9.8150     8.2280     8.8880    24.5230     2.1250   -18.6420 
  113.8750    56.5090     9.5790     8.0890     8.9900    24.3190     2.0970   -18.7800 
  114.0000    56.9160     9.4430     7.9990     9.0960    24.3320     2.0770   -18.8870 
  114.1250    59.3540     9.4360     7.9690     9.0230    24.7740     2.0670   -18.9730 
  114.2500    60.2570     9.4840     7.9630     9.0120    25.2720     2.0700   -19.0820 
  114.3750    59.8300     9.5180     7.9560     9.0540    25.5380     2.0860   -19.2160 
  114.5000    60.4940     9.4960     7.9330     9.0490    25.4400     2.1080   -19.2700 
  114.6250    61.1330     9.4160     7.8920     9.0720    25.1210     2.1240   -19.2100 
  114.7500    60.8640     9.3340     7.8440     9.1700    24.8900     2.1300   -19.1020 
  114.8750    61.7620     9.2780     7.7980     9.2420    24.8080     2.1280   -18.9900 
  115.0000    63.5200     9.2490     7.7610     9.1710    24.8740     2.1240   -18.8740 
  115.1250    63.1040     9.2260     7.7350     9.1010    25.0050     2.1240   -18.7030 
  115.2500    62.4810     9.2010     7.7150     9.1650    25.1170     2.1290   -18.4740 
  115.3750    64.1960     9.1920     7.7010     9.1860    25.1320     2.1380   -18.2410 
  115.5000    65.5270     9.2210     7.6880     9.0240    25.0360     2.1490   -18.0480 
  115.6250    63.5600     9.2940     7.6780     8.8160    24.9380     2.1560   -17.9020 
  115.7500    61.7340     9.3770     7.6740     8.6940    24.8790     2.1580   -17.8270 
  115.8750    61.4070     9.4360     7.6760     8.5340    24.7910     2.1580   -17.7560 
  116.0000    61.0710     9.4620     7.6840     8.3810    24.5210     2.1570   -17.6720 
  116.1250    60.6250     9.4590     7.6960     8.3970    24.0200     2.1540   -17.6170 
  116.2500    61.6770     9.4510     7.7020     8.6050    23.8390     2.1440   -17.5780 
  116.3750    63.7230     9.4560     7.6990     8.8130    24.0150     2.1270   -17.5340 
  116.5000    64.5550     9.4800     7.6890     9.0590    24.4210     2.1080   -17.4840 
  116.6250    63.8510     9.4850     7.6720     8.9390    24.7760     2.1000   -17.4520 
  116.7500    63.6130     9.4370     7.6430     8.9200    25.0240     2.1050   -17.3630 
  116.8750    64.9190     9.3350     7.6040     8.8210    25.0780     2.1210   -17.2290 
  117.0000    66.2010     9.2100     7.5660     8.6660    25.0070     2.1380   -17.1280 
  117.1250    65.8490     9.1280     7.5530     8.5940    24.8770     2.1510   -17.0480 
  117.2500    65.0420     9.1240     7.5760     8.5360    24.6690     2.1580   -16.9200 
  117.3750    64.5040     9.1830     7.6320     8.4520    24.3380     2.1610   -16.7070 
