~V
VERS. 2.00: Ver 2.00
~W
STRT.M 50.0000:
STOP.M 212.0000:
STEP.M 0.1250:
NULL. -999.2500:
UWI. F10013:
~C
DEPT.M :
GR.API :
RML.OHMM :
RI. :
RXO.OHMM :
CALI.CM :
DEN.GM/CC :
SP.MV :
~A
# ...
  162.5000    66.1050    27.7930    26.9350    29.3040    23.1310     2.2510   -20.5240 
  162.6250    65.7510    27.3490    26.4780    30.6610    23.2550     2.2500   -20.3730 
  162.7500    64.0580    26.8340    25.9490    31.6060    23.3070     2.2500   -20.2110 
  162.8750    63.2700    26.3140    25.3870    30.1850    23.2870     2.2540   -20.0430 
  163.0000    65.1250    25.9610    24.9340    28.1780    23.2000     2.2680   -19.9040 
  163.1250    65.4520    26.0870    24.8650    26.4200    23.1090     2.2900   -19.8190 
  163.2500    62.9570    26.7940    25.3130    27.0230    23.0630     2.3110   -19.7920 
  163.3750    61.4410    28.0920    26.3430    30.1720    23.1320     2.3170   -19.8020 
  163.5000    63.3160    29.8300    27.8820    35.0850    23.2720     2.3030   -19.8570 
  163.6250    65.3530    31.6980    29.7230    36.9660    23.3600     2.2720   -19.9520 
  163.7500    66.0240    33.2790    31.4550    38.8360    23.3820     2.2410   -20.0600 
  163.8750    65.9220    34.2930    32.7710    40.9940    23.3710     2.2200   -20.1860 
  164.0000    64.3050    34.6370    33.4940    43.2400    23.3580     2.2090   -20.3110 
  164.1250    61.7510    34.3870    33.5940    41.3170    23.3610     2.2100   -20.4230 
  164.2500    61.2560    33.9700    33.4140    38.2710    23.3250     2.2160   -20.5050 
  164.3750    63.4280    33.6570    33.2020    35.1340    23.2430     2.2280   -20.5630 
  164.5000    65.9520    33.5200    33.0670    32.5870    23.1310     2.2410   -20.5880 
  164.6250    67.3610    33.2430    32.7910    33.7810    23.1170     2.2500   -20.5780 
  164.7500    67.6380    32.3070    31.9340    34.4420    23.1720     2.2530   -20.5190 
  164.8750    65.5320    30.3620    30.1430    35.3330    23.1980     2.2500   -20.4100 
  165.0000    62.5440    27.4510    27.4180    34.3190    23.1850     2.2460   -20.2730 
  165.1250    64.1480    24.0650    24.1820    28.3710    23.1320     2.2510   -20.1020 
  165.2500    70.3520    20.9940    21.1880    21.3400    23.0710     2.2650   -19.9270 
  165.3750    75.1390    18.6810    18.8510    16.7770    23.0150     2.2840   -19.7520 
  165.5000    74.5810    17.2790    17.3030    16.1840    22.9810     2.3000   -19.6040 
  165.6250    71.7390    16.8090    16.5460    17.2030    22.9650     2.3030   -19.4920 
  165.7500    70.5130    16.8700    16.3190    18.2710    22.9820     2.2990   -19.4190 
  165.8750    68.9230    17.1790    16.4430    19.4320    23.0540     2.3010   -19.3830 
  166.0000    66.0250    17.4860    16.7040    19.1360    23.1620     2.3210   -19.3690 
  166.1250    65.7070    17.6170    16.9170    17.7120    23.2130     2.3600   -19.3820 
  166.2500    68.2190    17.6170    16.9900    16.8700    23.2270     2.3940   -19.4010 
  166.3750    69.9450    17.6000    16.9040    17.6970    23.2760     2.4030   -19.4240 
  166.5000    69.5840    17.6890    16.7590    18.7640    23.3330     2.3810   -19.4380 
  166.6250    68.9310    17.9960    16.7020    18.6910    23.3300     2.3380   -19.4450 
  166.7500    69.0970    18.4780    16.7760    19.2920    23.3120     2.2990   -19.4730 
  166.8750    68.1110    19.0430    17.0090    21.0820    23.3160     2.2760   -19.5330 
  167.0000    66.2570    19.5620    17.4500    22.1100    23.3480     2.2680   -19.6360 
  167.1250    66.4760    19.9010    18.1500    23.3050    23.3950     2.2680   -19.7760 
  167.2500    68.1830    20.1120    18.8700    24.2190    23.4090     2.2720   -19.9580 
  167.3750    69.0610    20.3750    19.3830    24.6720    23.3970     2.2780   -20.1810 
  167.5000    68.1750    20.9750    19.8480    24.4930    23.3890     2.2840   -20.4320 
  167.6250    67.2580    22.3090    20.7980    24.2740    23.3910     2.2870   -20.7130 
  167.7500    66.8390    24.2200    22.5010    26.4790    23.3940     2.2870   -21.0070 
  167.8750    65.7000    26.4880    24.9820    32.9640    23.3770     2.2810   -21.2960 
  168.0000    64.5600    29.3860    28.0660    40.9200    23.3200     2.2700   -21.5700 
  168.1250    64.5250    32.5520    31.2890    46.6710    23.2450     2.2560   -21.8200 
  168.2500    64.3780    35.2550    34.0030    49.7120    23.2440     2.2430   -22.0440 
  168.3750    63.5650    37.0020    35.7900    51.3610    23.3100     2.2320   -22.2530 
  168.5000    62.3520    37.7710    36.5450    53.0400    23.4080     2.2270   -22.4690 
  168.6250    62.7980    37.7270    36.3910    54.2440    23.4800     2.2260   -22.6830 
  168.7500    64.5540    37.3610    35.8520    53.4800    23.5070     2.2260   -22.8860 
  168.8750    65.8360    36.9400    35.2120    50.4820    23.5050     2.2270   -23.0830 
  169.0000    66.1500    36.6280    34.6340    47.5030    23.4920     2.2280   -23.2710 
  169.1250    64.8670    36.5550    34.2300    44.9830    23.4740     2.2310   -23.4460 
  169.2500    61.8940    36.7310    34.0270    44.1440    23.4530     2.2320   -23.5900 
  169.3750    59.8230    37.1580    34.0660    44.3860    23.3910     2.2300   -23.6930 
  169.5000    61.5740    37.7890    34.3580    45.2940    23.3160     2.2230   -23.7500 
  169.6250    64.9680    38.4570    34.8250    46.5570    23.2820     2.2130   -23.7670 
  169.7500    64.5570    38.8540    35.1920    47.9550    23.2570     2.2070   -23.7690 
  169.8750    61.7420    38.7140    35.1980    49.1240    23.2570     2.2080   -23.7440 
  170.0000    60.4750    37.9470    34.7050    49.8820    23.2600     2.2160   -23.6910 
  170.1250    61.6440    36.7440    33.7940    47.5160    23.2360     2.2280   -23.6280 
  170.2500    63.3660    35.6860    32.9120    42.1730    23.1760     2.2380   -23.5760 
  170.3750    65.3550    35.2400    32.4450    36.7570    23.0670     2.2410   -23.5480 
  170.5000    66.8680    35.6940    32.6760    36.6270    22.9310     2.2360   -23.5350 
  170.6250    66.2310    37.1920    33.8170    41.9610    22.9070     2.2250   -23.5320 
  170.7500    63.6010    39.2640    35.5700    46.3900    23.0940     2.2090   -23.5450 
  170.8750    62.0890    41.4680    37.6100    47.7410    23.2920     2.1930   -23.5850 
  171.0000    63.8190    43.3690    39.5510    47.7130    23.3630     2.1780   -23.6650 
  171.1250    66.3040    44.5750    40.9840    48.8540    23.3040     2.1660   -23.7760 
  171.2500    66.1770    45.1760    41.8760    51.8050    23.1950     2.1610   -23.8860 
  171.3750    64.1740    45.3740    42.3490    53.6130    23.1480     2.1620   -23.9880 
  171.5000    62.4050    45.4650    42.6480    52.9190    23.2210     2.1720   -24.0770 
  171.6250    62.4300    46.3000    43.1820    51.3140    23.2960     2.1870   -24.1700 
  171.7500    63.7570    48.3990    44.3540    50.8660    23.3130     2.2010   -24.2460 
  171.8750    65.6380    51.6050    46.5600    54.6980    23.3030     2.2090   -24.2940 
  172.0000    66.5530    55.6760    50.1410    60.9870    23.3210     2.2090   -24.3050 
  172.1250    65.9130    61.0500    55.5000    70.2820    23.3830     2.2000   -24.2750 
  172.2500    64.4390    67.3670    61.9740    86.0800    23.4110     2.1930   -24.2180 
  172.3750    61.1270    73.3250    68.3930    96.9850    23.3620     2.1990   -24.1280 
  172.5000    55.5750    76.9280    72.8980    99.4310    23.2350     2.2290   -24.0270 
  172.6250    52.4150    75.4260    72.7700   104.6200    23.1090     2.2880   -23.8780 
  172.7500    53.5670    69.1420    67.8820   113.6520    23.0630     2.3610   -23.6950 
  172.8750    57.1450    59.2940    59.0100    92.3550    23.0950     2.4300   -23.4940 
  173.0000    62.1840    47.7150    47.8040    57.3690    23.1020     2.4830   -23.2780 
  173.1250    69.5630    36.3400    36.3790    33.4720    22.9920     2.5180   -23.0530 
  173.2500    74.0440    26.4350    26.4210    26.3710    22.7890     2.5460   -22.8460 
  173.3750    70.3560    18.5670    18.5960    15.6940    22.5770     2.5680   -22.6900 
  173.5000    62.4480    12.8640    12.9610     8.6640    22.4690     2.5750   -22.5670 
  173.6250    60.7900     9.3910     9.4770     6.6630    22.4970     2.5460   -22.5110 
