~V
VERS. 2.00: Ver 2.00
~W
STRT.M 56.0000:
STOP.M 235.0000:
STEP.M 0.1250:
NULL. -999.2500:
UWI. F10014:
~C
DEPT.M :
GR.API :
RML.OHMM :
RI. :
RXO.OHMM :
CALI.CM :
DEN.GM/CC :
SP.MV :
~A
# ...
  168.5000    51.4110    16.5990    14.2480    16.1530    25.1140     2.5620    -8.5630 
  168.6250    51.3470    14.5580    12.5460    16.3210    25.0560     2.5650    -8.5980 
  168.7500    53.8280    12.1490    10.5680    13.4550    25.0070     2.5440    -8.6370 
  168.8750    55.0540     9.9780     8.7760     8.3020    24.9180     2.5030    -8.6790 
  169.0000    51.6370     8.4520     7.4590     6.0050    24.7690     2.4610    -8.6880 
  169.1250    44.8080     7.7700     6.7730     5.8230    24.5840     2.4370    -8.6240 
  169.2500    41.1980     7.6430     6.5480     6.2530    24.5150     2.4350    -8.5400 
  169.3750    42.1900     7.8390     6.6580     6.4680    24.5880     2.4450    -8.4990 
  169.5000    44.7240     8.1140     6.9360     6.6100    24.6940     2.4570    -8.4830 
  169.6250    46.1730     8.2530     7.1870     6.7220    24.7560     2.4630    -8.4360 
  169.7500    47.2640     8.2270     7.3110     6.7590    24.7840     2.4640    -8.3670 
  169.8750    48.3050     8.0990     7.3210     6.6330    24.8190     2.4620    -8.3060 
  170.0000    48.3020     7.9460     7.2720     6.4950    24.8700     2.4590    -8.2900 
  170.1250    47.4800     7.8290     7.2230     6.3570    24.9020     2.4550    -8.3090 
  170.2500    48.6290     7.7640     7.2070     6.3150    24.9290     2.4520    -8.3500 
  170.3750    52.4280     7.7490     7.2270     6.2890    24.9380     2.4490    -8.3870 
  170.5000    56.9620     7.7620     7.2590     6.4370    24.9130     2.4480    -8.3810 
  170.6250    59.7160     7.7800     7.2730     6.4740    24.8670     2.4510    -8.3750 
  170.7500    61.4620     7.7930     7.2590     6.5010    24.8030     2.4580    -8.4380 
  170.8750    63.5630     7.8040     7.2250     6.6180    24.7350     2.4680    -8.6020 
  171.0000    66.2490     7.8180     7.1820     6.7540    24.6580     2.4790    -8.8410 
  171.1250    67.7130     7.8410     7.1400     6.8440    24.5640     2.4880    -9.0990 
  171.2500    67.7740     7.8660     7.0950     6.9070    24.4360     2.4920    -9.3320 
  171.3750    68.0340     7.8840     7.0340     7.1100    24.3010     2.4880    -9.5820 
  171.5000    70.9080     7.8810     6.9410     7.3570    24.1850     2.4760    -9.9360 
  171.6250    75.1290     7.8400     6.7990     7.2400    24.0690     2.4580   -10.3150 
  171.7500    78.6640     7.7480     6.6070     6.7700    23.9290     2.4390   -10.6120 
  171.8750    81.6050     7.5810     6.3550     6.4860    23.8230     2.4220   -10.7850 
  172.0000    82.7150     7.3380     6.0570     6.5670    23.7660     2.4060   -10.8900 
  172.1250    80.0740     7.1080     5.7950     6.8330    23.7880     2.3910   -11.0230 
  172.2500    78.4930     7.0850     5.6990     7.0140    23.8160     2.3800   -11.1820 
  172.3750    80.4920     7.5210     5.9170     7.3580    23.8520     2.3820   -11.3160 
  172.5000    81.9060     8.6970     6.6210     8.4060    23.8950     2.4010   -11.3720 
  172.6250    76.3600    11.0680     8.1610    11.3420    23.9590     2.4330   -11.4120 
  172.7500    68.5620    14.5360    10.6250    17.0790    24.0170     2.4560   -11.4660 
  172.8750    63.4690    18.7370    13.9710    23.2780    24.0360     2.4520   -11.5240 
  173.0000    61.1150    22.7450    17.6570    27.4360    23.9990     2.4140   -11.6000 
  173.1250    61.4060    24.9740    20.3610    30.1950    23.9260     2.3520   -11.6850 
  173.2500    62.1870    25.3300    21.5550    29.5280    23.8580     2.2980   -11.7530 
  173.3750    63.4310    24.8500    21.7880    26.7120    23.8210     2.2780   -11.7740 
  173.5000    64.5880    24.9580    22.0820    24.3140    23.8160     2.2990   -11.7980 
  173.6250    63.4590    26.9970    23.5020    22.9710    23.8340     2.3510   -11.8620 
  173.7500    62.0210    30.8700    26.2480    25.6030    23.8580     2.3950   -11.9230 
  173.8750    62.0060    35.6740    29.8650    35.4670    23.8680     2.4040   -11.9710 
  174.0000    63.5520    39.1650    32.7670    47.7520    23.8710     2.3760   -11.9680 
  174.1250    65.0320    37.6460    31.9660    48.9390    23.8720     2.3340   -11.8710 
  174.2500    68.0660    31.8320    27.6630    38.4620    23.8720     2.3110   -11.8180 
  174.3750    73.9940    24.6770    22.0490    25.6030    23.8710     2.3180   -11.8720 
  174.5000    78.6740    18.8360    17.2570    16.6440    23.8700     2.3440   -11.9340 
  174.6250    77.2730    15.6910    14.4370    12.3910    23.8660     2.3640   -11.8760 
  174.7500    74.0620    14.6780    13.2370    12.4280    23.8600     2.3640   -11.8010 
  174.8750    72.7880    15.4200    13.4590    14.8710    23.8680     2.3470   -11.7770 
  175.0000    73.2470    17.5490    14.9810    17.4680    23.8900     2.3220   -11.7870 
  175.1250    70.9640    20.6270    17.7350    20.4480    23.9140     2.3010   -11.7980 
  175.2500    66.3850    23.5840    20.8480    22.2730    23.9080     2.2860   -11.6790 
  175.3750    63.0470    25.3680    23.2360    23.5470    23.9230     2.2770   -11.4020 
  175.5000    63.3310    25.1460    23.8160    23.8290    24.0200     2.2700   -11.0830 
  175.6250    67.0460    22.5550    21.8960    21.7400    24.2150     2.2640   -10.8630 
  175.7500    69.9130    18.8200    18.6110    18.2860    24.3340     2.2620   -10.6910 
  175.8750    70.9290    14.9690    15.0410    14.3900    24.3250     2.2670   -10.4730 
  176.0000    74.5540    11.7570    11.9880    11.2530    24.2800     2.2820   -10.2150 
  176.1250    81.9540     9.7010     9.9490     8.9730    24.3800     2.3070    -9.9550 
  176.2500    85.5680     8.6150     8.7700     7.9180    24.6160     2.3360    -9.7830 
  176.3750    82.6950     8.3240     8.3250     7.7890    24.8670     2.3630    -9.7560 
  176.5000    77.7890     8.6050     8.4740     8.2930    25.0020     2.3850    -9.7940 
  176.6250    76.0000     9.2030     9.0770     9.5570    25.0210     2.3950    -9.7750 
  176.7500    74.3530     9.7490     9.7840    10.6580    24.9970     2.3950    -9.7630 
  176.8750    72.3310    10.0160    10.3140    10.7170    24.9670     2.3870    -9.8710 
  177.0000    72.9220     9.9200    10.4820    10.1510    24.9090     2.3740   -10.0730 
  177.1250    76.5000     9.5060    10.2300     9.5150    24.7790     2.3670   -10.3270 
  177.2500    79.4950     8.9860     9.7630     8.8810    24.6540     2.3670   -10.6060 
  177.3750    79.8340     8.4800     9.2190     8.3740    24.6680     2.3750   -10.8810 
  177.5000    79.4840     8.0390     8.6820     8.1970    24.8010     2.3890   -11.1680 
  177.6250    81.9500     7.6960     8.2070     8.2380    24.9460     2.4090   -11.4990 
  177.7500    84.8430     7.4860     7.8450     8.1200    25.0080     2.4320   -11.7840 
  177.8750    84.6920     7.4930     7.6750     7.8670    25.0250     2.4560   -11.9540 
  178.0000    81.3860     7.8020     7.7740     7.9970    25.0280     2.4780   -12.0650 
  178.1250    76.8050     8.5220     8.2510     8.8070    25.0240     2.4940   -12.1870 
  178.2500    71.7750     9.5420     9.0400    10.8890    25.0060     2.5020   -12.2520 
  178.3750    66.5410    10.7410    10.0650    14.0620    24.9850     2.5000   -12.2110 
  178.5000    62.8910    12.0280    11.2360    16.8140    25.0220     2.4880   -12.1050 
  178.6250    60.8770    13.5290    12.5920    18.6340    25.0770     2.4640   -12.0170 
  178.7500    60.5000    15.5610    14.3230    18.8110    25.1230     2.4330   -12.0110 
  178.8750    61.9270    18.5730    16.8030    20.3760    25.1590     2.3980   -12.1030 
  179.0000    63.2950    24.9050    20.4980    26.6620    25.2030     2.3620   -12.2520 
  179.1250    61.9060    31.5700    26.0230    45.8640    25.2440     2.3260   -12.3970 
  179.2500    59.7080    39.2290    32.7900    60.3110    25.2420     2.2950   -12.4850 
  179.3750    58.4780    46.5510    39.6740    63.0670    25.2180     2.2740   -12.5860 
  179.5000    57.8520    52.1120    45.2810    61.8700    25.1950     2.2640   -12.7630 
  179.6250    58.5030    55.0220    48.5610    61.6730    25.1840     2.2570   -12.9800 
