~V
VERS. 2.00: Ver 2.00
~W
STRT.M 50.0000:
STOP.M 325.0000:
STEP.M 0.1250:
NULL. -999.2500:
UWI. F10039:
~C
DEPT.M :
GR.API :
RML.OHMM :
RI. :
RXO.OHMM :
CALI.CM :
DEN.GM/CC :
SP.MV :
~A
# ...
  151.2500   110.8760     8.4910     8.4650     5.7500    24.2550     2.4330   -22.8570 
  151.3750   113.4580     6.5430     6.5950     5.3720    24.2920     2.4160   -22.7790 
  151.5000   111.1470     5.4810     5.3060     5.3900    24.2920     2.4110   -22.7260 
  151.6250   108.6300     5.2020     4.6920     5.4730    24.2990     2.4120   -22.6890 
  151.7500   110.7300     5.2780     4.5300     5.4810    24.3170     2.4170   -22.6890 
  151.8750   115.1030     5.4760     4.6770     5.4450    24.3230     2.4270   -22.7210 
  152.0000   117.8170     5.6540     4.9830     5.5120    24.4410     2.4370   -22.7690 
  152.1250   117.2310     5.7670     5.2990     5.5330    24.4210     2.4430   -22.8180 
  152.2500   116.4130     5.8570     5.5130     5.4930    24.4130     2.4420   -22.8790 
  152.3750   114.4380     5.9370     5.5770     5.4350    24.4970     2.4380   -22.9770 
  152.5000   109.9110     5.9770     5.4850     5.4480    24.5730     2.4320   -23.1050 
  152.6250   105.8350     5.8900     5.2550     5.4660    24.5600     2.4260   -23.2610 
  152.7500   104.2730     5.6560     4.9790     5.4980    24.4600     2.4200   -23.4100 
  152.8750   105.1370     5.3290     4.7330     5.4580    24.3400     2.4210   -23.5510 
  153.0000   106.7900     5.0530     4.5980     5.3570    24.2530     2.4420   -23.7160 
  153.1250   106.6170     5.0970     4.7010     5.3340    24.2630     2.4930   -23.9250 
  153.2500   101.5480     5.5920     5.0820     5.7990    24.2930     2.5500   -24.1710 
  153.3750    90.1680     6.5740     5.7710     7.9870    24.2630     2.5840   -24.4350 
  153.5000    76.6210     7.9310     6.7360    13.9870    24.1330     2.5700   -24.7350 
  153.6250    70.0110     9.3250     7.8270    20.9460    23.9950     2.5080   -25.0890 
  153.7500    70.1210    10.3020     8.7390    19.6250    23.7660     2.4380   -25.4860 
  153.8750    72.4450    10.6040     9.2410    13.6190    23.5620     2.3880   -25.8970 
  154.0000    73.6330    10.2720     9.2730     9.2600    23.3430     2.3680   -26.2740 
  154.1250    74.3050     9.5800     8.9320     8.4360    23.1130     2.3670   -26.5840 
  154.2500    74.7440     8.9000     8.4790     8.3180    22.8710     2.3640   -26.8170 
  154.3750    74.0350     8.3450     8.0200     8.1900    22.7330     2.3540   -26.9820 
  154.5000    74.4760     7.8990     7.5750     7.6460    22.6960     2.3420   -27.0430 
  154.6250    77.7860     7.5190     7.1420     7.0990    22.6760     2.3370   -26.9690 
  154.7500    80.9320     7.1960     6.7570     6.7810    22.6930     2.3380   -26.8090 
  154.8750    81.1810     6.9630     6.4820     6.7190    22.7620     2.3400   -26.6120 
  155.0000    79.5840     6.8330     6.3580     6.5420    22.8450     2.3380   -26.4090 
  155.1250    80.4570     6.7880     6.3860     6.3670    22.8520     2.3340   -26.2250 
  155.2500    82.2110     6.7730     6.4690     6.4690    22.8280     2.3300   -26.0520 
  155.3750    81.7190     6.7740     6.5340     6.5080    22.8290     2.3320   -25.8710 
  155.5000    79.8260     6.7900     6.5370     6.5000    22.8790     2.3410   -25.6830 
  155.6250    81.6630     6.8100     6.4690     6.4620    22.9840     2.3540   -25.5110 
  155.7500    87.5250     6.7830     6.3580     6.2800    23.1600     2.3700   -25.3230 
  155.8750    92.1690     6.6520     6.2050     6.0770    23.4200     2.3850   -25.0990 
  156.0000    92.2520     6.3920     5.9850     5.9150    23.7010     2.3990   -24.8720 
  156.1250    90.0290     6.0250     5.6690     5.5440    23.8660     2.4090   -24.6680 
  156.2500    88.7030     5.6540     5.3050     5.2600    23.9160     2.4150   -24.5090 
  156.3750    88.1260     5.3610     4.9710     4.9460    23.9230     2.4160   -24.4370 
  156.5000    87.1110     5.1910     4.7450     4.7710    23.8560     2.4160   -24.4630 
  156.6250    85.4400     5.1810     4.6930     4.9200    23.7300     2.4150   -24.5840 
  156.7500    84.2510     5.3130     4.7890     5.3350    23.5620     2.4140   -24.8240 
  156.8750    83.9640     5.6270     5.0320     5.6840    23.4370     2.4120   -25.1960 
  157.0000    83.5190     6.2000     5.4500     5.9730    23.3770     2.4070   -25.6720 
  157.1250    80.2880     7.1760     6.1480     7.1970    23.2920     2.3980   -26.2450 
  157.2500    77.3640     8.4820     7.1200     9.6710    23.1740     2.3840   -26.8780 
  157.3750    78.0270     9.9350     8.2910    11.6130    23.0100     2.3640   -27.5250 
  157.5000    80.8880    11.1990     9.4560    11.6990    22.8040     2.3430   -28.1810 
  157.6250    80.6470    11.8150    10.2450    10.3780    22.6660     2.3280   -28.8500 
  157.7500    77.2850    11.7830    10.5070     9.7900    22.6430     2.3200   -29.4750 
  157.8750    74.7980    11.3260    10.2870     9.7260    22.6640     2.3170   -30.0330 
  158.0000    73.7320    10.7700     9.7890     9.8560    22.6900     2.3120   -30.5010 
  158.1250    72.4390    10.3890     9.2830     9.9760    22.6960     2.3030   -30.8350 
  158.2500    71.0780    10.1980     8.9490    10.0100    22.7280     2.2910   -31.0630 
  158.3750    70.3210    10.1270     8.8250     9.9420    22.8450     2.2820   -31.2310 
  158.5000    69.6650    10.1040     8.8660     9.8270    22.9890     2.2770   -31.3500 
  158.6250    68.0080    10.1010     8.9680    10.0250    23.0920     2.2740   -31.4000 
  158.7500    67.2080    10.1020     9.0110    10.2210    23.1500     2.2710   -31.4110 
  158.8750    67.4310    10.0840     8.9480    10.1330    23.1740     2.2640   -31.3850 
  159.0000    67.5130    10.0170     8.7990     9.8930    23.1690     2.2550   -31.3380 
  159.1250    67.1700     9.8780     8.6370     9.8600    23.0940     2.2450   -31.2820 
  159.2500    66.8000     9.7170     8.5350     9.9190    22.9680     2.2390   -31.2320 
  159.3750    66.8040     9.5890     8.5100     9.8950    22.8820     2.2380   -31.1770 
  159.5000    67.1400     9.5380     8.5260     9.8180    22.8410     2.2440   -31.1190 
  159.6250    67.9220     9.5760     8.5230     9.8560    22.7760     2.2540   -31.0630 
  159.7500    68.4240     9.6420     8.4720     9.9450    22.6820     2.2630   -31.0120 
  159.8750    68.7670     9.6870     8.3890    10.0320    22.6760     2.2680   -30.9570 
  160.0000    69.7380     9.6840     8.3130     9.9880    22.7590     2.2690   -30.9000 
  160.1250    69.5110     9.6380     8.2860     9.8850    22.8160     2.2680   -30.8620 
  160.2500    66.9120     9.5740     8.2950     9.8070    22.8140     2.2670   -30.8510 
  160.3750    64.8990     9.4990     8.2990     9.8520    22.7720     2.2680   -30.8540 
  160.5000    65.9800     9.4090     8.2550     9.9180    22.7550     2.2740   -30.8760 
  160.6250    67.5520     9.3150     8.1570     9.9170    22.7940     2.2820   -30.9320 
  160.7500    66.6800     9.2680     8.0800    10.0150    22.8460     2.2900   -31.0010 
  160.8750    65.5630     9.3230     8.1070    10.1260    22.8740     2.2930   -31.0970 
  161.0000    66.1750     9.5080     8.2860    10.2340    22.9030     2.2880   -31.2000 
  161.1250    66.1390     9.7740     8.5940    10.2840    23.0100     2.2770   -31.2780 
  161.2500    65.2870     9.9780     8.8820    10.1420    23.1470     2.2650   -31.3100 
  161.3750    65.8340    10.0060     9.0150     9.9930    23.1960     2.2560   -31.3240 
  161.5000    67.3980     9.8150     8.9210     9.8040    23.1880     2.2530   -31.3280 
  161.6250    69.6220     9.4570     8.6150     9.7040    23.1610     2.2550   -31.3040 
  161.7500    71.2620     9.0990     8.2630     9.6050    23.1050     2.2600   -31.2580 
  161.8750    71.5190     8.8500     7.9890     9.5710    23.0050     2.2640   -31.2030 
  162.0000    69.3460     8.7530     7.8530     9.5470    22.9330     2.2680   -31.1460 
  162.1250    66.4430     8.7860     7.8470     9.4210    22.8860     2.2710   -31.1000 
  162.2500    66.3930     8.8520     7.8770     9.3360    22.8350     2.2730   -31.0660 
  162.3750    69.6930     8.8950     7.8860     9.2740    22.8060     2.2740   -31.0100 
