~V
VERS. 2.00: Ver 2.00
~W
STRT.M 50.0000:
STOP.M 207.0000:
STEP.M 0.1250:
NULL. -999.2500:
UWI. F10009:
~C
DEPT.M :
GR.API :
RML.OHMM :
RI. :
RXO.OHMM :
CALI.CM :
DEN.GM/CC :
SP.MV :
~A
# ...
  140.0000    84.7880     9.1000     8.7860     7.8940    23.6240     2.3840   -10.6910 
  140.1250    87.4590     8.1740     7.7930     7.0720    23.6770     2.3970   -10.7950 
  140.2500    87.0770     8.0420     7.5390     7.3810    23.6950     2.4210   -10.9650 
  140.3750    85.1700     8.4600     7.8580     8.1400    23.7000     2.4460   -11.1900 
  140.5000    82.7480     9.1890     8.5560     9.1150    23.7030     2.4660   -11.4580 
  140.6250    80.1690     9.9600     9.3930    10.0160    23.7120     2.4760   -11.7690 
  140.7500    77.8110    10.5290    10.0910    10.5170    23.7260     2.4760   -12.1080 
  140.8750    76.8380    10.7650    10.4800    10.8430    23.7490     2.4680   -12.4350 
  141.0000    77.5640    10.6390    10.4890    11.1180    23.7780     2.4520   -12.7170 
  141.1250    78.4390    10.1980    10.1220    10.9070    23.8020     2.4310   -12.9400 
  141.2500    78.3400     9.6600     9.5950    10.3760    23.8200     2.4140   -13.1140 
  141.3750    78.8060     9.1790     9.0630     9.9890    23.8290     2.4020   -13.2370 
  141.5000    80.0840     8.8650     8.6500     9.8820    23.8270     2.3970   -13.3210 
  141.6250    79.9770     8.8230     8.4740    10.0660    23.8160     2.3980   -13.3650 
  141.7500    78.9720     9.0610     8.5570    10.5510    23.7990     2.4060   -13.3740 
  141.8750    78.9020     9.6410     8.9500    11.5800    23.7780     2.4210   -13.3800 
  142.0000    79.0450    10.6520     9.7230    13.2000    23.7590     2.4430   -13.3910 
  142.1250    77.2310    12.2670    11.0380    15.8320    23.7420     2.4660   -13.3820 
  142.2500    74.8070    14.3660    12.8290    19.1350    23.7230     2.4840   -13.3770 
  142.3750    72.2230    16.7200    14.9570    22.7040    23.7020     2.4900   -13.3900 
  142.5000    69.7900    18.9220    17.1060    26.1970    23.6930     2.4840   -13.3840 
  142.6250    68.6120    20.3290    18.6920    27.7420    23.6980     2.4630   -13.3580 
  142.7500    68.8850    20.7400    19.3900    27.8770    23.7120     2.4330   -13.3380 
  142.8750    69.9640    20.2320    19.1490    26.7110    23.7340     2.4010   -13.3280 
  143.0000    71.4130    19.1790    18.2440    23.7700    23.7650     2.3720   -13.3200 
  143.1250    74.4810    18.1440    17.1660    20.1930    23.7720     2.3570   -13.3150 
  143.2500    76.5480    17.5790    16.3920    18.6430    23.7590     2.3550   -13.3110 
  143.3750    76.1120    17.7350    16.1810    19.1830    23.7410     2.3600   -13.3110 
  143.5000    73.9780    18.7910    16.7190    20.6000    23.7330     2.3640   -13.3170 
  143.6250    72.6220    21.1020    18.3480    21.8950    23.7460     2.3570   -13.3410 
  143.7500    71.3770    24.5840    21.0700    24.6140    23.7770     2.3410   -13.3870 
  143.8750    68.7730    29.1480    24.9170    30.2400    23.8110     2.3210   -13.4300 
  144.0000    65.7350    34.4790    29.7300    38.5070    23.8300     2.3010   -13.4530 
  144.1250    62.8830    39.9680    35.0920    47.8230    23.8340     2.2820   -13.4890 
  144.2500    60.9090    44.8660    40.1770    54.5800    23.8330     2.2650   -13.5310 
  144.3750    60.6130    48.6970    44.3520    57.8380    23.8300     2.2500   -13.5580 
  144.5000    61.4580    51.3050    47.2740    59.6060    23.8230     2.2400   -13.6070 
  144.6250    61.1890    52.6810    48.8270    61.1450    23.8100     2.2370   -13.6720 
  144.7500    59.2680    53.2400    49.4990    62.8360    23.7890     2.2400   -13.7280 
  144.8750    57.6470    53.1010    49.4940    63.3480    23.7630     2.2440   -13.7950 
  145.0000    57.4220    52.3740    48.9560    63.2270    23.7350     2.2480   -13.8830 
  145.1250    58.2340    51.3070    48.0920    62.1750    23.7000     2.2570   -13.9650 
  145.2500    59.5730    50.4220    47.3470    58.4950    23.6550     2.2750   -14.0490 
  145.3750    61.3540    50.0990    47.0640    52.8770    23.6050     2.3040   -14.1380 
  145.5000    63.2030    50.4460    47.4050    50.2950    23.5660     2.3370   -14.2220 
  145.6250    63.2260    51.2400    48.2690    52.1660    23.5380     2.3540   -14.3000 
  145.7500    60.9810    51.8110    49.0920    56.1060    23.5360     2.3470   -14.3590 
  145.8750    57.5640    51.7350    49.3400    60.3210    23.5630     2.3170   -14.3960 
  146.0000    55.9480    50.6740    48.6080    61.9930    23.5850     2.2770   -14.4390 
  146.1250    57.5480    48.9170    46.6670    57.3080    23.5610     2.2440   -14.4870 
  146.2500    59.7920    46.8640    44.0700    52.0850    23.4770     2.2240   -14.5280 
  146.3750    61.5150    44.8830    41.3730    46.7670    23.3640     2.2180   -14.5960 
  146.5000    63.2790    43.2970    39.1180    41.6460    23.2540     2.2230   -14.6730 
  146.6250    63.0960    42.1010    37.8950    38.8450    23.1640     2.2400   -14.7590 
  146.7500    60.1880    42.3120    37.8100    38.1750    23.1230     2.2660   -14.8870 
  146.8750    56.5260    43.9730    38.9430    39.1820    23.1680     2.3020   -15.0350 
  147.0000    55.0670    46.8810    41.2040    42.3330    23.2940     2.3430   -15.1680 
  147.1250    55.3580    50.5050    44.2740    47.8230    23.4480     2.3730   -15.3020 
  147.2500    54.3890    53.8070    47.2980    53.8480    23.5650     2.3790   -15.4400 
  147.3750    53.1850    55.9660    49.5370    59.5490    23.6500     2.3580   -15.5530 
  147.5000    54.4950    56.4840    50.4540    64.4370    23.7210     2.3180   -15.6590 
  147.6250    57.9070    55.2330    49.7750    63.9910    23.7860     2.2770   -15.7600 
  147.7500    59.9090    53.2110    48.2740    57.6960    23.8260     2.2490   -15.8270 
  147.8750    59.8740    51.2530    46.6670    51.8300    23.8250     2.2370   -15.8990 
  148.0000    59.2010    50.0250    45.5680    49.4850    23.7850     2.2430   -15.9800 
  148.1250    58.5210    50.0500    45.4950    49.6390    23.7100     2.2650   -16.0650 
  148.2500    58.0390    51.0340    46.2920    50.6990    23.6200     2.2940   -16.1650 
  148.3750    59.1230    52.5280    47.6430    52.2420    23.5420     2.3230   -16.2820 
  148.5000    60.7560    53.9050    49.0470    54.6950    23.4940     2.3440   -16.4120 
  148.6250    60.3100    54.3500    49.8050    57.4580    23.5100     2.3510   -16.5630 
  148.7500    57.8880    53.6420    49.6160    59.2360    23.5680     2.3440   -16.7320 
  148.8750    56.0370    51.9200    48.5000    56.6170    23.6380     2.3290   -16.9070 
  149.0000    57.1070    49.6710    46.8000    50.7820    23.6920     2.3090   -17.0940 
  149.1250    59.9130    47.6080    45.0840    47.3240    23.7280     2.2900   -17.2810 
  149.2500    61.4470    46.1920    43.8090    46.3330    23.7450     2.2770   -17.4540 
  149.3750    61.5280    45.5080    43.1070    47.0610    23.7490     2.2700   -17.6430 
  149.5000    61.4360    45.3380    42.8570    48.4490    23.7490     2.2690   -17.8250 
  149.6250    61.1700    45.2580    42.7510    49.5630    23.7450     2.2690   -18.0150 
  149.7500    60.4820    44.8830    42.4430    50.3900    23.7320     2.2670   -18.2280 
  149.8750    61.0040    44.0490    41.7990    50.1800    23.7060     2.2650   -18.4420 
  150.0000    62.0460    42.9000    40.8880    48.3880    23.6720     2.2640   -18.6660 
  150.1250    60.8240    41.8920    40.0030    46.1660    23.6380     2.2670   -18.9380 
  150.2500    58.0370    41.5290    39.5060    44.9110    23.6220     2.2730   -19.2400 
  150.3750    56.4350    42.1150    39.6470    45.1610    23.6180     2.2800   -19.5510 
  150.5000    56.6430    43.8780    40.5390    47.1300    23.6180     2.2850   -19.9100 
  150.6250    57.3230    46.5290    42.2080    50.5160    23.6170     2.2830   -20.3020 
  150.7500    57.2410    49.2690    44.2580    54.4520    23.6130     2.2720   -20.7000 
  150.8750    56.5550    51.3270    46.3330    58.2160    23.6030     2.2540   -21.1250 
  151.0000    56.1580    52.9520    48.0770    61.1610    23.5860     2.2370   -21.5500 
  151.1250    56.7950    53.7790    49.1210    62.1670    23.5660     2.2290   -21.9460 
