~V
VERS. 2.00: Ver 2.00
~W
STRT.M 64.0000:
STOP.M 287.0000:
STEP.M 0.1250:
NULL. -999.2500:
UWI. F10052:
~C
DEPT.M :
SP.MV :
DEN.GM/CC :
GR.API :
RML.OHMM :
RI. :
RXO.OHMM :
CALI.CM :
~A
# ...
  131.5000   -19.9700     2.2510    97.4840     5.6990     4.8890     5.2290    23.5430 
  131.6250   -20.0260     2.2330    97.5070     5.4360     4.7370     5.0330    23.6780 
  131.7500   -20.1040     2.2200    97.2660     5.1270     4.5240     4.9110    23.7760 
  131.8750   -20.1410     2.2210    99.1780     4.8250     4.2830     4.7760    23.8260 
  132.0000   -20.1480     2.2320   104.0820     4.5840     4.0590     4.6840    23.8520 
  132.1250   -20.1640     2.2450   108.7380     4.5070     3.9360     4.6900    23.8980 
  132.2500   -20.2120     2.2630   110.0460     4.6620     3.9830     4.8420    23.9770 
  132.3750   -20.2590     2.3020   108.4980     5.1010     4.2540     5.2260    24.0990 
  132.5000   -20.2820     2.3700   107.4050     5.8170     4.7550     6.0050    24.2700 
  132.6250   -20.3120     2.4440   107.2110     6.6920     5.4270     7.7690    24.5040 
  132.7500   -20.3680     2.4770   101.1510     7.3850     6.0300    10.4180    24.7790 
  132.8750   -20.4710     2.4500    88.6020     7.5710     6.3220    11.4280    25.0540 
  133.0000   -20.5940     2.3760    79.0240     7.1780     6.1820     8.4470    25.2820 
  133.1250   -20.7350     2.2940    79.9530     6.5230     5.7170     6.2910    25.4170 
  133.2500   -20.8720     2.2350    81.8860     6.0230     5.2510     5.5340    25.4730 
  133.3750   -20.9920     2.2090    79.6300     5.7810     4.9440     5.5120    25.4680 
  133.5000   -21.0830     2.2120    77.1330     5.7430     4.8400     5.6030    25.4220 
  133.6250   -21.1510     2.2350    79.7920     5.7490     4.9100     5.6230    25.3440 
  133.7500   -21.1940     2.2610    82.7980     5.6510     5.0370     5.6260    25.2360 
  133.8750   -21.2320     2.2780    83.9370     5.4590     5.1540     5.6720    25.0910 
  134.0000   -21.2850     2.2820    83.6030     5.3020     5.2330     5.8730    24.9020 
  134.1250   -21.3150     2.2710    84.0600     5.3310     5.2630     5.8870    24.6840 
  134.2500   -21.3220     2.2560    85.0460     5.5090     5.2540     5.7750    24.4820 
  134.3750   -21.3350     2.2430    86.1570     5.7290     5.2090     5.5310    24.3270 
  134.5000   -21.3780     2.2350    87.1890     5.8580     5.1360     5.4090    24.2210 
  134.6250   -21.4540     2.2340    87.8230     5.7840     5.0480     5.5000    24.1440 
  134.7500   -21.5430     2.2370    89.8090     5.5960     4.9650     5.5920    24.0750 
  134.8750   -21.6040     2.2430    92.3320     5.4110     4.9040     5.5720    24.0030 
  135.0000   -21.6220     2.2470    94.1580     5.3190     4.8730     5.4630    23.9210 
  135.1250   -21.6380     2.2460    94.4100     5.3950     4.8780     5.3890    23.8200 
  135.2500   -21.6720     2.2410    94.6450     5.5940     4.9110     5.4940    23.7150 
  135.3750   -21.7100     2.2330    94.4560     5.8280     4.9560     5.5560    23.6280 
  135.5000   -21.7450     2.2280    90.9190     5.9830     4.9830     5.4650    23.5760 
  135.6250   -21.7730     2.2280    87.5130     5.9540     4.9390     5.2380    23.5610 
  135.7500   -21.8130     2.2290    88.2540     5.7600     4.8080     5.0830    23.5570 
  135.8750   -21.8660     2.2340    91.3920     5.4630     4.6050     4.9510    23.5480 
  136.0000   -21.9470     2.2470    92.9920     5.1620     4.3810     4.6740    23.5280 
  136.1250   -22.0570     2.2690    95.2180     4.9750     4.2180     4.4920    23.4830 
  136.2500   -22.1760     2.2890   100.4180     4.9430     4.1570     4.4140    23.4060 
  136.3750   -22.3140     2.2960   104.4220     5.0740     4.2150     4.6280    23.2850 
  136.5000   -22.4480     2.2870   100.8520     5.3350     4.3780     5.1800    23.1110 
  136.6250   -22.5570     2.2640    90.0870     5.6520     4.6120     5.6440    22.8760 
  136.7500   -22.6170     2.2400    82.7860     5.9290     4.8560     5.8050    22.6020 
  136.8750   -22.6530     2.2180    80.8330     6.1140     5.0740     5.9710    22.3110 
  137.0000   -22.6810     2.1970    78.8160     6.2010     5.2470     6.2290    22.0400 
  137.1250   -22.7250     2.1780    75.3690     6.2310     5.3690     6.4650    21.8460 
  137.2500   -22.7760     2.1640    76.2620     6.2890     5.4630     6.6890    21.7500 
  137.3750   -22.7900     2.1560    79.1180     6.4210     5.5480     6.8430    21.7650 
  137.5000   -22.7550     2.1490    77.0550     6.6320     5.6400     6.9070    21.9000 
  137.6250   -22.7180     2.1430    71.9470     6.8900     5.7470     6.9250    22.1900 
  137.7500   -22.7190     2.1370    70.1960     7.1190     5.8470     6.9890    22.6190 
  137.8750   -22.7370     2.1340    71.2880     7.2390     5.8970     7.0060    23.1640 
  138.0000   -22.7250     2.1370    71.9410     7.1820     5.8470     7.0160    23.7560 
  138.1250   -22.6460     2.1510    72.9680     6.8940     5.6390     6.8570    24.2630 
  138.2500   -22.5420     2.1750    75.0640     6.4740     5.3180     6.4830    24.6010 
  138.3750   -22.4570     2.2040    77.6690     6.0270     4.9440     5.9270    24.7620 
  138.5000   -22.4080     2.2300    79.7240     5.6670     4.5990     5.3080    24.8070 
  138.6250   -22.3640     2.2480    84.5030     5.5030     4.3770     5.0130    24.8080 
  138.7500   -22.3170     2.2570    90.7110     5.5130     4.2920     5.0260    24.8090 
  138.8750   -22.2930     2.2570    94.1260     5.6490     4.3370     4.9710    24.8140 
  139.0000   -22.3230     2.2490    91.2360     5.8320     4.4740     5.0770    24.8190 
  139.1250   -22.4060     2.2330    85.2960     5.9340     4.6450     5.3990    24.8240 
  139.2500   -22.5040     2.2180    82.6020     5.8670     4.7760     5.6950    24.8280 
  139.3750   -22.6060     2.2100    82.7200     5.6280     4.8250     5.6260    24.8260 
  139.5000   -22.6960     2.2120    84.2210     5.3170     4.7770     5.3520    24.8180 
  139.6250   -22.7740     2.2230    88.6590     5.0900     4.6350     5.0410    24.8080 
  139.7500   -22.8370     2.2380    94.2140     5.0010     4.4560     4.8930    24.8040 
  139.8750   -22.8770     2.2530    96.7200     5.0160     4.2890     4.7880    24.8050 
  140.0000   -22.9050     2.2690    94.8790     5.0460     4.1840     4.7970    24.8080 
  140.1250   -22.9520     2.2790    90.6270     5.0460     4.1950     4.9370    24.8110 
  140.2500   -23.0270     2.2810    87.2290     5.1050     4.3130     5.1970    24.8150 
  140.3750   -23.1110     2.2720    83.5240     5.3250     4.5260     5.4790    24.8200 
  140.5000   -23.2230     2.2540    78.5000     5.7360     4.8070     5.7860    24.8240 
  140.6250   -23.3190     2.2290    75.0450     6.2420     5.1110     6.1930    24.8270 
  140.7500   -23.4000     2.2060    74.1440     6.6570     5.3640     6.5790    24.8320 
  140.8750   -23.5040     2.1950    72.5350     6.8750     5.5030     6.8830    24.8420 
  141.0000   -23.5830     2.2030    68.4990     6.8680     5.4850     7.0160    24.8550 
  141.1250   -23.6020     2.2300    69.3610     6.6420     5.3040     6.6900    24.8660 
  141.2500   -23.5810     2.2590    75.2220     6.2710     5.0620     6.0310    24.8750 
  141.3750   -23.5410     2.2760    78.1890     5.8170     4.8380     5.4690    24.8810 
  141.5000   -23.4990     2.2750    75.7580     5.3920     4.6780     5.1860    24.8870 
  141.6250   -23.4970     2.2650    72.9460     5.1470     4.6080     5.1760    24.8970 
  141.7500   -23.5420     2.2590    72.9260     5.1080     4.6020     5.2040    24.9160 
  141.8750   -23.5820     2.2590    74.7970     5.2370     4.6420     5.1830    24.9460 
  142.0000   -23.6460     2.2590    78.8390     5.4500     4.7120     5.0590    24.9880 
  142.1250   -23.7510     2.2490    82.9830     5.6500     4.7990     5.2440    25.0330 
  142.2500   -23.8750     2.2360    81.9350     5.7660     4.8640     5.5970    25.0670 
  142.3750   -24.0080     2.2290    76.9350     5.7370     4.8550     5.7370    25.0780 
  142.5000   -24.1410     2.2350    73.9490     5.5000     4.7240     5.4710    25.0590 
  142.6250   -24.2680     2.2570    78.0190     4.9820     4.4220     4.9120    24.9950 
