~V
VERS. 2.00: Ver 2.00
~W
STRT.M 56.0000:
STOP.M 269.0000:
STEP.M 0.1250:
NULL. -999.2500:
UWI. F10026:
~C
DEPT.M :
GR.API :
RML.OHMM :
RI. :
RXO.OHMM :
CALI.CM :
DEN.GM/CC :
SP.MV :
~A
# ...
   67.2500    66.1330     7.7540     6.5820     8.2850    23.8380     2.1320   -32.4010 
   67.3750    70.6560     7.7770     6.6090     8.3190    23.9940     2.1070   -32.3480 
   67.5000    74.1350     7.9210     6.6620     8.4370    24.0380     2.1000   -32.3010 
   67.6250    73.5130     8.1900     6.7560     9.2790    24.0770     2.1140   -32.2560 
   67.7500    70.9400     8.4970     6.8750    10.0980    24.0350     2.1340   -32.2160 
   67.8750    68.4290     8.7480     6.9920    10.2670    23.9520     2.1470   -32.2090 
   68.0000    67.0600     8.8660     7.0710    10.1360    23.8970     2.1470   -32.2660 
   68.1250    67.7720     8.7930     7.0770     9.9630    23.8950     2.1390   -32.4150 
   68.2500    70.7610     8.6050     7.0300     9.5270    23.9010     2.1340   -32.6290 
   68.3750    73.0260     8.3870     6.9570     8.9790    23.8880     2.1400   -32.8800 
   68.5000    71.5430     8.2230     6.8850     8.6060    23.8380     2.1530   -33.1400 
   68.6250    67.5780     8.1810     6.8330     8.2840    23.7380     2.1630   -33.3980 
   68.7500    62.7540     8.2360     6.7950     8.0180    23.6870     2.1630   -33.6340 
   68.8750    58.7470     8.3430     6.7680     7.8900    23.7230     2.1560   -33.8120 
   69.0000    58.4720     8.4460     6.7450     7.8340    23.8270     2.1490   -33.9100 
   69.1250    61.1740     8.4890     6.7270     7.7170    23.9090     2.1490   -33.8840 
   69.2500    63.7620     8.4640     6.7150     7.7660    23.9600     2.1510   -33.7550 
   69.3750    65.3840     8.3850     6.7130     7.8570    23.9950     2.1480   -33.5240 
   69.5000    65.7100     8.2860     6.7250     7.8160    24.0020     2.1330   -33.2210 
   69.6250    64.4490     8.2240     6.7600     7.7910    23.8950     2.1120   -32.8610 
   69.7500    63.6150     8.2300     6.8080     7.7020    23.7430     2.0990   -32.4620 
   69.8750    65.9260     8.3070     6.8550     7.5910    23.6990     2.1050   -32.0710 
   70.0000    68.8600     8.4300     6.8790     7.6620    23.9810     2.1300   -31.7080 
   70.1250    69.3340     8.5570     6.8610     7.6960    23.9030     2.1650   -31.3990 
   70.2500    68.2400     8.6630     6.8270     7.6710    23.6030     2.1950   -31.1440 
   70.3750    66.2090     8.7530     6.8150     7.7420    23.3460     2.2130   -30.9400 
   70.5000    65.1040     8.8400     6.8600     7.7840    23.2480     2.2200   -30.7700 
   70.6250    64.3630     8.9280     6.9820     8.0340    23.3180     2.2180   -30.6140 
   70.7500    63.0890     8.9970     7.1350     8.6540    23.4450     2.2130   -30.4680 
   70.8750    62.3780     9.0180     7.2640     9.4930    23.5350     2.2050   -30.2760 
   71.0000    64.5290     8.9680     7.3230     9.3980    23.5750     2.1950   -30.0080 
   71.1250    70.2550     8.8450     7.2830     8.4590    23.5930     2.1860   -29.6130 
   71.2500    74.1190     8.7050     7.2000     8.2500    23.5870     2.1810   -29.0930 
   71.3750    74.2030     8.5950     7.1350     8.3280    23.5850     2.1790   -28.4450 
   71.5000    71.9160     8.5400     7.1320     8.1010    23.5950     2.1810   -27.6830 
   71.6250    70.5810     8.5110     7.1930     7.8380    23.5810     2.1860   -26.7970 
   71.7500    71.7080     8.4140     7.2330     7.9490    23.5740     2.1950   -25.8350 
   71.8750    76.3010     8.1620     7.1610     8.3690    23.5790     2.2100   -24.8680 
   72.0000    88.2450     7.7200     6.9140     8.7720    23.6010     2.2310   -23.9550 
   72.1250   106.6810     7.1160     6.4730     7.9670    23.6520     2.2550   -23.1790 
   72.2500   119.7400     6.4970     5.9430     6.3650    23.7290     2.2750   -22.5520 
   72.3750   121.1670     5.9750     5.4210     5.2650    23.7940     2.2900   -22.0850 
   72.5000   115.5070     5.6190     4.9930     4.8370    23.7970     2.3000   -21.7770 
   72.6250   112.5380     5.4730     4.7370     4.7260    23.7250     2.3090   -21.6850 
   72.7500   113.0280     5.4630     4.6240     4.6560    23.6320     2.3200   -21.7480 
   72.8750   112.7140     5.5220     4.6060     4.7030    23.5810     2.3370   -21.9250 
   73.0000   111.4860     5.5660     4.6120     4.7820    23.5500     2.3580   -22.1880 
   73.1250   112.7250     5.4920     4.5530     4.7460    23.4860     2.3790   -22.5080 
   73.2500   116.9410     5.2780     4.4050     4.7890    23.3870     2.3940   -22.8750 
   73.3750   120.8330     4.9770     4.2040     4.7820    23.3100     2.4010   -23.2870 
   73.5000   121.0520     4.7400     4.0510     4.7740    23.2470     2.4040   -23.7450 
   73.6250   117.5210     4.8680     4.1370     4.8540    23.2250     2.4130   -24.2300 
   73.7500   108.2870     5.5290     4.5840     5.0470    23.2330     2.4350   -24.7430 
   73.8750    93.9670     6.7990     5.4730     6.1110    23.2500     2.4630   -25.2560 
   74.0000    79.3280     8.5450     6.7780     9.7920    23.2350     2.4800   -25.7360 
   74.1250    69.3370    10.2590     8.2330    18.7690    23.1900     2.4600   -26.1370 
   74.2500    65.1750    11.2620     9.3010    19.5620    23.1570     2.4030   -26.4260 
   74.3750    65.2190    11.2170     9.6200    12.6850    23.1940     2.3240   -26.5910 
   74.5000    68.2010    10.3050     9.2040     8.4980    23.2530     2.2490   -26.6220 
   74.6250    70.4880     9.1200     8.4040     7.3590    23.2500     2.2000   -26.5020 
   74.7500    71.1430     8.2290     7.6810     7.1540    23.2410     2.1780   -26.2560 
   74.8750    70.7300     7.7520     7.1720     7.1050    23.2760     2.1770   -25.9190 
   75.0000    70.5920     7.5570     6.8360     6.8360    23.3120     2.1870   -25.5240 
   75.1250    73.3630     7.3960     6.5430     6.5270    23.3510     2.2030   -25.1310 
   75.2500    79.4240     7.0870     6.1800     6.3830    23.4190     2.2210   -24.8110 
   75.3750    85.7180     6.6180     5.7410     6.2280    23.5310     2.2400   -24.6050 
   75.5000    89.0840     6.0980     5.2900     5.8450    23.7000     2.2560   -24.5430 
   75.6250    90.1720     5.7560     4.9760     5.4310    23.8720     2.2720   -24.6620 
   75.7500    89.7690     5.7770     4.9200     5.3430    23.9300     2.3000   -24.9430 
   75.8750    85.5190     6.2970     5.2240     5.6700    23.8880     2.3500   -25.3660 
   76.0000    76.7370     7.3890     5.9600     6.9630    23.7930     2.4150   -25.9110 
   76.1250    67.5620     9.0870     7.2040    10.9790    23.6620     2.4710   -26.5510 
   76.2500    63.4760    11.0380     8.7360    16.7840    23.5930     2.4870   -27.2210 
   76.3750    65.0540    12.8390    10.2630    17.4400    23.5680     2.4540   -27.8960 
   76.5000    69.2890    14.0690    11.4330    13.1150    23.5350     2.3810   -28.5550 
   76.6250    72.0670    14.3440    11.8740    11.1370    23.4380     2.2970   -29.1810 
   76.7500    71.7130    13.8970    11.7040    10.7940    23.3730     2.2280   -29.7580 
   76.8750    70.4110    13.0080    11.1280    10.8080    23.3820     2.1830   -30.2890 
   77.0000    71.0410    11.9650    10.3750    10.7840    23.4240     2.1660   -30.7780 
   77.1250    72.2940    10.9980     9.6310    10.5770    23.4610     2.1740   -31.2040 
   77.2500    72.0040    10.2240     8.9960    10.3430    23.4660     2.1970   -31.5720 
   77.3750    68.6630     9.7170     8.5220    10.2800    23.5350     2.2200   -31.8760 
   77.5000    63.9650     9.5260     8.2530    10.4860    23.7480     2.2320   -32.1090 
   77.6250    62.9200     9.7020     8.2470    10.6280    24.0290     2.2300   -32.2550 
   77.7500    66.3260    10.1030     8.4380    10.5900    24.0690     2.2260   -32.3630 
   77.8750    71.5390    10.5730     8.7430    10.6380    23.8660     2.2320   -32.4350 
   78.0000    74.0220    10.9200     9.0360    11.3530    23.6130     2.2490   -32.4580 
   78.1250    72.6070    10.9140     9.1350    12.6080    23.4880     2.2640   -32.4360 
   78.2500    70.2950    10.5620     8.9830    12.8380    23.6250     2.2630   -32.3700 
   78.3750    68.6910     9.9780     8.6130    11.5370    23.9550     2.2450   -32.2690 
