~V
VERS. 2.00: Ver 2.00
~W
STRT.M 62.0000:
STOP.M 254.0000:
STEP.M 0.1250:
NULL. -999.2500:
UWI. F10030:
~C
DEPT.M :
DEN.GM/CC :
GR.API :
RML.OHMM :
RI. :
RXO.OHMM :
CALI.CM :
SP.MV :
~A
# ...
  242.0000     2.3740    44.8040     7.7650     6.5000     7.7220    24.1130   -17.8650 
  242.1250     2.3760    44.8040     7.8110     6.5380     7.9800    24.1340   -17.7960 
  242.2500     2.3800    44.8040     7.8240     6.5450     8.0910    24.1320   -17.7250 
  242.3750     2.3880    44.8040     7.8170     6.5390     7.9950    24.1410   -17.6250 
  242.5000     2.4020    44.8040     7.8170     6.5450     7.9620    24.1870   -17.4740 
  242.6250     2.4170    44.8040     7.8490     6.5810     8.0400    24.2840   -17.2820 
  242.7500     2.4300    44.8040     7.9090     6.6450     8.2540    24.3960   -17.1290 
  242.8750     2.4380    44.8040     7.9800     6.7310     8.5730    24.4390   -17.0090 
  243.0000     2.4390    44.8040     8.0470     6.8290     9.0380    24.3690   -16.8880 
  243.1250     2.4370    44.8040     8.1130     6.9360     9.1290    24.2530   -16.7300 
  243.2500     2.4380    44.8040     8.2020     7.0540     8.9230    24.2080   -16.5560 
  243.3750     2.4460    44.8040     8.3290     7.1840     8.7110    24.3170   -16.4180 
  243.5000     2.4580    44.8040     8.4720     7.3140     8.8030    24.6700   -16.3090 
  243.6250     2.4690    44.8040     8.5500     7.3940     9.0900    25.0650   -16.2200 
  243.7500     2.4710    44.8040     8.4830     7.3750     9.2780    25.2230   -16.1010 
  243.8750     2.4610    44.8040     8.2370     7.2270     8.9980    25.0370   -15.9680 
  244.0000     2.4400    44.8040     7.8490     6.9760     8.0920    24.6560   -15.8690 
  244.1250     2.4140    44.8040     7.4280     6.6890     7.3810    24.5220   -15.8280 
  244.2500     2.3940    44.8040     7.0940     6.4430     6.9100    24.5040   -15.7960 
  244.3750     2.3850    44.8040     6.9030     6.2580     6.7320    24.4580   -15.7360 
  244.5000     2.3880    44.8040     6.8580     6.1300     6.6860    24.3470   -15.6980 
  244.6250     2.3970    44.8040     6.9380     6.0530     6.8000    24.2730   -15.6840 
  244.7500     2.4050    44.8040     7.0800     6.0370     6.9580    24.2770   -15.6860 
  244.8750     2.4060    44.8040     7.2570     6.1070     7.0440    24.3080   -15.7100 
  245.0000     2.4020    44.8040     7.4480     6.2760     7.0570    24.3290   -15.7410 
  245.1250     2.4000    44.8040     7.6330     6.5220     7.1330    24.3840   -15.7810 
  245.2500     2.4030    44.8040     7.7860     6.7620     7.4570    24.5250   -15.8720 
  245.3750     2.4090    44.8040     7.8930     6.9340     8.0320    24.7160   -16.0050 
  245.5000     2.4130    44.8040     7.9490     7.0090     8.5650    24.8320   -16.1560 
  245.6250     2.4120    44.8040     7.9650     6.9980     8.5490    24.8400   -16.3130 
  245.7500     2.4070    44.8040     7.9670     6.9640     8.1770    24.7590   -16.4890 
  245.8750     2.4020    44.8040     7.9670     6.9420     8.0080    24.7490   -16.6550 
  246.0000     2.4010    44.8040     7.9690     6.9480     8.2470    24.7980   -16.8090 
  246.1250     2.4040    44.8040     7.9710     6.9720     8.7010    24.7260   -16.9810 
  246.2500     2.4070    44.8040     7.9700     6.9910     8.8920    24.5150   -17.1290 
  246.3750     2.4080    44.8040     7.9660     6.9900     8.7590    24.3670   -17.2270 
  246.5000     2.4050    44.8040     7.9610     6.9790     8.1710    24.4390   -17.2420 
  246.6250     2.4000    44.8040     7.9590     6.9750     7.7390    24.7080   -17.2240 
  246.7500     2.3950    44.8040     7.9580     6.9830     7.3670    25.0250   -17.1970 
  246.8750     2.3920    44.8040     7.9570     6.9970     6.9790    25.2800   -17.1600 
  247.0000     2.3910    44.8040     7.9500     7.0080     6.8340    25.3210   -17.0710 
  247.1250     2.3890    44.8040     7.9400     7.0160     6.9330    24.8820   -16.9600 
  247.2500     2.3850    44.8040     7.9280     7.0240     7.0830    24.4190   -16.8580 
  247.3750     2.3770    44.8040     7.9170     7.0310     7.1540    24.0260   -16.7560 
  247.5000     2.3670    44.8040     7.9100     7.0280     7.2060    23.6610   -16.7050 
  247.6250     2.3590    44.8040     7.9060     6.9970     7.4940    23.2960   -16.6670 
  247.7500     2.3540    44.8040     7.9040     6.9530     7.8700    22.9050   -16.6320 
  247.8750     2.3510    44.8040     7.9050     6.9140     8.2990    22.4630   -16.6060 
  248.0000     2.3500    44.8040     7.9050     6.8940     8.5280    21.9080   -16.6080 
  248.1250     2.3480    44.8040     7.9050     6.8890     8.6370    21.1000   -16.5880 
  248.2500     2.3450    44.8040     7.9040     6.8890     8.7220    20.0400   -16.5620 
  248.3750     2.3400    44.8040     7.9040     6.8890     8.8130    18.8110   -16.5730 
  248.5000     2.3330    44.8040     7.9040     6.8890     8.6770    17.5790   -16.5890 
  248.6250     2.3220    44.8040     7.9040     6.8890     8.3720    16.5840   -16.5890 
  248.7500     2.3100    44.8040     7.9040     6.8890     7.9010    15.8960   -16.5860 
  248.8750     2.2990    44.8040     7.9040     6.8890     7.6510    15.4820   -16.5880 
  249.0000     2.2920    44.8040     7.9040     6.8890     7.5510    15.2570   -16.6020 
  249.1250     2.2920    44.8040     7.9040     6.8890     7.5760    15.1380   -16.6080 
  249.2500     2.2960    44.8040     7.9040     6.8890     7.6290    15.0670   -16.5830 
  249.3750     2.3000    44.8040     7.9040     6.8890     7.7090    15.0480   -16.5590 
  249.5000     2.3020    44.8040     7.9040     6.8890     7.6870    15.1000   -16.5300 
  249.6250     2.3000    44.8040     7.9040     6.8890     7.8940    15.2210   -16.5220 
  249.7500     2.2960    44.8040     7.9040     6.8890     7.9320    15.3350   -16.5310 
  249.8750     2.2930    44.8040     7.9040     6.8890     7.8700    15.3520   -16.5190 
  250.0000     2.2920    44.8040     7.9040     6.8890     7.5890    15.2440   -16.5110 
  250.1250     2.2950    44.8040     7.9040     6.8890     7.2210    15.0800   -16.5160 
  250.2500     2.2980    44.8040     7.9040     6.8890     7.0710    14.9690   -16.5570 
  250.3750     2.3010    44.8040     7.9040     6.8890     7.0370    14.9220   -16.5740 
  250.5000     2.3020    44.8040     7.9040     6.8890     7.0350    14.9090   -16.5950 
  250.6250     2.3010    44.8040     7.9040     6.8890     7.0360    14.9070   -16.5950 
  250.7500     2.3000    44.8040     7.9040     6.8890     7.0360    14.9040   -16.5970 
  250.8750     2.3000    44.8040     7.9040     6.8890     7.0350    14.9010   -16.6200 
  251.0000     2.3000    44.8040     7.9040     6.8890     7.0320    14.8970   -16.6200 
  251.1250     2.3000    44.8040     7.9040     6.8890     7.0300    14.8930   -16.6200 
  251.2500     2.2990    44.8040     7.9040     6.8890     7.0310    14.8870  -999.2500 
  251.3750     2.2980    44.8040     7.9040     6.8890     7.0330    14.8790  -999.2500 
  251.5000     2.2980    44.8040     7.9040     6.8890     7.0310    14.8690  -999.2500 
  251.6250     2.2980    44.8040     7.9040     6.8890     7.0240    14.8620  -999.2500 
  251.7500     2.3000    44.8040     7.9040     6.8890     7.0180    14.8580  -999.2500 
  251.8750     2.3020    44.8040     7.9040     6.8890     7.0140    14.8570  -999.2500 
  252.0000     2.3040    44.8040     7.9040     6.8890     7.0080    14.8560  -999.2500 
  252.1250     2.3070    44.8040     7.9040     6.8890     7.0030    14.8560  -999.2500 
  252.2500     2.3090    44.8040     7.9040     6.8890     7.0040    14.8550  -999.2500 
  252.3750     2.3110    44.8040     7.9040     6.8890     7.0170    14.8510  -999.2500 
  252.5000     2.3140    44.8040     7.9040     6.8890     7.0400    14.8460  -999.2500 
  252.6250     2.3160    44.8040     7.9040     6.8890     7.0530    14.8420  -999.2500 
  252.7500     2.3170    44.8040     7.9040     6.8890     7.0610    14.8410  -999.2500 
  252.8750     2.3180    44.8040     7.9040     6.8890     7.0650    14.8410  -999.2500 
  253.0000     2.3160  -999.2500  -999.2500  -999.2500  -999.2500  -999.2500  -999.2500 
  253.1250     2.3110  -999.2500  -999.2500  -999.2500  -999.2500  -999.2500  -999.2500 
