~V
VERS. 2.00: Ver 2.00
~W
STRT.M 57.0000:
STOP.M 257.0000:
STEP.M 0.1250:
NULL. -999.2500:
UWI. F10004:
~C
DEPT.M :
GR.API :
RML.OHMM :
RI. :
RXO.OHMM :
CALI.CM :
DEN.GM/CC :
SP.MV :
~A
# ...
  225.7500    70.8470    79.3470    78.2020    66.7290    24.2000     2.6510   -14.5410 
  225.8750    68.9890    76.3290    75.0710    68.0030    24.1330     2.6370   -14.3450 
  226.0000    69.2320    74.5730    73.3200    72.5370    24.0150     2.6300   -14.2070 
  226.1250    69.4720    73.9610    72.7800    80.1100    23.8150     2.6400   -14.0990 
  226.2500    70.1310    74.1870    72.9980    76.9970    23.6780     2.6590   -13.9910 
  226.3750    70.6320    75.0110    73.6340    70.6600    23.5410     2.6740   -13.8880 
  226.5000    68.7280    75.5220    73.8110    69.1910    23.3190     2.6750   -13.7880 
  226.6250    67.6850    72.9950    71.0310    65.9780    23.2400     2.6560   -13.6920 
  226.7500    69.1510    65.3990    63.6170    63.0780    23.2950     2.6230   -13.6240 
  226.8750    68.4540    52.5030    51.7360    58.0720    23.4220     2.5780   -13.6020 
  227.0000    64.0510    36.6960    37.9740    38.1760    23.5110     2.5170   -13.6430 
  227.1250    62.2580    24.0970    26.1530    18.9710    23.5640     2.4410   -13.7250 
  227.2500    65.0940    16.7220    17.6880     9.4220    23.7790     2.3670   -13.8400 
  227.3750    68.0810    13.5420    12.3420     6.9750    23.9670     2.3140   -13.9730 
  227.5000    69.0760    10.9450     9.2870     6.9110    24.0110     2.2950   -14.0970 
  227.6250    68.6880     8.9650     7.8730     6.7650    23.9020     2.3100   -14.1860 
  227.7500    66.2700     7.7800     7.2450     6.1280    23.7750     2.3350   -14.2200 
  227.8750    60.4910     7.3950     7.0240     5.5820    23.7160     2.3570   -14.1770 
  228.0000    51.6070     7.2720     6.9320     5.4050    23.7270     2.3710   -14.0320 
  228.1250    42.1520     7.2160     6.8040     5.4360    23.7790     2.3840   -13.8050 
  228.2500    34.9010     7.1550     6.6330     5.5090    23.8320     2.4020   -13.5080 
  228.3750    31.2700     7.0790     6.4640     5.6070    23.9190     2.4210   -13.1610 
  228.5000    30.9050     7.0030     6.3320     5.7030    24.0410     2.4320   -12.8080 
  228.6250    31.6490     6.9380     6.2440     5.8080    24.1860     2.4310   -12.4850 
  228.7500    31.3010     6.8650     6.1670     5.7710    24.3240     2.4220   -12.1980 
  228.8750    30.4240     6.7490     6.0800     5.5960    24.3990     2.4140   -11.9760 
  229.0000    30.1670     6.6200     5.9730     5.4310    24.4070     2.4130   -11.8580 
  229.1250    31.0620     6.5050     5.8510     5.3690    24.3700     2.4210   -11.8290 
  229.2500    32.3680     6.3890     5.7320     5.3120    24.3290     2.4300   -11.8650 
  229.3750    33.1930     6.2560     5.6260     5.3060    24.2930     2.4370   -11.9510 
  229.5000    33.3700     6.1140     5.5400     5.4330    24.2730     2.4410   -12.0610 
  229.6250    33.0440     5.9960     5.4780     5.5410    24.2650     2.4470   -12.2140 
  229.7500    32.8720     5.9270     5.4340     5.5280    24.2470     2.4590   -12.4160 
  229.8750    32.9580     5.8830     5.4080     5.4960    24.2220     2.4740   -12.6320 
  230.0000    33.0860     5.8590     5.3990     5.5010    24.1720     2.4860   -12.8260 
  230.1250    33.3970     5.8530     5.4090     5.5530    24.1480     2.4900   -12.9890 
  230.2500    33.9780     5.8580     5.4340     5.6600    24.1390     2.4860   -13.1200 
  230.3750    35.9530     5.8820     5.4750     5.7700    24.1390     2.4810   -13.2060 
  230.5000    38.0670     5.9380     5.5310     5.8150    24.1390     2.4790   -13.2190 
  230.6250    37.2540     6.0110     5.5960     5.7820    24.1410     2.4850   -13.1160 
  230.7500    33.9390     6.0810     5.6500     5.7230    24.1550     2.4950   -12.9180 
  230.8750    31.1510     6.1300     5.6760     5.8020    24.1860     2.5050   -12.6560 
  231.0000    30.4400     6.1410     5.6590     6.1740    24.2110     2.5100   -12.3300 
  231.1250    30.5530     6.0860     5.5870     6.6700    24.2350     2.5070   -11.9490 
  231.2500    31.6890     5.9780     5.4750     6.4210    24.3620     2.4990   -11.5410 
  231.3750    33.2820     5.8430     5.3390     5.7580    24.6340     2.4900   -11.1420 
  231.5000    33.5280     5.7180     5.2000     5.3110    25.1070     2.4830   -10.7880 
  231.6250    32.3570     5.6460     5.0910     5.2170    24.6370     2.4770   -10.4970 
  231.7500    31.9690     5.6380     5.0250     5.2640    24.3820     2.4700   -10.2460 
  231.8750    33.0170     5.6820     5.0050     5.3520    24.2790     2.4590   -10.0220 
  232.0000    33.8780     5.7610     5.0260     5.3660    24.2740     2.4490    -9.8320 
  232.1250    33.5480     5.8570     5.0750     5.3500    24.2640     2.4450    -9.6880 
  232.2500    33.3620     5.9520     5.1370     5.3650    24.2390     2.4540    -9.5460 
  232.3750    33.6770     6.0310     5.2040     5.3830    24.1970     2.4720    -9.4000 
  232.5000    34.5070     6.0880     5.2600     5.3450    24.1360     2.4910    -9.2550 
  232.6250    34.4600     6.1150     5.2850     5.3170    24.0960     2.4980    -9.1090 
  232.7500    33.9860     6.1120     5.2720     5.3630    24.1020     2.4940    -8.9570 
  232.8750    34.0640     6.0770     5.2230     5.3960    24.1450     2.4830    -8.7950 
  233.0000    33.7940     6.0160     5.1520     5.4090    24.2030     2.4760    -8.6340 
  233.1250    32.2420     5.9520     5.0850     5.4760    24.2580     2.4770    -8.4560 
  233.2500    31.5910     5.9250     5.0520     5.6370    24.3270     2.4810    -8.2720 
  233.3750    33.0140     5.9840     5.0870     6.0870    24.3650     2.4810    -8.0880 
  233.5000    34.2640     6.1750     5.2210     6.9810    24.4120     2.4770    -7.8980 
  233.6250    32.6100     6.5310     5.4900     7.3790    24.3150     2.4780    -7.7200 
  233.7500    30.2660     6.9710     5.8400     7.5390    24.2740     2.4890    -7.5780 
  233.8750    29.7760     7.3740     6.1780     8.1400    24.2660     2.5050    -7.4780 
  234.0000    31.4380     7.5880     6.3880     8.6310    24.2820     2.5150    -7.4240 
  234.1250    34.2150     7.4520     6.3320     7.0800    24.2660     2.5050    -7.4350 
  234.2500    36.7070     7.0540     6.0520     5.8260    24.1830     2.4760    -7.5040 
  234.3750    37.9250     6.5440     5.6440     5.1640    24.0670     2.4380    -7.5960 
  234.5000    37.5010     6.0950     5.2320     4.9920    24.0050     2.4040    -7.7070 
  234.6250    35.7030     5.8490     4.9370     4.9740    24.0060     2.3840    -7.7970 
  234.7500    33.5340     5.7780     4.7790     5.0490    24.0050     2.3760    -7.8420 
  234.8750    32.9560     5.8160     4.7420     5.0520    23.9870     2.3740    -7.8230 
  235.0000    33.4680     5.8890     4.7810     5.0870    23.9690     2.3700    -7.7210 
  235.1250    33.0420     5.9330     4.8460     5.1420    23.9600     2.3630    -7.5420 
  235.2500    32.8750     5.9440     4.9000     5.3060    23.9580     2.3540    -7.3100 
  235.3750    33.9470     5.9390     4.9350     5.4420    23.9570     2.3470    -7.0510 
  235.5000    35.0450     5.9360     4.9560     5.2400    23.9560     2.3460    -6.7650 
  235.6250    35.4630     5.9380     4.9660     5.2160    23.9540     2.3530    -6.4670 
  235.7500    36.9970     5.9380     4.9700     5.2940    23.9480     2.3640    -6.1710 
  235.8750    39.0530     5.9250     4.9680     5.4840    23.9370     2.3730    -5.8890 
  236.0000    39.8050     5.8900     4.9570     5.7410    23.9450     2.3750    -5.6140 
  236.1250    39.8590     5.8240     4.9300     5.3650    23.9450     2.3680    -5.3120 
  236.2500    39.7300     5.7330     4.8840     5.0800    23.9490     2.3580    -4.9980 
  236.3750    39.0980     5.6220     4.8210     4.8130    23.9970     2.3510    -4.6800 
  236.5000    38.3970     5.5040     4.7470     4.6490    24.1220     2.3520    -4.3650 
  236.6250    37.6490     5.4050     4.6720     4.4940    24.2680     2.3620    -4.0770 
  236.7500    35.7000     5.3380     4.6060     4.4030    24.3680     2.3750    -3.8070 
  236.8750    33.3940     5.3010     4.5580     4.4510    24.3990     2.3850    -3.5790 
