~V
VERS. 2.00: Ver 2.00
~W
STRT.M 60.0000:
STOP.M 271.0000:
STEP.M 0.1250:
NULL. -999.2500:
UWI. F10035:
~C
DEPT.M :
GR.API :
RML.OHMM :
RI. :
RXO.OHMM :
CALI.CM :
DEN.GM/CC :
SP.MV :
~A
   60.0000    38.5670     6.9730     1.1200 10591.8800    25.8310     2.0390    54.9990 
   60.1250    38.7150     6.7000     1.0320     2.0300    25.8420     2.0350    52.7410 
   60.2500    38.8160     5.5110     0.8560     1.2140    25.8540     2.0200    51.0630 
   60.3750    38.8890     3.4620     0.5990     1.9500    25.8500     2.0160    50.0000 
   60.5000    38.6150     1.5220     0.3450     2.4330    25.8310     2.0570    49.6390 
   60.6250    38.6670     0.4020     0.1830     1.2230    25.8300     2.1810    49.9340 
   60.7500    40.0480    -0.1550     0.0990     0.8200    25.7870     2.3600    50.2910 
   60.8750    41.7000    -0.3450     0.0760     0.9880    25.6040     2.5390    50.0030 
   61.0000    43.9940    -0.2500     0.1180     1.7000    25.1850     2.6570    48.3060 
   61.1250    49.2090     0.2440     0.3040     3.4600    24.5200     2.6580    44.6240 
   61.2500    54.5710     1.2920     0.7460     6.7940    23.9350     2.5780    39.6830 
   61.3750    56.7520     3.1650     1.6150     9.3850    23.6140     2.4590    33.8900 
   61.5000    57.6170     5.7130     2.9720     9.3440    23.4970     2.3460    27.3230 
   61.6250    61.2220     7.3240     4.4660     9.1650    23.4620     2.2630    19.9390 
   61.7500    64.4540     7.3530     5.5720     9.1630    23.4930     2.2030    12.3630 
   61.8750    65.3000     6.8220     6.2530     9.2220    23.5480     2.1590     5.3350 
   62.0000    65.6920     6.5260     6.7140     9.0780    23.5450     2.1290    -0.4370 
   62.1250    66.7670     6.6470     7.1010     9.0200    23.5110     2.1170    -4.4490 
   62.2500    66.7620     6.9580     7.4500     9.1910    23.5210     2.1200    -7.3250 
   62.3750    64.8650     7.3090     7.7430     9.5490    23.6050     2.1310    -9.4690 
   62.5000    62.1550     7.6260     7.9710     9.8980    23.7930     2.1390   -11.1140 
   62.6250    60.6480     7.9110     8.1320    10.1720    24.1290     2.1280   -12.3330 
   62.7500    60.8730     8.2040     8.2490    10.3150    24.4100     2.1020   -13.3090 
   62.8750    61.3930     8.5050     8.3270    10.4890    24.5200     2.0670   -14.1110 
   63.0000    60.3700     8.7700     8.3590    10.5310    24.4280     2.0320   -14.7510 
   63.1250    57.9810     8.9230     8.3300    10.4450    24.2270     2.0110   -15.2260 
   63.2500    55.8630     8.9670     8.2520    10.4610    24.0590     2.0040   -15.6030 
   63.3750    55.8840     8.9450     8.1500    10.4810    24.0640     2.0100   -15.9350 
   63.5000    59.5530     8.9230     8.0560    10.5110    24.1850     2.0270   -16.2580 
   63.6250    64.5690     8.9630     8.0090    10.5070    24.3660     2.0510   -16.5570 
   63.7500    66.2400     9.0520     8.0090    10.5610    24.3580     2.0800   -16.8590 
   63.8750    64.7900     9.1430     8.0320    10.7380    24.1930     2.1080   -17.1610 
   64.0000    63.2790     9.1860     8.0380    10.6930    24.0350     2.1330   -17.4360 
   64.1250    64.5810     9.1390     7.9830    10.2260    23.8850     2.1490   -17.6910 
   64.2500    67.0940     9.0420     7.8730     9.5320    23.7450     2.1560   -17.9450 
   64.3750    67.5100     8.9490     7.7300     8.8080    23.7150     2.1550   -18.1990 
   64.5000    63.4380     8.8950     7.5880     8.1900    23.7750     2.1500   -18.4590 
   64.6250    59.7660     8.8840     7.4740     8.4350    23.6640     2.1440   -18.6970 
   64.7500    60.4570     8.8710     7.3830     8.5150    23.2290     2.1410   -18.8750 
   64.8750    62.3560     8.8330     7.3130     8.3560    22.7680     2.1410   -18.9990 
   65.0000    61.3210     8.7740     7.2660     8.6190    22.5820     2.1440   -19.1290 
   65.1250    59.8800     8.7320     7.2570     9.0140    22.6440     2.1460   -19.3010 
   65.2500    61.6270     8.7560     7.2950     8.7590    22.7250     2.1450   -19.5270 
   65.3750    65.6190     8.8690     7.3900     8.3530    22.7800     2.1400   -19.8290 
   65.5000    69.9210     9.0580     7.5340     8.4810    22.8610     2.1350   -20.1700 
   65.6250    72.4800     9.2630     7.6930     9.1890    23.0320     2.1340   -20.4720 
   65.7500    72.5170     9.4180     7.8230     9.4670    23.2270     2.1340   -20.7020 
   65.8750    71.1300     9.4930     7.9030     9.4150    23.4000     2.1310   -20.8560 
   66.0000    70.0060     9.4750     7.9210     9.0510    23.5720     2.1180   -20.8760 
   66.1250    69.5670     9.3350     7.8500     8.9050    23.8080     2.0960   -20.6590 
   66.2500    69.9970     9.0820     7.6840     9.0130    23.9620     2.0780   -20.1370 
   66.3750    74.4140     8.7250     7.4220     9.0310    24.0400     2.0780   -19.1890 
   66.5000    83.1360     8.2920     7.0860     8.7600    24.0400     2.1030   -17.8190 
   66.6250    91.2870     7.8460     6.7310     7.2600    23.9660     2.1480   -16.2210 
   66.7500    94.4420     7.4740     6.4270     6.2740    23.8960     2.1910   -14.6160 
   66.8750    92.4450     7.2150     6.2000     6.1850    23.8880     2.2210   -13.0790 
   67.0000    88.4500     7.0570     6.0460     6.5210    23.8890     2.2350   -11.6280 
   67.1250    86.8590     6.9620     5.9480     6.0920    23.9490     2.2390   -10.2780 
   67.2500    89.0020     6.8830     5.8800     5.6950    24.0770     2.2440    -9.1160 
   67.3750    92.6860     6.8140     5.8330     5.6280    24.1080     2.2510    -8.2500 
   67.5000    93.9340     6.7700     5.8030     5.9110    24.0060     2.2560    -7.6990 
   67.6250    92.3100     6.7550     5.7860     5.9320    23.9060     2.2590    -7.3280 
   67.7500    92.6630     6.7160     5.7480     5.9790    23.9060     2.2600    -6.9630 
   67.8750    95.5720     6.5840     5.6530     5.6470    24.0010     2.2640    -6.5890 
   68.0000    98.1090     6.3530     5.4950     5.3530    24.0880     2.2670    -6.2630 
   68.1250    96.8300     6.1700     5.3590     5.3000    24.0980     2.2670    -6.0400 
   68.2500    95.0560     6.2310     5.3660     5.3800    24.0860     2.2650    -5.8680 
   68.3750    92.8110     6.6450     5.5920     5.4600    24.0700     2.2700    -5.7460 
   68.5000    87.9780     7.3950     6.0450     5.8190    24.0400     2.2920    -5.6530 
   68.6250    82.1470     8.2660     6.6270     7.5660    24.0240     2.3340    -5.5930 
   68.7500    81.4840     8.8520     7.0790    10.7190    24.0120     2.3770    -5.6170 
   68.8750    85.7380     8.8870     7.1980    11.4510    24.0120     2.4020    -5.6990 
   69.0000    89.2410     8.4070     6.9570     8.5640    24.0770     2.3970    -5.8080 
   69.1250    88.9790     7.7550     6.5310     7.0410    24.2170     2.3630    -5.9700 
   69.2500    87.5850     7.3290     6.1880     6.4340    24.3600     2.3190    -6.2600 
   69.3750    85.2390     7.2830     6.0540     6.4810    24.4170     2.2800    -6.7070 
   69.5000    81.3380     7.5920     6.1580     6.9520    24.3720     2.2510    -7.3400 
   69.6250    76.8370     8.0920     6.4490     7.7300    24.2910     2.2280    -8.1860 
   69.7500    73.2020     8.5270     6.7570     8.1860    24.1930     2.2080    -9.1220 
   69.8750    71.0520     8.7770     6.9830     8.4620    24.1210     2.1890   -10.1350 
   70.0000    71.0740     8.8300     7.0880     8.7230    24.0920     2.1760   -11.1980 
   70.1250    71.4170     8.7760     7.1000     8.8230    24.0870     2.1700   -12.2350 
   70.2500    69.7650     8.8060     7.1310     8.7650    24.0730     2.1690   -13.1570 
   70.3750    67.4640     9.0610     7.2700     8.6990    24.0340     2.1750   -13.9120 
   70.5000    67.9150     9.6010     7.5700     9.0470    23.9930     2.1910   -14.4930 
   70.6250    70.6060    10.3970     8.0430     8.9800    23.9470     2.2250   -14.9530 
   70.7500    70.3250    11.2210     8.5700     9.1860    23.8310     2.2680   -15.3910 
   70.8750    65.7290    11.8510     9.0140     9.5210    23.6350     2.3030   -15.8060 
   71.0000    60.3050    12.1160     9.2520    10.1170    23.4760     2.3120   -16.2040 
   71.1250    59.6200    11.9430     9.2080    10.3590    23.5340     2.2820   -16.6170 
