~V
VERS. 2.00: Ver 2.00
~W
STRT.M 57.0000:
STOP.M 257.0000:
STEP.M 0.1250:
NULL. -999.2500:
UWI. F10004:
~C
DEPT.M :
GR.API :
RML.OHMM :
RI. :
RXO.OHMM :
CALI.CM :
DEN.GM/CC :
SP.MV :
~A
# ...
  214.5000    62.4410   197.0850   184.3030   221.5070    24.4230     2.2470   -41.3780 
  214.6250    63.0150   197.4920   185.8160   215.3380    24.4150     2.2500   -40.6590 
  214.7500    63.5800   196.6860   186.3310   203.5650    24.4600     2.2500   -39.8930 
  214.8750    62.2670   194.1850   185.2280   189.2100    24.5390     2.2530   -39.1140 
  215.0000    60.4790   190.1240   182.4400   175.1960    24.6310     2.2590   -38.3720 
  215.1250    60.1180   185.3250   178.5090   157.0580    24.5050     2.2610   -37.6760 
  215.2500    60.9530   181.3960   174.9920   138.0800    24.2360     2.2520   -37.0330 
  215.3750    60.1920   179.9140   173.4730   121.5060    24.1020     2.2330   -36.4580 
  215.5000    56.5330   182.4410   175.5700   110.8300    24.0210     2.2180   -35.9990 
  215.6250    53.1320   191.4070   183.7350   119.1130    24.0320     2.2410   -35.7210 
  215.7500    52.4210   208.6590   198.0810   157.4820    23.8590     2.3110   -35.6100 
  215.8750    53.3070   238.0100   218.4650   236.8380    23.9320     2.4200   -35.6320 
  216.0000    53.4320   282.1490   243.3360   307.5710    24.1880     2.5420   -35.7390 
  216.1250    52.2660   319.9830   268.7360   344.6170    24.3770     2.6450   -35.9820 
  216.2500    50.8260   344.9660   288.5230   356.7110    24.4570     2.7130   -36.3720 
  216.3750    50.4020   351.3870   297.0070   348.2510    24.4750     2.7400   -36.9170 
  216.5000    51.7180   337.4730   290.6010   348.2280    24.4720     2.7220   -37.5540 
  216.6250    54.9240   303.9840   268.2190   325.6600    24.4710     2.6510   -38.1940 
  216.7500    58.9400   263.3560   238.0120   252.1930    24.4910     2.5440   -38.8000 
  216.8750    62.2760   224.0090   206.3360   179.9020    24.5530     2.4270   -39.4200 
  217.0000    63.8250   191.0530   178.1070   142.5360    24.6510     2.3290   -40.0710 
  217.1250    62.6270   167.3390   156.8760   133.0440    24.7140     2.2750   -40.7570 
  217.2500    60.8340   150.5230   141.6530   128.2670    24.7500     2.2570   -41.4390 
  217.3750    59.6830   138.9000   131.2740   119.1150    24.7650     2.2570   -42.1260 
  217.5000    60.0980   130.7430   124.2910   108.2840    24.7670     2.2600   -42.8620 
  217.6250    62.5370   124.7350   119.4840    99.5840    24.7670     2.2540   -43.7070 
  217.7500    64.7120   119.4950   115.4250    96.2050    24.7040     2.2400   -44.6700 
  217.8750    64.9590   114.6510   111.6500    94.1950    24.5920     2.2250   -45.7390 
  218.0000    64.2080   110.3510   108.1680    88.9400    24.4400     2.2160   -46.9170 
  218.1250    63.9340   107.6340   105.7680    78.3930    24.1520     2.2210   -48.1920 
  218.2500    64.4370   107.6320   105.5280    69.8470    23.7650     2.2350   -49.5550 
  218.3750    64.7460   111.8400   108.9130    63.8540    23.4810     2.2490   -50.9640 
  218.5000    64.2330   121.8290   117.5370    61.1300    23.2870     2.2590   -52.4060 
  218.6250    62.0970   140.2870   134.1220    67.3440    23.1550     2.2720   -53.8950 
  218.7500    59.0630   166.2500   157.8570    90.6680    23.3350     2.3000   -55.3830 
  218.8750    57.3850   197.4790   186.6310   145.6690    24.0230     2.3450   -56.8480 
  219.0000    57.2450   228.6060   215.4810   211.7310    25.3490     2.3970   -58.2920 
  219.1250    58.2430   249.9670   235.6020   215.0420    24.8200     2.4320   -59.6920 
  219.2500    59.2100   257.8320   243.2310   185.1550    24.5640     2.4370   -61.0370 
  219.3750    58.2520   254.0760   239.4450   168.8840    24.4480     2.4160   -62.3590 
  219.5000    56.2930   244.8830   229.5250   166.2790    24.4420     2.3830   -63.6600 
  219.6250    55.4010   237.7180   220.5100   170.6290    24.3750     2.3590   -64.8760 
  219.7500    56.8170   236.4110   216.6810   179.0060    24.3400     2.3580   -65.9920 
  219.8750    57.8360   242.1750   219.4490   189.6480    24.3960     2.3860   -67.0210 
  220.0000    57.2540   255.5010   229.2740   207.5480    24.4500     2.4410   -67.9340 
  220.1250    57.5690   278.7480   248.1300   243.7940    24.4610     2.5060   -68.7310 
  220.2500    58.2900   312.0770   275.8710   285.8350    24.4620     2.5510   -69.4060 
  220.3750    56.6170   352.4180   313.3220   312.9960    24.4590     2.5640   -69.9300 
  220.5000    51.8360   394.7290   360.1680   376.9730    24.4400     2.5510   -70.2800 
  220.6250    48.3500   430.2690   414.0060   480.9480    24.3860     2.5410   -70.4160 
  220.7500    47.9940   477.0520   466.6160   453.7660    24.2780     2.5590   -70.3510 
  220.8750    47.7490   523.4290   509.8290   322.4010    24.2030     2.6070   -70.0530 
  221.0000    45.5310   559.3460   537.1980   272.7810    24.0980     2.6620   -69.5440 
  221.1250    43.1620   570.6280   544.8930   293.0550    24.4120     2.6970   -68.7870 
  221.2500    43.6800   568.1840   541.6150   293.6990    24.7040     2.7060   -67.8570 
  221.3750    46.0520   561.9000   535.3620   202.1000    24.5460     2.7050   -66.7530 
  221.5000    47.2930   559.5730   532.4690   114.5710    24.2350     2.7120   -65.4570 
  221.6250    46.8550   563.5830   535.6250    86.7670    24.0440     2.7360   -64.0140 
  221.7500    45.9520   568.2640   540.2500   159.9170    24.1420     2.7570   -62.4970 
  221.8750    45.5430   565.5640   539.8130   371.2190    24.2540     2.7510   -60.9630 
  222.0000    46.3800   547.3560   527.4620   561.5070    24.3520     2.7060   -59.4220 
  222.1250    49.4420   507.7210   497.0440   489.4970    24.4410     2.6190   -57.8970 
  222.2500    52.2160   456.2000   454.6180   420.2710    24.5030     2.5170   -56.3840 
  222.3750    53.0760   402.8460   407.7160   358.7330    24.5540     2.4200   -54.9120 
  222.5000    53.5420   356.0470   363.9630   286.9030    24.6040     2.3450   -53.5290 
  222.6250    54.2950   321.8630   330.0000   263.4780    24.6130     2.3050   -52.2000 
  222.7500    55.0430   298.0840   305.4700   269.5790    24.5750     2.2940   -50.9170 
  222.8750    55.7340   281.9370   288.4930   278.0720    24.5330     2.3050   -49.6390 
  223.0000    56.3740   269.9610   276.0030   267.8440    24.5330     2.3380   -48.3240 
  223.1250    57.6690   259.1440   264.9850   278.9300    24.5310     2.3950   -46.9320 
  223.2500    60.9050   248.0330   253.6420   317.9650    24.5410     2.4680   -45.4360 
  223.3750    65.5530   237.0050   242.1340   321.3930    24.4890     2.5490   -43.8480 
  223.5000    69.0090   226.7020   231.1040   233.0180    24.3830     2.6230   -42.1500 
  223.6250    68.9380   217.0650   220.7430   205.7890    24.2510     2.6740   -40.3500 
  223.7500    67.8330   207.0010   210.2250   221.7030    24.2270     2.6970   -38.4580 
  223.8750    67.1570   195.8200   198.8890   233.9700    24.3360     2.6910   -36.4800 
  224.0000    68.6760   183.7480   186.7810   192.9160    24.4060     2.6640   -34.4680 
  224.1250    73.4760   172.2380   175.0560   152.8650    24.3980     2.6330   -32.4590 
  224.2500    78.0700   162.8400   165.1620   143.0030    24.4400     2.6160   -30.4710 
  224.3750    79.3940   156.3330   157.9590   145.6020    24.4760     2.6240   -28.4650 
  224.5000    76.9920   152.4810   153.4040   141.7180    24.4940     2.6540   -26.4500 
  224.6250    75.0160   149.9250   150.3980   139.8940    24.4870     2.6910   -24.4880 
  224.7500    75.0290   146.2980   146.6400   131.5460    24.4750     2.7120   -22.6270 
  224.8750    75.2200   140.1240   140.5680   128.8730    24.4140     2.7070   -20.9040 
  225.0000    74.7910   131.1150   131.6770   121.9960    24.3060     2.6780   -19.3290 
  225.1250    74.7720   120.1320   120.5860   105.7930    24.2200     2.6440   -17.9630 
  225.2500    74.6660   109.0640   109.2080    93.4930    24.1830     2.6280   -16.8280 
  225.3750    74.6160    98.9480    98.7040    81.3940    24.1850     2.6330   -15.9310 
  225.5000    75.0130    90.3770    89.7600    70.3040    24.1740     2.6500   -15.2790 
  225.6250    73.6940    83.9490    83.0280    66.7740    24.2010     2.6580   -14.8430 
