~V
VERS. 2.00: Ver 2.00
~W
STRT.M 55.0000:
STOP.M 293.0000:
STEP.M 0.1250:
NULL. -999.2500:
UWI. F10038:
~C
DEPT.M :
SP.MV :
DEN.GM/CC :
GR.API :
RML.OHMM :
RI. :
RXO.OHMM :
CALI.CM :
~A
# ...
  111.2500   -23.6020     2.2260    62.3250     8.6980     7.5460     9.6960    23.0270 
  111.3750   -23.5930     2.2230    66.4070     8.8680     7.7190     9.6860    23.0200 
  111.5000   -23.5600     2.2120    68.0340     8.9270     7.8410     9.5500    23.1180 
  111.6250   -23.4820     2.1950    66.6500     8.9170     7.9020     9.3210    23.2500 
  111.7500   -23.3430     2.1830    64.0290     8.9020     7.9350     9.0750    23.3630 
  111.8750   -23.1260     2.1820    62.8950     8.9000     7.9550     8.8950    23.4160 
  112.0000   -22.8150     2.1960    64.6240     8.9050     7.9580     8.8760    23.3390 
  112.1250   -22.3680     2.2250    68.8090     8.8800     7.9160     8.9610    23.1810 
  112.2500   -21.8050     2.2540    71.2270     8.7900     7.8100     8.9480    23.0170 
  112.3750   -21.1320     2.2730    70.3850     8.6180     7.6300     8.5850    22.9050 
  112.5000   -20.3680     2.2770    68.5760     8.3630     7.3830     7.9800    22.8590 
  112.6250   -19.5670     2.2690    68.0230     8.0380     7.0930     7.5240    22.9160 
  112.7500   -18.7560     2.2630    68.0690     7.7020     6.8110     7.3560    23.0340 
  112.8750   -17.9140     2.2640    68.7610     7.4220     6.5850     7.3420    23.1850 
  113.0000   -17.0530     2.2730    71.8880     7.2820     6.4770     7.3840    23.2970 
  113.1250   -16.2140     2.2900    76.7270     7.4140     6.5870     7.4110    23.3510 
  113.2500   -15.4210     2.3130    80.4640     7.8430     6.9300     7.6270    23.3780 
  113.3750   -14.6590     2.3450    81.7150     8.5470     7.4910     8.1110    23.3830 
  113.5000   -13.8860     2.3860    81.0370     9.3810     8.1680     8.8370    23.3720 
  113.6250   -13.0680     2.4360    80.7050    10.0000     8.7190     9.7430    23.2640 
  113.7500   -12.2680     2.4800    80.9920    10.0980     8.9070    10.3040    23.1220 
  113.8750   -11.5600     2.5030    81.1320     9.5520     8.6100    10.4960    23.0600 
  114.0000   -10.9560     2.4930    81.0780     8.5290     7.8880     9.8640    23.1350 
  114.1250   -10.4650     2.4530    81.5340     7.4510     6.9760     8.0220    23.1700 
  114.2500   -10.0440     2.4050    84.4420     6.6710     6.1880     6.3990    23.1230 
  114.3750    -9.7100     2.3650    90.1940     6.2740     5.6630     6.0000    23.0210 
  114.5000    -9.5040     2.3400    95.7440     6.2090     5.4240     6.0850    22.8950 
  114.6250    -9.4350     2.3300    95.8690     6.3820     5.4450     6.2830    22.8310 
  114.7500    -9.4400     2.3250    92.8780     6.6140     5.5820     6.3930    22.8080 
  114.8750    -9.4580     2.3210    91.0330     6.7890     5.7370     6.3560    22.8250 
  115.0000    -9.4550     2.3160    89.9790     6.8400     5.8350     6.2080    22.8680 
  115.1250    -9.4200     2.3150    87.2230     6.7430     5.8300     6.1120    22.9100 
  115.2500    -9.3480     2.3190    87.7510     6.5680     5.7490     6.0490    22.9470 
  115.3750    -9.2210     2.3290    93.2560     6.3680     5.6250     6.0250    22.9820 
  115.5000    -9.0700     2.3410    99.0320     6.1920     5.4910     5.9770    23.0210 
  115.6250    -8.9180     2.3480    98.7760     6.0830     5.3820     5.7800    23.0870 
  115.7500    -8.7680     2.3490    93.5800     6.0380     5.3080     5.6150    23.1670 
  115.8750    -8.6280     2.3470    89.3530     6.0370     5.2660     5.5810    23.2470 
  116.0000    -8.5030     2.3470    89.3040     6.0470     5.2420     5.5400    23.3130 
  116.1250    -8.4020     2.3510    93.3710     6.0380     5.2210     5.5710    23.3540 
  116.2500    -8.3500     2.3560    96.7090     6.0170     5.1980     5.6520    23.3810 
  116.3750    -8.3670     2.3550    97.7680     6.0150     5.1860     5.6910    23.4200 
  116.5000    -8.4170     2.3450    96.5600     6.0710     5.2040     5.6770    23.4260 
  116.6250    -8.4750     2.3270    91.5010     6.2140     5.2690     5.7070    23.3770 
  116.7500    -8.5060     2.3090    84.2360     6.3970     5.3590     5.9090    23.3170 
  116.8750    -8.4820     2.2950    79.2040     6.5440     5.4370     6.2160    23.2980 
  117.0000    -8.3630     2.2900    79.8190     6.5720     5.4580     6.4980    23.3140 
  117.1250    -8.1320     2.2920    82.5490     6.3920     5.3660     6.5490    23.3960 
  117.2500    -7.8530     2.2930    83.0270     6.0580     5.1780     6.3270    23.5290 
  117.3750    -7.5420     2.2900    81.6100     5.6780     4.9490     6.0120    23.6720 
  117.5000    -7.2210     2.2830    81.3440     5.4190     4.7930     5.8750    23.7680 
  117.6250    -6.9100     2.2840    82.7370     5.5680     4.9380     6.0510    23.8090 
  117.7500    -6.6080     2.3070    84.0430     6.2450     5.5190     6.7520    23.8320 
  117.8750    -6.3330     2.3600    85.3360     7.4720     6.5810     8.2390    23.8430 
  118.0000    -6.1590     2.4360    84.7110     9.0530     7.9900    10.7690    23.8350 
  118.1250    -6.1350     2.5060    80.4570    10.4390     9.3280    13.7990    23.8010 
  118.2500    -6.1840     2.5370    75.9050    11.0020    10.0770    15.9050    23.7300 
  118.3750    -6.2830     2.5160    75.7800    10.4340     9.9340    15.6270    23.6470 
  118.5000    -6.4040     2.4560    80.6160     9.0420     8.9800    12.7740    23.5580 
  118.6250    -6.5200     2.3880    86.6620     7.6300     7.6790     9.1250    23.4390 
  118.7500    -6.6480     2.3380    89.4770     6.6670     6.5730     7.0400    23.3220 
  118.8750    -6.7900     2.3130    88.1170     6.1680     5.8340     6.3920    23.1970 
  119.0000    -6.9290     2.3090    86.0680     6.0220     5.4560     6.2200    23.0380 
  119.1250    -7.0520     2.3160    87.5400     6.1310     5.3860     6.0080    22.8740 
  119.2500    -7.1910     2.3220    90.5580     6.3410     5.4690     5.8870    22.7600 
  119.3750    -7.3440     2.3240    92.4100     6.5810     5.6210     5.8890    22.7300 
  119.5000    -7.5020     2.3190    91.8440     6.8050     5.7790     6.0540    22.7520 
  119.6250    -7.6660     2.3080    88.6430     6.9610     5.8910     6.3040    22.7250 
  119.7500    -7.8050     2.2970    84.6270     7.0010     5.9290     6.5600    22.6370 
  119.8750    -7.9250     2.2890    83.0920     6.8770     5.8750     6.7370    22.5070 
  120.0000    -8.0090     2.2840    83.9700     6.5800     5.7310     6.7470    22.3840 
  120.1250    -8.0240     2.2860    85.5410     6.1870     5.5440     6.7650    22.2500 
  120.2500    -7.9420     2.2940    87.4490     5.9230     5.4510     6.8030    22.0680 
  120.3750    -7.7770     2.3110    88.8950     6.0410     5.6240     7.0610    21.8720 
  120.5000    -7.5760     2.3410    87.1660     6.7350     6.2190     7.9670    21.8560 
  120.6250    -7.3420     2.3790    82.4590     8.0880     7.3420    10.2040    22.1890 
  120.7500    -7.1420     2.4130    77.0580     9.6580     8.7000    13.6010    22.5750 
  120.8750    -7.0070     2.4240    71.5080    10.8800     9.8830    17.3820    22.8270 
  121.0000    -6.9410     2.4050    67.5200    11.1390    10.4180    19.5780    22.8420 
  121.1250    -6.9720     2.3600    69.4130    10.0140     9.8690    17.7510    22.7700 
  121.2500    -7.0910     2.3160    76.1760     8.3650     8.6590    13.5090    22.7360 
  121.3750    -7.2830     2.2920    83.9660     7.0050     7.3430     9.1400    22.6740 
  121.5000    -7.5330     2.2970    88.9250     6.2720     6.3570     6.5020    22.6340 
  121.6250    -7.8510     2.3280    87.9110     6.1640     5.9080     6.0410    22.8220 
  121.7500    -8.1710     2.3620    82.8040     6.3630     5.8130     6.2720    23.0730 
  121.8750    -8.4230     2.3830    77.2070     6.6500     5.9030     6.6740    23.1180 
  122.0000    -8.5770     2.3860    73.7690     6.8430     6.0150     6.8770    23.0630 
  122.1250    -8.6680     2.3750    72.6790     6.8290     6.0290     6.5610    23.1800 
  122.2500    -8.7660     2.3650    73.1730     6.7140     5.9630     6.2540    23.3730 
  122.3750    -8.8870     2.3610    74.7970     6.6200     5.8850     6.1900    23.5770 
