~V
VERS. 2.00: Ver 2.00
~W
STRT.M 60.0000:
STOP.M 245.0000:
STEP.M 0.1250:
NULL. -999.2500:
UWI. F10050:
~C
DEPT.M :
SP.MV :
GR.API :
RML.OHMM :
RI. :
RXO.OHMM :
CALI.CM :
DEN.GM/CC :
~A
# ...
  183.7500   -18.2300    55.9370   111.0030    78.8680    70.8560    24.5150     2.2180 
  183.8750   -18.3430    57.7390   119.6890    86.2710    73.7470    24.5150     2.2380 
  184.0000   -18.4130    58.5850   124.4380    90.8210    76.3880    24.5150     2.2490 
  184.1250   -18.4910    56.6550   126.7480    93.2710    76.0630    24.5150     2.2380 
  184.2500   -18.5840    55.1280   127.5320    94.4800    77.4320    24.5150     2.2130 
  184.3750   -18.6170    56.0990   126.9300    94.6500    77.6150    24.5070     2.1980 
  184.5000   -18.6510    58.0250   125.1350    93.9200    76.8000    24.4600     2.2140 
  184.6250   -18.7240    59.2150   122.4110    92.3800    77.0090    24.3410     2.2640 
  184.7500   -18.7690    61.1440   119.4990    90.5420    78.9530    24.2340     2.3150 
  184.8750   -18.8150    62.6600   117.0460    88.9500    76.8490    24.2700     2.3360 
  185.0000   -18.8820    61.0030   115.7550    88.2400    66.7480    24.4880     2.3160 
  185.1250   -18.9460    58.3730   116.6300    89.3020    59.2650    24.8060     2.2680 
  185.2500   -19.0220    57.1660   119.5980    92.0800    66.8730    24.9290     2.2240 
  185.3750   -19.1120    55.9820   124.1730    96.1280    77.4070    24.9140     2.1970 
  185.5000   -19.2050    54.4560   129.1500   100.4980    81.2740    24.8190     2.1860 
  185.6250   -19.3160    55.4080   132.5210   103.7920    82.3740    24.6950     2.1870 
  185.7500   -19.4270    58.3920   133.4880   105.4380    81.1700    24.5930     2.1920 
  185.8750   -19.5200    60.4690   132.6590   105.6960    79.3300    24.4930     2.1990 
  186.0000   -19.6680    60.7350   131.6840   105.5300    77.8450    24.4380     2.2030 
  186.1250   -19.8300    58.1500   132.7280   106.3690    79.0040    24.4160     2.2050 
  186.2500   -19.9120    55.4320   136.5070   108.9510    83.5050    24.4000     2.2080 
  186.3750   -19.9850    55.0460   143.1600   113.6080    88.9320    24.3760     2.2120 
  186.5000   -20.0770    55.6990   152.5190   120.4340    91.6060    24.3610     2.2170 
  186.6250   -20.1220    52.8350   164.5100   129.5700    94.5440    24.3580     2.2180 
  186.7500   -20.1220    47.9990   177.5380   139.8810   100.3930    24.3580     2.2130 
  186.8750   -20.0940    45.4560   189.0850   149.7210   106.7950    24.3500     2.2040 
  187.0000   -20.0150    46.5540   195.0190   156.4630   113.1290    24.3260     2.1930 
  187.1250   -19.8940    50.7280   189.1850   155.7620   117.1250    24.2770     2.1850 
  187.2500   -19.8220    55.4850   173.3420   147.3510   115.1470    24.2560     2.1820 
  187.3750   -19.7460    57.6100   152.3640   133.1740   105.2850    24.2500     2.1850 
  187.5000   -19.6050    56.3420   132.0080   117.0560    87.6900    24.2500     2.1910 
  187.6250   -19.5140    56.4240   116.9630   103.3990    72.1010    24.2500     2.1990 
  187.7500   -19.4740    59.2860   107.5150    94.0220    65.2880    24.2500     2.2080 
  187.8750   -19.4110    60.9160   103.2320    89.2860    64.4450    24.2500     2.2130 
  188.0000   -19.3420    58.4190   103.2540    88.7480    65.5190    24.2500     2.2180 
  188.1250   -19.2600    56.3280   106.7790    91.8650    68.7380    24.2500     2.2280 
  188.2500   -19.1470    56.3990   111.6750    96.6720    72.4480    24.2450     2.2440 
  188.3750   -19.0470    55.8860   116.3580   101.7420    75.7680    24.2340     2.2560 
  188.5000   -18.9570    53.5000   119.5440   105.8300    77.1680    24.2960     2.2560 
  188.6250   -18.8490    52.8200   120.2900   107.8440    77.3160    24.5660     2.2440 
  188.7500   -18.7310    54.5250   119.2410   108.0210    76.7650    24.9100     2.2310 
  188.8750   -18.6230    55.4380   117.0450   106.7760    77.0110    25.1010     2.2270 
  189.0000   -18.5360    54.0120   114.2110   104.6200    77.3870    25.2460     2.2310 
  189.1250   -18.4990    51.4730   111.0210   101.9450    75.9220    25.6890     2.2250 
  189.2500   -18.4530    50.4960   107.8550    99.2000    73.7100    26.4790     2.1960 
  189.3750   -18.4300    51.6560   105.1470    96.7570    72.1740    27.3880     2.1520 
  189.5000   -18.4800    52.9650   103.5430    95.1390    70.0100    27.9470     2.1090 
  189.6250   -18.5150    53.4910   104.2500    95.4070    65.8180    27.6900     2.0950 
  189.7500   -18.5380    54.4650   107.6370    98.0260    61.8130    26.6130     2.1210 
  189.8750   -18.5790    55.2850   113.8840   103.2600    64.9010    25.1160     2.1770 
  190.0000   -18.6320    55.0450   122.6730   110.8910    71.4180    24.1660     2.2310 
  190.1250   -18.6850    55.0460   133.1230   120.2620    79.3240    23.9110     2.2470 
  190.2500   -18.7360    56.6490   143.1380   129.5950    91.4870    23.9000     2.2360 
  190.3750   -18.7810    57.6980   150.9770   137.3590    98.5650    23.9010     2.2180 
  190.5000   -18.7720    56.6840   155.7240   142.5180    99.8700    23.9000     2.2070 
  190.6250   -18.7370    54.1860   157.5240   144.7220    99.6750    23.8850     2.2050 
  190.7500   -18.7500    51.7260   158.3190   145.4990    98.7770    23.8420     2.2060 
  190.8750   -18.7590    50.6030   159.2980   146.0310    98.4190    23.7810     2.2050 
  191.0000   -18.7290    52.5090   160.9360   147.0930   100.1690    23.7420     2.2020 
  191.1250   -18.6920    55.9290   162.8470   148.7650   103.3210    23.7300     2.2010 
  191.2500   -18.6610    55.7460   164.2190   150.3870   103.6420    23.7110     2.2060 
  191.3750   -18.6210    52.0920   164.7680   151.6080   100.4990    23.6490     2.2180 
  191.5000   -18.5510    49.7690   164.7740   152.5220    98.6610    23.5360     2.2300 
  191.6250   -18.5070    53.0980   164.7010   153.4990    99.0960    23.4470     2.2300 
  191.7500   -18.4530    57.0880   164.3220   154.4340    98.2370    23.4010     2.2190 
  191.8750   -18.3860    59.0520   162.2970   154.2620    98.5750    23.3890     2.2040 
  192.0000   -18.3120    59.6590   156.6530   151.1630   104.6580    23.3880     2.1930 
  192.1250   -18.2630    58.1370   145.4820   142.8630   100.9670    23.3880     2.1880 
  192.2500   -18.2020    55.7450   131.0730   130.7300    91.8760    23.3880     2.1890 
  192.3750   -18.1140    55.6110   116.2770   117.1020    78.1150    23.3930     2.1940 
  192.5000   -18.0860    57.7630   103.6430   104.5890    67.6360    23.4100     2.2060 
  192.6250   -18.0260    57.7700    95.1830    95.5600    64.8710    23.4430     2.2260 
  192.7500   -17.8990    55.1600    90.3950    90.0000    66.5810    23.4610     2.2450 
  192.8750   -17.7960    54.7230    88.8100    87.5720    68.1120    23.4650     2.2550 
  193.0000   -17.7370    57.3030    89.8870    87.7520    67.1690    23.4560     2.2560 
  193.1250   -17.6180    59.2090    93.5090    90.3960    64.2980    23.4060     2.2530 
  193.2500   -17.4930    59.1850    98.9590    94.8020    63.3490    23.3210     2.2470 
  193.3750   -17.3860    58.9860   105.8320   100.6210    64.7130    23.3020     2.2340 
  193.5000   -17.2120    59.2910   113.3350   107.1300    66.8640    23.4720     2.2140 
  193.6250   -17.0360    59.2200   119.7990   112.7310    73.9030    23.7290     2.1910 
  193.7500   -16.9190    58.6940   123.9320   116.1300    82.1050    23.8620     2.1720 
  193.8750   -16.7600    58.3880   125.6630   117.1380    86.7720    23.8960     2.1640 
  194.0000   -16.5280    57.1660   126.3430   116.8600    83.8110    23.8980     2.1650 
  194.1250   -16.3450    56.3660   128.5150   117.5510    77.2330    23.8980     2.1680 
  194.2500   -16.1770    56.1430   133.5900   120.7290    78.1390    23.8980     2.1710 
  194.3750   -16.0040    56.1570   141.5170   126.5200    91.1610    23.8980     2.1740 
  194.5000   -15.8500    55.9070   150.7460   133.6760   104.7430    23.8980     2.1780 
  194.6250   -15.7150    54.9690   157.9340   139.5240   106.4010    23.8980     2.1820 
  194.7500   -15.5840    54.1990   160.7460   142.0900   100.0730    23.8980     2.1840 
  194.8750   -15.4750    53.5820   158.9590   140.9700    94.3650    23.8980     2.1860 
