~V
VERS. 2.00: Ver 2.00
~W
STRT.M 50.0000:
STOP.M 286.0000:
STEP.M 0.1250:
NULL. -999.2500:
UWI. F10036:
~C
DEPT.M :
GR.API :
RML.OHMM :
RI. :
RXO.OHMM :
CALI.CM :
DEN.GM/CC :
SP.MV :
~A
# ...
   61.2500    80.3240     9.0870     7.1020     7.0860    23.2090     2.1630   -20.2620 
   61.3750    84.3170     8.7210     7.0400     6.6740    23.3060     2.1740   -20.3210 
   61.5000    90.9950     8.2380     6.8530     6.0680    23.4810     2.1940   -20.3460 
   61.6250    94.2140     7.8210     6.6400     5.9240    23.6440     2.2070   -20.3120 
   61.7500    91.7600     7.5540     6.4770     6.0380    23.6970     2.2100   -20.2240 
   61.8750    88.3190     7.4250     6.3810     6.3510    23.5900     2.2080   -20.0530 
   62.0000    87.7130     7.3780     6.3360     6.3660    23.3800     2.2130   -19.7720 
   62.1250    89.5050     7.3670     6.3180     6.0330    23.2410     2.2270   -19.4850 
   62.2500    91.2690     7.3830     6.3110     5.9170    23.1860     2.2450   -19.2760 
   62.3750    90.8860     7.4410     6.3150     5.9750    23.3160     2.2580   -19.2370 
   62.5000    88.5790     7.5480     6.3350     5.8650    23.6190     2.2650   -19.3600 
   62.6250    87.7690     7.6520     6.3590     5.9790    23.8520     2.2620   -19.5110 
   62.7500    89.0360     7.6800     6.3600     6.3090    23.9540     2.2550   -19.6500 
   62.8750    89.7930     7.6140     6.3300     6.6010    23.9800     2.2450   -19.7930 
   63.0000    87.7940     7.4860     6.2760     6.3500    23.9950     2.2330   -19.9690 
   63.1250    84.8720     7.3570     6.2240     6.1600    23.9730     2.2220   -20.2250 
   63.2500    82.9520     7.3110     6.2190     6.0850    23.7930     2.2130   -20.5830 
   63.3750    80.5370     7.4660     6.3350     6.4130    23.4060     2.2120   -20.9850 
   63.5000    76.1840     7.9430     6.6480     6.7790    22.9270     2.2270   -21.3780 
   63.6250    72.2960     8.8580     7.2440     6.7000    22.5810     2.2630   -21.7980 
   63.7500    71.1590    10.0460     8.0390     7.1240    22.4390     2.3060   -22.2330 
   63.8750    70.7630    11.2270     8.8770     8.7810    22.3750     2.3390   -22.7370 
   64.0000    68.9550    11.9770     9.4940    12.0350    22.3820     2.3430   -23.3550 
   64.1250    66.9670    11.8110     9.5420    11.2920    22.6650     2.3060   -23.9810 
   64.2500    67.7120    10.9750     9.1120     9.5130    23.1550     2.2500   -24.5610 
   64.3750    70.3300     9.8980     8.4430     8.3930    23.6560     2.1960   -25.0500 
   64.5000    70.8340     8.9900     7.8070     8.1380    23.9020     2.1630   -25.4950 
   64.6250    68.3590     8.5710     7.4440     7.8980    23.8210     2.1570   -25.8380 
   64.7500    67.1920     8.5840     7.3740     7.6390    23.7470     2.1650   -26.1290 
   64.8750    68.5440     8.8980     7.5440     7.4840    23.7200     2.1780   -26.3730 
   65.0000    68.3660     9.3440     7.8490     7.6520    23.7050     2.1870   -26.5150 
   65.1250    63.6850     9.7810     8.1670     7.8440    23.7100     2.1880   -26.6340 
   65.2500    59.8220    10.1120     8.3970     8.0230    23.7140     2.1830   -26.6860 
   65.3750    60.8130    10.2810     8.4900     8.0640    23.6810     2.1770   -26.7170 
   65.5000    65.3000    10.2690     8.4430     8.0010    23.5570     2.1750   -26.7820 
   65.6250    66.7940    10.1040     8.2920     7.9620    23.3960     2.1760   -26.9670 
   65.7500    65.1250     9.9280     8.1400     8.0170    23.2740     2.1750   -27.2310 
   65.8750    63.4200     9.8640     8.0660     8.0980    23.1580     2.1740   -27.5040 
   66.0000    62.4770     9.9940     8.1210     8.0910    23.1170     2.1790   -27.8250 
   66.1250    61.3180    10.3330     8.3190     8.3780    23.2970     2.2030   -28.1630 
   66.2500    60.2560    10.7360     8.5750    10.3810    23.6550     2.2410   -28.6400 
   66.3750    60.9600    11.0530     8.7950    15.2250    23.9910     2.2760   -29.2430 
   66.5000    62.8820    11.1470     8.8830    19.8200    24.2070     2.2930   -29.8660 
   66.6250    64.5860    10.9290     8.7660    13.1450    24.3040     2.2790   -30.4870 
   66.7500    63.8910    10.5440     8.5270    10.1860    24.3380     2.2510   -31.0260 
   66.8750    60.1800    10.1500     8.2480     8.9980    24.3250     2.2230   -31.4740 
   67.0000    55.7040     9.8930     8.0090     8.6250    24.2950     2.2050   -31.8440 
   67.1250    54.4880     9.8630     7.8820     8.4780    24.2440     2.1940   -32.1230 
   67.2500    56.8500     9.9430     7.8500     8.5270    24.1950     2.1860   -32.2410 
   67.3750    61.9450    10.0160     7.8720     8.7670    24.1680     2.1790   -32.2240 
   67.5000    67.2170    10.0250     7.9030     9.0260    24.2280     2.1720   -32.1390 
   67.6250    68.0800     9.9830     7.9100     9.0600    24.2680     2.1630   -31.9960 
   67.7500    65.2660     9.9300     7.8800     8.7540    24.2130     2.1470   -31.8700 
   67.8750    63.0680     9.8700     7.8190     8.2880    24.1170     2.1270   -31.7310 
   68.0000    63.2790     9.8020     7.7490     8.0280    24.0310     2.1120   -31.5250 
   68.1250    65.8290     9.7280     7.6890     8.0600    23.8650     2.1090   -31.2350 
   68.2500    68.0360     9.6550     7.6430     8.1490    23.5710     2.1190   -30.9250 
   68.3750    68.7940     9.5790     7.5990     8.2590    23.2600     2.1330   -30.5540 
   68.5000    66.8790     9.4680     7.5410     8.4160    23.0040     2.1440   -30.1160 
   68.6250    63.7550     9.2860     7.4470     8.4830    22.7400     2.1480   -29.5750 
   68.7500    63.1790     9.0840     7.3210     8.5840    22.5430     2.1480   -29.0000 
   68.8750    65.3940     8.9320     7.1890     8.8020    22.4650     2.1490   -28.4020 
   69.0000    68.8260     8.8830     7.0850     8.7610    22.5260     2.1490   -27.8780 
   69.1250    70.7250     8.9570     7.0560     8.5680    22.6230     2.1460   -27.4460 
   69.2500    70.0430     9.0850     7.0970     8.2860    22.6290     2.1400   -27.0750 
   69.3750    68.1340     9.1990     7.1840     8.0250    22.5440     2.1340   -26.8250 
   69.5000    67.4670     9.2490     7.2700     7.9080    22.4020     2.1330   -26.6540 
   69.6250    68.4740     9.2150     7.3060     8.0780    22.2700     2.1380   -26.5950 
   69.7500    67.8590     9.1470     7.2850     8.4380    22.3250     2.1450   -26.5410 
   69.8750    64.9970     9.0930     7.2220     8.6110    22.5480     2.1480   -26.5310 
   70.0000    62.7550     9.0660     7.1440     8.5320    22.8240     2.1450   -26.5440 
   70.1250    63.4460     9.0220     7.0720     8.5290    23.1100     2.1360   -26.5690 
   70.2500    65.6360     8.9130     7.0120     8.5980    23.2950     2.1210   -26.6370 
   70.3750    68.1650     8.7440     6.9600     8.6330    23.3940     2.1030   -26.7050 
   70.5000    69.0780     8.5560     6.9150     8.6090    23.4550     2.0850   -26.7410 
   70.6250    68.0900     8.4150     6.8790     8.5030    23.5050     2.0750   -26.6920 
   70.7500    67.4530     8.3480     6.8480     8.4160    23.5530     2.0740   -26.6110 
   70.8750    67.7400     8.3410     6.8160     8.4130    23.5870     2.0820   -26.5080 
   71.0000    68.1020     8.3680     6.7770     8.3610    23.6030     2.0930   -26.3350 
   71.1250    68.4800     8.4010     6.7290     8.2380    23.6270     2.1030   -26.1050 
   71.2500    70.1350     8.4260     6.6790     8.0580    23.6740     2.1100   -25.8310 
   71.3750    72.3830     8.4400     6.6330     8.0020    23.7090     2.1130   -25.4830 
   71.5000    74.3690     8.4420     6.6000     8.0830    23.7140     2.1140   -25.0940 
   71.6250    75.4480     8.4310     6.5850     7.9890    23.6920     2.1140   -24.7480 
   71.7500    74.0860     8.4070     6.5800     7.8960    23.6810     2.1140   -24.4190 
   71.8750    71.2530     8.3780     6.5780     7.9280    23.6840     2.1140   -24.1160 
   72.0000    70.2450     8.3570     6.5680     7.9720    23.6990     2.1170   -23.8650 
   72.1250    72.2560     8.3660     6.5420     7.8490    23.7130     2.1190   -23.6850 
   72.2500    74.0770     8.4020     6.5080     7.6570    23.7170     2.1210   -23.5120 
   72.3750    74.2340     8.4570     6.4800     7.6070    23.7170     2.1210   -23.4420 
