~V
VERS. 2.00: Ver 2.00
~W
STRT.M 59.0000:
STOP.M 275.0000:
STEP.M 0.1250:
NULL. -999.2500:
UWI. F10021:
~C
DEPT.M :
GR.API :
RML.OHMM :
RI. :
RXO.OHMM :
CALI.CM :
DEN.GM/CC :
SP.MV :
~A
# ...
  171.5000    58.6530    22.1850    21.6140    12.0180    20.7850     2.2480    -4.8420 
  171.6250    55.0540    21.5980    21.0420    12.2550    20.9110     2.2620    -5.1350 
  171.7500    54.1770    20.8290    20.2890    12.3950    20.9590     2.2730    -5.4290 
  171.8750    55.4300    20.1910    19.5990    12.3910    20.9460     2.2810    -5.7700 
  172.0000    57.4710    20.1560    19.3670    12.2120    20.9180     2.2870    -6.1330 
  172.1250    58.8270    21.3750    20.1770    12.4180    20.8910     2.3030    -6.5770 
  172.2500    58.0400    23.7960    22.0880    13.6030    20.8550     2.3400    -7.0660 
  172.3750    54.7750    27.0780    24.9330    15.7920    20.8060     2.4030    -7.6050 
  172.5000    51.0380    30.5090    28.2010    18.4830    20.7430     2.4840    -8.1580 
  172.6250    50.9310    33.0380    30.9750    19.5490    20.6600     2.5650    -8.6960 
  172.7500    52.8500    34.2910    32.6670    17.8720    20.5690     2.6250    -9.2030 
  172.8750    52.2490    34.4970    33.2590    15.7320    20.4830     2.6600    -9.6720 
  173.0000    47.9420    34.3720    33.2760    14.9540    20.3850     2.6750   -10.0820 
  173.1250    44.7510    34.8550    33.5430    14.8130    20.2540     2.6810   -10.4050 
  173.2500    45.0890    36.2020    34.4550    15.1450    20.1420     2.6850   -10.6330 
  173.3750    46.6910    38.1660    35.9000    15.4370    20.0600     2.6880   -10.7930 
  173.5000    48.7510    40.2260    37.4780    15.4680    19.9720     2.6910   -10.9140 
  173.6250    50.8660    41.7280    38.6320    15.2660    19.8290     2.6960   -10.9760 
  173.7500    51.8370    42.4590    39.1480    14.8470    19.6400     2.7010   -11.0070 
  173.8750    51.1130    42.4800    39.0720    14.2840    19.4330     2.7070   -10.9700 
  174.0000    49.3020    42.0760    38.6510    13.7300    19.2270     2.7120   -10.9310 
  174.1250    45.2400    41.6120    38.2040    13.0340    18.9430     2.7140   -10.8450 
  174.2500    40.9810    41.2770    37.8960    12.3040    18.5590     2.7150   -10.7580 
  174.3750    40.1910    40.9530    37.6300    11.5940    18.0530     2.7130   -10.6520 
  174.5000    43.3340    40.3400    37.1430    10.9660    17.4070     2.7070   -10.5300 
  174.6250    46.1090    39.0000    36.0250    10.4070    16.6170     2.6880   -10.4100 
  174.7500    46.0150    36.9560    34.2520    10.0700    15.8000     2.6540   -10.2870 
  174.8750    44.9360    34.4340    32.0000     9.9960    15.0640     2.6090   -10.1880 
  175.0000    45.0590    31.8250    29.6190    10.1790    14.5320     2.5640   -10.0800 
  175.1250    46.0820    29.5790    27.5370    10.4570    14.3430     2.5360   -10.0190 
  175.2500    46.4580    27.8150    25.8980    10.5630    14.5220     2.5270    -9.9760 
  175.3750    46.5360    26.4770    24.6680    10.5220    15.0600     2.5350    -9.9540 
  175.5000    47.6040    25.4220    23.7170    10.5620    15.9590     2.5530    -9.9530 
  175.6250    49.2890    24.4950    22.8820    10.8200    17.2090     2.5700    -9.9940 
  175.7500    49.2050    23.5640    22.0170    11.3070    18.5120     2.5830   -10.0520 
  175.8750    47.1690    22.6190    21.0960    12.3330    19.6770     2.5920   -10.1280 
  176.0000    46.1850    21.7220    20.1740    13.7240    20.6250     2.5990   -10.2020 
  176.1250    48.5880    20.9720    19.3630    14.9660    21.3410     2.6030   -10.2650 
  176.2500    51.0080    20.3810    18.7090    15.6570    21.8620     2.6060   -10.3460 
  176.3750    51.2960    19.9350    18.2200    16.1780    22.1980     2.6090   -10.4470 
  176.5000    50.2400    19.6220    17.8920    17.1700    22.3890     2.6090   -10.5400 
  176.6250    49.7870    19.5390    17.7850    17.9880    22.5090     2.6040   -10.6280 
  176.7500    50.1850    19.8160    17.9660    18.4330    22.6120     2.5940   -10.7230 
  176.8750    50.4970    20.6070    18.5470    18.6170    22.7050     2.5790   -10.8000 
  177.0000    49.1730    21.9420    19.5710    19.3110    22.7950     2.5640   -10.8630 
  177.1250    47.0760    23.6360    20.9450    21.3940    22.8830     2.5540   -10.8970 
  177.2500    46.3320    25.1520    22.2640    23.8140    22.9770     2.5540   -10.9460 
  177.3750    46.8290    26.0120    23.1230    25.8200    23.0730     2.5620   -10.9720 
  177.5000    47.3330    25.9130    23.2100    25.3510    23.1810     2.5770   -11.0030 
  177.6250    47.9390    24.7890    22.3800    22.3860    23.2870     2.5960   -10.9850 
  177.7500    48.1760    23.2450    21.1080    18.7320    23.3640     2.6140   -10.9490 
  177.8750    47.7340    21.7360    19.7870    16.0010    23.4070     2.6220   -10.9090 
  178.0000    48.0990    20.5140    18.6560    15.1510    23.4250     2.6160   -10.8620 
  178.1250    50.1180    19.5890    17.7640    15.0630    23.4350     2.5940   -10.8460 
  178.2500    51.6560    18.7230    16.9470    15.0940    23.4440     2.5610   -10.8090 
  178.3750    52.1270    17.7880    16.1010    14.8740    23.4500     2.5240   -10.7970 
  178.5000    51.8070    16.7890    15.2170    13.9030    23.4450     2.4920   -10.7780 
  178.6250    51.1710    15.9120    14.4200    12.4940    23.4080     2.4740   -10.7750 
  178.7500    51.3190    15.3310    13.8460    11.6550    23.3590     2.4670   -10.7850 
  178.8750    51.5130    15.1250    13.5730    11.6530    23.3290     2.4710   -10.8230 
  179.0000    49.5290    15.2570    13.5950    12.1920    23.3550     2.4770   -10.8850 
  179.1250    47.5000    15.6030    13.8450    12.9480    23.4460     2.4780   -10.9540 
  179.2500    49.6540    15.9350    14.1320    13.6600    23.5910     2.4740   -11.0100 
  179.3750    53.6270    16.1110    14.3190    13.9400    23.7340     2.4680   -11.0410 
  179.5000    55.5510    16.0680    14.3270    13.8620    23.8050     2.4670   -11.0660 
  179.6250    54.3200    15.8390    14.1410    13.8370    23.7900     2.4760   -11.1010 
  179.7500    51.6130    15.6270    13.8990    14.0060    23.7590     2.4910   -11.1120 
  179.8750    48.1620    15.5600    13.7430    14.2460    23.7440     2.5070   -11.0980 
  180.0000    46.5730    15.8030    13.8190    14.6250    23.7480     2.5210   -11.1040 
  180.1250    47.3480    16.3200    14.2960    15.5640    23.7580     2.5320   -11.0840 
  180.2500    46.7040    17.0900    15.1210    16.8240    23.7780     2.5400   -11.0720 
  180.3750    44.8190    17.8510    16.1640    18.3870    23.8060     2.5450   -11.0420 
  180.5000    44.8240    18.3520    17.1880    19.7130    23.8050     2.5410   -11.0250 
  180.6250    47.1260    18.9180    17.8190    20.2850    23.6940     2.5150   -10.9970 
  180.7500    48.6380    18.8740    17.9160    19.7230    23.4550     2.4650   -10.9870 
  180.8750    49.0500    18.3400    17.5260    17.6720    23.1030     2.4010   -10.9910 
  181.0000    49.5220    17.6200    16.8870    14.6030    22.7110     2.3450   -10.9760 
  181.1250    49.8020    17.1280    16.3530    12.6410    22.4680     2.3210   -10.9860 
  181.2500    48.6280    17.0390    16.1280    12.3930    22.5110     2.3220   -10.9680 
  181.3750    46.8290    17.3220    16.2360    13.0020    22.7570     2.3330   -10.9640 
  181.5000    45.5560    17.7960    16.5660    13.8780    23.0890     2.3340   -10.9440 
  181.6250    46.6300    18.1690    16.8990    14.6110    23.3470     2.3170   -10.9380 
  181.7500    50.2890    18.2350    17.0210    14.6600    23.3800     2.2970   -10.9280 
  181.8750    53.3580    17.9320    16.8340    14.0770    23.1410     2.2910   -10.9200 
  182.0000    51.5980    17.3300    16.3550    13.5400    22.7580     2.3010   -10.9440 
  182.1250    45.9840    16.5880    15.6880    13.3460    22.3570     2.3190   -10.9910 
  182.2500    44.9340    15.9260    15.0320    13.1770    22.0590     2.3330   -11.0920 
  182.3750    48.4310    15.4660    14.5130    12.9650    22.0430     2.3450   -11.2100 
  182.5000    49.5450    15.2460    14.1970    13.1260    22.4190     2.3600   -11.3480 
  182.6250    46.3150    15.2380    14.1040    13.8050    22.9240     2.3780   -11.4980 
