~V
VERS. 2.00: Ver 2.00
~W
STRT.M 60.0000:
STOP.M 271.0000:
STEP.M 0.1250:
NULL. -999.2500:
UWI. F10035:
~C
DEPT.M :
GR.API :
RML.OHMM :
RI. :
RXO.OHMM :
CALI.CM :
DEN.GM/CC :
SP.MV :
~A
# ...
  150.0000    95.3680     5.5970     5.4300     5.5680    24.8100     2.3500     0.3460 
  150.1250   100.0770     5.6500     5.4230     5.8690    24.7940     2.3580     0.3990 
  150.2500   101.9820     5.7130     5.4370     6.1160    24.8000     2.3660     0.4540 
  150.3750    99.0270     5.7670     5.4680     6.0220    24.8220     2.3720     0.5050 
  150.5000    94.6370     5.8180     5.5200     5.6200    24.8380     2.3740     0.5080 
  150.6250    91.9200     5.8990     5.6040     5.6530    24.8480     2.3700     0.4330 
  150.7500    90.1200     6.0420     5.7300     5.9060    24.8420     2.3630     0.3200 
  150.8750    89.6440     6.2710     5.9080     6.1240    24.7970     2.3550     0.1790 
  151.0000    90.8460     6.5860     6.1400     6.2050    24.7480     2.3460     0.0110 
  151.1250    91.5180     6.9410     6.3990     6.5340    24.7660     2.3300    -0.1690 
  151.2500    89.5870     7.2360     6.6190     7.0130    24.7430     2.3130    -0.3620 
  151.3750    87.3070     7.3900     6.7410     7.5100    24.6410     2.3010    -0.5780 
  151.5000    85.7960     7.3620     6.7260     7.7970    24.5190     2.3010    -0.8020 
  151.6250    85.6950     7.1830     6.5890     7.4560    24.4960     2.3130    -1.0290 
  151.7500    88.2630     7.0580     6.4690     7.0840    24.5070     2.3220    -1.3250 
  151.8750    91.1070     7.2440     6.5440     7.4500    24.4140     2.3210    -1.6930 
  152.0000    88.7980     8.0420     7.0200     8.3230    24.2490     2.3120    -2.0940 
  152.1250    79.1420     9.9480     8.2860     9.9530    24.1220     2.3210    -2.4510 
  152.2500    71.1820    13.0670    10.5350    13.5810    24.0770     2.3600    -2.7580 
  152.3750    67.5650    17.3920    13.9410    20.6360    24.0480     2.4200    -3.0200 
  152.5000    64.4370    22.4060    18.2930    33.2800    23.9990     2.4680    -3.2540 
  152.6250    60.1550    26.5290    22.4210    39.8650    23.9870     2.4620    -3.4400 
  152.7500    58.6130    28.3770    24.8560    34.8460    24.1050     2.4010    -3.4760 
  152.8750    58.9610    27.8770    25.1950    27.1000    24.3980     2.3110    -3.3680 
  153.0000    57.5880    26.1420    24.1580    23.1650    24.7100     2.2230    -3.1590 
  153.1250    55.5350    24.5290    22.8330    22.5150    25.0050     2.1660    -2.9420 
  153.2500    55.4850    23.5720    21.8750    22.8650    25.1900     2.1360    -2.7640 
  153.3750    55.5690    23.1790    21.3470    23.0890    25.2410     2.1230    -2.6170 
  153.5000    55.0330    23.0690    21.0950    22.6400    25.2010     2.1180    -2.5130 
  153.6250    56.3580    22.9970    20.9500    21.8450    25.1650     2.1140    -2.4810 
  153.7500    58.3140    22.8950    20.8310    20.9160    25.1390     2.1060    -2.5810 
  153.8750    57.3750    22.8000    20.7650    20.6970    25.1260     2.0940    -2.7980 
  154.0000    53.0930    22.7540    20.7890    20.9000    25.1170     2.0820    -3.0630 
  154.1250    50.6060    22.7790    20.9380    20.9570    24.9940     2.0770    -3.3010 
  154.2500    52.5870    22.8590    21.1750    20.6570    24.8250     2.0790    -3.4910 
  154.3750    57.2160    23.0110    21.4790    20.3490    24.6590     2.0880    -3.6360 
  154.5000    61.1850    23.2770    21.8490    20.2260    24.5470     2.0990    -3.7090 
  154.6250    62.4790    23.7150    22.3150    20.8680    24.5740     2.1100    -3.7070 
  154.7500    61.8360    24.2370    22.8410    21.7340    24.7120     2.1170    -3.6400 
  154.8750    58.9110    24.6670    23.3060    22.6250    24.8380     2.1220    -3.4920 
  155.0000    54.2550    24.7620    23.5170    23.1550    24.8550     2.1270    -3.3140 
  155.1250    52.5590    24.2750    23.2280    23.8750    24.8540     2.1370    -3.1680 
  155.2500    56.2700    23.3820    22.5510    23.8450    24.8610     2.1560    -3.0840 
  155.3750    61.6970    22.3680    21.7050    21.6770    24.8130     2.1790    -3.0630 
  155.5000    63.0140    21.5670    20.9760    17.6180    24.6830     2.1990    -3.0990 
  155.6250    59.7770    21.3350    20.6850    17.2490    24.5640     2.2070    -3.1300 
  155.7500    57.5870    21.6520    20.8700    18.9700    24.5970     2.2020    -3.1530 
  155.8750    57.5180    22.3490    21.4380    21.2740    24.7800     2.1890    -3.2110 
  156.0000    57.3150    23.0900    22.1370    22.1550    24.9530     2.1720    -3.2480 
  156.1250    57.7580    23.4080    22.5580    22.7040    25.0750     2.1590    -3.2480 
  156.2500    58.5120    23.2020    22.5310    23.6540    25.1900     2.1500    -3.2070 
  156.3750    57.8530    22.6710    22.1660    23.3590    25.2640     2.1480    -3.1420 
  156.5000    56.1790    22.1890    21.7640    21.1760    25.0640     2.1530    -3.0570 
  156.6250    56.2530    22.1940    21.7090    19.4830    24.8050     2.1610    -2.9720 
  156.7500    58.0090    22.7590    22.1210    19.9730    24.5380     2.1650    -2.9070 
  156.8750    60.2850    23.7680    22.9570    22.8310    24.3180     2.1620    -2.8700 
  157.0000    61.9700    24.9140    23.9950    25.2020    24.1230     2.1550    -2.9130 
  157.1250    60.6870    25.7190    24.8270    25.6460    24.1140     2.1480    -3.0140 
  157.2500    58.1450    25.9950    25.2120    24.9890    24.2730     2.1440    -3.1380 
  157.3750    57.5280    25.8310    25.1580    24.7420    24.5230     2.1450    -3.2930 
  157.5000    59.1710    25.4570    24.8300    24.1080    24.6570     2.1500    -3.5000 
  157.6250    60.3460    25.0520    24.3840    22.7850    24.6250     2.1560    -3.7750 
  157.7500    60.6500    24.6000    23.8610    23.1350    24.5970     2.1620    -4.0740 
  157.8750    60.3120    23.9920    23.1960    24.1850    24.6340     2.1650    -4.3680 
  158.0000    60.2540    23.2050    22.3730    22.8730    24.6880     2.1580    -4.6540 
  158.1250    62.5050    22.4260    21.5380    19.6360    24.7180     2.1370    -4.9080 
  158.2500    66.8290    21.9280    20.9250    17.6830    24.7340     2.1150    -5.1120 
  158.3750    70.2720    21.8670    20.6830    17.6480    24.6830     2.1140    -5.2520 
  158.5000    70.1080    22.2590    20.8590    18.5100    24.4860     2.1440    -5.3180 
  158.6250    66.6600    23.0050    21.4190    21.3970    24.1670     2.1960    -5.2910 
  158.7500    63.2810    23.7860    22.0950    27.6360    23.9640     2.2370    -5.1890 
  158.8750    62.0250    24.3630    22.6560    30.4920    24.0720     2.2460    -4.9930 
  159.0000    62.2440    24.5990    22.9380    25.5930    24.4360     2.2200    -4.6960 
  159.1250    60.8280    24.4410    22.8410    23.0200    24.6460     2.1790    -4.3060 
  159.2500    59.0410    24.0590    22.4920    22.4830    24.6640     2.1460    -3.8760 
  159.3750    58.9100    23.6040    22.0220    22.5480    24.6310     2.1250    -3.4610 
  159.5000    60.3580    23.2430    21.5910    21.8960    24.6070     2.1110    -3.0930 
  159.6250    61.9120    23.2190    21.4160    20.4760    24.5690     2.1010    -2.7340 
  159.7500    61.6930    23.6300    21.5960    20.1250    24.5170     2.1010    -2.3390 
  159.8750    60.0360    24.4910    22.1600    21.0240    24.3960     2.1220    -1.9620 
  160.0000    58.0480    25.6690    23.0270    22.5160    24.2370     2.1640    -1.6510 
  160.1250    57.6150    26.8530    23.9820    23.5630    24.1800     2.2140    -1.4410 
  160.2500    57.9180    27.7030    24.7390    23.6750    24.1870     2.2480    -1.3040 
  160.3750    58.2600    28.0460    25.1330    23.4640    24.3200     2.2520    -1.2090 
  160.5000    59.4970    27.9190    25.1490    23.6070    24.5330     2.2270    -1.1010 
  160.6250    61.5250    27.5000    24.9050    24.0960    24.6840     2.1890    -1.0560 
  160.7500    60.8840    27.0410    24.6210    24.8440    24.7960     2.1590    -1.1280 
  160.8750    58.0080    26.6660    24.4160    25.1540    24.9120     2.1520    -1.2400 
  161.0000    55.8670    26.4660    24.3610    24.7650    24.9670     2.1650    -1.3460 
  161.1250    56.0550    26.6550    24.5900    24.8150    24.9540     2.1890    -1.4480 
