~V
VERS. 2.00: Ver 2.00
~W
STRT.M 50.0000:
STOP.M 237.0000:
STEP.M 0.1250:
NULL. -999.2500:
UWI. F10006:
~C
DEPT.M :
GR.API :
RML.OHMM :
RI. :
RXO.OHMM :
CALI.CM :
DEN.GM/CC :
SP.MV :
~A
# ...
  128.7500    72.3550    15.1420    13.7990    19.3080    22.7870     2.2060   -22.4090 
  128.8750    70.6230    19.2070    17.4910    26.8930    22.9320     2.1410   -22.3070 
  129.0000    68.5660    23.3520    21.5900    27.3760    23.0040     2.1180   -22.1750 
  129.1250    67.2990    26.4900    25.0110    24.4040    23.1810     2.1510   -22.0300 
  129.2500    66.8030    28.3010    27.1290    23.1680    23.4760     2.2080   -21.8810 
  129.3750    66.1340    29.0790    28.0380    23.4010    23.6830     2.2570   -21.7460 
  129.5000    65.1610    29.4670    28.3010    25.5060    23.3840     2.2760   -21.6360 
  129.6250    63.9040    30.0360    28.4990    25.1720    23.2360     2.2610   -21.5660 
  129.7500    63.5270    30.8400    28.8320    25.5550    23.2400     2.2350   -21.5270 
  129.8750    65.8620    31.6660    29.1930    24.1920    23.2840     2.2130   -21.4980 
  130.0000    69.3950    32.2860    29.4250    22.1860    23.1170     2.1970   -21.4620 
  130.1250    70.8130    32.5430    29.4050    21.7470    22.8240     2.1840   -21.4050 
  130.2500    70.9240    32.5340    29.2060    22.7620    22.7410     2.1720   -21.3230 
  130.3750    70.9230    32.3600    28.9170    23.3470    22.8890     2.1660   -21.2330 
  130.5000    70.9070    32.1220    28.6290    23.5110    23.1550     2.1680   -21.1540 
  130.6250    70.5220    31.9280    28.4260    23.5240    23.5110     2.1760   -21.0850 
  130.7500    71.3860    31.8790    28.3640    24.7890    23.8830     2.1880   -21.0060 
  130.8750    72.0030    32.1090    28.5320    26.5280    24.1220     2.1990   -20.9280 
  131.0000    71.8170    32.7760    29.0560    26.7650    24.2030     2.2080   -20.8520 
  131.1250    72.2360    34.0830    30.1360    25.8820    24.0760     2.2090   -20.7810 
  131.2500    71.3890    35.8700    31.6840    26.5280    23.9590     2.2010   -20.7380 
  131.3750    68.9340    37.8520    33.5030    29.5990    23.9350     2.1870   -20.7130 
  131.5000    65.9130    39.5850    35.2310    33.8690    24.0460     2.1730   -20.6790 
  131.6250    66.1760    40.4670    36.3220    35.5540    24.1820     2.1640   -20.6350 
  131.7500    68.8080    40.4660    36.6380    33.0790    24.1940     2.1540   -20.5920 
  131.8750    70.6830    39.8500    36.3110    30.1390    24.0340     2.1340   -20.5300 
  132.0000    69.4230    39.1140    35.7170    28.1470    23.9240     2.1010   -20.4560 
  132.1250    66.8100    38.8850    35.3910    26.9980    23.8980     2.0780   -20.3700 
  132.2500    65.2350    39.4090    35.6600    28.5780    23.9500     2.0900   -20.2660 
  132.3750    63.6230    40.6950    36.6470    29.6930    24.0330     2.1400   -20.1480 
  132.5000    61.5590    42.5510    38.2790    29.0020    24.0240     2.2030   -20.0330 
  132.6250    61.1270    44.5630    40.2760    28.5860    23.7990     2.2340   -19.9240 
  132.7500    63.1180    46.1330    42.0540    30.7170    23.5780     2.2230   -19.8020 
  132.8750    65.4600    46.8020    43.1310    35.2380    23.6440     2.1860   -19.6860 
  133.0000    67.1360    46.3430    43.2100    38.3910    23.9200     2.1530   -19.5780 
  133.1250    69.8070    44.7640    42.2020    35.1960    24.0590     2.1520   -19.4630 
  133.2500    72.4600    42.7030    40.6570    29.9640    24.0470     2.1710   -19.3450 
  133.3750    73.7310    40.5950    38.9870    26.3120    23.9560     2.1930   -19.2360 
  133.5000    73.4800    38.9220    37.4580    25.3920    23.9160     2.2070   -19.1300 
  133.6250    73.6070    37.9370    36.1510    26.4950    23.9650     2.2020   -19.0000 
  133.7500    74.7450    37.2190    34.9320    28.0540    24.0250     2.1820   -18.8630 
  133.8750    76.6180    35.9340    33.7210    27.1380    24.0310     2.1540   -18.7360 
  134.0000    79.6720    34.3970    32.5520    22.6790    23.9790     2.1290   -18.6450 
  134.1250    80.0560    33.3130    31.6700    20.7170    23.8670     2.1310   -18.6250 
  134.2500    75.5840    32.9780    31.2870    20.8250    23.7660     2.1680   -18.6440 
  134.3750    70.6410    33.4200    31.4930    22.0590    23.6640     2.2290   -18.6490 
  134.5000    70.0320    34.3270    32.1310    22.7120    23.4910     2.2900   -18.6060 
  134.6250    72.1660    34.9650    32.6830    23.3150    23.3740     2.3160   -18.5380 
  134.7500    72.2960    34.7070    32.5770    23.9230    23.3110     2.3040   -18.4730 
  134.8750    72.3280    33.4280    31.6180    23.6500    23.3000     2.2710   -18.4130 
  135.0000    73.5950    31.5880    30.1000    23.1890    23.3050     2.2380   -18.3290 
  135.1250    73.7320    30.2090    28.8030    22.4700    23.2800     2.2230   -18.1890 
  135.2500    73.1430    30.1370    28.4770    22.1220    23.2130     2.2190   -17.9760 
  135.3750    72.2160    31.8680    29.6350    24.2090    23.1460     2.2210   -17.6950 
  135.5000    70.5090    35.5600    32.5830    30.0880    23.1180     2.2260   -17.4040 
  135.6250    66.7930    41.1950    37.6080    33.2210    23.1330     2.2290   -17.1430 
  135.7500    64.1560    47.7340    43.9040    35.9740    23.2250     2.2280   -16.9020 
  135.8750    64.5340    54.2100    50.5850    41.6590    23.4040     2.2190   -16.6710 
  136.0000    66.5540    59.6390    56.5820    43.1750    23.4160     2.2020   -16.4560 
  136.1250    68.2270    62.9590    60.6370    43.6850    23.3900     2.1820   -16.2280 
  136.2500    69.7300    64.1950    62.5580    45.4850    23.3620     2.1680   -16.0330 
  136.3750    71.4060    63.3860    62.3040    45.6720    23.3680     2.1640   -15.9480 
  136.5000    72.1470    60.7180    60.0530    43.4030    23.3690     2.1710   -15.9460 
  136.6250    69.9610    56.4620    56.0690    37.4520    23.3630     2.1820   -15.9700 
  136.7500    67.6810    51.6500    51.3960    33.0880    23.3600     2.1890   -15.9940 
  136.8750    67.4960    47.0880    46.8140    29.1760    23.3570     2.1900   -16.0130 
  137.0000    68.0530    43.4500    42.9910    25.5810    23.3560     2.1850   -16.0350 
  137.1250    67.0270    41.3870    40.6020    26.1760    23.3670     2.1790   -16.1350 
  137.2500    65.5880    40.7270    39.5800    27.2150    23.4080     2.1750   -16.2470 
  137.3750    64.7160    41.2880    39.8170    27.6070    23.4500     2.1770   -16.3140 
  137.5000    65.1090    42.8000    41.0920    28.2530    23.4770     2.1830   -16.3740 
  137.6250    67.0780    45.0560    43.2160    30.8530    23.4530     2.1870   -16.4540 
  137.7500    69.3360    47.7360    45.8120    33.6930    23.4360     2.1850   -16.5470 
  137.8750    69.5790    50.8060    48.7940    36.3460    23.3860     2.1780   -16.6260 
  138.0000    67.9350    54.3450    52.2100    39.0300    23.3590     2.1780   -16.7010 
  138.1250    66.7110    58.4830    56.1880    40.1170    23.3710     2.1990   -16.7920 
  138.2500    65.2420    62.9090    60.4690    41.0710    23.4140     2.2390   -16.8830 
  138.3750    62.3370    67.0580    64.5540    44.0420    23.4440     2.2820   -16.9970 
  138.5000    60.1090    70.0620    67.6550    47.5170    23.4020     2.3070   -17.1260 
  138.6250    60.2020    70.5520    68.4820    43.2290    23.3830     2.3000   -17.2560 
  138.7500    60.7800    68.4440    66.8640    39.3540    23.3570     2.2820   -17.3960 
  138.8750    60.9660    64.1640    63.1100    35.3220    23.2850     2.2760   -17.5680 
  139.0000    60.5720    58.7030    58.0810    34.6560    23.3010     2.2960   -17.7460 
  139.1250    59.3930    53.3090    52.9080    32.5630    23.4870     2.3400   -17.9280 
  139.2500    58.8860    48.8150    48.4580    30.2730    23.6840     2.3790   -18.1350 
  139.3750    59.8560    45.4790    45.0430    28.5820    23.8550     2.4000   -18.3330 
  139.5000    61.2770    43.2500    42.6810    28.5710    24.0370     2.4020   -18.5240 
  139.6250    61.9480    42.0910    41.3980    29.1840    23.9260     2.4040   -18.7160 
  139.7500    62.3930    41.6960    40.9120    28.6320    24.4890     2.4250   -18.8950 
  139.8750    61.6690    42.0020    41.1490    27.9380    25.5350     2.4680   -19.0470 
