~V
VERS. 2.00: Ver 2.00
~W
STRT.M 64.0000:
STOP.M 260.0000:
STEP.M 0.1250:
NULL. -999.2500:
UWI. F10016:
~C
DEPT.M :
GR.API :
RML.OHMM :
RI. :
RXO.OHMM :
CALI.CM :
DEN.GM/CC :
SP.MV :
~A
# ...
  142.7500    72.5350    27.9670    24.4900    25.5490    24.5260     2.1400   -16.1370 
  142.8750    71.4390    28.3940    24.8740    26.9020    24.5560     2.1480   -16.0520 
  143.0000    71.2050    28.8610    25.4080    28.2840    24.5760     2.1450   -15.9300 
  143.1250    71.8140    29.2940    25.9220    28.5300    24.5980     2.1340   -15.7990 
  143.2500    72.5060    29.7190    26.3530    28.3570    24.6320     2.1230   -15.6930 
  143.3750    71.9660    30.2110    26.7880    29.2900    24.7300     2.1220   -15.5500 
  143.5000    71.0570    30.8530    27.3850    29.9100    24.8540     2.1300   -15.4070 
  143.6250    70.9870    31.7300    28.3150    31.1040    24.9190     2.1440   -15.2850 
  143.7500    69.6710    32.7420    29.4630    32.1280    24.8600     2.1590   -15.1450 
  143.8750    66.6310    33.6710    30.5670    33.4370    24.7520     2.1700   -15.0420 
  144.0000    64.1170    34.1650    31.2460    34.7450    24.7280     2.1730   -14.9690 
  144.1250    64.7300    33.6970    31.0110    34.7100    24.7650     2.1660   -14.9190 
  144.2500    67.3370    32.3310    29.9640    33.3020    24.7700     2.1560   -14.8930 
  144.3750    70.7800    30.4160    28.4150    30.0880    24.6820     2.1500   -14.8860 
  144.5000    74.6450    28.5550    26.8330    26.2630    24.4670     2.1500   -14.9030 
  144.6250    76.2090    27.4880    25.7600    24.2870    24.1650     2.1500   -14.9530 
  144.7500    73.3700    27.3350    25.3600    26.0790    24.1200     2.1450   -15.0320 
  144.8750    67.6760    27.8420    25.5650    29.2580    24.3350     2.1360   -15.1530 
  145.0000    64.5670    28.4480    26.0540    29.9030    24.5890     2.1300   -15.3140 
  145.1250    68.1720    28.3840    26.2160    26.9330    24.6900     2.1380   -15.4550 
  145.2500    73.0520    27.4470    25.6600    23.1490    24.5850     2.1580   -15.5990 
  145.3750    74.6890    25.8820    24.4120    21.1080    24.4320     2.1810   -15.7650 
  145.5000    72.2980    24.2350    22.8750    20.5310    24.3480     2.2000   -15.8950 
  145.6250    70.7950    23.1700    21.6840    20.8960    24.3740     2.2070   -16.0320 
  145.7500    73.2680    22.8600    21.1530    22.4260    24.4130     2.2060   -16.1370 
  145.8750    74.7190    23.2210    21.2920    24.5730    24.4420     2.2020   -16.1790 
  146.0000    70.6350    24.0080    21.9130    26.3220    24.4650     2.1980   -16.2200 
  146.1250    63.8170    24.9790    22.7930    27.9740    24.5250     2.1920   -16.2450 
  146.2500    60.9090    26.0590    23.8110    29.2640    24.6510     2.1780   -16.2610 
  146.3750    61.1950    27.4700    25.1180    30.0180    24.8150     2.1590   -16.3090 
  146.5000    61.7490    29.5500    26.9750    31.4710    24.9400     2.1530   -16.3560 
  146.6250    63.0080    32.6620    29.7050    40.7020    24.8420     2.1870   -16.3810 
  146.7500    64.1030    36.3620    33.0300    60.9810    24.5740     2.2560   -16.4000 
  146.8750    64.2920    39.8130    36.3400    78.7730    24.3280     2.3280   -16.3360 
  147.0000    62.9260    41.9030    38.6720    79.6890    24.1490     2.3630   -16.1930 
  147.1250    60.5100    41.4630    38.7920    59.7630    24.1240     2.3290   -15.9630 
  147.2500    59.9610    39.1690    37.0190    41.7260    24.2110     2.2580   -15.6480 
  147.3750    62.3920    36.1090    34.2160    31.7600    24.3910     2.1890   -15.2730 
  147.5000    66.8290    33.4310    31.4750    27.4960    24.6290     2.1520   -14.8640 
  147.6250    68.3890    32.0230    29.7770    24.5790    24.6290     2.1490   -14.4300 
  147.7500    66.1840    31.7010    29.1550    24.1750    24.1820     2.1520   -13.9860 
  147.8750    62.3520    32.0760    29.3320    30.8290    23.6550     2.1440   -13.6160 
  148.0000    60.8940    32.6810    29.8770    45.7250    23.5370     2.1220   -13.2850 
  148.1250    64.1610    33.1010    30.3930    46.5550    23.9310     2.0960   -13.0310 
  148.2500    67.1490    33.2340    30.7350    37.6340    24.4040     2.0810   -12.8740 
  148.3750    67.5730    33.1570    30.9440    33.9210    24.7030     2.0810   -12.7440 
  148.5000    65.6060    33.0160    31.0990    33.6370    24.8280     2.0900   -12.6760 
  148.6250    63.1070    32.9540    31.2600    33.2470    24.8460     2.1000   -12.6800 
  148.7500    60.6880    33.0220    31.4740    32.9200    24.8080     2.1040   -12.7070 
  148.8750    59.5750    33.2110    31.7640    33.0990    24.7370     2.1020   -12.7580 
  149.0000    61.0750    33.4460    32.0880    33.6020    24.6680     2.1000   -12.8670 
  149.1250    63.6120    33.5180    32.2320    33.4650    24.6360     2.1040   -12.9850 
  149.2500    64.5920    33.2180    31.9750    33.7540    24.6560     2.1170   -13.0660 
  149.3750    63.9260    32.4200    31.2180    33.7460    24.7160     2.1370   -13.1790 
  149.5000    64.3910    31.1860    30.0750    31.8100    24.8010     2.1590   -13.2650 
  149.6250    68.5200    29.8350    28.8950    28.2100    24.8350     2.1810   -13.2760 
  149.7500    73.4500    28.8180    28.0490    27.0370    24.7450     2.1990   -13.2890 
  149.8750    75.6600    28.3970    27.7020    28.6570    24.6380     2.2140   -13.2400 
  150.0000    72.1510    28.5790    27.8130    30.4870    24.6030     2.2240   -13.1540 
  150.1250    65.2320    29.0830    28.1430    31.7470    24.5700     2.2290   -13.0640 
  150.2500    61.7000    29.3960    28.3330    32.5360    24.5010     2.2310   -12.9670 
  150.3750    63.1800    29.2540    28.2230    32.4960    24.4320     2.2350   -12.8660 
  150.5000    67.1910    28.6930    27.8610    28.9570    24.3980     2.2380   -12.7560 
  150.6250    69.1760    28.0710    27.4870    24.8230    24.3690     2.2330   -12.6410 
  150.7500    68.4340    27.8310    27.3610    24.3970    24.3460     2.2180   -12.5110 
  150.8750    66.4060    28.1760    27.5950    29.9090    24.3810     2.1950   -12.3810 
  151.0000    64.2570    29.0550    28.1630    34.1140    24.4870     2.1740   -12.2670 
  151.1250    65.2010    30.1990    28.9290    33.1450    24.5810     2.1710   -12.1960 
  151.2500    67.5270    31.1910    29.6530    32.0260    24.5590     2.1820   -12.1320 
  151.3750    68.6740    31.8080    30.2000    32.0980    24.5010     2.1920   -12.0720 
  151.5000    67.2030    32.0290    30.5570    32.8790    24.4920     2.1850   -12.0580 
  151.6250    64.1830    32.0120    30.8490    32.7180    24.5300     2.1570   -12.0740 
  151.7500    63.3000    32.0160    31.2360    31.7370    24.5280     2.1280   -12.1070 
  151.8750    64.6280    32.1580    31.7800    32.0590    24.4480     2.1210   -12.1320 
  152.0000    66.0590    32.5080    32.4830    34.2750    24.2840     2.1430   -12.1470 
  152.1250    66.3730    33.2250    33.3850    36.5470    24.1190     2.1860   -12.2080 
  152.2500    66.0140    34.3960    34.5300    34.7680    24.1120     2.2240   -12.3120 
  152.3750    66.4160    36.0800    35.9990    35.3660    24.2290     2.2450   -12.4020 
  152.5000    67.0170    38.0900    37.7240    38.2220    24.3320     2.2460   -12.5320 
  152.6250    65.5210    39.5580    39.0290    41.1680    24.3460     2.2330   -12.7270 
  152.7500    63.3770    39.2980    38.7720    39.0190    24.3460     2.2190   -12.8920 
  152.8750    62.7740    36.4500    36.0310    34.2850    24.4170     2.2130   -13.0940 
  153.0000    63.9480    31.1550    30.9010    27.2930    24.4370     2.2200   -13.2890 
  153.1250    67.5190    24.7520    24.7530    18.2090    24.3020     2.2380   -13.3980 
  153.2500    73.0250    19.2060    19.4730    11.6670    24.1390     2.2550   -13.4790 
  153.3750    78.4270    15.4570    15.8490     9.9360    24.0260     2.2610   -13.4910 
  153.5000    80.4690    13.7270    13.9880    11.4980    24.0080     2.2510   -13.4180 
  153.6250    78.4500    14.0450    13.9160    15.9060    24.0480     2.2300   -13.2460 
  153.7500    75.4710    15.6760    15.1340    19.6770    24.1010     2.2100   -13.0250 
  153.8750    72.4730    18.1510    17.4130    22.0570    24.1380     2.1980   -12.7530 
