~V
VERS. 2.00: Ver 2.00
~W
STRT.M 64.0000:
STOP.M 287.0000:
STEP.M 0.1250:
NULL. -999.2500:
UWI. F10052:
~C
DEPT.M :
SP.MV :
DEN.GM/CC :
GR.API :
RML.OHMM :
RI. :
RXO.OHMM :
CALI.CM :
~A
# ...
  154.0000   -25.0230     2.1100    70.4660     8.3220     7.7770     9.6010    22.6160 
  154.1250   -24.9280     2.0970    72.5140     8.2850     7.7250     9.5880    22.5240 
  154.2500   -24.8460     2.0960    67.6790     8.2470     7.7000     9.5650    22.4010 
  154.3750   -24.7730     2.1140    61.7400     8.1680     7.6990     9.6660    22.2580 
  154.5000   -24.6880     2.1470    61.6750     8.0450     7.7170     9.7520    22.1210 
  154.6250   -24.5640     2.1780    63.5910     7.9420     7.7520     9.8080    22.0440 
  154.7500   -24.4320     2.1890    63.7560     7.9300     7.7890     9.9250    22.0660 
  154.8750   -24.3360     2.1730    62.8240     8.0210     7.8140    10.1190    22.2040 
  155.0000   -24.2670     2.1360    61.2570     8.1750     7.8270    10.4740    22.4480 
  155.1250   -24.2190     2.0950    59.3660     8.3440     7.8610    10.2210    22.7690 
  155.2500   -24.1760     2.0650    59.3970     8.5370     7.9820    10.0410    23.1020 
  155.3750   -24.1380     2.0600    61.4540     8.8230     8.2380     9.9440    23.3730 
  155.5000   -24.1030     2.0940    62.6640     9.2470     8.6310     9.9350    23.5120 
  155.6250   -24.0670     2.1800    63.5150     9.7550     9.1000     9.8950    23.4720 
  155.7500   -24.0180     2.2750    64.2370    10.1800     9.5070     9.6330    23.3250 
  155.8750   -23.9460     2.3350    61.9260    10.4070     9.7360     9.4810    23.1190 
  156.0000   -23.8530     2.3370    58.4640    10.4530     9.7220     9.6520    22.8900 
  156.1250   -23.7300     2.2940    59.0620    10.4700     9.4700     9.9490    22.6810 
  156.2500   -23.5850     2.2460    61.4930    10.5620     9.1270     9.9570    22.5370 
  156.3750   -23.4360     2.2110    62.3770    10.6650     8.7920     9.8980    22.4660 
  156.5000   -23.2870     2.1890    62.8340    10.6150     8.5160     9.8230    22.4330 
  156.6250   -23.1600     2.1760    64.3940    10.2350     8.2990     9.7470    22.3830 
  156.7500   -23.0610     2.1670    65.8870     9.6340     8.0880     9.5660    22.2840 
  156.8750   -22.9480     2.1630    66.7430     9.0100     7.8680     9.0600    22.1300 
  157.0000   -22.8290     2.1670    65.9930     8.5590     7.6740     8.2720    21.9280 
  157.1250   -22.7320     2.1760    63.5860     8.4050     7.5890     8.2270    21.7080 
  157.2500   -22.6680     2.1810    63.5180     8.4710     7.6390     8.6520    21.5270 
  157.3750   -22.6220     2.1760    66.3410     8.6900     7.8170     9.0470    21.4210 
  157.5000   -22.5800     2.1620    67.3180     8.9880     8.0820     9.3230    21.3910 
  157.6250   -22.5130     2.1470    65.9040     9.2850     8.3800     9.6360    21.4250 
  157.7500   -22.4090     2.1430    67.2720     9.5310     8.6530     9.9770    21.5060 
  157.8750   -22.3100     2.1500    70.9100     9.7080     8.8680    10.1120    21.6470 
  158.0000   -22.2080     2.1600    72.6470     9.8150     9.0060    10.1830    21.8610 
  158.1250   -22.0940     2.1620    72.9170     9.8300     9.0350    10.1030    22.1470 
  158.2500   -21.9580     2.1500    74.2540     9.7360     8.9500     9.7810    22.4490 
  158.3750   -21.7950     2.1320    74.6760     9.4920     8.7350     9.2200    22.7110 
  158.5000   -21.6170     2.1170    72.9080     9.0670     8.3870     8.7780    22.9030 
  158.6250   -21.4350     2.1210    71.7460     8.4530     7.9090     8.6260    23.0370 
  158.7500   -21.2910     2.1430    71.7310     7.7700     7.3700     8.3510    23.1650 
  158.8750   -21.1780     2.1830    70.6960     7.1230     6.8230     7.5380    23.3020 
  159.0000   -21.1050     2.2340    71.0870     6.5840     6.3110     6.6400    23.4380 
  159.1250   -21.0640     2.2830    76.7480     6.1810     5.8670     6.2700    23.5400 
  159.2500   -21.0320     2.3160    83.8770     5.8510     5.4910     6.1480    23.5970 
  159.3750   -21.0050     2.3300    88.4190     5.5800     5.1920     5.9730    23.6200 
  159.5000   -20.9710     2.3220    92.7730     5.3970     4.9970     5.7140    23.6280 
  159.6250   -20.9560     2.2970    97.6830     5.4110     4.9660     5.6010    23.6340 
  159.7500   -20.9680     2.2670    98.0370     5.6500     5.1010     5.7730    23.6390 
  159.8750   -20.9950     2.2440    92.8670     6.0770     5.3860     6.3090    23.6500 
  160.0000   -20.9840     2.2370    84.7570     6.5740     5.7600     7.1210    23.6720 
  160.1250   -20.9350     2.2470    79.2130     6.9230     6.0830     7.4720    23.7130 
  160.2500   -20.9050     2.2610    78.8340     6.9780     6.2200     7.4060    23.7690 
  160.3750   -20.9160     2.2670    83.1220     6.7190     6.1140     7.0040    23.8400 
  160.5000   -20.9600     2.2620    88.5530     6.2590     5.8010     6.3740    23.9290 
  160.6250   -21.0050     2.2570    88.6800     5.7990     5.3960     5.8920    24.0360 
  160.7500   -21.0160     2.2630    87.2450     5.4880     5.0440     5.5770    24.1500 
  160.8750   -20.9900     2.2780    88.2760     5.3600     4.8150     5.4300    24.2620 
  161.0000   -20.9730     2.2890    90.4080     5.3860     4.7290     5.3820    24.3720 
  161.1250   -20.9820     2.2850    90.6490     5.4970     4.7720     5.3720    24.4930 
  161.2500   -20.9760     2.2670    90.2840     5.5850     4.8590     5.6020    24.6260 
  161.3750   -20.9520     2.2460    91.0220     5.5910     4.9200     5.7970    24.7550 
  161.5000   -20.9310     2.2320    88.8460     5.5000     4.9060     5.7490    24.8580 
  161.6250   -20.9310     2.2320    83.3340     5.3320     4.7990     5.5230    24.9130 
  161.7500   -20.9560     2.2420    81.2050     5.1590     4.6470     5.2590    24.9310 
  161.8750   -21.0030     2.2550    83.4750     5.0270     4.4940     5.0420    24.9240 
  162.0000   -21.0660     2.2630    85.9010     4.9560     4.3730     4.9600    24.8990 
  162.1250   -21.1230     2.2680    86.6150     4.9340     4.3050     4.9500    24.8570 
  162.2500   -21.1790     2.2770    88.6170     4.9290     4.2850     4.9770    24.8020 
  162.3750   -21.2220     2.2930    92.2340     4.9370     4.3080     5.0900    24.7290 
  162.5000   -21.2380     2.3140    93.9100     4.9730     4.3590     5.1060    24.6190 
  162.6250   -21.2290     2.3250    91.8400     5.0410     4.4030     5.0800    24.4560 
  162.7500   -21.2040     2.3220    89.1110     5.1010     4.4090     5.1250    24.2630 
  162.8750   -21.2030     2.3080    88.0360     5.1010     4.3650     5.1010    24.0720 
  163.0000   -21.2320     2.2920    89.1850     5.0150     4.2850     4.9870    23.9050 
  163.1250   -21.2460     2.2830    89.7830     4.8720     4.2030     4.8950    23.7850 
  163.2500   -21.2510     2.2810    91.3520     4.7500     4.1520     4.8660    23.7050 
  163.3750   -21.2970     2.2790    94.7190     4.6990     4.1460     4.8590    23.6540 
  163.5000   -21.3850     2.2780    95.3160     4.7320     4.1880     4.9380    23.6190 
  163.6250   -21.4760     2.2770    91.7270     4.8440     4.2810     5.0600    23.5920 
  163.7500   -21.5350     2.2760    88.1980     4.9950     4.4090     5.2010    23.5720 
  163.8750   -21.5580     2.2690    87.0460     5.1550     4.5500     5.2690    23.5600 
  164.0000   -21.5630     2.2540    84.0100     5.2870     4.6690     5.2510    23.5500 
  164.1250   -21.6040     2.2370    78.8760     5.3080     4.7010     5.3940    23.5340 
  164.2500   -21.6700     2.2300    78.7510     5.1670     4.6110     5.3980    23.5050 
  164.3750   -21.7130     2.2400    84.9820     4.8630     4.3930     5.2480    23.4610 
  164.5000   -21.7410     2.2610    92.1750     4.4750     4.0970     4.8710    23.3980 
  164.6250   -21.7840     2.2810    93.9980     4.1880     3.8390     4.4690    23.3130 
  164.7500   -21.8750     2.2900    92.9970     4.1480     3.7360     4.2520    23.2130 
  164.8750   -21.9900     2.2960    93.5690     4.4290     3.8690     4.4110    23.1040 
  165.0000   -22.0830     2.3130    95.3770     5.0370     4.2750     5.0490    22.9980 
  165.1250   -22.1370     2.3550    94.0210     5.8970     4.9470     6.5270    22.8960 
