~V
VERS. 2.00: Ver 2.00
~W
STRT.M 50.0000:
STOP.M 207.0000:
STEP.M 0.1250:
NULL. -999.2500:
UWI. F10009:
~C
DEPT.M :
GR.API :
RML.OHMM :
RI. :
RXO.OHMM :
CALI.CM :
DEN.GM/CC :
SP.MV :
~A
# ...
   61.2500    61.7210    28.9790    25.9700    29.0640    25.7760     2.1700     2.9240 
   61.3750    59.9900    29.1960    26.3400    30.6150    25.7900     2.1710     2.7870 
   61.5000    57.9760    29.1260    26.4850    32.0790    25.8010     2.1720     2.6150 
   61.6250    56.5080    28.7100    26.3240    31.2130    25.7850     2.1740     2.4190 
   61.7500    56.3210    28.2010    26.0180    29.2570    25.7540     2.1770     2.1950 
   61.8750    57.2360    27.9050    25.7890    27.9470    25.7060     2.1780     1.9470 
   62.0000    58.2130    28.0950    25.8760    27.4510    25.6150     2.1750     1.6920 
   62.1250    58.1340    28.9690    26.4990    28.0960    25.4370     2.1670     1.4320 
   62.2500    58.0040    30.2580    27.5030    30.2570    25.1870     2.1570     1.1730 
   62.3750    59.2030    31.6290    28.6390    33.4310    24.8980     2.1490     0.9090 
   62.5000    60.8320    32.7120    29.5940    35.9520    24.6430     2.1450     0.6220 
   62.6250    59.9700    33.0960    30.0120    36.1180    24.5830     2.1470     0.2940 
   62.7500    57.3400    32.7880    29.8740    32.2360    24.6790     2.1540    -0.0700 
   62.8750    56.3020    31.8970    29.2650    29.3930    24.7850     2.1660    -0.4700 
   63.0000    58.0270    30.6180    28.3380    27.9440    24.8160     2.1820    -0.9290 
   63.1250    59.7940    29.1450    27.2350    27.0180    24.7880     2.2000    -1.4450 
   63.2500    61.1670    27.6970    26.1040    26.1220    24.7520     2.2170    -1.9990 
   63.3750    63.6930    26.4330    25.0510    25.1300    24.7390     2.2250    -2.5380 
   63.5000    67.3930    25.5040    24.1970    23.7370    24.7770     2.2200    -3.0170 
   63.6250    69.6970    25.1090    23.7340    22.7860    24.9110     2.1960    -3.4150 
   63.7500    69.0540    25.1960    23.6840    22.6830    25.1260     2.1610    -3.7280 
   63.8750    66.5810    25.6670    24.0190    23.5830    25.3870     2.1270    -3.9800 
   64.0000    64.6190    26.3380    24.6310    25.3210    25.6490     2.1050    -4.1800 
   64.1250    64.3690    26.9600    25.3440    26.6870    25.8280     2.1060    -4.3330 
   64.2500    64.1090    27.3650    25.9660    27.3920    25.8690     2.1260    -4.4890 
   64.3750    63.7810    27.5320    26.4220    27.3800    25.8230     2.1520    -4.6950 
   64.5000    64.1000    27.6130    26.7660    27.0980    25.7270     2.1680    -4.9790 
   64.6250    63.8830    28.0970    27.3250    27.4440    25.5690     2.1620    -5.3620 
   64.7500    61.2220    29.4880    28.5200    28.8830    25.3270     2.1410    -5.8290 
   64.8750    58.2190    32.0980    30.6320    31.0110    24.9880     2.1170    -6.3870 
   65.0000    57.3860    35.7050    33.5270    33.5570    24.5520     2.1050    -7.0440 
   65.1250    57.1910    39.0440    36.2130    38.3050    24.0050     2.1250    -7.8080 
   65.2500    56.5050    40.2610    37.1410    46.7860    23.4670     2.1760    -8.6320 
   65.3750    56.5840    38.0530    35.1380    55.1650    23.1140     2.2490    -9.5000 
   65.5000    58.5620    32.4790    30.2010    59.1870    23.0080     2.3250   -10.4020 
   65.6250    62.3380    25.3440    23.9450    52.2970    23.0730     2.3730   -11.2960 
   65.7500    66.8230    19.3370    18.6580    31.5610    23.1950     2.3830   -12.1560 
   65.8750    71.2180    15.5380    15.1380    16.7650    23.2600     2.3560   -12.9450 
   66.0000    73.4380    13.9270    13.3480    13.6010    23.1900     2.3090   -13.6380 
   66.1250    72.2580    14.0720    13.0850    14.7860    23.0550     2.2630   -14.1990 
   66.2500    69.2100    14.9450    13.6490    15.6110    22.9540     2.2400   -14.6360 
   66.3750    66.0890    15.9880    14.6210    14.3860    22.9010     2.2490   -14.9530 
   66.5000    64.7120    16.8050    15.6060    13.4140    22.8540     2.2850   -15.1550 
   66.6250    65.1530    17.1550    16.2440    13.9000    22.7690     2.3270   -15.2700 
   66.7500    65.7570    17.1940    16.5230    14.7730    22.6230     2.3490   -15.3340 
   66.8750    66.2150    17.1070    16.5590    15.3860    22.4030     2.3400   -15.3670 
   67.0000    67.9810    17.0290    16.4770    15.3610    22.1130     2.3090   -15.3720 
   67.1250    70.4680    17.0090    16.3270    13.5190    21.7430     2.2740   -15.3700 
   67.2500    71.7800    16.9710    16.0820    12.8700    21.3870     2.2510   -15.3960 
   67.3750    72.2540    16.7750    15.6480    12.7060    21.1830     2.2420   -15.4730 
   67.5000    72.2890    16.2510    14.9120    12.5540    21.2800     2.2430   -15.6090 
   67.6250    71.6830    15.2170    13.7560    11.6090    21.6990     2.2540   -15.7780 
   67.7500    71.1930    13.8260    12.3400    10.1230    22.2700     2.2700   -15.9680 
   67.8750    73.4460    12.3520    10.8960     8.5550    22.8180     2.2860   -16.1570 
   68.0000    78.2230    11.2100     9.7100     7.6800    23.1890     2.2950   -16.3390 
   68.1250    82.0170    10.8680     9.1410     7.7860    23.3160     2.2870   -16.5060 
   68.2500    83.2090    11.3810     9.2550     8.5150    23.3170     2.2670   -16.6200 
   68.3750    82.0090    12.5780    10.0610    10.1490    23.2830     2.2420   -16.6710 
   68.5000    79.2680    14.2510    11.4460    12.7210    23.2570     2.2210   -16.6800 
   68.6250    74.9680    15.7300    13.1510    15.5510    23.2440     2.2120   -16.6900 
   68.7500    69.4120    16.7590    14.7260    17.1640    23.2300     2.2130   -16.7270 
   68.8750    63.1210    17.4580    15.8600    17.9230    23.2130     2.2160   -16.8280 
   69.0000    58.3200    17.7920    16.4210    18.0890    23.1960     2.2160   -16.9940 
   69.1250    57.2970    17.6460    16.4430    18.1070    23.1820     2.2120   -17.2260 
   69.2500    57.6180    17.3570    16.2390    17.7900    23.1650     2.2060   -17.5120 
   69.3750    57.7720    17.0910    15.9820    17.6360    23.1380     2.2040   -17.8350 
   69.5000    58.2890    16.9270    15.7720    17.6910    23.1010     2.2070   -18.1770 
   69.6250    59.9530    16.9190    15.6850    17.4770    23.0650     2.2120   -18.4910 
   69.7500    60.7650    17.0430    15.7210    16.8970    23.0480     2.2140   -18.7480 
   69.8750    60.3480    17.2700    15.8640    16.7530    23.0490     2.2100   -18.9260 
   70.0000    60.7750    17.5400    16.0690    17.2210    23.0580     2.2020   -19.0620 
   70.1250    62.9310    17.7350    16.2370    17.5830    23.0780     2.1970   -19.2080 
   70.2500    64.9150    17.7240    16.2460    17.6470    23.1100     2.2010   -19.4090 
   70.3750    65.8240    17.3690    15.9730    17.1060    23.1580     2.2160   -19.6830 
   70.5000    66.7360    16.5710    15.3210    16.2120    23.2320     2.2400   -20.0090 
   70.6250    68.3890    15.2620    14.2150    15.5090    23.3370     2.2700   -20.3990 
   70.7500    70.4110    13.6680    12.8450    14.4560    23.4570     2.2940   -20.8460 
   70.8750    72.8280    12.0060    11.3900    13.1590    23.5610     2.3060   -21.3310 
   71.0000    75.9290    10.4830    10.0280    11.5430    23.6370     2.3050   -21.7910 
   71.1250    79.2920     9.2840     8.9240    10.0430    23.6890     2.2940   -22.1400 
   71.2500    81.2240     8.3940     8.0840     8.8580    23.7120     2.2860   -22.3890 
   71.3750    81.0310     7.7670     7.4870     8.4350    23.7120     2.2830   -22.5250 
   71.5000    79.7330     7.3430     7.0930     8.2680    23.6950     2.2870   -22.5480 
   71.6250    79.6560     7.0880     6.8820     7.8420    23.6690     2.2950   -22.4630 
   71.7500    80.8440     6.9390     6.7890     7.3930    23.6470     2.3030   -22.3180 
   71.8750    82.0500     6.8700     6.7850     7.2890    23.6270     2.3100   -22.1480 
   72.0000    82.9480     6.8660     6.8440     7.4150    23.6080     2.3160   -22.0200 
   72.1250    85.1360     6.9260     6.9490     7.5620    23.5940     2.3190   -22.0040 
   72.2500    88.7430     7.0300     7.0690     7.5880    23.5710     2.3200   -22.0710 
   72.3750    90.9410     7.1650     7.1810     7.4080    23.5270     2.3190   -22.2070 
