~V
VERS. 2.00: Ver 2.00
~W
STRT.M 55.0000:
STOP.M 308.0000:
STEP.M 0.1250:
NULL. -999.2500:
UWI. F10053:
~C
DEPT.M :
GR.API :
RML.OHMM :
RI. :
RXO.OHMM :
CALI.CM :
DEN.GM/CC :
SP.MV :
~A
# ...
  133.7500    71.7480    10.5460     9.5000     9.5650    22.9020     2.1650   -18.1310 
  133.8750    74.5680    10.1080     9.1190     9.4400    22.7910     2.1880   -17.8170 
  134.0000    77.6750     9.6100     8.7770     9.6480    22.7370     2.2040   -17.4580 
  134.1250    79.3340     9.2550     8.5690     9.1940    22.8120     2.2000   -17.1930 
  134.2500    77.5330     9.1630     8.5320     8.9460    22.9990     2.1790   -17.1730 
  134.3750    73.0090     9.3410     8.6770     9.3690    23.2640     2.1520   -17.3610 
  134.5000    69.3530     9.6740     8.9470    10.5490    23.5480     2.1330   -17.6310 
  134.6250    69.2680     9.9330     9.2020    11.3140    23.8010     2.1350   -17.9520 
  134.7500    73.5980     9.9570     9.3030    11.2240    23.8990     2.1540   -18.1630 
  134.8750    80.9470     9.7230     9.1780    10.4360    23.9260     2.1810   -18.3080 
  135.0000    88.4110     9.3350     8.8550     9.5630    23.9420     2.2040   -18.3040 
  135.1250    90.6050     9.0070     8.4850     8.6670    23.9580     2.2140   -18.1360 
  135.2500    86.9950     8.9080     8.2360     8.1900    23.9460     2.2080   -17.8560 
  135.3750    80.8380     9.1110     8.1800     8.2790    23.9280     2.1930   -17.6230 
  135.5000    75.5010     9.5900     8.3380     9.2760    23.9200     2.1750   -17.5930 
  135.6250    72.6490    10.2310     8.6900    10.4710    23.9230     2.1650   -17.7600 
  135.7500    70.1360    10.8040     9.0950    11.3220    23.9320     2.1630   -18.0870 
  135.8750    68.2330    11.1660     9.4330    11.6100    23.9420     2.1650   -18.5240 
  136.0000    68.9290    11.2720     9.6170    11.5970    23.9340     2.1650   -19.1050 
  136.1250    69.8410    11.1320     9.6150    11.1300    23.9400     2.1570   -19.8150 
  136.2500    67.8050    10.8470     9.5250    10.3970    23.9590     2.1440   -20.5220 
  136.3750    65.4440    10.4720     9.4110     9.9270    23.9690     2.1310   -21.0510 
  136.5000    65.8080    10.0820     9.3130     9.7440    23.9540     2.1200   -21.3550 
  136.6250    65.6620     9.8310     9.2540     9.7710    23.9360     2.1180   -21.5810 
  136.7500    63.3880     9.8110     9.2350    10.0960    23.9210     2.1210   -21.8230 
  136.8750    62.0100    10.0270     9.2630    10.2650    23.8930     2.1270   -22.0450 
  137.0000    63.0790    10.3750     9.3400    10.1990    23.8370     2.1320   -22.2330 
  137.1250    65.5210    10.6940     9.4880    10.4080    23.8090     2.1330   -22.3450 
  137.2500    67.3570    10.8990     9.7080    10.4160    23.7770     2.1350   -22.3190 
  137.3750    68.1640    10.9890    10.0010    10.2140    23.7090     2.1390   -22.2410 
  137.5000    68.7890    10.9860    10.3210     9.9930    23.5930     2.1430   -22.1500 
  137.6250    69.3250    10.8890    10.5430    11.1800    23.5210     2.1460   -21.9480 
  137.7500    68.2410    10.7120    10.5780    11.6170    23.5440     2.1450   -21.6240 
  137.8750    65.5240    10.4750    10.4090    11.2330    23.6270     2.1410   -21.2240 
  138.0000    64.9870    10.2260    10.0870    10.6440    23.6950     2.1360   -20.8100 
  138.1250    68.9660    10.0440     9.7210    11.0130    23.7210     2.1320   -20.4480 
  138.2500    71.8370     9.9600     9.4150    11.0640    23.7390     2.1300   -20.1470 
  138.3750    72.3420     9.9680     9.2130    10.7740    23.7660     2.1290   -19.8650 
  138.5000    72.4650    10.0500     9.1240    10.2730    23.7900     2.1300   -19.6050 
  138.6250    73.9090    10.1930     9.1320     9.9820    23.8160     2.1340   -19.3950 
  138.7500    74.8190    10.3680     9.1790     9.8170    23.8520     2.1390   -19.2820 
  138.8750    74.1440    10.5360     9.2320     9.6020    23.8820     2.1460   -19.2450 
  139.0000    73.5100    10.6210     9.2580     9.4510    23.9020     2.1550   -19.1890 
  139.1250    73.7480    10.5050     9.1900     9.4880    23.8920     2.1720   -18.9520 
  139.2500    74.2430    10.1900     8.9890     9.7520    23.8400     2.1950   -18.5350 
  139.3750    74.8060     9.7400     8.6430     9.8320    23.7720     2.2200   -17.9070 
  139.5000    76.8600     9.2640     8.1870     9.4250    23.7340     2.2430   -17.1380 
  139.6250    81.6230     8.8830     7.7260     8.5990    23.7350     2.2590   -16.3050 
  139.7500    86.4850     8.6100     7.3750     8.1170    23.7580     2.2690   -15.3120 
  139.8750    89.0520     8.3960     7.1710     7.4770    23.7810     2.2770   -14.2370 
  140.0000    89.7490     8.1660     7.0800     7.0860    23.7910     2.2830   -13.1390 
  140.1250    89.9130     7.8670     7.0090     6.9850    23.7910     2.2910   -12.1810 
  140.2500    88.6360     7.5540     6.8710     6.8450    23.7910     2.2990   -11.3640 
  140.3750    86.8050     7.3190     6.6660     6.6700    23.7870     2.3090   -10.7630 
  140.5000    85.8150     7.2360     6.4730     6.6320    23.7670     2.3170   -10.3770 
  140.6250    85.9570     7.3240     6.4380     6.6400    23.7290     2.3160   -10.1430 
  140.7500    85.9400     7.4900     6.5730     6.6760    23.7000     2.3010   -10.1400 
  140.8750    86.5890     7.6810     6.8320     6.6210    23.6710     2.2730   -10.3480 
  141.0000    87.2930     7.8920     7.1390     6.9810    23.6250     2.2400   -10.8130 
  141.1250    83.4960     8.1410     7.4240     7.9100    23.5940     2.2140   -11.4810 
  141.2500    76.2540     8.3940     7.6430     9.3880    23.5850     2.2030   -12.2030 
  141.3750    71.2950     8.5930     7.7740    10.3380    23.5900     2.2070   -12.9260 
  141.5000    72.0990     8.7110     7.8110     9.8630    23.6020     2.2190   -13.5490 
  141.6250    75.8210     8.7970     7.7880     8.9310    23.6360     2.2300   -14.0590 
  141.7500    77.1910     8.9530     7.7890     8.5260    23.6960     2.2350   -14.4980 
  141.8750    76.3680     9.2250     7.8740     8.6910    23.7520     2.2320   -14.8790 
  142.0000    75.1290     9.5930     8.0570     9.1350    23.7990     2.2220   -15.1900 
  142.1250    73.2900     9.9780     8.3090     9.7180    23.8570     2.2100   -15.4190 
  142.2500    69.9860    10.2860     8.5630    10.2910    23.9240     2.1950   -15.5940 
  142.3750    66.0030    10.4500     8.7730    10.4090    23.9610     2.1800   -15.7630 
  142.5000    63.8790    10.4420     8.9110    10.4200    23.9630     2.1670   -15.9780 
  142.6250    64.7580    10.2780     8.9730    10.3610    23.9320     2.1590   -16.2520 
  142.7500    65.1170    10.0770     8.9690    10.3360    23.9160     2.1570   -16.5290 
  142.8750    64.6180     9.9280     8.9070    10.3640    23.9210     2.1600   -16.7440 
  143.0000    65.5420     9.8640     8.8200    10.6180    23.9460     2.1640   -16.8240 
  143.1250    68.8640     9.8660     8.7590    10.6810    23.9490     2.1710   -16.8500 
  143.2500    70.6770     9.8740     8.7510    10.6410    23.9610     2.1800   -16.9750 
  143.3750    69.8270     9.8630     8.7810    10.8420    23.9840     2.1900   -17.1280 
  143.5000    68.5840     9.8080     8.8070    11.5350    24.0030     2.2000   -17.2280 
  143.6250    68.7510     9.6620     8.7720    12.1800    24.0090     2.2020   -17.1430 
  143.7500    70.3560     9.4330     8.6830    11.5180    23.9880     2.1940   -16.8910 
  143.8750    72.5670     9.1790     8.5780    10.0120    23.9610     2.1790   -16.5580 
  144.0000    74.3230     9.0000     8.5030     8.9210    23.9250     2.1630   -16.3240 
  144.1250    73.8130     9.0170     8.5050     8.7320    23.8570     2.1540   -16.1700 
  144.2500    71.3530     9.2150     8.6050     8.9100    23.7400     2.1540   -15.9910 
  144.3750    68.5050     9.5170     8.7850     9.0560    23.6730     2.1610   -15.7730 
  144.5000    67.4570     9.7800     8.9740     9.3600    23.7610     2.1730   -15.5360 
  144.6250    68.6540     9.7840     9.0100     9.5600    23.8700     2.1880   -15.2760 
  144.7500    70.3460     9.4470     8.7990     9.3930    23.9110     2.2070   -14.8570 
  144.8750    72.0030     8.7860     8.3270     8.8400    23.9120     2.2320   -14.1820 
