~V
VERS. 2.00: Ver 2.00
~W
STRT.M 56.0000:
STOP.M 312.0000:
STEP.M 0.1250:
NULL. -999.2500:
UWI. F10077:
~C
DEPT.M :
GR.API :
RML.OHMM :
RI. :
RXO.OHMM :
CALI.CM :
DEN.GM/CC :
SP.MV :
~A
# ...
  191.0000    65.6570     9.7910     8.9040    10.2150    23.4810     2.2630   -12.5590 
  191.1250    62.9110     9.6330     8.7680     9.7580    23.5180     2.2270   -13.5870 
  191.2500    63.3040     9.4790     8.6100     9.7150    23.6430     2.2000   -14.2650 
  191.3750    65.9600     9.4000     8.4950    10.0740    23.8280     2.1870   -14.6180 
  191.5000    67.8410     9.4180     8.4520    10.3400    23.9850     2.1860   -14.7240 
  191.6250    67.0000     9.5160     8.4690     9.9800    24.0980     2.1900   -14.6690 
  191.7500    65.6540     9.6280     8.4980     9.3280    24.1270     2.1910   -14.5450 
  191.8750    64.9490     9.7100     8.5040     9.1590    23.9100     2.1830   -14.3930 
  192.0000    64.5480     9.7310     8.4760     8.9950    23.5970     2.1670   -14.1910 
  192.1250    65.6490     9.6840     8.4210     8.6590    23.4020     2.1540   -13.9450 
  192.2500    68.2440     9.6210     8.3770     8.1680    23.3450     2.1490   -13.7070 
  192.3750    69.2610     9.6100     8.3790     7.9300    23.3360     2.1570   -13.5150 
  192.5000    66.4750     9.7210     8.4660     7.9490    23.3240     2.1720   -13.4440 
  192.6250    61.4270    10.0210     8.6800     8.1950    23.2580     2.1890   -13.5100 
  192.7500    57.8130    10.4400     8.9850     8.5200    23.1280     2.1990   -13.6280 
  192.8750    56.3870    10.8820     9.3250     9.0680    23.0070     2.1980   -13.7790 
  193.0000    55.6980    11.2360     9.6230     9.9090    22.9600     2.1820   -14.0150 
  193.1250    54.9190    11.3740     9.7770    10.7800    23.0150     2.1530   -14.3460 
  193.2500    54.3650    11.3070     9.7810    11.1690    23.1350     2.1260   -14.7210 
  193.3750    54.9800    11.1330     9.7010    11.2480    23.2580     2.1150   -15.0880 
  193.5000    56.2900    11.0720     9.6890    11.1650    23.3220     2.1230   -15.3500 
  193.6250    56.0870    11.5180    10.0220    11.1880    23.2840     2.1500   -15.3990 
  193.7500    55.4220    12.6360    10.8520    11.3490    23.1580     2.1900   -15.2400 
  193.8750    55.1110    14.3800    12.2230    11.5760    23.0750     2.2490   -14.8420 
  194.0000    55.4530    16.3060    13.9060    13.1390    23.2900     2.3310   -14.1690 
  194.1250    57.8530    17.3110    15.0560    17.8860    23.8070     2.4240   -13.1590 
  194.2500    63.5650    16.6920    14.8760    20.6820    24.2400     2.4980   -11.9630 
  194.3750    72.1740    14.5870    13.3140    14.1580    24.3640     2.5270   -10.6230 
  194.5000    79.7440    11.8750    11.0770     8.1960    24.2350     2.5050    -9.1920 
  194.6250    82.0160     9.5890     9.0490     6.6440    23.9680     2.4470    -7.7830 
  194.7500    81.7890     8.0560     7.5780     6.6490    23.6550     2.3880    -6.4780 
  194.8750    82.2050     7.2080     6.6640     6.4790    23.3510     2.3430    -5.3470 
  195.0000    82.0220     6.8480     6.2010     6.1250    23.1880     2.3150    -4.4020 
  195.1250    79.3490     6.8040     6.0920     5.9270    23.1820     2.3020    -3.7180 
  195.2500    78.1330     6.8680     6.1520     5.9750    23.2850     2.3000    -3.2020 
  195.3750    81.4470     6.9550     6.2890     6.0760    23.4330     2.3080    -2.8380 
  195.5000    87.7290     7.0230     6.4430     6.1350    23.5500     2.3270    -2.5950 
  195.6250    91.6840     7.0420     6.5720     6.3490    23.5870     2.3500    -2.4310 
  195.7500    91.7070     7.0060     6.6500     6.4080    23.5990     2.3660    -2.3530 
  195.8750    90.3160     6.9240     6.6640     6.2660    23.6660     2.3690    -2.3450 
  196.0000    90.3170     6.8150     6.6210     6.2620    23.8470     2.3600    -2.4020 
  196.1250    91.8500     6.7090     6.5380     6.3140    24.1140     2.3450    -2.4710 
  196.2500    91.6970     6.6210     6.4440     6.1950    24.2760     2.3310    -2.5070 
  196.3750    89.1760     6.5550     6.3550     5.9880    24.3750     2.3200    -2.5380 
  196.5000    86.9470     6.5140     6.2850     6.1800    24.3670     2.3110    -2.6000 
  196.6250    88.7260     6.4940     6.2430     6.3170    24.1880     2.3040    -2.6800 
  196.7500    92.3420     6.4740     6.2130     6.2460    23.9530     2.3000    -2.6940 
  196.8750    93.0870     6.4340     6.1740     6.0550    23.9750     2.3000    -2.6410 
  197.0000    90.2470     6.3610     6.1060     6.1060    24.2810     2.3010    -2.5670 
  197.1250    89.6170     6.2590     6.0000     6.2040    24.6410     2.3050    -2.5220 
  197.2500    92.4470     6.1650     5.8840     6.0150    24.7990     2.3130    -2.4880 
  197.3750    95.6580     6.1080     5.7870     5.6490    24.7760     2.3260    -2.4410 
  197.5000    96.9480     6.1030     5.7260     5.5030    24.6570     2.3410    -2.3810 
  197.6250    96.6720     6.1670     5.7170     5.7420    24.4500     2.3520    -2.3560 
  197.7500    95.6720     6.2840     5.7550     6.0380    24.2140     2.3540    -2.3890 
  197.8750    92.6910     6.4340     5.8230     6.0450    24.0080     2.3480    -2.4750 
  198.0000    88.9990     6.5900     5.9050     5.9180    23.8030     2.3330    -2.5890 
  198.1250    88.4960     6.7730     6.0170     6.1570    23.6400     2.3080    -2.7070 
  198.2500    89.2830     7.0520     6.2120     6.7670    23.6100     2.2790    -2.8720 
  198.3750    87.1120     7.5110     6.5520     7.1700    23.7430     2.2610    -3.0820 
  198.5000    82.6400     8.2400     7.1080     7.3920    23.9250     2.2660    -3.3360 
  198.6250    79.5060     9.3990     8.0150     8.6290    24.0140     2.2980    -3.6050 
  198.7500    76.9920    10.9700     9.2910    11.1750    24.0200     2.3320    -3.8880 
  198.8750    73.1320    12.9190    10.9550    12.6630    23.9490     2.3430    -4.2080 
  199.0000    68.5630    15.1480    12.9550    12.7940    23.8000     2.3180    -4.5890 
  199.1250    63.9870    17.4210    15.1150    15.8120    23.6220     2.2630    -5.0430 
  199.2500    58.6530    19.3310    17.0340    19.6170    23.6180     2.2070    -5.5360 
  199.3750    55.1400    20.5150    18.3430    20.3400    23.7420     2.1660    -6.0170 
  199.5000    55.7340    20.8030    18.8460    18.6400    23.9310     2.1430    -6.4290 
  199.6250    58.6890    20.2080    18.5030    16.9460    24.1250     2.1380    -6.7610 
  199.7500    60.4940    19.2340    17.7350    15.8490    24.3800     2.1400    -7.0690 
  199.8750    61.4170    18.2530    16.8620    14.7200    24.5910     2.1470    -7.3270 
  200.0000    62.7190    17.5090    16.1220    13.8930    24.7320     2.1550    -7.5110 
  200.1250    63.7680    17.0930    15.6520    13.6610    24.8030     2.1630    -7.6530 
  200.2500    64.2580    16.8800    15.3860    13.6380    24.8090     2.1700    -7.7720 
  200.3750    63.4140    16.7900    15.2720    13.5780    24.7260     2.1750    -7.8500 
  200.5000    60.7860    16.7630    15.2590    13.4510    24.6350     2.1770    -7.9120 
  200.6250    59.4680    16.7770    15.3280    13.5220    24.6340     2.1790    -8.0160 
  200.7500    62.2140    16.8460    15.4640    13.7930    24.6820     2.1830    -8.1040 
  200.8750    66.1360    16.9910    15.6730    14.1800    24.7570     2.1890    -8.1060 
  201.0000    66.4560    17.1930    15.9320    14.3320    24.8400     2.1890    -8.0000 
  201.1250    62.6300    17.3640    16.1600    14.2040    24.9130     2.1680    -7.8080 
  201.2500    58.1360    17.3880    16.2440    14.2020    25.0260     2.1250    -7.5940 
  201.3750    54.0320    17.1790    16.0980    14.5930    25.1120     2.0710    -7.4330 
  201.5000    52.7580    16.7180    15.7020    14.6190    24.9590     2.0270    -7.3460 
  201.6250    57.1260    16.0660    15.1150    13.8100    24.4260     2.0160    -7.2530 
  201.7500    63.1210    15.4070    14.5110    12.7650    23.9530     2.0330    -7.1570 
  201.8750    66.6630    14.8940    14.0220    11.8740    23.7720     2.0660    -7.1270 
  202.0000    66.7970    14.6510    13.7520    11.5960    23.7480     2.1000    -7.1490 
  202.1250    64.7700    14.7930    13.8020    11.7950    23.7230     2.1280    -7.1820 
