~V
VERS. 2.00: Ver 2.00
~W
STRT.M 50.0000:
STOP.M 307.0000:
STEP.M 0.1250:
NULL. -999.2500:
UWI. F10044:
~C
DEPT.M :
GR.API :
RML.OHMM :
RI. :
RXO.OHMM :
CALI.CM :
DEN.GM/CC :
SP.MV :
~A
# ...
  286.2500    21.0580     4.2970     3.4290     3.6320    23.8650     2.4060    -3.9060 
  286.3750    21.6250     4.2500     3.3730     3.6530    23.8810     2.4070    -4.0100 
  286.5000    22.5100     4.2200     3.3300     3.6760    23.8720     2.4020    -4.1260 
  286.6250    23.8020     4.1980     3.2990     3.7650    23.8270     2.3900    -4.2110 
  286.7500    25.1700     4.1820     3.2830     3.9050    23.7590     2.3760    -4.3150 
  286.8750    26.7860     4.1960     3.2970     4.0750    23.6900     2.3650    -4.4650 
  287.0000    29.1620     4.2860     3.3700     4.2670    23.6530     2.3600    -4.6510 
  287.1250    30.6590     4.5270     3.5570     4.5850    23.6730     2.3680    -4.8420 
  287.2500    30.1240     4.9090     3.8580     5.0990    23.7200     2.3840    -5.0380 
  287.3750    28.5410     5.3810     4.2440     5.8500    23.7770     2.4030    -5.2630 
  287.5000    27.3210     5.8430     4.6500     6.6970    23.8280     2.4200    -5.5110 
  287.6250    27.2490     6.1380     4.9540     7.2120    23.8460     2.4280    -5.7770 
  287.7500    28.4740     6.2090     5.0850     6.8750    23.8260     2.4290    -6.0390 
  287.8750    31.5190     6.0730     5.0280     6.1990    23.7680     2.4250    -6.3200 
  288.0000    34.5100     5.8170     4.8270     5.4040    23.6920     2.4160    -6.6280 
  288.1250    34.6830     5.5650     4.5680     4.7990    23.6320     2.4010    -6.9490 
  288.2500    34.0410     5.3840     4.3370     4.3300    23.5870     2.3830    -7.2020 
  288.3750    33.8880     5.2720     4.1690     4.0570    23.5650     2.3620    -7.3500 
  288.5000    34.3610     5.1920     4.0620     4.0680    23.5590     2.3450    -7.4650 
  288.6250    35.0560     5.1140     4.0110     4.3230    23.5700     2.3340    -7.5880 
  288.7500    36.4110     5.0530     4.0020     4.6710    23.5750     2.3320    -7.6630 
  288.8750    38.3340     5.0560     4.0530     4.9620    23.5650     2.3390    -7.6740 
  289.0000    39.0680     5.1790     4.1900     4.9920    23.5560     2.3550    -7.6540 
  289.1250    38.1640     5.4750     4.4500     4.8450    23.5670     2.3820    -7.6140 
  289.2500    36.6300     5.8740     4.7900     5.2630    23.5940     2.4120    -7.5770 
  289.3750    35.2390     6.2780     5.1410     6.0670    23.6290     2.4350    -7.5640 
  289.5000    33.5780     6.5690     5.4110     6.8140    23.6560     2.4440    -7.5260 
  289.6250    31.8150     6.6240     5.4930     7.1030    23.6480     2.4340    -7.4750 
  289.7500    31.4450     6.4760     5.3990     6.4550    23.6020     2.4160    -7.4250 
  289.8750    33.8650     6.1980     5.1800     5.3260    23.5270     2.3970    -7.3650 
  290.0000    37.6070     5.8780     4.9100     4.5390    23.4440     2.3830    -7.3240 
  290.1250    40.0920     5.5840     4.6520     4.3230    23.3600     2.3720    -7.2850 
  290.2500    40.1310     5.3290     4.4290     4.3450    23.2860     2.3630    -7.2570 
  290.3750    37.9890     5.1070     4.2390     4.4490    23.2540     2.3540    -7.2110 
  290.5000    34.6010     4.9120     4.0720     4.4420    23.2970     2.3500    -7.2200 
  290.6250    31.7020     4.7510     3.9320     4.2480    23.3870     2.3540    -7.2100 
  290.7500    29.7300     4.6280     3.8170     4.0170    23.4820     2.3650    -7.1990 
  290.8750    28.2070     4.5460     3.7300     3.9330    23.5620     2.3790    -7.1790 
  291.0000    26.2040     4.5000     3.6720     3.9420    23.6020     2.3930    -7.1470 
  291.1250    23.9380     4.4850     3.6470     3.9530    23.5770     2.4020    -7.1200 
  291.2500    23.8170     4.5040     3.6570     3.9760    23.5030     2.4050    -7.0920 
  291.3750    26.7150     4.5740     3.7110     4.0610    23.4300     2.4040    -7.0790 
  291.5000    31.5820     4.7040     3.8150     4.2930    23.4170     2.3990    -7.0430 
  291.6250    36.5780     4.8950     3.9730     4.6540    23.4900     2.3950    -7.0390 
  291.7500    40.1960     5.1060     4.1540     4.9950    23.5740     2.3910    -7.0160 
  291.8750    43.1030     5.2980     4.3310     5.2810    23.6120     2.3890    -7.0070 
  292.0000    45.4440     5.4380     4.4730     5.7220    23.6060     2.3880    -6.9700 
  292.1250    45.3440     5.4970     4.5480     6.1240    23.5760     2.3890    -6.9150 
  292.2500    42.9310     5.4940     4.5630     6.4060    23.5430     2.3920    -6.8880 
  292.3750    40.0960     5.4500     4.5280     6.3110    23.5210     2.3980    -6.8650 
  292.5000    39.0190     5.3880     4.4640     5.7720    23.5180     2.4080    -6.7990 
  292.6250    37.7800     5.3280     4.3920     5.4780    23.5580     2.4220    -6.7120 
  292.7500    35.2060     5.2730     4.3280     5.2270    23.6370     2.4370    -6.5920 
  292.8750    33.3940     5.2220     4.2740     5.1310    23.7300     2.4500    -6.4530 
  293.0000    33.7690     5.1660     4.2260     5.1560    23.8160     2.4550    -6.3600 
  293.1250    35.3080     5.0980     4.1730     5.1350    23.8820     2.4490    -6.2810 
  293.2500    35.4080     5.0190     4.1090     4.9810    23.9410     2.4360    -6.2040 
  293.3750    33.5370     4.9380     4.0390     4.6600    23.9960     2.4230    -6.1920 
  293.5000    30.7970     4.8690     3.9710     4.3980    24.0290     2.4120    -6.2560 
  293.6250    28.2130     4.8320     3.9210     4.2470    24.0130     2.4050    -6.3860 
  293.7500    26.6630     4.8210     3.8910     4.2080    23.9620     2.4010    -6.5640 
  293.8750    26.4270     4.8200     3.8770     4.2300    23.9030     2.3990    -6.7840 
  294.0000    26.6100     4.8070     3.8690     4.2770    23.8370     2.3980    -7.0010 
  294.1250    26.0760     4.7610     3.8520     4.2810    23.7620     2.3960    -7.2070 
  294.2500    25.5150     4.6870     3.8260     4.2210    23.7180     2.3910    -7.4000 
  294.3750    25.8500     4.6020     3.7950     4.1330    23.6990     2.3840    -7.5390 
  294.5000    26.9880     4.5400     3.7760     4.0770    23.6880     2.3780    -7.5990 
  294.6250    28.0300     4.5480     3.7930     4.1220    23.6730     2.3780    -7.6190 
  294.7500    28.4210     4.6340     3.8590     4.2790    23.6630     2.3840    -7.6450 
  294.8750    28.2290     4.7870     3.9700     4.5210    23.6710     2.3940    -7.5970 
  295.0000    27.9710     4.9710     4.1050     4.7980    23.7090     2.4020    -7.5130 
  295.1250    28.1190     5.1170     4.2200     5.1370    23.7810     2.4050    -7.4420 
  295.2500    28.4560     5.1690     4.2720     5.3880    23.8710     2.4040    -7.3000 
  295.3750    28.6820     5.1010     4.2390     5.4600    23.9610     2.4020    -7.1440 
  295.5000    28.3840     4.9320     4.1260     5.2520    24.0260     2.4030    -7.0680 
  295.6250    27.0740     4.7170     3.9600     4.6840    24.0510     2.4070    -6.9340 
  295.7500    26.8300     4.5350     3.7950     4.2220    24.0560     2.4150    -6.7750 
  295.8750    28.3040     4.4170     3.6640     3.9800    24.0500     2.4240    -6.6940 
  296.0000    30.0830     4.3590     3.5850     3.9550    24.0430     2.4330    -6.6100 
  296.1250    30.1140     4.3170     3.5570     4.0260    24.0380     2.4390    -6.5380 
  296.2500    29.6820     4.2620     3.5550     4.0630    24.0360     2.4430    -6.5190 
  296.3750    29.6820     4.2230     3.5570     4.0010    24.0350     2.4420    -6.4710 
  296.5000    29.6820     4.1990     3.5500     3.8780    24.0340     2.4380    -6.3900 
  296.6250    29.6820     4.1810     3.5320     3.8010    24.0330     2.4310    -6.3800 
  296.7500    29.6820     4.1830     3.5100     3.7690    24.0310     2.4260    -6.3690 
  296.8750    29.6820     4.1970     3.4920     3.7600    24.0260     2.4230    -6.3400 
  297.0000    29.6820     4.2200     3.4800     3.7640    24.0160     2.4220    -6.3780 
  297.1250    29.6820     4.2590     3.4760     3.7850    23.9990     2.4210    -6.3950 
  297.2500    29.6820     4.2980     3.4750     3.8150    23.9790     2.4170    -6.4090 
  297.3750    29.6820     4.3420     3.4790     3.8530    23.9610     2.4070    -6.4860 
