~V
VERS. 2.00: Ver 2.00
~W
STRT.M 60.0000:
STOP.M 242.0000:
STEP.M 0.1250:
NULL. -999.2500:
UWI. F10022:
~C
DEPT.M :
GR.API :
RML.OHMM :
RI. :
RXO.OHMM :
CALI.CM :
DEN.GM/CC :
SP.MV :
~A
# ...
  172.5000    53.8850    20.7610    19.4040    21.5200    23.7590     2.5360    -6.3420 
  172.6250    55.7830    20.1770    18.9430    20.6060    23.7700     2.5310    -6.2660 
  172.7500    59.1920    19.6930    18.5280    20.0010    23.8240     2.5310    -6.1960 
  172.8750    60.5620    19.3870    18.2480    19.7040    23.8850     2.5360    -6.1180 
  173.0000    58.6410    19.2960    18.1570    20.1000    23.9580     2.5410    -6.0330 
  173.1250    55.0270    19.4320    18.2930    21.2220    24.0240     2.5460    -5.9910 
  173.2500    51.4470    19.6870    18.5750    22.5390    24.0500     2.5480    -5.9370 
  173.3750    49.2470    19.9730    18.9260    23.6070    24.0550     2.5480    -5.8910 
  173.5000    48.7650    20.2100    19.2590    24.0440    24.0550     2.5480    -5.8340 
  173.6250    50.0560    20.3220    19.4740    24.3260    24.0550     2.5470    -5.8290 
  173.7500    50.6600    20.3020    19.5340    24.3550    24.0550     2.5460    -5.7840 
  173.8750    49.3170    20.1370    19.4250    24.1630    24.0550     2.5460    -5.7610 
  174.0000    48.3340    19.8210    19.1500    23.6200    24.0550     2.5460    -5.7700 
  174.1250    49.0210    19.3570    18.7210    22.8140    24.0550     2.5470    -5.7630 
  174.2500    50.0370    18.8340    18.2250    22.0020    24.0540     2.5480    -5.7740 
  174.3750    50.8530    18.3450    17.7460    21.4680    24.0480     2.5480    -5.7810 
  174.5000    52.0410    17.9880    17.3710    20.7740    24.0340     2.5440    -5.8150 
  174.6250    54.2490    17.8500    17.1840    19.8190    24.0250     2.5360    -5.8110 
  174.7500    55.9050    17.8540    17.1300    19.3850    24.0160     2.5270    -5.8350 
  174.8750    56.0910    17.8940    17.1260    19.6390    24.0040     2.5170    -5.8670 
  175.0000    55.7900    17.8670    17.0910    20.2210    23.9860     2.5100    -5.8790 
  175.1250    56.4060    17.7380    16.9890    20.2400    23.9750     2.5050    -5.9050 
  175.2500    56.9390    17.6190    16.8800    19.6110    23.9810     2.5030    -5.9200 
  175.3750    56.7200    17.6480    16.8540    19.1990    24.0060     2.5030    -5.9430 
  175.5000    57.0110    17.9170    16.9890    19.9580    24.0190     2.5070    -5.9300 
  175.6250    58.5040    18.4340    17.3320    21.5920    24.0320     2.5140    -5.9610 
  175.7500    59.2940    19.0110    17.7870    22.9280    24.0270     2.5210    -5.9740 
  175.8750    58.0920    19.4810    18.2390    23.2990    24.0220     2.5260    -5.9960 
  176.0000    55.8890    19.7260    18.5710    23.2740    24.0220     2.5250    -6.0300 
  176.1250    54.3790    19.7070    18.6900    23.0710    23.9990     2.5230    -6.0750 
  176.2500    53.7620    19.5740    18.6630    22.3030    23.9850     2.5240    -6.1200 
  176.3750    53.9080    19.4610    18.5890    21.5740    23.9800     2.5300    -6.1600 
  176.5000    53.0330    19.4600    18.5650    21.1480    23.9820     2.5410    -6.2400 
  176.6250    52.0900    19.6240    18.6720    21.8300    23.9810     2.5490    -6.2730 
  176.7500    51.3100    19.8920    18.8950    22.8560    23.9780     2.5520    -6.3580 
  176.8750    49.6060    20.2080    19.2010    23.4140    23.9840     2.5470    -6.4510 
  177.0000    47.6220    20.5160    19.5370    23.8410    24.0040     2.5370    -6.5480 
  177.1250    48.7260    20.7470    19.8320    24.2830    24.0370     2.5280    -6.6760 
  177.2500    52.3370    20.8700    20.0270    24.6440    24.0520     2.5240    -6.7940 
  177.3750    55.5160    20.8630    20.0840    24.4060    24.0550     2.5240    -6.9260 
  177.5000    56.9470    20.7210    19.9840    24.0520    24.0550     2.5250    -7.0210 
  177.6250    58.7100    20.4590    19.7220    23.4820    24.0450     2.5250    -7.1560 
  177.7500    59.5890    20.1620    19.3870    22.7730    24.0140     2.5230    -7.2750 
  177.8750    57.4720    19.9030    19.0640    21.9480    23.9710     2.5220    -7.3720 
  178.0000    53.4680    19.7440    18.8300    21.2880    23.9590     2.5230    -7.4930 
  178.1250    52.0800    19.7360    18.7530    21.0120    23.9420     2.5240    -7.5540 
  178.2500    53.6050    19.8380    18.8040    21.0330    23.9090     2.5240    -7.6290 
  178.3750    55.2120    20.0100    18.9420    21.3330    23.8760     2.5220    -7.6630 
  178.5000    56.1320    20.2030    19.1070    21.7030    23.8440     2.5200    -7.7160 
  178.6250    55.5910    20.3860    19.2510    21.7520    23.8160     2.5200    -7.7450 
  178.7500    52.9340    20.5820    19.3840    21.7560    23.7900     2.5200    -7.7480 
  178.8750    50.3070    20.8360    19.5540    21.9760    23.7860     2.5200    -7.7410 
  179.0000    50.4780    21.1770    19.8050    22.2960    23.8100     2.5210    -7.6760 
  179.1250    53.4880    21.5730    20.1410    22.9460    23.8630     2.5230    -7.6300 
  179.2500    56.1770    21.9000    20.4600    24.5040    23.9100     2.5270    -7.5400 
  179.3750    57.5900    22.0450    20.6500    26.7160    23.9390     2.5300    -7.4670 
  179.5000    58.5210    21.9520    20.6420    28.1950    23.9350     2.5290    -7.3850 
  179.6250    59.0260    21.6670    20.4460    27.0990    23.9260     2.5210    -7.2990 
  179.7500    58.6790    21.4050    20.2370    25.3230    23.9200     2.5110    -7.2430 
  179.8750    55.6240    21.3450    20.1710    23.9890    23.9190     2.5020    -7.1830 
  180.0000    51.3260    21.5990    20.3640    23.9550    23.9150     2.4970    -7.1800 
  180.1250    51.0270    22.1980    20.8710    24.9280    23.9100     2.4990    -7.1730 
  180.2500    53.7530    22.9350    21.5300    26.1190    23.9070     2.5050    -7.2120 
  180.3750    55.2590    23.6210    22.1650    27.2480    23.9060     2.5130    -7.2650 
  180.5000    54.1830    24.0890    22.6070    28.1020    23.9060     2.5220    -7.2990 
  180.6250    53.6980    24.1750    22.6770    28.0800    23.9060     2.5300    -7.3560 
  180.7500    54.4710    23.9120    22.4060    27.8380    23.9060     2.5350    -7.3800 
  180.8750    54.8170    23.3580    21.8550    26.6100    23.9060     2.5350    -7.4030 
  181.0000    54.1770    22.6420    21.1420    24.9870    23.8970     2.5320    -7.4110 
  181.1250    53.7350    21.9650    20.4330    23.8220    23.8750     2.5290    -7.3690 
  181.2500    53.6980    21.4990    19.8700    22.4190    23.8490     2.5340    -7.3330 
  181.3750    52.9780    21.3210    19.5150    21.5720    23.8380     2.5480    -7.2840 
  181.5000    51.1120    21.4170    19.3680    21.6090    23.8370     2.5720    -7.2430 
  181.6250    49.0010    21.7120    19.3900    22.2870    23.8340     2.5950    -7.1870 
  181.7500    48.0590    22.0350    19.4710    22.8280    23.8210     2.6030    -7.1380 
  181.8750    48.7230    22.2710    19.5320    22.5190    23.7960     2.5890    -7.1110 
  182.0000    49.9130    22.3260    19.5010    21.7680    23.7750     2.5590    -7.0570 
  182.1250    50.0160    22.0900    19.2900    21.2010    23.7660     2.5240    -7.0560 
  182.2500    47.7820    21.5860    18.8980    21.6210    23.7530     2.4970    -6.9880 
  182.3750    44.7450    20.8570    18.3510    21.2460    23.7360     2.4840    -6.9100 
  182.5000    44.4100    20.0030    17.7250    20.2120    23.7460     2.4830    -6.8210 
  182.6250    47.4790    19.2150    17.1590    19.4750    23.8020     2.4900    -6.6940 
  182.7500    50.6190    18.6660    16.7800    18.9720    23.8300     2.4970    -6.5840 
  182.8750    52.9520    18.4380    16.6520    18.9620    23.8370     2.5000    -6.4430 
  183.0000    54.8280    18.4920    16.7530    19.3270    23.8370     2.4990    -6.3170 
  183.1250    53.7860    18.6630    16.9690    20.3120    23.8380     2.4960    -6.2090 
  183.2500    50.9480    18.7210    17.1060    20.8970    23.8420     2.4950    -6.1350 
  183.3750    49.9200    18.5530    17.0520    20.7450    23.8260     2.5000    -6.1120 
  183.5000    51.1640    18.1690    16.7890    19.7800    23.7650     2.5090    -6.1310 
  183.6250    49.7090    17.7000    16.4000    18.2940    23.6660     2.5220    -6.1860 
