~V
VERS. 2.00: Ver 2.00
~W
STRT.M 50.0000:
STOP.M 279.0000:
STEP.M 0.1250:
NULL. -999.2500:
UWI. F10075:
~C
DEPT.M :
GR.API :
RML.OHMM :
RI. :
RXO.OHMM :
CALI.CM :
DEN.GM/CC :
SP.MV :
~A
# ...
  252.5000    83.0990    36.5720    37.7650    46.3330    24.3810     2.2900   -10.0520 
  252.6250    81.0420    40.7650    41.0920    84.7810    24.3610     2.2430    -9.9930 
  252.7500    77.4150    49.5880    49.3350   106.4460    24.3240     2.2060    -9.9850 
  252.8750    71.9690    62.6120    62.5590    96.9790    24.3400     2.1870   -10.0320 
  253.0000    66.7370    78.2680    79.2890    94.2310    24.3460     2.1860   -10.2060 
  253.1250    65.9830    92.5850    95.0080   101.1450    24.3470     2.1980   -10.4900 
  253.2500    68.0690   101.3820   104.9250   106.1760    24.4440     2.2160   -10.7470 
  253.3750    70.1280   102.4890   106.7750   116.3010    24.6270     2.2430   -11.0240 
  253.5000    71.5430    95.5550   100.1120   125.4070    24.7890     2.2790   -11.1530 
  253.6250    72.8430    81.4180    85.5460   110.2550    24.7570     2.3230   -11.1160 
  253.7500    74.1970    65.3010    68.6350    87.3860    24.6270     2.3640   -10.8980 
  253.8750    76.0260    51.1510    53.6460    80.4630    24.5090     2.3910   -10.5740 
  254.0000    78.8590    41.3810    43.0910    51.8910    24.4440     2.3980   -10.1660 
  254.1250    80.7520    37.7820    38.6530    32.7940    24.4600     2.3930    -9.6510 
  254.2500    79.7960    39.5260    39.5010    34.3560    24.5430     2.3890    -9.1860 
  254.3750    77.6310    46.4060    45.5180    56.2510    24.6240     2.3950    -8.6910 
  254.5000    76.3610    57.8740    56.2340    82.2620    24.5520     2.4060    -8.2390 
  254.6250    74.5250    71.9890    69.7790    81.6840    24.3960     2.4160    -7.8930 
  254.7500    71.1600    83.3470    80.9840    80.8000    24.2900     2.4240    -7.6450 
  254.8750    69.7940    87.7320    85.9010    77.1380    24.2980     2.4350    -7.4720 
  255.0000    72.8720    85.3960    84.4320    74.8370    24.3990     2.4480    -7.3330 
  255.1250    77.4090    80.4610    79.9450    65.9110    24.5540     2.4570    -7.1730 
  255.2500    78.8220    76.5890    76.0750    57.9110    24.6560     2.4560    -6.9500 
  255.3750    78.9010    74.5260    73.7670    58.6310    24.6990     2.4440    -6.7420 
  255.5000    79.2730    74.2980    73.1610    68.5870    24.7340     2.4320    -6.5270 
  255.6250    77.8120    75.9210    74.3100    81.8200    24.7510     2.4340    -6.2790 
  255.7500    74.4900    78.6920    76.5930    86.6420    24.7310     2.4510    -6.0170 
  255.8750    71.2880    82.0170    79.4930    83.2210    24.7150     2.4790    -5.7500 
  256.0000    69.1600    85.0280    82.2160    69.9840    24.7020     2.5120    -5.4930 
  256.1250    67.1350    86.0410    83.2040    82.7290    24.7280     2.5400    -5.2920 
  256.2500    64.9570    83.8990    81.3300   103.8810    24.7610     2.5580    -5.1210 
  256.3750    64.6780    78.2280    76.1130   109.3520    24.8190     2.5610    -4.9440 
  256.5000    66.5770    70.0560    68.3030    88.9810    24.8480     2.5480    -4.8350 
  256.6250    67.7720    61.5730    59.8000    66.6580    24.8270     2.5230    -4.7560 
  256.7500    67.1030    54.8160    52.7150    52.3220    24.8180     2.4960    -4.6840 
  256.8750    67.4220    50.8340    48.1940    42.5780    24.8590     2.4760    -4.5870 
  257.0000    70.6490    50.2100    46.8910    37.1740    24.8410     2.4650    -4.4660 
  257.1250    74.6340    53.9850    49.9430    41.8320    24.8280     2.4660    -4.3230 
  257.2500    77.1500    61.7530    57.0560    55.7270    24.8450     2.4760    -4.1470 
  257.3750    77.5920    73.0660    67.7460    77.1760    24.8280     2.4940    -3.9310 
  257.5000    74.4460    85.9890    80.0620   106.8650    24.7640     2.5150    -3.6600 
  257.6250    68.7660    94.8210    89.1300   163.4100    24.7720     2.5330    -3.3080 
  257.7500    63.1890    93.6980    90.1270   162.8740    24.7770     2.5520    -2.9080 
  257.8750    56.5620    80.6980    80.4790    92.6410    24.8120     2.5770    -2.4640 
  258.0000    47.5710    60.5010    62.4740    45.6970    24.8500     2.6110    -1.9950 
  258.1250    39.4420    41.3520    43.1960    45.0600    24.8370     2.6440    -1.5590 
  258.2500    36.9140    27.1640    28.2250    43.1540    24.8430     2.6550    -1.1060 
  258.3750    40.4560    17.9220    18.3470    24.3410    24.8290     2.6310    -0.6680 
  258.5000    47.2580    12.4740    12.5010    11.0160    24.7920     2.5790    -0.2630 
  258.6250    53.1090     8.5990     9.5430     7.5990    24.7860     2.5180     0.0420 
  258.7500    55.9030     7.3850     7.9290     6.3290    24.8080     2.4670     0.3010 
  258.8750    56.1460     6.8440     7.0800     6.0960    24.8420     2.4290     0.4840 
  259.0000    55.2900     6.5820     6.6330     6.6100    24.8550     2.4010     0.6500 
  259.1250    52.8160     6.3250     6.3340     6.6790    24.8430     2.3760     0.7620 
  259.2500    49.0950     5.9860     6.0340     5.7960    24.8210     2.3560     0.7170 
  259.3750    46.0310     5.6450     5.7520     5.1830    24.8080     2.3440     0.5610 
  259.5000    45.2610     5.4260     5.5680     5.2640    24.7990     2.3420     0.3080 
  259.6250    47.3070     5.4660     5.6050     6.0440    24.7200     2.3490    -0.0250 
  259.7500    51.0700     5.7930     5.9030     6.8570    24.5850     2.3630    -0.4110 
  259.8750    56.9440     6.4630     6.5140     7.1790    24.5050     2.3830    -0.7870 
  260.0000    64.3790     7.5120     7.4780     7.5030    24.4590     2.4090    -1.1630 
  260.1250    70.4500     8.8830     8.7790    10.1870    24.4410     2.4330    -1.4620 
  260.2500    73.5860    10.1600    10.0470    12.6160    24.4940     2.4440    -1.5890 
  260.3750    73.8490    10.8110    10.7340    14.9200    24.6600     2.4340    -1.5400 
  260.5000    71.8590    10.4230    10.3720    16.5270    24.8190     2.4080    -1.2840 
  260.6250    65.2310     8.9830     8.9430    14.2950    24.8300     2.3830    -0.8040 
  260.7500    54.0810     7.2710     7.2450    10.0840    24.7840     2.3740    -0.2360 
  260.8750    42.4380     5.7950     5.7600     6.4400    24.7420     2.3880     0.3610 
  261.0000    35.3100     4.7970     4.6980     4.7250    24.7780     2.4140     0.9660 
  261.1250    32.7900     4.3770     4.1560     4.8610    24.7710     2.4400     1.5600 
  261.2500    31.3940     4.3580     4.0000     5.2470    24.7100     2.4550     2.0700 
  261.3750    31.2500     4.6210     4.1570     4.8650    24.6880     2.4630     2.4390 
  261.5000    32.6470     5.0440     4.5320     4.5240    24.7320     2.4670     2.6780 
  261.6250    34.8380     5.4840     4.9940     5.1930    24.7320     2.4690     2.8120 
  261.7500    37.5570     5.8100     5.3700     5.9690    24.7310     2.4650     2.9090 
  261.8750    39.8740     5.9550     5.5540     5.7920    24.6880     2.4500     3.0020 
  262.0000    40.2440     5.9070     5.5120     5.1490    24.6630     2.4270     3.0940 
  262.1250    38.6750     5.6850     5.2700     4.5860    24.6750     2.3970     3.2060 
  262.2500    36.8510     5.3910     4.9550     4.4980    24.7130     2.3700     3.3360 
  262.3750    34.1340     5.0910     4.6410     4.2360    24.7860     2.3480     3.4750 
  262.5000    31.0520     4.8310     4.3700     4.1020    24.8420     2.3360     3.5840 
  262.6250    29.9330     4.6310     4.1630     4.0760    24.8560     2.3350     3.6070 
  262.7500    30.2370     4.4880     4.0110     4.1320    24.8230     2.3430     3.5910 
  262.8750    30.1880     4.4140     3.9210     4.0000    24.7830     2.3560     3.5840 
  263.0000    29.7800     4.4270     3.9050     3.8950    24.7490     2.3690     3.5640 
  263.1250    31.2090     4.5670     3.9920     3.9460    24.7860     2.3730     3.4430 
  263.2500    34.8970     4.8340     4.1780     4.1140    24.8850     2.3660     3.2720 
  263.3750    39.9410     5.2170     4.4530     4.3050    24.9730     2.3530     3.0850 
  263.5000    45.0460     5.6570     4.7750     4.6090    24.9740     2.3450     2.8920 
  263.6250    48.3060     5.9950     5.0440     5.1070    24.9100     2.3570     2.7630 
