~V
VERS. 2.00: Ver 2.00
~W
STRT.M 62.0000:
STOP.M 254.0000:
STEP.M 0.1250:
NULL. -999.2500:
UWI. F10030:
~C
DEPT.M :
DEN.GM/CC :
GR.API :
RML.OHMM :
RI. :
RXO.OHMM :
CALI.CM :
SP.MV :
~A
# ...
  208.2500     2.2240    59.6560    43.7140    43.2160    60.9810    24.1600   -20.0190 
  208.3750     2.2440    60.2810    46.0970    46.2550    67.4290    24.1390   -20.2640 
  208.5000     2.2750    60.6560    45.8810    46.5800    65.9710    24.0930   -20.5690 
  208.6250     2.2980    60.6020    43.1990    44.0570    54.9870    24.0440   -20.9700 
  208.7500     2.3070    59.4490    39.7450    40.3970    45.6070    24.0320   -21.4020 
  208.8750     2.3050    57.9270    36.7530    36.8950    41.5320    24.0560   -21.8840 
  209.0000     2.3010    57.6840    35.1170    34.5050    40.3440    24.0790   -22.4120 
  209.1250     2.2990    59.6220    35.7240    34.1220    37.3010    24.0830   -22.9860 
  209.2500     2.2970    62.0970    38.4670    35.7590    37.1560    24.0960   -23.4980 
  209.3750     2.2920    63.3020    43.2360    39.4770    47.1110    24.1290   -23.9010 
  209.5000     2.2860    62.1120    49.5730    45.0690    64.7690    24.1480   -24.1820 
  209.6250     2.2820    58.7730    56.5630    51.9830    85.7150    24.1420   -24.2510 
  209.7500     2.2820    56.2680    62.8630    58.8590    97.1370    24.1280   -24.1790 
  209.8750     2.2850    55.6470    67.6890    64.7300    95.8210    24.1240   -23.9560 
  210.0000     2.2930    55.5650    70.9770    69.1890    85.3510    24.1300   -23.6020 
  210.1250     2.3100    54.7110    73.2720    72.3970    82.1170    24.1350   -23.0800 
  210.2500     2.3290    55.0730    75.3210    75.0400    94.2490    24.1100   -22.5070 
  210.3750     2.3390    56.3420    76.8630    76.9830   105.1870    24.0300   -21.8920 
  210.5000     2.3330    56.9710    76.8690    77.3620   108.5150    23.8930   -21.2460 
  210.6250     2.3080    56.8810    73.6110    74.4730   102.7090    23.7340   -20.6280 
  210.7500     2.2790    58.9890    67.3430    68.3970    81.0470    23.5730   -20.0130 
  210.8750     2.2590    62.8930    59.1090    60.0250    61.9590    23.4280   -19.4210 
  211.0000     2.2530    66.9810    50.4450    50.9200    47.9220    23.3240   -18.8350 
  211.1250     2.2590    69.8180    42.8990    42.8220    37.9080    23.3260   -18.3170 
  211.2500     2.2660    70.5830    36.9500    36.4170    33.7900    23.4700   -17.8500 
  211.3750     2.2710    68.9760    32.7140    31.8590    31.5940    23.7460   -17.4790 
  211.5000     2.2720    67.1630    30.2240    29.1170    31.0510    24.0430   -17.2060 
  211.6250     2.2730    66.9050    30.0100    28.5790    32.4920    24.1710   -17.0350 
  211.7500     2.2730    66.2280    32.2420    30.3450    33.9720    24.2020   -16.9710 
  211.8750     2.2710    62.1710    37.6490    35.2300    37.5710    24.2030   -16.9710 
  212.0000     2.2670    56.4380    47.1250    44.3870    50.2170    24.2130   -17.0230 
  212.1250     2.2680    52.4320    61.9010    59.4540    91.2640    24.2300   -17.1020 
  212.2500     2.2770    50.2390    79.4450    77.9140   146.3480    24.2310   -17.1910 
  212.3750     2.2950    50.3250    95.1000    95.0020   192.8270    24.1920   -17.2520 
  212.5000     2.3160    52.4080   103.2400   104.8020   237.5460    24.1240   -17.2910 
  212.6250     2.3340    55.4410   100.2760   102.7800   237.7360    24.1070   -17.2640 
  212.7500     2.3520    57.6630    91.4950    93.5140   175.3680    24.1440   -17.1690 
  212.8750     2.3770    58.5350    80.7210    81.0530   109.3200    24.1920   -17.0150 
  213.0000     2.4200    57.9020    69.1690    67.5280    76.6240    24.1990   -16.8270 
  213.1250     2.4810    56.0390    56.1100    53.2590    87.3950    24.1570   -16.5590 
  213.2500     2.5410    54.7450    42.2540    39.1560   113.8460    24.1030   -16.2540 
  213.3750     2.5750    54.8010    29.4190    26.8010    80.8910    24.0410   -15.9160 
  213.5000     2.5680    56.7460    19.3080    17.4550    30.7020    23.9610   -15.5520 
  213.6250     2.5170    60.1450    13.0020    11.7580    11.0540    23.8940   -15.2050 
  213.7500     2.4510    62.1960     9.3010     8.4380     6.7460    23.8710   -14.9080 
  213.8750     2.3930    60.6470     7.3850     6.7590     6.2600    23.8810   -14.6700 
  214.0000     2.3590    57.8060     6.8250     6.1800     6.5850    23.8900   -14.4710 
  214.1250     2.3550    56.7490     7.2100     6.3880     7.1310    23.8970   -14.3490 
  214.2500     2.3660    57.6010     7.8770     6.9100     7.5060    23.9270   -14.2730 
  214.3750     2.3840    58.3310     8.4520     7.4640     8.1270    23.9800   -14.2380 
  214.5000     2.4010    55.9430     8.7930     7.8640     8.4630    24.0120   -14.2460 
  214.6250     2.4090    51.2270     8.8960     8.0380     8.5040    24.0200   -14.2930 
  214.7500     2.4070    48.4220     8.9140     8.0930     8.2670    24.0810   -14.3370 
  214.8750     2.4020    48.3730     8.9200     8.1030     7.9070    24.2190   -14.3860 
  215.0000     2.3980    49.3280     8.9250     8.0960     7.8210    24.3650   -14.4470 
  215.1250     2.3980    49.1180     8.8730     8.0460     8.2890    24.2980   -14.5140 
  215.2500     2.4000    48.7340     8.7210     7.9310     8.6060    24.1360   -14.6000 
  215.3750     2.4000    50.2380     8.4830     7.7660     8.7470    23.9260   -14.7080 
  215.5000     2.3970    54.7010     8.2380     7.6040     8.3260    23.7190   -14.8560 
  215.6250     2.3960    60.2250     8.1300     7.5410     7.6120    23.6060   -14.9990 
  215.7500     2.4030    63.7620     8.2290     7.6090     7.4650    23.6180   -15.1400 
  215.8750     2.4190    64.2900     8.5320     7.7910     8.1340    23.6600   -15.2760 
  216.0000     2.4390    61.5810     8.9490     8.0160    10.6880    23.6390   -15.3810 
  216.1250     2.4520    56.1390     9.3020     8.1520    14.3370    23.5560   -15.4860 
  216.2500     2.4530    51.5940     9.4530     8.1250    13.7890    23.4710   -15.5550 
  216.3750     2.4410    49.7030     9.3800     7.9410    10.4500    23.3910   -15.5910 
  216.5000     2.4240    49.8330     9.1590     7.6850     8.8800    23.3330   -15.5520 
  216.6250     2.4120    50.9040     8.9250     7.4880     8.6310    23.3720   -15.4720 
  216.7500     2.4070    50.8330     8.7640     7.4140     8.6210    23.4870   -15.3720 
  216.8750     2.4110    49.1700     8.6630     7.4480     8.8260    23.5840   -15.2430 
  217.0000     2.4170    47.8030     8.5600     7.5130     8.8410    23.5900   -15.1060 
  217.1250     2.4150    48.0350     8.3970     7.5010     8.8920    23.5370   -14.9670 
  217.2500     2.4020    48.2100     8.2110     7.3930     8.6300    23.5670   -14.8560 
  217.3750     2.3800    47.9260     8.0850     7.2410     8.3140    23.7370   -14.7720 
  217.5000     2.3650    47.4550     8.0970     7.1440     8.1180    23.9830   -14.7280 
  217.6250     2.3850    44.2790     8.3010     7.2230     8.6340    24.0970   -14.7190 
  217.7500     2.4500    39.5250     8.6030     7.4720     9.7990    24.1190   -14.7400 
  217.8750     2.5420    37.5230     8.8930     7.8210    10.6060    24.1050   -14.7890 
  218.0000     2.6270    42.7660     9.0680     8.1540    10.5170    24.0940   -14.8930 
  218.1250     2.6540    54.8310     9.0740     8.3310    10.3060    24.0970   -15.0420 
  218.2500     2.6190    68.8920     8.9990     8.3400     9.4030    24.1430   -15.2190 
  218.3750     2.5400    82.7580     8.9320     8.2180     9.1460    24.2210   -15.4240 
  218.5000     2.4520    93.1600     8.9230     8.0200     9.8630    24.2400   -15.6430 
  218.6250     2.3900    96.7750     8.9700     7.8030    10.8540    24.2000   -15.8860 
  218.7500     2.3580    95.2050     9.0490     7.6350    10.9130    24.1560   -16.1710 
  218.8750     2.3500    92.7740     9.2150     7.6090    10.6700    24.1480   -16.5210 
  219.0000     2.3540    90.8450     9.6310     7.8640    10.6990    24.1790   -16.9130 
  219.1250     2.3670    84.8810    10.6880     8.6910    11.6300    24.2940   -17.3520 
  219.2500     2.3870    75.7130    12.6250    10.2500    13.4400    24.4770   -17.8340 
  219.3750     2.4140    67.9060    15.6740    12.7640    16.3720    24.7590   -18.3810 
