~V
VERS. 2.00: Ver 2.00
~W
STRT.M 50.0000:
STOP.M 279.0000:
STEP.M 0.1250:
NULL. -999.2500:
UWI. F10075:
~C
DEPT.M :
GR.API :
RML.OHMM :
RI. :
RXO.OHMM :
CALI.CM :
DEN.GM/CC :
SP.MV :
~A
# ...
   61.2500    71.1690     8.2170     7.4990     9.0350    24.9760     2.0350   -21.5160 
   61.3750    73.5590     8.1580     7.3800     8.9000    24.7710     2.0460   -21.2910 
   61.5000    73.4190     8.1990     7.3010     8.7570    24.5270     2.0720   -21.0560 
   61.6250    72.9120     8.3290     7.2790     8.8040    24.3170     2.0980   -20.8210 
   61.7500    74.2820     8.4710     7.2950     8.9470    24.2370     2.1030   -20.6500 
   61.8750    75.9660     8.5720     7.3250     9.0920    24.3030     2.0790   -20.5540 
   62.0000    75.6030     8.6120     7.3450     9.1790    24.4640     2.0360   -20.5190 
   62.1250    73.6160     8.5880     7.3300     9.2850    24.5490     2.0010   -20.5560 
   62.2500    72.4500     8.5220     7.2850     9.1310    24.4650     2.0000   -20.5890 
   62.3750    73.3230     8.4190     7.2190     8.9330    24.3230     2.0370   -20.5930 
   62.5000    74.6670     8.2890     7.1500     8.8530    24.2090     2.0980   -20.6130 
   62.6250    76.1150     8.1570     7.1050     8.8260    24.1100     2.1530   -20.6250 
   62.7500    77.7300     8.0720     7.1040     8.7950    23.8290     2.1810   -20.5560 
   62.8750    78.5280     8.0830     7.1650     8.7730    23.4080     2.1770   -20.4470 
   63.0000    77.9040     8.2190     7.2990     8.9600    23.1980     2.1480   -20.3310 
   63.1250    77.8270     8.4450     7.4730     9.0610    23.5290     2.1080   -20.1360 
   63.2500    78.8100     8.6230     7.5930     9.3980    24.0070     2.0790   -19.8100 
   63.3750    78.7340     8.6130     7.5580     9.9350    24.3180     2.0740   -19.3090 
   63.5000    76.7110     8.3240     7.3010    10.3060    24.4300     2.1020   -18.6050 
   63.6250    77.8810     7.7330     6.8110     9.6230    24.4070     2.1570   -17.5650 
   63.7500    85.1070     7.0350     6.2340     7.7660    24.3620     2.2160   -16.3160 
   63.8750    96.4400     6.3960     5.6890     6.5570    24.3080     2.2610   -14.9660 
   64.0000   105.8280     5.9400     5.2630     6.1930    24.3040     2.2830   -13.5570 
   64.1250   106.9220     5.7650     5.0250     6.0280    24.3180     2.2750   -12.2290 
   64.2500   101.7690     5.8000     4.9390     6.0640    24.3490     2.2450   -11.1090 
   64.3750    96.1780     5.9580     4.9610     5.9300    24.2960     2.1990   -10.2160 
   64.5000    94.9990     6.1380     5.0340     5.8350    24.0900     2.1510    -9.5550 
   64.6250    96.8010     6.2730     5.1090     5.9860    23.8190     2.1240    -9.2500 
   64.7500    96.7180     6.3930     5.1850     6.0800    23.5930     2.1280    -9.1820 
   64.8750    94.9340     6.5690     5.2910     6.2020    23.3620     2.1560    -9.2510 
   65.0000    93.5530     6.8630     5.4610     6.2210    23.1360     2.1870    -9.4480 
   65.1250    92.3520     7.3400     5.7360     6.2910    22.9060     2.1950    -9.7030 
   65.2500    89.6930     7.9640     6.1040     6.7150    22.6120     2.1790   -10.0750 
   65.3750    85.0830     8.6680     6.5330     7.4380    22.3080     2.1480   -10.6590 
   65.5000    79.1720     9.3310     6.9590     7.9490    21.9560     2.1200   -11.3880 
   65.6250    76.4820     9.7850     7.2870     7.8110    21.2190     2.1090   -12.1730 
   65.7500    77.6270    10.0020     7.4760     7.6590    20.0100     2.1120   -13.0060 
   65.8750    78.1420    10.0200     7.5260     7.9610    18.8720     2.1210   -13.8890 
   66.0000    75.5760     9.9150     7.4710     8.1890    18.2100     2.1280   -14.7380 
   66.1250    73.1890     9.7350     7.3490     8.1220    18.0520     2.1270   -15.5810 
   66.2500    72.5860     9.5120     7.1970     7.8550    18.1420     2.1200   -16.2960 
   66.3750    70.4920     9.2810     7.0380     7.5460    18.4570     2.1080   -16.7990 
   66.5000    66.8500     9.1160     6.9040     7.3860    18.9670     2.0950   -17.0810 
   66.6250    66.0880     9.1120     6.8390     7.3900    19.5390     2.0850   -17.0480 
   66.7500    70.3320     9.2280     6.8280     7.2760    19.9470     2.0840   -16.7290 
   66.8750    76.4860     9.3600     6.8280     6.9280    20.2310     2.0980   -16.1780 
   67.0000    79.7980     9.3780     6.7740     7.1650    20.5430     2.1280   -15.4500 
   67.1250    81.1900     9.1340     6.5790     7.4620    20.7780     2.1760   -14.4880 
   67.2500    86.0490     8.6380     6.2400     7.0490    20.8660     2.2300   -13.2580 
   67.3750    94.8250     7.9400     5.7830     6.0890    20.7830     2.2790   -11.8310 
   67.5000   103.7910     7.1260     5.2680     5.3590    20.5170     2.3130   -10.3540 
   67.6250   107.2450     6.3830     4.8140     5.0480    20.1650     2.3260    -9.0280 
   67.7500   106.4870     5.9950     4.5740     5.2050    19.8720     2.3300    -7.9340 
   67.8750   104.2320     6.2890     4.7190     5.6940    19.6900     2.3390    -6.9900 
   68.0000   100.5080     7.5680     5.4200     6.1560    19.8430     2.3680    -6.1780 
   68.1250    92.5640    10.1460     6.9470     7.5100    20.4510     2.4210    -5.5840 
   68.2500    82.7470    13.3890     9.0850    11.6820    21.1890     2.4740    -5.2380 
   68.3750    77.3770    16.0000    11.1340    21.1150    21.7090     2.5020    -5.0890 
   68.5000    79.5000    16.2860    11.8470    26.4660    21.9220     2.4920    -5.1170 
   68.6250    85.8660    13.5820    10.4200    17.4630    21.9910     2.4500    -5.2400 
   68.7500    93.7690    10.1500     8.2680     9.7420    22.0820     2.4030    -5.2950 
   68.8750   101.2810     7.4370     6.3840     6.5620    22.1820     2.3650    -5.3200 
   69.0000   107.0870     5.8950     5.1220     5.5010    22.2690     2.3360    -5.3190 
   69.1250   109.1890     5.5020     4.5530     5.3660    22.3750     2.3100    -5.2820 
   69.2500   107.2440     5.7120     4.4260     5.6410    22.5630     2.2840    -5.2950 
   69.3750   103.4330     6.1630     4.5680     6.3540    22.8860     2.2630    -5.3390 
   69.5000   101.6170     6.5370     4.7920     6.6590    23.3510     2.2530    -5.2850 
   69.6250   103.3770     6.6240     4.9370     5.9500    23.9140     2.2560    -5.1340 
   69.7500   104.7840     6.5500     4.9980     5.5680    24.5150     2.2610    -4.9530 
   69.8750   103.3260     6.5130     5.0550     5.5380    25.0300     2.2600    -4.8170 
   70.0000   101.1570     6.6730     5.1950     5.6670    25.1930     2.2470    -4.7880 
   70.1250   101.0940     7.0890     5.4670     6.0980    24.9960     2.2240    -4.8620 
   70.2500    99.5330     7.5720     5.7820     7.0700    24.7300     2.2030    -5.0030 
   70.3750    94.4060     7.8860     5.9950     7.8570    24.5420     2.1910    -5.1640 
   70.5000    89.7320     7.8130     5.9620     7.8310    24.4630     2.1910    -5.3860 
   70.6250    94.1380     7.2560     5.6140     6.7900    24.4250     2.2030    -5.6070 
   70.7500   104.5240     6.5450     5.1620     5.6770    24.3820     2.2230    -5.7850 
   70.8750   112.0200     6.0150     4.8060     5.2540    24.2980     2.2540    -5.9080 
   71.0000   112.5470     5.9230     4.6880     5.2270    24.2050     2.2980    -5.9830 
   71.1250   106.8890     6.4610     4.9280     5.5910    24.1610     2.3430    -6.0030 
   71.2500    97.8490     7.4200     5.4460     7.6890    24.1480     2.3680    -6.0810 
   71.3750    86.9300     8.4800     6.1100    13.8470    24.1300     2.3620    -6.3090 
   71.5000    77.3830     9.2360     6.6970    18.3280    24.0940     2.3290    -6.6880 
   71.6250    72.4950     9.3180     6.9280    12.8650    24.0840     2.2860    -7.2390 
   71.7500    72.0710     8.9160     6.8250     9.7590    24.2360     2.2540    -7.8260 
   71.8750    75.7030     8.3410     6.5310     8.5200    24.4960     2.2350    -8.3280 
   72.0000    81.4780     7.9070     6.2330     7.9980    24.7500     2.2210    -8.7830 
   72.1250    84.3910     7.8600     6.1020     7.7540    24.8150     2.2010    -9.2560 
   72.2500    83.3560     8.1200     6.1490     7.6330    24.7330     2.1790    -9.6460 
   72.3750    80.1000     8.5300     6.3280     7.6150    24.6310     2.1660    -9.9600 
