~V
VERS. 2.00: Ver 2.00
~W
STRT.M 56.0000:
STOP.M 235.0000:
STEP.M 0.1250:
NULL. -999.2500:
UWI. F10014:
~C
DEPT.M :
GR.API :
RML.OHMM :
RI. :
RXO.OHMM :
CALI.CM :
DEN.GM/CC :
SP.MV :
~A
# ...
  146.0000    62.2220    51.0840    49.2820    41.3060    24.5270     2.3640    -4.0100 
  146.1250    62.5120    54.2600    53.0810    70.0600    24.4190     2.5020    -4.6040 
  146.2500    62.1990    51.9310    51.7620    82.7130    24.4000     2.5940    -5.1910 
  146.3750    61.4750    44.5660    45.2360    59.5890    24.4100     2.6190    -5.7660 
  146.5000    62.9680    35.3620    36.4570    33.4580    24.3890     2.5840    -6.2750 
  146.6250    67.6890    28.0590    29.2040    21.6300    24.3340     2.5160    -6.6730 
  146.7500    71.1340    23.7180    24.6420    17.0060    24.3780     2.4580    -6.9590 
  146.8750    71.0720    22.2750    22.6740    15.0640    24.5350     2.4330    -7.1860 
  147.0000    67.4140    23.4170    23.0240    15.9160    24.6750     2.4430    -7.3310 
  147.1250    61.8450    27.0440    25.8320    25.8890    24.6660     2.4770    -7.3960 
  147.2500    56.6470    32.0700    30.3610    38.8870    24.5930     2.5140    -7.4790 
  147.3750    54.3650    37.5750    35.8580    44.8160    24.5320     2.5420    -7.5950 
  147.5000    54.7390    42.6030    41.3190    47.5540    24.5690     2.5620    -7.7340 
  147.6250    55.4410    46.2800    45.6580    54.0560    24.7360     2.5790    -7.8390 
  147.7500    55.6870    48.6380    48.6380    53.3020    24.8590     2.5990    -7.9010 
  147.8750    55.1960    49.6410    50.1270    52.3220    24.8910     2.6260    -7.9600 
  148.0000    53.6880    49.0240    49.8520    55.1780    24.8560     2.6540    -8.1140 
  148.1250    51.6370    46.2570    47.2580    55.1970    24.7620     2.6690    -8.4110 
  148.2500    50.9150    42.2850    43.2900    53.1360    24.5690     2.6580    -8.6540 
  148.3750    52.7040    38.3250    39.1570    44.4570    24.3260     2.6190    -8.7510 
  148.5000    54.9700    35.4420    35.9370    32.8780    24.0800     2.5640    -8.7610 
  148.6250    53.8320    34.3370    34.3680    27.6120    23.9600     2.5250    -8.7930 
  148.7500    51.6620    34.4120    34.0050    28.3890    23.9440     2.5230    -8.8660 
  148.8750    51.4560    34.8750    34.2160    35.6660    23.9920     2.5540    -8.9100 
  149.0000    52.1500    34.8250    34.2000    43.4880    24.1050     2.5960    -8.8350 
  149.1250    51.0460    33.5580    33.2200    42.2980    24.2770     2.6140    -8.6420 
  149.2500    50.1320    31.5690    31.5490    33.2660    24.3800     2.5990    -8.4630 
  149.3750    52.2460    29.5720    29.7530    26.7580    24.4330     2.5610    -8.3530 
  149.5000    56.2310    28.1420    28.3480    25.4550    24.4710     2.5200    -8.3130 
  149.6250    57.8350    27.6290    27.7030    28.1400    24.5940     2.4970    -8.2930 
  149.7500    56.2560    27.8000    27.7000    32.4830    24.8210     2.4910    -8.2340 
  149.8750    53.2670    28.4250    28.1810    32.8410    25.0270     2.4950    -8.1400 
  150.0000    50.8650    29.2770    28.9370    28.5280    25.1210     2.5030    -8.0800 
  150.1250    50.1750    30.1920    29.7830    27.9520    25.0920     2.5170    -8.0550 
  150.2500    50.2500    31.0300    30.5670    28.9360    25.0430     2.5370    -8.0010 
  150.3750    50.7720    31.6370    31.1650    29.9020    25.0150     2.5600    -7.9260 
  150.5000    52.6200    31.8660    31.4510    30.2730    25.0200     2.5830    -7.8530 
  150.6250    56.4120    31.6310    31.3240    30.9370    25.0100     2.6000    -7.8060 
  150.7500    59.3770    31.2070    30.9820    31.5290    24.9850     2.6130    -7.7650 
  150.8750    58.9420    30.9210    30.6910    31.3330    24.9590     2.6220    -7.7200 
  151.0000    56.7660    31.0530    30.7140    32.0070    24.9360     2.6290    -7.7000 
  151.1250    57.1710    31.7100    31.2050    34.4480    24.9450     2.6340    -7.7650 
  151.2500    58.4320    32.5590    31.9240    38.5600    24.9510     2.6390    -7.9070 
  151.3750    58.6410    33.2720    32.6030    41.9520    24.9180     2.6470    -8.0490 
  151.5000    57.9500    33.6100    33.0160    43.1940    24.8470     2.6570    -8.1090 
  151.6250    57.7090    33.4830    33.0310    39.1770    24.8630     2.6670    -8.1410 
  151.7500    57.4700    33.1440    32.8040    34.6470    24.9370     2.6760    -8.2480 
  151.8750    57.3260    32.7490    32.4430    33.2620    24.9700     2.6850    -8.4180 
  152.0000    57.4050    32.2990    31.9560    33.5330    24.9070     2.6940    -8.5740 
  152.1250    57.0420    31.5730    31.1780    33.1310    24.7780     2.6930    -8.6080 
  152.2500    56.8450    30.4330    30.0230    31.5540    24.6320     2.6790    -8.5850 
  152.3750    57.8710    28.9500    28.5570    27.9630    24.5520     2.6510    -8.6100 
  152.5000    59.0120    27.4460    27.0540    23.8180    24.5270     2.6190    -8.6930 
  152.6250    57.2820    26.3910    25.9220    21.8220    24.5230     2.5950    -8.7710 
  152.7500    53.6080    25.8820    25.2690    21.5170    24.6040     2.5880    -8.7980 
  152.8750    51.0750    25.8320    25.0600    22.6960    24.7660     2.5940    -8.7530 
  153.0000    51.1100    26.0750    25.1880    23.8530    24.9480     2.6030    -8.6480 
  153.1250    52.6900    26.4750    25.5620    25.1630    25.0380     2.6060    -8.5290 
  153.2500    54.0590    26.9910    26.0880    24.5860    25.0820     2.6030    -8.4090 
  153.3750    55.9270    27.7610    26.8340    25.9770    25.0870     2.6040    -8.2650 
  153.5000    58.1300    28.9510    27.9230    30.1040    25.0200     2.6140    -8.1140 
  153.6250    57.5480    30.5890    29.4210    34.7270    24.9290     2.6370    -7.9980 
  153.7500    55.5300    32.2070    30.9700    33.9370    24.8320     2.6630    -7.9130 
  153.8750    54.4920    33.1640    32.0040    33.1870    24.7120     2.6850    -7.8660 
  154.0000    55.3640    32.8320    31.8970    33.5330    24.5290     2.6990    -7.8700 
  154.1250    55.0080    30.8090    30.1640    32.7490    24.3260     2.7000    -7.9550 
  154.2500    54.0360    27.9000    27.5030    28.5710    24.2570     2.6900    -8.0890 
  154.3750    55.3070    24.8600    24.6230    23.2170    24.3020     2.6700    -8.2600 
  154.5000    59.1470    22.2760    22.0860    19.2710    24.3920     2.6430    -8.3920 
  154.6250    61.2670    20.5670    20.2830    18.3600    24.5310     2.6210    -8.4250 
  154.7500    58.7670    19.5920    19.1250    18.4710    24.6880     2.6080    -8.4210 
  154.8750    53.8600    19.1630    18.4900    18.4380    24.8850     2.6030    -8.4340 
  155.0000    50.7890    19.0420    18.2040    17.1400    25.0850     2.5990    -8.4490 
  155.1250    51.3180    19.0460    18.1320    16.9410    25.2580     2.5890    -8.4220 
  155.2500    52.6940    19.1270    18.1950    17.3150    25.3550     2.5720    -8.3580 
  155.3750    53.5860    19.3900    18.4530    17.8110    25.3590     2.5500    -8.2690 
  155.5000    53.3250    19.9660    19.0070    19.0900    25.3480     2.5260    -8.2220 
  155.6250    51.6220    20.9960    19.9760    21.4890    25.3250     2.5040    -8.2580 
  155.7500    50.9660    22.3900    21.2820    24.3950    25.2840     2.4920    -8.3190 
  155.8750    51.3320    24.0610    22.8500    26.9770    25.2120     2.4920    -8.3540 
  156.0000    50.3110    25.8540    24.5470    28.1510    25.1370     2.5040    -8.3360 
  156.1250    46.2060    27.3700    26.0270    28.0690    25.0750     2.5210    -8.2890 
  156.2500    43.2400    28.1390    26.8460    27.7920    25.1100     2.5410    -8.2590 
  156.3750    43.6670    27.7820    26.6250    29.5810    25.1530     2.5620    -8.2510 
  156.5000    45.5950    26.2220    25.2640    31.1870    25.1220     2.5800    -8.2560 
  156.6250    47.9190    23.7330    22.9990    28.3440    25.0790     2.5840    -8.2560 
  156.7500    50.7400    21.1420    20.5950    21.3100    25.0920     2.5670    -8.2530 
  156.8750    52.9710    18.9630    18.5130    16.6860    25.1430     2.5330    -8.2630 
  157.0000    53.1930    17.4430    16.9750    15.6840    25.1920     2.4960    -8.3130 
  157.1250    51.8860    16.6620    16.0840    15.9680    25.2190     2.4740    -8.3950 
