~V
VERS. 2.00: Ver 2.00
~W
STRT.M 50.0000:
STOP.M 237.0000:
STEP.M 0.1250:
NULL. -999.2500:
UWI. F10006:
~C
DEPT.M :
GR.API :
RML.OHMM :
RI. :
RXO.OHMM :
CALI.CM :
DEN.GM/CC :
SP.MV :
~A
# ...
  151.2500    66.7390    18.1150    16.4350    14.4620    22.3820     2.4990   -22.4500 
  151.3750    67.5860    19.6350    17.6880    15.1680    22.4220     2.5150   -22.4390 
  151.5000    68.2550    21.1880    19.0320    17.4830    22.5030     2.5170   -22.4030 
  151.6250    67.1840    22.1110    19.9190    18.2290    22.5390     2.5020   -22.3790 
  151.7500    63.8740    22.1080    20.0330    17.5920    22.4820     2.4850   -22.3380 
  151.8750    61.5280    21.2390    19.3610    15.6150    22.3300     2.4750   -22.2640 
  152.0000    62.1900    19.8970    18.1990    13.4080    22.1150     2.4740   -22.1680 
  152.1250    63.1510    18.6540    17.0200    12.6420    21.8710     2.4700   -22.0760 
  152.2500    61.6320    17.8740    16.1820    12.7390    21.5090     2.4460   -22.0170 
  152.3750    60.7540    17.6520    15.8200    13.1570    21.1440     2.3980   -21.9630 
  152.5000    62.6830    17.9330    15.9410    13.6080    20.8920     2.3370   -21.8670 
  152.6250    64.3320    18.6280    16.5180    13.0870    20.6530     2.2860   -21.7820 
  152.7500    62.9680    19.5150    17.3390    13.2510    20.4060     2.2630   -21.7310 
  152.8750    60.6520    20.4550    18.2600    13.6930    20.3180     2.2720   -21.7120 
  153.0000    59.2340    21.2840    19.1250    13.7340    20.3910     2.3090   -21.7050 
  153.1250    58.5070    21.7250    19.7080    13.7250    20.5120     2.3600   -21.6770 
  153.2500    57.1550    21.6590    19.8890    13.5230    20.5990     2.4010   -21.6150 
  153.3750    55.0810    21.0640    19.6140    13.2440    20.6150     2.4160   -21.5450 
  153.5000    53.7150    20.0710    18.9410    12.8970    20.6020     2.4000   -21.4890 
  153.6250    53.8170    18.9410    18.0220    12.1970    20.5240     2.3600   -21.4240 
  153.7500    54.3950    17.9840    17.1290    11.8560    20.3120     2.3240   -21.3410 
  153.8750    53.7940    17.3610    16.4300    11.6330    20.0780     2.3080   -21.2580 
  154.0000    52.8260    17.1130    16.0080    11.4860    20.0290     2.3190   -21.1570 
  154.1250    53.1720    17.1990    15.8780    11.7430    20.3460     2.3510   -21.0160 
  154.2500    53.6280    17.3830    15.8790    12.5050    20.9250     2.3870   -20.8650 
  154.3750    53.4860    17.4840    15.8740    12.9880    21.6660     2.4170   -20.7560 
  154.5000    53.0840    17.3800    15.7560    12.7930    22.2990     2.4350   -20.6900 
  154.6250    54.6080    17.0500    15.4870    12.2180    22.5770     2.4380   -20.6420 
  154.7500    56.5560    16.6640    15.1790    11.8600    22.5730     2.4390   -20.6160 
  154.8750    56.1910    16.3750    14.9480    11.7270    22.3930     2.4440   -20.5890 
  155.0000    54.6100    16.2850    14.8860    11.5520    22.1060     2.4570   -20.5650 
  155.1250    55.8300    16.4380    15.0480    11.4690    21.9110     2.4740   -20.5560 
  155.2500    57.7720    16.7170    15.3370    11.7200    21.7740     2.4860   -20.5760 
  155.3750    58.2710    17.0190    15.6570    12.3450    21.8210     2.4880   -20.6240 
  155.5000    57.8950    17.2670    15.9290    13.2090    22.1540     2.4830   -20.6790 
  155.6250    58.0160    17.4310    16.1270    14.0210    22.6220     2.4780   -20.7240 
  155.7500    58.8250    17.5770    16.3100    13.9630    23.0350     2.4790   -20.7630 
  155.8750    61.1450    17.7980    16.5500    14.1790    23.2920     2.4870   -20.8060 
  156.0000    65.3040    18.1920    16.9180    15.4340    23.3960     2.4980   -20.8530 
  156.1250    68.4230    18.8550    17.4770    16.1100    23.4550     2.5010   -20.9330 
  156.2500    69.2910    19.6610    18.1340    16.2250    23.5110     2.4940   -21.0740 
  156.3750    69.3480    20.3790    18.7140    16.6320    23.5180     2.4780   -21.2660 
  156.5000    70.0030    20.7060    18.9690    17.2410    23.4740     2.4570   -21.4970 
  156.6250    74.1170    20.3080    18.6070    17.9620    23.3510     2.4400   -21.7700 
  156.7500    81.6090    19.3810    17.7680    16.3020    23.3150     2.4280   -22.0700 
  156.8750    88.7710    18.2970    16.7380    13.5630    23.4580     2.4240   -22.3930 
  157.0000    91.7830    17.5330    15.8950    13.2080    23.7230     2.4260   -22.7210 
  157.1250    90.7780    17.6270    15.6880    15.8300    23.6780     2.4330   -23.0310 
  157.2500    89.2770    18.6370    16.2380    19.4580    23.6800     2.4410   -23.3120 
  157.3750    87.9510    20.5540    17.6270    23.7550    23.8130     2.4510   -23.5530 
  157.5000    85.6750    23.3200    19.8790    28.5610    24.1660     2.4650   -23.7380 
  157.6250    82.7480    27.1050    23.1730    30.2990    24.2250     2.4910   -23.8670 
  157.7500    78.4940    32.0380    27.5530    32.4200    24.3590     2.5280   -23.9840 
  157.8750    71.9350    38.6370    33.4780    44.6390    24.2630     2.5720   -24.0730 
  158.0000    65.0110    47.5470    41.6230    65.8590    23.8360     2.6150   -24.1930 
  158.1250    62.1570    59.6960    53.0640    81.6710    23.7840     2.6470   -24.3990 
  158.2500    62.8140    74.2110    67.0680    92.0590    23.9150     2.6680   -24.6250 
  158.3750    63.6740    89.4320    82.1100   106.3240    23.8590     2.6840   -24.8470 
  158.5000    62.6990   102.5690    95.5560   117.9310    23.6950     2.6970   -25.0880 
  158.6250    60.0540   109.5560   103.4850   120.5860    23.8020     2.6940   -25.3650 
  158.7500    57.7440   109.9740   105.0860   121.5400    23.9630     2.6610   -25.6450 
  158.8750    58.5280   104.5760   100.7020   117.7330    23.7840     2.5930   -25.9200 
  159.0000    63.3220    94.5720    91.3760    97.8300    23.6140     2.5030   -26.1590 
  159.1250    68.8940    80.3490    77.6320    70.5990    23.6330     2.4250   -26.2900 
  159.2500    73.5430    63.8290    61.6340    51.9440    23.6710     2.3860   -26.3380 
  159.3750    76.8050    47.0930    45.5140    43.0160    23.3490     2.3900   -26.3220 
  159.5000    77.3010    32.4220    31.4920    27.5140    23.0510     2.4220   -26.2300 
  159.6250    73.5870    21.8880    21.4900    15.2960    22.9110     2.4580   -26.0570 
  159.7500    67.9530    14.8580    14.8400     9.2740    22.8520     2.4810   -25.8070 
  159.8750    63.0890    10.5020    10.7920     7.8710    22.8350     2.4910   -25.5030 
  160.0000    58.8260     7.9540     8.5610     7.0640    22.8310     2.4900   -25.1590 
  160.1250    53.6390     7.4060     7.6710     6.4200    22.8200     2.4780   -24.8330 
  160.2500    48.7640     7.6680     7.4690     6.1060    22.7990     2.4580   -24.5110 
  160.3750    46.5520     8.0500     7.6460     6.0410    22.7690     2.4310   -24.1840 
  160.5000    47.8280     8.3500     7.9500     6.0480    22.7410     2.4030   -23.8620 
  160.6250    49.1750     8.5830     8.1980     6.0340    22.7210     2.3830   -23.5490 
  160.7500    48.4020     8.7330     8.3490     6.0110    22.7490     2.3760   -23.2720 
  160.8750    47.7830     8.8230     8.4210     6.0090    22.7660     2.3810   -23.0360 
  161.0000    49.8530     8.8960     8.4460     6.0100    22.7690     2.3960   -22.8340 
  161.1250    54.5400     8.9540     8.4360     5.9980    22.7710     2.4180   -22.6160 
  161.2500    57.6830     8.9710     8.4000     5.9080    22.7760     2.4400   -22.4180 
  161.3750    60.1530     8.9150     8.3400     5.8160    22.7930     2.4590   -22.2750 
  161.5000    64.7680     8.7750     8.2590     5.7960    22.8390     2.4720   -22.1910 
  161.6250    70.7750     8.5890     8.1480     5.7670    22.9080     2.4770   -22.1580 
  161.7500    75.6530     8.4320     8.0020     5.8120    22.9750     2.4750   -22.1500 
  161.8750    79.3200     8.3110     7.8140     5.8410    23.0210     2.4660   -22.1550 
  162.0000    81.9940     8.1650     7.5990     5.9240    23.0400     2.4530   -22.1760 
  162.1250    81.3420     7.9530     7.3990     5.9800    22.9910     2.4440   -22.2350 
  162.2500    79.9190     7.7360     7.2450     5.8910    22.9160     2.4400   -22.3120 
  162.3750    80.6340     7.5630     7.1360     5.8290    22.8570     2.4380   -22.3800 
