~V
VERS. 2.00: Ver 2.00
~W
STRT.M 60.0000:
STOP.M 271.0000:
STEP.M 0.1250:
NULL. -999.2500:
UWI. F10035:
~C
DEPT.M :
GR.API :
RML.OHMM :
RI. :
RXO.OHMM :
CALI.CM :
DEN.GM/CC :
SP.MV :
~A
# ...
   71.2500    62.1980    11.5600     9.0010    10.5560    23.6770     2.2300   -17.0390 
   71.3750    64.1340    11.1520     8.7370    10.6280    23.7470     2.1740   -17.4740 
   71.5000    63.6930    10.8420     8.5010    10.6620    23.6810     2.1270   -17.9030 
   71.6250    62.0330    10.6810     8.3420    10.5500    23.5690     2.1010   -18.2990 
   71.7500    62.1540    10.6030     8.2460    10.4870    23.5050     2.0910   -18.6450 
   71.8750    64.2270    10.5610     8.1950    10.4970    23.5210     2.0910   -18.9450 
   72.0000    65.2650    10.5360     8.1770    10.7220    23.6140     2.0960   -19.2310 
   72.1250    62.8500    10.5420     8.1870    11.1040    23.7910     2.1020   -19.4980 
   72.2500    60.3810    10.5750     8.2090    11.3870    23.9960     2.1070   -19.7480 
   72.3750    59.4610    10.6130     8.2290    11.7010    24.1420     2.1110   -19.9490 
   72.5000    60.1150    10.6240     8.2280    11.7800    24.1870     2.1170   -20.1040 
   72.6250    63.6180    10.5810     8.1890    11.4780    24.2290     2.1220   -20.1860 
   72.7500    67.3830    10.4970     8.1100    11.0430    24.2780     2.1280   -20.1670 
   72.8750    67.6980    10.3780     7.9880    10.8760    24.2730     2.1340   -20.0080 
   73.0000    64.4830    10.2020     7.8170    10.7260    24.1850     2.1420   -19.7150 
   73.1250    64.8580     9.9140     7.5820    10.5240    24.1180     2.1510   -19.3130 
   73.2500    67.8260     9.5290     7.3020    10.2380    24.0900     2.1600   -18.8420 
   73.3750    69.9590     9.1210     7.0230     9.9120    24.0940     2.1660   -18.3490 
   73.5000    71.8760     8.8200     6.8140     9.4080    24.1220     2.1690   -17.8910 
   73.6250    74.6150     8.8110     6.7840     8.9040    24.1650     2.1720   -17.5480 
   73.7500    74.4650     9.1090     6.9530     8.9610    24.1690     2.1740   -17.3800 
   73.8750    69.5870     9.6610     7.3110    10.6190    24.1390     2.1750   -17.4530 
   74.0000    64.5070    10.3130     7.7840    14.6670    24.1490     2.1730   -17.7230 
   74.1250    63.8740    10.7910     8.2160    19.4770    24.1920     2.1690   -18.0990 
   74.2500    63.4220    10.9230     8.4580    18.0120    24.1550     2.1640   -18.5160 
   74.3750    60.4960    10.7020     8.4620    13.8970    24.0860     2.1620   -18.9470 
   74.5000    57.0550    10.2750     8.2840    11.7060    24.0710     2.1640   -19.3740 
   74.6250    57.3010     9.8790     8.0450    11.0750    24.0850     2.1700   -19.7420 
   74.7500    58.8390     9.6510     7.8600    10.9660    24.0890     2.1760   -20.0020 
   74.8750    60.1500     9.5850     7.7520    11.1140    24.0890     2.1790   -20.0700 
   75.0000    61.9850     9.5820     7.6830    11.0780    24.0770     2.1770   -19.9010 
   75.1250    63.9090     9.4610     7.5570    10.7010    24.0390     2.1660   -19.4760 
   75.2500    65.1060     9.1290     7.3090    10.4230    23.9760     2.1490   -18.8420 
   75.3750    68.5490     8.6150     6.9450    10.1090    23.9080     2.1360   -18.0330 
   75.5000    74.3140     8.0550     6.5470     9.6910    23.8060     2.1350   -17.0950 
   75.6250    77.2100     7.6660     6.2430     8.7550    23.7360     2.1510   -16.1130 
   75.7500    76.1260     7.5560     6.1050     7.6630    23.7030     2.1740   -15.1900 
   75.8750    74.1690     7.7500     6.1610     7.5900    23.6970     2.1930   -14.4340 
   76.0000    72.2040     8.1860     6.3900     9.0840    23.7020     2.2010   -13.9010 
   76.1250    69.2850     8.7180     6.7280     9.8400    23.7180     2.1990   -13.6280 
   76.2500    66.7710     9.1530     7.0420     9.9520    23.7440     2.1950   -13.5420 
   76.3750    64.8710     9.3730     7.2370     9.8230    23.7740     2.1940   -13.6140 
   76.5000    64.1830     9.3420     7.2660     9.8140    23.8190     2.1960   -13.7940 
   76.6250    66.1700     9.1080     7.1380     9.7400    23.8520     2.2010   -14.0030 
   76.7500    68.2680     8.8410     6.9640     9.4830    23.8760     2.2080   -14.2060 
   76.8750    67.8640     8.6420     6.8160     9.1680    23.9060     2.2150   -14.3870 
   77.0000    66.2050     8.5700     6.7330     9.0590    23.9370     2.2200   -14.5590 
   77.1250    67.3940     8.6640     6.7460     9.1380    23.9630     2.2140   -14.8060 
   77.2500    68.3400     8.8650     6.8250     9.4850    24.0100     2.1990   -15.1960 
   77.3750    65.7780     9.1090     6.9430     9.9780    24.1110     2.1790   -15.7030 
   77.5000    61.7510     9.3410     7.0690    10.1770    24.2860     2.1610   -16.2220 
   77.6250    61.2300     9.5410     7.1860    10.0540    24.3500     2.1490   -16.6560 
   77.7500    63.7550     9.7190     7.2910    10.1290    24.3240     2.1440   -16.9490 
   77.8750    66.6010     9.8430     7.3640    10.1510    24.2800     2.1430   -17.0940 
   78.0000    66.9050     9.8340     7.3600    10.3110    24.3100     2.1410   -17.1070 
   78.1250    64.9140     9.5820     7.2110    10.8300    24.3970     2.1390   -16.9100 
   78.2500    63.9410     9.1580     6.9510    10.9110    24.4340     2.1390   -16.4670 
   78.3750    64.6030     8.7120     6.6560    10.0130    24.3570     2.1470   -15.8320 
   78.5000    65.5410     8.4340     6.4330     8.3460    24.1110     2.1660   -15.1870 
   78.6250    65.8810     8.5210     6.4000     7.8560    23.8070     2.1910   -14.8100 
   78.7500    65.7610     8.9260     6.5580     8.7140    23.6210     2.2100   -14.7600 
   78.8750    64.7340     9.5280     6.8610    10.2390    23.6140     2.2130   -14.9780 
   79.0000    63.1090    10.1310     7.2120    11.1240    23.7820     2.1970   -15.3970 
   79.1250    61.6450    10.4840     7.4670    11.2110    24.0000     2.1700   -16.0200 
   79.2500    60.5460    10.5380     7.5580    11.1280    24.1050     2.1460   -16.8440 
   79.3750    60.4500    10.3630     7.4990    11.0360    24.1490     2.1350   -17.8390 
   79.5000    61.3450    10.0910     7.3540    11.0840    24.1150     2.1370   -18.8660 
   79.6250    61.9270     9.8300     7.1920    11.3650    24.1150     2.1490   -19.6850 
   79.7500    60.4130     9.6100     7.0580    11.6720    24.2670     2.1550   -20.2240 
   79.8750    59.0950     9.4790     6.9930    11.7510    24.5020     2.1460   -20.4970 
   80.0000    58.5750     9.5700     7.0800    11.6910    24.6870     2.1220   -20.5470 
   80.1250    57.6750    10.1710     7.4790    11.7640    24.8470     2.0990   -20.3870 
   80.2500    56.7780    11.3330     8.2300    12.2410    24.9710     2.1030   -20.0290 
   80.3750    55.8090    12.9270     9.3050    14.2870    24.9150     2.1510   -19.4750 
   80.5000    54.4600    14.5200    10.5020    19.0880    24.7780     2.2420   -18.7640 
   80.6250    53.4540    15.2370    11.2990    22.7320    24.7310     2.3530   -18.0540 
   80.7500    54.9070    14.7440    11.3480    19.1560    24.7500     2.4410   -17.4390 
   80.8750    57.8950    13.3400    10.7000    13.6400    24.8520     2.4790   -16.9410 
   81.0000    59.6680    11.7240     9.7390    11.0570    25.1160     2.4570   -16.5270 
   81.1250    59.3290    10.5760     8.8970    10.7640    25.3970     2.3820   -16.1640 
   81.2500    58.6330     9.9560     8.3230    11.0610    25.6470     2.2870   -15.8360 
   81.3750    57.6860     9.6510     7.9520    11.2650    25.7970     2.2010   -15.4460 
   81.5000    58.0840     9.3280     7.6160    11.2110    25.7180     2.1450   -14.8760 
   81.6250    64.6590     8.6620     7.1100    10.5330    25.3240     2.1350   -13.8710 
   81.7500    75.6640     7.7140     6.4330     8.6550    25.0220     2.1590   -12.4060 
   81.8750    86.6150     6.7090     5.7050     6.3630    24.8940     2.2030   -10.5370 
   82.0000    94.4960     5.8770     5.0650     5.0160    24.8960     2.2530    -8.4400 
   82.1250    99.7100     5.3800     4.6300     4.5610    24.9120     2.2890    -6.3450 
   82.2500   103.9500     5.1480     4.3820     4.5370    24.9240     2.3060    -4.3580 
   82.3750   103.4810     5.1090     4.2960     4.5780    24.9370     2.3060    -2.5860 
