~V
VERS. 2.00: Ver 2.00
~W
STRT.M 50.0000:
STOP.M 212.0000:
STEP.M 0.1250:
NULL. -999.2500:
UWI. F10013:
~C
DEPT.M :
GR.API :
RML.OHMM :
RI. :
RXO.OHMM :
CALI.CM :
DEN.GM/CC :
SP.MV :
~A
# ...
  128.7500    56.4890    23.7100    23.0340    21.7110    23.3720     2.4100   -19.3320 
  128.8750    54.8980    24.1430    23.0980    31.6880    23.2480     2.4340   -19.3030 
  129.0000    54.8250    25.7660    24.2760    40.8000    23.1740     2.4780   -19.2510 
  129.1250    53.4920    28.1170    26.3760    39.7210    23.1360     2.5140   -19.1780 
  129.2500    52.3190    30.3920    28.6710    35.2820    23.1210     2.5330   -19.1240 
  129.3750    53.0640    32.0810    30.5760    33.1520    23.1300     2.5360   -19.1290 
  129.5000    53.6100    32.9380    31.7020    33.8100    23.2060     2.5300   -19.1740 
  129.6250    52.9040    32.9270    31.8690    35.6200    23.2630     2.5200   -19.1930 
  129.7500    54.4630    32.4640    31.4640    35.0780    23.2870     2.5040   -19.1660 
  129.8750    57.5760    31.8390    30.7880    33.6680    23.3020     2.4850   -19.1070 
  130.0000    58.6090    31.3140    30.1320    32.0720    23.3130     2.4700   -19.0600 
  130.1250    55.9440    31.1360    29.7760    29.3410    23.3020     2.4670   -19.0520 
  130.2500    54.2160    31.3290    29.7940    30.5710    23.2900     2.4750   -19.0490 
  130.3750    55.0450    31.9170    30.2230    37.5210    23.2920     2.4880   -19.0330 
  130.5000    55.6900    32.9970    31.1270    40.2690    23.2880     2.4990   -19.0010 
  130.6250    54.5940    34.8970    32.7630    36.6710    23.2580     2.5060   -18.9780 
  130.7500    52.8320    37.6470    35.1620    37.1640    23.2120     2.5130   -18.9720 
  130.8750    51.0190    41.0990    38.2530    43.1150    23.1940     2.5290   -18.9850 
  131.0000    50.1830    44.7280    41.6550    54.1360    23.2020     2.5550   -19.0040 
  131.1250    51.6570    47.4160    44.4580    71.3540    23.2180     2.5850   -19.0500 
  131.2500    53.9490    48.3770    45.8470    70.9690    23.2230     2.6080   -19.1210 
  131.3750    55.5940    47.3570    45.4440    58.0230    23.2210     2.6190   -19.2060 
  131.5000    56.4210    44.7890    43.4940    48.7740    23.2240     2.6150   -19.2990 
  131.6250    56.1530    41.5930    40.7300    45.7970    23.2350     2.6010   -19.4130 
  131.7500    54.7600    38.8210    38.1650    45.2280    23.2250     2.5860   -19.5420 
  131.8750    53.3440    36.9540    36.2940    42.1610    23.1940     2.5760   -19.6800 
  132.0000    53.5610    36.1210    35.2960    38.0710    23.1760     2.5750   -19.8330 
  132.1250    52.8100    36.2920    35.2020    35.8610    23.1740     2.5880   -19.9970 
  132.2500    49.7410    36.9590    35.6010    36.6380    23.1640     2.6100   -20.1600 
  132.3750    46.8090    37.7100    36.1390    34.3930    23.1410     2.6350   -20.3240 
  132.5000    45.7930    38.1140    36.4180    36.2310    23.1160     2.6540   -20.4940 
  132.6250    46.0880    37.6900    35.9610    36.0540    23.0920     2.6580   -20.6730 
  132.7500    47.3090    36.4670    34.7500    35.5880    23.0900     2.6520   -20.8430 
  132.8750    50.3400    34.6150    32.9270    38.5110    23.1400     2.6440   -20.9720 
  133.0000    53.1100    32.4400    30.7810    41.1390    23.1710     2.6430   -21.0460 
  133.1250    52.5170    30.3650    28.7240    36.0460    23.1920     2.6490   -21.0620 
  133.2500    52.4130    28.7630    27.1080    33.4990    23.2240     2.6540   -21.0630 
  133.3750    53.8240    27.9240    26.1830    33.2920    23.2720     2.6520   -21.0400 
  133.5000    54.4020    28.0630    26.1320    28.8420    23.2920     2.6420   -20.9750 
  133.6250    54.1360    29.3820    27.1680    28.2430    23.2660     2.6270   -20.8510 
  133.7500    55.9770    31.4050    28.9440    32.8310    23.2120     2.6170   -20.7050 
  133.8750    58.2540    33.5590    31.0200    37.5850    23.1530     2.6120   -20.5820 
  134.0000    58.5270    35.1610    32.7980    41.0480    23.0890     2.6110   -20.4950 
  134.1250    57.2640    35.4680    33.5330    43.2330    23.0820     2.6030   -20.4470 
  134.2500    57.2490    34.6250    33.1770    41.7460    23.1030     2.5840   -20.3960 
  134.3750    57.9060    33.0380    31.9760    37.7080    23.0910     2.5580   -20.3260 
  134.5000    58.1400    31.2370    30.3540    35.5190    23.0790     2.5340   -20.2660 
  134.6250    57.1480    29.6790    28.7170    33.6020    23.0640     2.5300   -20.2270 
  134.7500    55.1080    28.4990    27.2980    33.6200    22.9800     2.5470   -20.2090 
  134.8750    54.0340    27.7230    26.1950    32.0560    22.8460     2.5810   -20.2190 
  135.0000    55.1030    27.3530    25.4690    28.0060    22.7380     2.6200   -20.2560 
  135.1250    56.8450    27.4870    25.2430    26.9240    22.7220     2.6480   -20.3010 
  135.2500    56.4950    28.0560    25.4640    26.8860    22.7230     2.6610   -20.3180 
  135.3750    53.9100    28.9680    26.0690    29.4030    22.7180     2.6580   -20.3220 
  135.5000    50.5390    30.0040    26.8970    31.4170    22.7190     2.6450   -20.3500 
  135.6250    48.3710    30.7450    27.6220    33.7960    22.6980     2.6300   -20.4360 
  135.7500    48.1600    30.8540    27.8920    34.9760    22.6670     2.6180   -20.5500 
  135.8750    51.0090    30.1520    27.4770    35.4680    22.6580     2.6100   -20.6680 
  136.0000    56.3000    28.7090    26.3700    35.7170    22.7390     2.6070   -20.7620 
  136.1250    59.1180    26.8320    24.7980    34.3240    22.8030     2.6110   -20.8120 
  136.2500    57.1000    25.0530    23.2590    31.8740    22.9090     2.6210   -20.8820 
  136.3750    52.5290    23.6970    22.0800    27.9110    23.1020     2.6310   -20.9830 
  136.5000    50.2060    22.9340    21.4520    24.1090    23.2920     2.6250   -21.1000 
  136.6250    52.3120    22.8500    21.5010    24.0530    23.3790     2.5900   -21.2090 
  136.7500    55.3030    23.1690    21.9920    26.2170    23.3860     2.5320   -21.2960 
  136.8750    56.7860    23.6330    22.6810    27.8110    23.3670     2.4680   -21.3330 
  137.0000    56.1980    23.9280    23.2430    28.1970    23.3620     2.4180   -21.3400 
  137.1250    55.8850    23.6540    23.2360    28.7030    23.3820     2.3960   -21.3350 
  137.2500    56.4940    22.7600    22.5610    28.3840    23.4110     2.3970   -21.3260 
  137.3750    57.4060    21.3720    21.3160    26.4910    23.4250     2.4110   -21.3270 
  137.5000    58.1750    19.7780    19.7780    22.7590    23.4100     2.4290   -21.3180 
  137.6250    58.5900    18.3560    18.3100    17.9740    23.3280     2.4460   -21.2970 
  137.7500    59.6740    17.3010    17.1350    16.2870    23.2430     2.4580   -21.2700 
  137.8750    60.9250    16.6460    16.3170    16.5910    23.2140     2.4620   -21.2480 
  138.0000    61.8380    16.3340    15.8320    18.1280    23.2480     2.4590   -21.2170 
  138.1250    62.1150    16.3230    15.6650    19.3580    23.3110     2.4500   -21.1670 
  138.2500    62.9730    16.5270    15.7360    18.9140    23.3480     2.4410   -21.1140 
  138.3750    63.6630    16.9310    16.0390    18.1820    23.3750     2.4360   -21.0570 
  138.5000    62.2260    17.5060    16.5540    18.3630    23.4410     2.4350   -20.9990 
  138.6250    59.1640    18.1880    17.2340    21.0310    23.4820     2.4410   -20.9250 
  138.7500    56.3440    18.8690    17.9410    23.7370    23.4960     2.4470   -20.8510 
  138.8750    54.5690    19.4970    18.5800    24.8430    23.4860     2.4490   -20.7950 
  139.0000    55.1400    20.0440    19.0820    22.3310    23.4770     2.4470   -20.7760 
  139.1250    56.9910    20.4610    19.3650    19.7900    23.4830     2.4450   -20.8220 
  139.2500    55.3390    20.6910    19.4050    20.1170    23.4720     2.4490   -20.8930 
  139.3750    50.3870    20.6360    19.1400    22.9920    23.3960     2.4610   -20.9690 
  139.5000    48.1070    20.2220    18.5310    25.2790    23.3090     2.4730   -21.0230 
  139.6250    53.4730    19.3960    17.5860    21.9080    23.2910     2.4760   -21.0840 
  139.7500    59.9880    18.2250    16.5230    18.6000    23.3510     2.4690   -21.1730 
  139.8750    62.6630    16.8440    15.5480    17.5320    23.3620     2.4580   -21.2850 
