~V
VERS. 2.00: Ver 2.00
~W
STRT.M 50.0000:
STOP.M 325.0000:
STEP.M 0.1250:
NULL. -999.2500:
UWI. F10039:
~C
DEPT.M :
GR.API :
RML.OHMM :
RI. :
RXO.OHMM :
CALI.CM :
DEN.GM/CC :
SP.MV :
~A
# ...
  207.5000    55.2190    16.8420    15.4720    17.8030    23.9420     2.5040   -21.0420 
  207.6250    55.4350    16.8930    15.6880    15.3530    23.9310     2.4970   -20.8640 
  207.7500    56.1550    17.0050    15.9140    14.4130    23.7550     2.4930   -20.7400 
  207.8750    56.5520    17.0010    15.9290    14.8010    23.4490     2.4920   -20.6720 
  208.0000    57.0980    16.7460    15.6200    15.6990    23.1460     2.4890   -20.6400 
  208.1250    58.5110    16.1380    14.9770    15.0890    22.9280     2.4840   -20.6320 
  208.2500    60.0790    15.3010    14.1980    13.2560    23.0780     2.4760   -20.6460 
  208.3750    60.2820    14.3810    13.4310    11.9350    23.4160     2.4690   -20.6650 
  208.5000    57.2760    13.5310    12.7810    11.0710    23.7250     2.4640   -20.6950 
  208.6250    52.7340    12.8880    12.3150    11.1890    23.7820     2.4620   -20.7360 
  208.7500    51.2610    12.4440    11.9760    11.5760    23.7320     2.4610   -20.7750 
  208.8750    52.8610    12.1780    11.7180    11.6380    23.6450     2.4610   -20.7950 
  209.0000    54.9360    12.0820    11.5160    11.0950    23.5810     2.4630   -20.8120 
  209.1250    54.8050    12.2180    11.4350    11.5100    23.6270     2.4690   -20.8280 
  209.2500    54.4690    12.5970    11.5540    12.6150    23.6690     2.4810   -20.8390 
  209.3750    54.8790    13.2220    11.9480    13.6920    23.6510     2.4970   -20.8410 
  209.5000    54.9240    14.0370    12.6140    15.7340    23.5900     2.5110   -20.8360 
  209.6250    52.9190    14.8730    13.4300    17.2190    23.5200     2.5180   -20.8210 
  209.7500    51.4810    15.4790    14.1080    16.9720    23.5040     2.5170   -20.7910 
  209.8750    52.2950    15.6730    14.4210    15.3830    23.4960     2.5120   -20.7560 
  210.0000    54.2550    15.4220    14.2760    13.9990    23.4450     2.5100   -20.7150 
  210.1250    55.3400    14.8850    13.7450    13.1820    23.3550     2.5170   -20.6570 
  210.2500    55.1960    14.4380    13.1750    12.7000    23.2360     2.5290   -20.6020 
  210.3750    54.4890    14.3360    12.8340    12.8910    23.1300     2.5390   -20.5610 
  210.5000    55.2030    14.6920    12.9030    14.3130    23.0740     2.5410   -20.5140 
  210.6250    59.1290    15.4960    13.5040    17.2960    23.1060     2.5330   -20.4560 
  210.7500    62.9070    16.4780    14.4370    19.8730    23.3500     2.5200   -20.4010 
  210.8750    63.6690    17.4330    15.4790    20.0380    23.7330     2.5090   -20.3650 
  211.0000    61.1320    18.2070    16.3840    17.4420    24.0610     2.5020   -20.3370 
  211.1250    58.7850    18.7050    16.9340    15.9670    24.1650     2.5020   -20.3160 
  211.2500    58.7570    19.0160    17.1830    15.4450    24.1390     2.5060   -20.2860 
  211.3750    59.1250    19.2090    17.2310    15.5140    24.0690     2.5090   -20.2600 
  211.5000    58.4720    19.3160    17.1620    16.1600    24.0120     2.5080   -20.2520 
  211.6250    58.2780    19.2850    16.9730    17.2100    23.9900     2.5020   -20.2540 
  211.7500    60.0240    19.0830    16.6490    17.2560    24.0090     2.4940   -20.2530 
  211.8750    60.8290    18.7010    16.2000    16.1940    24.0290     2.4880   -20.2690 
  212.0000    58.7230    18.2190    15.7060    15.1110    24.0280     2.4870   -20.3080 
  212.1250    58.0130    17.8360    15.3450    14.9330    23.9910     2.4940   -20.3580 
  212.2500    60.6480    17.7390    15.2490    15.8550    23.8850     2.5060   -20.4180 
  212.3750    63.7070    18.0280    15.4910    16.3360    23.7100     2.5210   -20.4820 
  212.5000    66.2240    18.6910    16.0740    16.6680    23.5050     2.5350   -20.5460 
  212.6250    69.3430    19.6390    16.9560    18.0300    23.3500     2.5430   -20.6100 
  212.7500    71.7150    20.6560    17.9440    19.7780    23.1650     2.5430   -20.6680 
  212.8750    72.6050    21.6160    18.8790    19.9940    22.9830     2.5370   -20.6990 
  213.0000    72.5310    22.4500    19.6280    19.5620    22.8790     2.5280   -20.6930 
  213.1250    72.2820    23.0830    20.0640    20.0060    22.8950     2.5260   -20.6660 
  213.2500    72.0240    23.4830    20.2150    19.6330    22.9810     2.5320   -20.6380 
  213.3750    71.9310    23.5850    20.1090    18.9240    23.0760     2.5430   -20.6110 
  213.5000    71.6260    23.3570    19.7880    18.4310    23.0990     2.5530   -20.5780 
  213.6250    70.9310    22.8220    19.3010    17.9350    23.1080     2.5580   -20.5460 
  213.7500    71.1590    22.1870    18.7660    17.2900    23.1390     2.5580   -20.5290 
  213.8750    72.4250    21.6160    18.2830    16.5760    23.0990     2.5580   -20.5260 
  214.0000    71.9490    21.2350    17.9500    16.4780    22.9750     2.5600   -20.5470 
  214.1250    69.4080    21.1370    17.8690    17.3780    22.8930     2.5630   -20.5800 
  214.2500    68.2630    21.2590    18.0000    19.1880    22.8500     2.5650   -20.6030 
  214.3750    68.2270    21.5350    18.2820    20.1870    22.8260     2.5620   -20.6160 
  214.5000    67.6420    21.8680    18.6220    20.0960    22.8070     2.5570   -20.6210 
  214.6250    66.0260    22.1140    18.9060    19.0850    22.8210     2.5490   -20.6050 
  214.7500    66.2580    22.1820    19.0600    18.3120    22.8160     2.5390   -20.5660 
  214.8750    68.6400    22.0350    19.0440    17.9800    22.7890     2.5240   -20.5150 
  215.0000    70.6050    21.6840    18.8310    17.7060    22.7480     2.5050   -20.4510 
  215.1250    68.4350    21.1190    18.3670    17.8250    22.7730     2.4920   -20.3850 
  215.2500    64.7320    20.3710    17.6710    17.6860    22.7940     2.4890   -20.3200 
  215.3750    64.4150    19.4030    16.7360    17.0630    22.8650     2.4960   -20.2590 
  215.5000    68.2180    18.1580    15.5560    15.7960    23.0520     2.5000   -20.2190 
  215.6250    69.9150    16.5550    14.1140    14.6370    23.2520     2.4810   -20.2000 
  215.7500    67.6630    14.7160    12.5270    13.2440    23.6110     2.4410   -20.1740 
  215.8750    63.9400    12.8130    10.9210    10.7620    24.1880     2.3890   -20.1340 
  216.0000    59.7280    11.0660     9.4460     7.7960    24.8940     2.3420   -20.0920 
  216.1250    55.3120     9.7360     8.3000     6.2660    25.4200     2.3150   -20.0570 
  216.2500    52.8200     8.8020     7.5060     5.8830    25.8500     2.3080   -20.0150 
  216.3750    52.0870     8.1800     7.0490     5.8530    26.1980     2.3190   -19.9470 
  216.5000    50.2970     7.8180     6.8510     5.8440    26.2050     2.3410   -19.8480 
  216.6250    47.3100     7.6100     6.8120     5.7260    25.7170     2.3640   -19.7490 
  216.7500    46.5800     7.4770     6.7970     5.6220    25.0030     2.3790   -19.6800 
  216.8750    48.0150     7.4030     6.7630     5.5280    24.4470     2.3820   -19.6440 
  217.0000    48.9140     7.3760     6.7150     5.5360    24.3320     2.3740   -19.6220 
  217.1250    47.3340     7.3710     6.6930     5.5800    24.4600     2.3580   -19.5970 
  217.2500    46.0080     7.3910     6.7160     5.6810    24.5050     2.3400   -19.5860 
  217.3750    46.8510     7.4610     6.7740     5.8550    24.5040     2.3230   -19.6080 
  217.5000    47.7270     7.5520     6.8410     5.9610    24.5520     2.3110   -19.6470 
  217.6250    45.5870     7.5400     6.8760     6.0620    24.5550     2.3070   -19.6890 
  217.7500    43.0400     7.5040     6.8560     6.2560    24.4290     2.3100   -19.7300 
  217.8750    42.8620     7.4880     6.7770     6.6080    24.2230     2.3150   -19.7760 
  218.0000    43.5260     7.4780     6.6540     6.6040    23.9820     2.3220   -19.8310 
  218.1250    41.3150     7.4370     6.5280     6.6630    23.8190     2.3330   -19.9040 
  218.2500    39.1430     7.3770     6.4480     6.9610    23.7660     2.3500   -19.9810 
  218.3750    39.4490     7.3260     6.4370     7.2260    23.8420     2.3750   -20.0390 
  218.5000    41.4990     7.2570     6.4780     7.1410    24.0280     2.4040   -20.0690 
  218.6250    43.0130     7.1820     6.5190     6.7370    24.2300     2.4220   -20.0770 
