~V
VERS. 2.00: Ver 2.00
~W
STRT.M 50.0000:
STOP.M 255.0000:
STEP.M 0.1250:
NULL. -999.2500:
UWI. F10005:
~C
DEPT.M :
SP.MV :
GR.API :
RML.OHMM :
RI. :
RXO.OHMM :
CALI.CM :
DEN.GM/CC :
~A
# ...
   61.2500   -13.4770    60.6580    16.7370    14.4790    15.7420    24.0310     2.1760 
   61.3750   -13.5540    60.2260    14.7620    12.9620    14.1050    23.8410     2.1850 
   61.5000   -13.5840    65.2720    11.9750    10.8340    10.5970    23.6670     2.1980 
   61.6250   -13.5800    72.3950     9.5000     8.8540     7.1070    23.5240     2.2110 
   61.7500   -13.5890    77.2330     7.9060     7.4550     6.3990    23.4220     2.2180 
   61.8750   -13.5660    80.6300     7.3100     6.7420     6.3070    23.3860     2.2140 
   62.0000   -13.6330    83.4930     7.7280     6.7450     6.4180    23.4330     2.1960 
   62.1250   -13.7690    82.4740     9.2950     7.6410     7.6970    23.5700     2.1720 
   62.2500   -13.9550    76.6630    11.6290     9.2810    10.0490    23.7450     2.1600 
   62.3750   -14.1940    71.1470    14.1430    11.3540    11.4670    23.9000     2.1730 
   62.5000   -14.4570    69.8400    15.8160    13.0940    12.2700    23.9720     2.2090 
   62.6250   -14.7140    71.6670    15.3310    13.2090    13.4190    23.9150     2.2490 
   62.7500   -14.8830    73.7130    13.2140    11.7930    12.7880    23.7740     2.2730 
   62.8750   -15.0150    76.2130    10.5610     9.7000    10.2070    23.6010     2.2750 
   63.0000   -15.0610    79.8300     8.3110     7.7740     7.1800    23.4650     2.2650 
   63.1250   -15.0590    83.8050     7.0170     6.5100     6.3300    23.4390     2.2600 
   63.2500   -15.0500    85.0070     6.5670     5.8540     6.3670    23.5100     2.2660 
   63.3750   -15.0830    82.7290     6.8700     5.7660     6.6970    23.6330     2.2770 
   63.5000   -15.2040    79.6980     7.7950     6.1980     6.8060    23.7700     2.2770 
   63.6250   -15.4790    77.2020     9.1930     7.1260     7.3800    23.8820     2.2490 
   63.7500   -15.8390    73.4000    10.6870     8.2820     8.4840    23.9550     2.2000 
   63.8750   -16.2970    68.7810    11.9280     9.3940     9.6460    23.9700     2.1460 
   64.0000   -16.8190    65.7350    12.6100    10.1870    10.5740    23.9200     2.1040 
   64.1250   -17.3050    64.1540    12.5380    10.4500    11.0970    23.7960     2.0900 
   64.2500   -17.7610    61.9030    12.0700    10.3640    11.1060    23.6430     2.0930 
   64.3750   -18.1430    60.1560    11.5940    10.1620    10.9410    23.5270     2.0980 
   64.5000   -18.4290    60.1490    11.4430    10.0720    10.8210    23.5020     2.0870 
   64.6250   -18.5430    60.9990    11.7840    10.2420    10.6670    23.6020     2.0540 
   64.7500   -18.6240    60.6990    12.3070    10.5370    10.7060    23.7700     2.0210 
   64.8750   -18.5560    59.9780    12.6220    10.7210    11.0940    23.9590     2.0200 
   65.0000   -18.3130    60.6720    12.3740    10.5330    10.9520    24.1420     2.0700 
   65.1250   -17.9440    64.2300    11.3730     9.7890     8.9160    24.2930     2.1610 
   65.2500   -17.4890    69.8990    10.0310     8.7680     6.8290    24.3910     2.2440 
   65.3750   -17.0390    75.0960     8.7820     7.7760     6.3050    24.4120     2.2830 
   65.5000   -16.6330    77.2910     7.9570     7.0460     6.8320    24.3670     2.2710 
   65.6250   -16.2530    76.2920     7.7620     6.7430     7.1960    24.2930     2.2370 
   65.7500   -15.9180    75.4150     8.0150     6.7880     7.3910    24.2440     2.2220 
   65.8750   -15.6530    75.3990     8.5200     7.0830     7.7340    24.2430     2.2360 
   66.0000   -15.4730    74.5030     9.0250     7.4630     8.2890    24.2890     2.2680 
   66.1250   -15.3660    73.4130     9.2280     7.6910     8.5880    24.3380     2.2940 
   66.2500   -15.3170    73.1500     9.0730     7.6670     7.8100    24.3320     2.3020 
   66.3750   -15.2880    74.4200     8.6360     7.4140     6.9620    24.2410     2.2970 
   66.5000   -15.2320    77.0290     8.0630     7.0220     6.7440    24.0690     2.2910 
   66.6250   -15.1630    80.5600     7.5200     6.6040     6.3680    23.8620     2.2900 
   66.7500   -15.0340    83.8620     7.0870     6.2420     6.0590    23.7340     2.2900 
   66.8750   -14.8680    85.4050     6.7600     5.9550     5.5980    23.7520     2.2860 
   67.0000   -14.7540    84.8640     6.5190     5.7400     5.4270    23.8700     2.2780 
   67.1250   -14.7180    82.2330     6.4100     5.6140     5.5220    23.9810     2.2770 
   67.2500   -14.7210    80.1180     6.4770     5.6040     5.7160    24.0290     2.2840 
   67.3750   -14.6820    80.6390     6.7610     5.7450     5.9160    24.0200     2.2920 
   67.5000   -14.6600    82.4890     7.2450     6.0410     6.1330    23.9830     2.2910 
   67.6250   -14.6630    82.4520     7.7930     6.4340     6.7520    23.9050     2.2760 
   67.7500   -14.6440    81.0940     8.1750     6.7630     7.8020    23.7660     2.2590 
   67.8750   -14.6780    78.0670     8.2760     6.9300     8.7480    23.5670     2.2530 
   68.0000   -14.6820    75.5120     8.2090     6.9820     8.7650    23.3630     2.2650 
   68.1250   -14.6710    75.9900     8.4140     7.1770     8.4650    23.2800     2.2960 
   68.2500   -14.6220    77.1830     9.3330     7.7990     8.9060    23.3460     2.3300 
   68.3750   -14.6260    75.4920    11.2660     9.1000    11.4510    23.4900     2.3500 
   68.5000   -14.6280    69.0540    14.2600    11.2620    18.4340    23.6160     2.3390 
   68.6250   -14.6340    62.5310    17.9320    14.2680    28.8670    23.6360     2.2850 
   68.7500   -14.6660    58.3820    21.0720    17.2100    29.5960    23.5440     2.2060 
   68.8750   -14.6850    56.7710    22.6620    19.0970    23.5430    23.3880     2.1270 
   69.0000   -14.7260    57.4810    22.5360    19.5400    19.4170    23.2580     2.0710 
   69.1250   -14.7620    57.6770    21.5290    19.0260    17.9170    23.2570     2.0550 
   69.2500   -14.8120    56.0510    20.8130    18.5270    18.2380    23.3770     2.0650 
   69.3750   -14.8320    54.3760    20.7490    18.4110    19.1430    23.5890     2.0850 
   69.5000   -14.8470    55.3020    21.2570    18.6990    19.6760    23.8100     2.1070 
   69.6250   -14.8640    58.2640    22.0080    19.2110    19.3090    23.9410     2.1200 
   69.7500   -14.9080    58.6720    22.5740    19.6330    18.6840    24.0010     2.1240 
   69.8750   -14.9640    57.0610    22.7600    19.8010    18.3590    24.0030     2.1190 
   70.0000   -15.0010    55.7860    22.5780    19.6960    18.5220    23.9300     2.1100 
   70.1250   -15.0230    56.6940    22.1940    19.4280    19.1160    23.7170     2.1030 
   70.2500   -15.0560    58.8680    21.8370    19.1850    18.9350    23.3760     2.1010 
   70.3750   -15.0930    61.2980    21.6200    19.0610    18.1640    22.9760     2.1040 
   70.5000   -15.1220    62.0550    21.5920    19.0820    18.7160    22.6280     2.1090 
   70.6250   -15.1710    59.7770    21.7450    19.2230    20.1920    22.4350     2.1150 
   70.7500   -15.1380    58.0480    21.9550    19.3810    20.9230    22.3930     2.1230 
   70.8750   -15.0770    59.2950    22.1290    19.5000    20.6880    22.4930     2.1350 
   71.0000   -15.0290    62.2230    22.2090    19.5690    20.4040    22.7550     2.1450 
   71.1250   -15.0080    62.8510    22.1880    19.6200    21.0840    23.1600     2.1480 
   71.2500   -14.9650    60.9600    22.1550    19.7130    21.6030    23.5440     2.1390 
   71.3750   -14.9390    59.1500    22.1990    19.9040    21.6280    23.7780     2.1210 
   71.5000   -14.9410    58.8130    22.3620    20.2230    22.2400    23.8220     2.0980 
   71.6250   -14.8490    57.7850    22.6220    20.6640    22.5130    23.7610     2.0830 
   71.7500   -14.8170    55.8200    22.8890    21.1400    22.7370    23.7280     2.0790 
   71.8750   -14.8060    54.0920    23.0960    21.5930    22.7960    23.7210     2.0840 
   72.0000   -14.7920    52.6720    23.2050    21.9790    22.9960    23.7190     2.0870 
   72.1250   -14.7700    52.4500    23.2470    22.2830    23.0410    23.7040     2.0750 
   72.2500   -14.7950    53.6040    23.3600    22.5890    22.8790    23.6500     2.0530 
   72.3750   -14.8400    54.8870    23.5970    22.9340    22.3070    23.5430     2.0350 
