~V
VERS. 2.00: Ver 2.00
~W
STRT.M 50.0000:
STOP.M 313.0000:
STEP.M 0.1250:
NULL. -999.2500:
UWI. F10034:
~C
DEPT.M :
GR.API :
RML.OHMM :
RI. :
RXO.OHMM :
CALI.CM :
DEN.GM/CC :
SP.MV :
~A
# ...
  218.7500    32.5090     6.8890     6.1130     6.8140    23.8650     2.4330   -13.4230 
  218.8750    33.0390     6.8030     6.0400     6.7650    23.7930     2.4290   -13.4380 
  219.0000    33.2830     6.7090     5.9430     6.5710    23.6340     2.4270   -13.4550 
  219.1250    33.4390     6.6300     5.8320     6.3110    23.4240     2.4240   -13.4700 
  219.2500    33.9520     6.5660     5.7300     6.1840    23.1910     2.4150   -13.4800 
  219.3750    35.0130     6.5050     5.6510     6.2260    23.0410     2.4000   -13.4900 
  219.5000    36.3240     6.4390     5.6020     6.2660    23.0230     2.3830   -13.4990 
  219.6250    35.9740     6.3790     5.5880     6.2470    23.1420     2.3710   -13.5100 
  219.7500    33.7940     6.3540     5.6040     6.2080    23.2540     2.3670   -13.5270 
  219.8750    32.5090     6.3870     5.6510     6.1750    23.2550     2.3730   -13.5440 
  220.0000    32.9680     6.4910     5.7370     6.1830    23.1770     2.3860   -13.5680 
  220.1250    32.7730     6.6640     5.8660     6.3000    23.1720     2.4050   -13.5940 
  220.2500    30.9280     6.8540     6.0110     6.5000    23.2750     2.4240   -13.6300 
  220.3750    29.5400     7.0120     6.1370     6.7450    23.4320     2.4400   -13.6700 
  220.5000    30.7410     7.0910     6.2040     6.9290    23.5020     2.4490   -13.7100 
  220.6250    32.3750     7.0400     6.1700     6.9710    23.4420     2.4510   -13.7640 
  220.7500    30.6640     6.8970     6.0570     6.8470    23.2840     2.4490   -13.8020 
  220.8750    27.0940     6.7140     5.9020     6.5340    23.1070     2.4460   -13.8220 
  221.0000    25.4270     6.5660     5.7570     6.2600    22.9720     2.4440   -13.8270 
  221.1250    26.4190     6.5410     5.6900     6.2110    22.9360     2.4410   -13.8200 
  221.2500    27.8630     6.6560     5.7220     6.3590    22.9540     2.4380   -13.8010 
  221.3750    29.1290     6.8980     5.8540     6.6710    23.0140     2.4360   -13.7630 
  221.5000    29.7530     7.2150     6.0570     7.1520    23.1780     2.4350   -13.7010 
  221.6250    28.9040     7.5150     6.2790     7.6050    23.5230     2.4350   -13.6030 
  221.7500    27.8410     7.7120     6.4510     7.8530    23.9390     2.4320   -13.5060 
  221.8750    27.8520     7.7620     6.5310     7.8680    24.1910     2.4260   -13.4130 
  222.0000    27.8500     7.6720     6.5070     7.7120    24.2450     2.4200   -13.3360 
  222.1250    27.3170     7.4860     6.3940     7.4200    24.1580     2.4170   -13.2800 
  222.2500    28.5690     7.3040     6.2600     7.1920    24.0160     2.4190   -13.2390 
  222.3750    31.7900     7.1920     6.1600     7.0720    23.8860     2.4270   -13.2170 
  222.5000    35.0780     7.1920     6.1360     7.1130    23.8240     2.4350   -13.2150 
  222.6250    36.1490     7.3320     6.2210     7.2570    23.8320     2.4360   -13.2250 
  222.7500    37.3330     7.5550     6.3870     7.5010    23.8880     2.4300   -13.2410 
  222.8750    39.9390     7.8020     6.5940     7.7700    23.9760     2.4200   -13.2560 
  223.0000    41.7500     8.0070     6.7880     8.0690    24.0820     2.4150   -13.2480 
  223.1250    40.5560     8.0910     6.9010     8.3100    24.1690     2.4200   -13.2050 
  223.2500    38.0980     8.0530     6.9170     8.2730    24.2260     2.4310   -13.1290 
  223.3750    36.0600     7.9160     6.8440     7.9950    24.2710     2.4400   -13.0210 
  223.5000    34.0450     7.7260     6.7120     7.5560    24.2770     2.4440   -12.8830 
  223.6250    30.6650     7.5350     6.5580     7.2480    24.1940     2.4420   -12.7250 
  223.7500    28.5140     7.3760     6.4140     7.0000    24.1350     2.4380   -12.5660 
  223.8750    29.3140     7.2510     6.2870     6.8260    24.1430     2.4370   -12.4170 
  224.0000    31.8900     7.1460     6.1750     6.6760    24.1520     2.4380   -12.2860 
  224.1250    33.6590     7.0500     6.0770     6.5300    24.0490     2.4390   -12.1780 
  224.2500    33.5040     6.9650     5.9950     6.4310    24.0260     2.4350   -12.0980 
  224.3750    31.6400     6.9070     5.9370     6.3970    24.2610     2.4250   -12.0450 
  224.5000    29.3020     6.8940     5.9160     6.4360    24.7240     2.4080   -12.0190 
  224.6250    29.5390     6.9490     5.9470     6.5200    25.0220     2.3840   -12.0040 
  224.7500    32.3080     7.0570     6.0210     6.6090    25.0060     2.3610   -11.9870 
  224.8750    35.2570     7.1970     6.1270     6.6990    25.0170     2.3460   -11.9780 
  225.0000    37.9130     7.3440     6.2450     6.8040    24.9830     2.3430   -11.9780 
  225.1250    40.8180     7.4670     6.3530     6.9220    24.5190     2.3550   -11.9880 
  225.2500    42.7750     7.5520     6.4350     6.9680    23.8850     2.3710   -12.0060 
  225.3750    42.6000     7.5970     6.4850     6.9530    23.4470     2.3840   -12.0430 
  225.5000    41.5170     7.6070     6.5020     6.9870    23.2440     2.3890   -12.0900 
  225.6250    41.9590     7.5890     6.4890     7.0090    23.1540     2.3880   -12.1690 
  225.7500    43.8510     7.5590     6.4600     6.9680    23.1470     2.3900   -12.2520 
  225.8750    45.3670     7.5210     6.4220     6.9020    23.2040     2.3970   -12.3300 
  226.0000    45.7040     7.4790     6.3810     6.8540    23.2780     2.4080   -12.4090 
  226.1250    47.1060     7.4320     6.3420     6.8820    23.2950     2.4200   -12.4790 
  226.2500    49.8150     7.3810     6.3100     6.9850    23.2580     2.4300   -12.5410 
  226.3750    50.3040     7.3250     6.2870     7.0420    23.1770     2.4350   -12.5840 
  226.5000    46.0010     7.2660     6.2740     6.9580    23.0770     2.4350   -12.6240 
  226.6250    39.4990     7.2170     6.2700     6.9510    23.0160     2.4310   -12.6490 
  226.7500    36.5000     7.1870     6.2670     6.9770    22.9850     2.4250   -12.6730 
  226.8750    36.4480     7.1810     6.2600     6.9510    22.9860     2.4190   -12.6890 
  227.0000    36.3010     7.1920     6.2460     6.8450    23.0260     2.4160   -12.6860 
  227.1250    33.9700     7.1990     6.2190     6.6730    23.1360     2.4170   -12.6780 
  227.2500    31.5300     7.1850     6.1830     6.5520    23.2460     2.4210   -12.6500 
  227.3750    30.6500     7.1470     6.1410     6.5170    23.3020     2.4240   -12.6100 
  227.5000    31.0890     7.1000     6.1030     6.5240    23.3170     2.4240   -12.5600 
  227.6250    32.8320     7.0650     6.0820     6.5170    23.3170     2.4210   -12.4980 
  227.7500    35.1610     7.0550     6.0790     6.5250    23.3200     2.4180   -12.4140 
  227.8750    37.4460     7.0660     6.0920     6.6340    23.3290     2.4190   -12.3120 
  228.0000    39.8210     7.0870     6.1130     6.8420    23.3350     2.4240   -12.2070 
  228.1250    41.5860     7.0930     6.1270     6.9500    23.2760     2.4290   -12.0980 
  228.2500    41.2400     7.0690     6.1250     6.8430    23.1950     2.4320   -12.0070 
  228.3750    40.5570     7.0180     6.1070     6.6690    23.1490     2.4330   -11.9290 
  228.5000    41.2990     6.9530     6.0770     6.5750    23.1600     2.4330   -11.8670 
  228.6250    41.3980     6.8970     6.0440     6.5670    23.1750     2.4370   -11.8450 
  228.7500    38.0100     6.8540     6.0150     6.5960    23.1770     2.4440   -11.8590 
  228.8750    33.9210     6.8100     5.9840     6.6390    23.1590     2.4530   -11.9000 
  229.0000    32.4020     6.7370     5.9390     6.6840    23.1280     2.4600   -11.9420 
  229.1250    33.8130     6.6070     5.8520     6.7380    23.1230     2.4590   -11.9730 
  229.2500    36.7800     6.4280     5.7190     6.7810    23.1470     2.4510   -11.9980 
  229.3750    40.8580     6.2310     5.5560     6.7610    23.1430     2.4380   -12.0220 
  229.5000    44.1200     6.0680     5.4030     6.6900    23.1230     2.4260   -12.0470 
  229.6250    44.2380     6.0370     5.3410     6.6620    23.1150     2.4200   -12.0460 
  229.7500    43.4500     6.1870     5.4210     6.7640    23.1260     2.4210   -12.0360 
  229.8750    44.9450     6.5290     5.6680     7.0930    23.1580     2.4300   -12.0350 
