~V
VERS. 2.00: Ver 2.00
~W
STRT.M 50.0000:
STOP.M 280.0000:
STEP.M 0.1250:
NULL. -999.2500:
UWI. F10023:
~C
DEPT.M :
SP.MV :
DEN.GM/CC :
GR.API :
CALI.CM :
RXO.OHMM :
RI. :
RML.OHMM :
~A
# ...
   61.2500   -33.0770     2.2070    80.8180    23.6520     6.4560     6.9790     7.3190 
   61.3750   -32.1930     2.2170    90.3870    23.6730     6.1970     6.4810     7.0400 
   61.5000   -31.3600     2.2170   100.7500    23.7290     6.1850     6.1280     6.9400 
   61.6250   -30.6740     2.2170   106.5860    23.7510     6.0700     5.9690     6.9990 
   61.7500   -30.1130     2.2170   109.5820    23.7110     6.0010     5.9390     7.1030 
   61.8750   -29.6610     2.2110   111.4010    23.6170     6.0320     5.9830     7.1890 
   62.0000   -29.3720     2.2040   110.5130    23.4660     6.1320     6.0460     7.2250 
   62.1250   -29.2690     2.2020   107.5060    23.1240     6.2700     6.0880     7.2190 
   62.2500   -29.3070     2.2080   105.9720    22.6670     6.3140     6.0930     7.2030 
   62.3750   -29.4650     2.2150   106.5030    22.3970     6.1660     6.0630     7.1910 
   62.5000   -29.6770     2.2130   108.3210    22.3480     5.9070     6.0100     7.1850 
   62.6250   -29.9020     2.2000   111.7100    22.3560     5.8900     5.9730     7.1860 
   62.7500   -30.2010     2.1840   117.1150    22.3370     6.0460     5.9950     7.2100 
   62.8750   -30.5870     2.1700   120.7310    22.3610     6.2430     6.0890     7.2870 
   63.0000   -31.0430     2.1580   118.6630    22.4500     6.3750     6.2150     7.4330 
   63.1250   -31.5610     2.1440   112.1660    22.6230     6.4820     6.2790     7.6000 
   63.2500   -32.0650     2.1390   103.5880    22.7080     6.4980     6.2520     7.7240 
   63.3750   -32.4950     2.1500    93.6310    22.7450     6.3440     6.1960     7.8590 
   63.5000   -32.8480     2.1810    86.6320    23.0790     6.0980     6.2240     8.1340 
   63.6250   -33.2280     2.2270    87.8790    23.7050     6.5730     6.4560     8.6640 
   63.7500   -33.6510     2.2700    91.7990    24.0470     8.6740     6.8280     9.2800 
   63.8750   -34.1140     2.2870    92.6440    24.0010    11.9270     7.1670     9.6640 
   64.0000   -34.5690     2.2670    89.7800    23.8070    13.2240     7.2580     9.5270 
   64.1250   -35.0160     2.2100    84.7590    23.8450    10.8140     7.0140     8.9660 
   64.2500   -35.4620     2.1430    80.1810    24.2970     8.0860     6.7600     8.6180 
   64.3750   -35.9320     2.0950    77.2440    25.0270     6.9410     6.8410     8.9360 
   64.5000   -36.3990     2.0970    75.4700    25.5190     7.3170     7.5280    10.1800 
   64.6250   -36.8040     2.1690    73.1980    25.2840    10.4380     9.0880    12.5260 
   64.7500   -37.0880     2.2640    71.9160    24.6390    18.3560    11.1310    15.1990 
   64.8750   -37.2660     2.3290    72.7900    24.2010    26.2270    12.7440    16.7680 
   65.0000   -37.3750     2.3290    74.2730    24.0620    25.5550    12.8060    15.9780 
   65.1250   -37.4620     2.2650    75.5850    24.0240    16.3510    11.1370    13.3370 
   65.2500   -37.5670     2.1920    78.9560    23.9750    10.1170     9.1620    10.8440 
   65.3750   -37.7450     2.1410    84.5400    23.8550     8.0560     7.6000     9.2030 
   65.5000   -38.0460     2.1170    90.4200    23.6230     7.8570     6.6490     8.4500 
   65.6250   -38.4010     2.1130    93.3060    23.4160     7.9460     6.3290     8.4230 
   65.7500   -38.8140     2.1170    90.5840    23.3000     7.6950     6.3810     8.6830 
   65.8750   -39.2410     2.1210    83.8330    23.3670     7.3250     6.6360     8.9750 
   66.0000   -39.6740     2.1180    78.3080    23.7860     7.0550     6.9430     9.1540 
   66.1250   -40.0390     2.1060    78.4950    24.5080     6.9910     7.1870     9.2040 
   66.2500   -40.3580     2.0940    79.9360    25.1270     6.9540     7.3390     9.2120 
   66.3750   -40.6120     2.0890    78.7560    25.3710     6.9520     7.3990     9.2120 
   66.5000   -40.7420     2.0870    74.8550    25.3560     7.0570     7.3820     9.2200 
   66.6250   -40.7820     2.0880    72.0280    25.1500     7.2620     7.3090     9.2420 
   66.7500   -40.7360     2.0930    73.2280    24.9130     7.3990     7.2030     9.2610 
   66.8750   -40.6170     2.0970    74.7550    24.8110     7.3100     7.0480     9.2390 
   67.0000   -40.4370     2.0880    73.0630    24.8240     7.0780     6.8140     9.1090 
   67.1250   -40.2330     2.0640    71.0110    24.7510     6.8830     6.4740     8.8020 
   67.2500   -39.9820     2.0500    71.4300    24.6430     6.7080     6.1120     8.4410 
   67.3750   -39.6770     2.0590    72.1020    24.5720     6.5500     5.8740     8.2570 
   67.5000   -39.3330     2.0940    72.1850    24.4840     6.5480     5.9380     8.5220 
   67.6250   -38.9130     2.1550    74.7850    24.3060     7.3210     6.5440     9.5560 
   67.7500   -38.4180     2.2370    77.0880    24.1260     9.9170     7.6670    11.2640 
   67.8750   -37.8990     2.3270    76.5450    23.9870    15.5070     9.1510    13.3370 
   68.0000   -37.3870     2.3900    75.8030    23.8360    22.7120    10.5070    14.9950 
   68.1250   -36.8910     2.3760    77.9680    23.6140    21.6740    10.8120    14.9650 
   68.2500   -36.4810     2.2980    79.5450    23.3770    17.5120    10.0190    13.5010 
   68.3750   -36.1170     2.2010    79.1200    23.1510    10.9820     8.6850    11.5870 
   68.5000   -35.8010     2.1290    80.0080    23.0100     7.6820     7.4200    10.0580 
   68.6250   -35.5400     2.1030    83.3370    22.8950     6.8740     6.6040     9.2930 
   68.7500   -35.3560     2.1000    84.8890    22.7610     6.6820     6.2010     9.0550 
   68.8750   -35.2080     2.1000    83.8360    22.6750     6.6610     6.1150     9.1200 
   69.0000   -35.0990     2.0930    81.7560    22.6490     6.6720     6.2110     9.2780 
   69.1250   -35.0570     2.0870    82.1840    22.6480     6.6780     6.3560     9.3950 
   69.2500   -34.9960     2.0910    83.3890    22.6460     6.7060     6.4690     9.4610 
   69.3750   -34.9210     2.0990    83.7110    22.6440     6.7320     6.5410     9.4860 
   69.5000   -34.8070     2.1010    83.8990    22.6430     6.7080     6.5730     9.4650 
   69.6250   -34.7270     2.0930    86.9100    22.6440     6.6730     6.5770     9.4130 
   69.7500   -34.6210     2.0850    92.0070    22.6520     6.7560     6.5720     9.3750 
   69.8750   -34.4730     2.0850    94.8840    22.6830     6.8880     6.5650     9.3620 
   70.0000   -34.2510     2.0920    92.7260    22.7450     6.8790     6.5530     9.3550 
   70.1250   -33.9910     2.1010    88.8170    22.7880     6.7020     6.4940     9.3080 
   70.2500   -33.6690     2.1070    87.9600    22.8180     6.5710     6.3550     9.1850 
   70.3750   -33.3330     2.1110    90.7270    22.8660     6.4580     6.1360     8.9840 
   70.5000   -33.0440     2.1200    94.5990    22.9230     6.2520     5.8870     8.7550 
   70.6250   -32.8060     2.1330    94.7160    22.8770     5.9640     5.6930     8.6000 
   70.7500   -32.6750     2.1400    92.3250    22.7920     5.9180     5.6060     8.5800 
   70.8750   -32.6810     2.1370    91.2560    22.7680     6.2990     5.6460     8.7220 
   71.0000   -32.8000     2.1250    91.8630    22.8310     7.0890     5.7930     9.0070 
   71.1250   -32.9670     2.1080    90.9910    23.0160     7.9210     6.0110     9.3700 
   71.2500   -33.2360     2.0910    89.3820    23.3100     8.3810     6.2290     9.7020 
   71.3750   -33.5500     2.0800    90.2270    23.5970     8.4420     6.4100     9.9440 
   71.5000   -33.8250     2.0850    94.0630    23.7070     8.3920     6.5370    10.0830 
   71.6250   -34.0260     2.1100    96.1180    23.7260     8.4380     6.6180    10.1270 
   71.7500   -34.1300     2.1340    94.3530    23.8110     8.5530     6.6740    10.1150 
   71.8750   -34.1100     2.1430    87.5630    23.8030     8.6360     6.6910    10.0500 
   72.0000   -33.9830     2.1410    80.2040    23.6010     8.6150     6.6530     9.9130 
   72.1250   -33.6960     2.1350    80.5840    23.3520     8.3650     6.5390     9.6800 
   72.2500   -33.3490     2.1280    86.6400    23.2540     8.0810     6.3840     9.4070 
   72.3750   -32.9780     2.1220    91.4990    23.2350     8.0440     6.2380     9.1700 
