~V
VERS. 2.00: Ver 2.00
~W
STRT.M 64.0000:
STOP.M 220.0000:
STEP.M 0.1250:
NULL. -999.2500:
UWI. F10051:
~C
DEPT.M :
SP.MV :
GR.API :
RML.OHMM :
RI. :
RXO.OHMM :
CALI.CM :
DEN.GM/CC :
~A
   64.0000    53.2040    51.1550     1.6100     0.1740     0.7140    23.0700     2.5200 
   64.1250    49.4930    51.7260     1.1720     0.1230     0.7600    22.9190     2.5620 
   64.2500    45.1930    53.7140     0.8010     0.0810     0.8690    22.7540     2.5400 
   64.3750    40.4360    56.8600     0.5570     0.0530     1.1310    22.7260     2.4210 
   64.5000    35.4370    60.2540     0.4490     0.0430     1.6260    23.0740     2.2370 
   64.6250    30.3760    63.0620     0.4850     0.0700     2.3480    24.4270     2.0660 
   64.7500    25.3780    67.0820     0.6400     0.1560     3.1250    26.1210     1.9580 
   64.8750    20.5920    73.4350     0.9170     0.3410     3.6240    26.8360     1.9340 
   65.0000    16.1740    82.1850     1.3140     0.6660     3.8670    25.9020     1.9930 
   65.1250    12.3950    91.2900     1.8170     1.1850     4.0670    24.7880     2.1140 
   65.2500     9.2250    98.7150     2.3650     1.8400     4.2740    24.2920     2.2320 
   65.3750     6.6380   103.1140     2.9080     2.5540     4.4240    24.1840     2.3100 
   65.5000     4.5410   103.1480     3.4020     3.2280     4.4660    24.2780     2.3430 
   65.6250     2.8240    99.8200     3.8130     3.7620     4.4670    24.4720     2.3480 
   65.7500     1.4040    97.8630     4.1610     4.1670     4.4640    24.5480     2.3480 
   65.8750     0.1850   100.9470     4.4520     4.4720     4.5720    24.2830     2.3480 
   66.0000    -0.8610   106.6710     4.6760     4.7080     4.7570    23.7630     2.3510 
   66.1250    -1.7520   108.1170     4.7970     4.8740     5.0000    23.4260     2.3570 
   66.2500    -2.5450   104.5570     4.8300     4.9710     5.0780    23.3130     2.3620 
   66.3750    -3.2650   101.2710     4.8010     4.9890     4.8670    23.3040     2.3650 
   66.5000    -3.9550   100.7070     4.7550     4.9270     4.6410    23.3190     2.3660 
   66.6250    -4.6460   101.3570     4.7360     4.7990     4.5620    23.3340     2.3640 
   66.7500    -5.3860   102.6390     4.7460     4.6570     4.5950    23.3150     2.3570 
   66.8750    -6.2040   105.6120     4.7700     4.5420     4.7260    23.2340     2.3440 
   67.0000    -7.1040   107.2490     4.8010     4.4830     4.9950    23.1560     2.3210 
   67.1250    -8.0350   102.8150     4.8740     4.5260     5.5030    23.0780     2.2880 
   67.2500    -8.9840    94.4250     5.0790     4.7290     6.1480    23.0000     2.2530 
   67.3750    -9.9610    86.5920     5.6130     5.2400     7.0400    22.9120     2.2310 
   67.5000   -10.9500    80.8000     6.7780     6.2820     8.1400    22.8630     2.2410 
   67.6250   -12.0150    76.6560     8.9980     8.1830    10.8290    22.8850     2.3010 
   67.7500   -13.1380    73.3800    12.0310    10.7360    15.3980    23.0740     2.3960 
   67.8750   -14.2970    71.0410    15.2680    13.4590    21.2260    23.3820     2.4980 
   68.0000   -15.5090    69.1030    17.6850    15.5470    26.8710    23.6210     2.5680 
   68.1250   -16.8300    66.4010    17.8090    15.8400    27.1260    23.6430     2.5660 
   68.2500   -18.2160    65.3000    15.8140    14.3960    21.2690    23.5180     2.5040 
   68.3750   -19.5970    67.5810    12.8050    11.9370    13.9530    23.3800     2.4140 
   68.5000   -20.9470    70.6740    10.0900     9.4640     9.5530    23.2870     2.3260 
   68.6250   -22.1720    70.7550     8.4410     7.7270     8.0800    23.2490     2.2630 
   68.7500   -23.2790    70.0820     7.6270     6.6970     7.6870    23.2580     2.2240 
   68.8750   -24.2110    70.7310     7.3960     6.2250     7.6430    23.3620     2.2040 
   69.0000   -24.9270    69.5220     7.5130     6.1340     7.6410    23.5830     2.1940 
   69.1250   -25.3600    65.9680     7.7890     6.2810     7.7180    23.8470     2.1890 
   69.2500   -25.5680    65.0690     8.0500     6.4870     7.7240    23.9420     2.1870 
   69.3750   -25.5740    65.7530     8.2160     6.6540     7.7230    23.9240     2.1880 
   69.5000   -25.4150    64.8070     8.2420     6.7200     7.9130    23.9510     2.1900 
   69.6250   -25.0530    63.3900     8.0900     6.6350     8.0920    24.0950     2.1910 
   69.7500   -24.4810    64.4780     7.8090     6.4320     8.1580    24.3230     2.1900 
   69.8750   -23.7120    66.2620     7.4580     6.1550     8.0870    24.6400     2.1880 
   70.0000   -22.8150    67.0650     7.1220     5.8610     7.8490    24.9420     2.1900 
   70.1250   -21.8600    69.5780     6.9130     5.6160     7.3760    24.9690     2.1970 
   70.2500   -20.9470    72.4400     6.8710     5.4480     6.9180    24.7530     2.2050 
   70.3750   -20.0940    74.4310     6.9790     5.3670     6.6340    24.4820     2.2130 
   70.5000   -19.2870    74.9540     7.1540     5.3550     6.8720    24.2820     2.2160 
   70.6250   -18.4980    75.1170     7.2460     5.3680     7.1400    24.1710     2.2170 
   70.7500   -17.8070    74.8130     7.1700     5.3440     7.1660    24.2790     2.2180 
   70.8750   -17.2390    74.2650     6.9330     5.2570     7.0100    24.5250     2.2200 
   71.0000   -16.7790    75.0900     6.6280     5.1210     6.7600    24.7150     2.2240 
   71.1250   -16.4400    76.7440     6.4020     5.0040     6.3160    24.6960     2.2290 
   71.2500   -16.1220    79.9940     6.3270     4.9760     6.2150    24.4860     2.2360 
   71.3750   -15.8230    83.1550     6.4030     5.0680     6.6010    24.2780     2.2440 
   71.5000   -15.5580    82.2910     6.5940     5.2710     6.9500    24.1670     2.2500 
   71.6250   -15.4190    77.9910     6.8660     5.5550     6.9540    24.1490     2.2500 
   71.7500   -15.3260    76.1920     7.1710     5.8560     6.6850    24.0080     2.2450 
   71.8750   -15.2140    78.7830     7.4730     6.1290     6.6340    23.7510     2.2380 
   72.0000   -15.0760    81.5660     7.7150     6.3240     6.8450    23.4900     2.2310 
   72.1250   -14.8380    80.2100     7.7860     6.3490     6.9680    23.4300     2.2290 
   72.2500   -14.4590    77.9090     7.6290     6.1730     6.9750    23.5110     2.2360 
   72.3750   -13.9750    78.8370     7.2140     5.7840     6.8040    23.6770     2.2520 
   72.5000   -13.4340    84.5920     6.5760     5.2210     6.3710    23.8590     2.2740 
   72.6250   -12.8840    90.4360     5.8070     4.5640     5.4850    23.9670     2.2980 
   72.7500   -12.4240    92.1320     5.0650     3.9360     4.5040    23.7360     2.3140 
   72.8750   -12.1640    92.9530     4.4860     3.4240     3.8520    23.1420     2.3210 
   73.0000   -12.1220    95.1890     4.2350     3.1260     3.5590    22.5980     2.3230 
   73.1250   -12.3000    97.3490     4.6520     3.2430     3.5450    22.3060     2.3370 
   73.2500   -12.7930    97.8010     5.8360     3.8600     4.3840    22.1370     2.3710 
   73.3750   -13.6290    95.6090     7.7650     5.0140     6.9240    22.0690     2.4260 
   73.5000   -14.7580    89.9780    10.1170     6.5740    11.0760    22.1160     2.4820 
   73.6250   -16.1270    81.0190    12.1170     8.1320    15.8840    22.2920     2.5050 
   73.7500   -17.6270    73.4900    13.0230     9.1370    19.7490    22.4740     2.4800 
   73.8750   -19.1540    68.7150    12.5350     9.2620    18.8960    22.5860     2.4170 
   74.0000   -20.5810    66.5740    11.0360     8.5980    12.7700    22.6500     2.3420 
   74.1250   -21.8810    67.4130     9.4810     7.6710     9.6020    22.6970     2.2840 
   74.2500   -23.0350    68.2160     8.5740     7.0390     9.3030    22.7480     2.2470 
   74.3750   -23.9730    66.4320     8.3950     6.8450    10.4520    22.7310     2.2290 
   74.5000   -24.6760    64.5300     8.7150     7.0060    11.8500    22.5530     2.2240 
   74.6250   -25.1510    67.5230     9.1750     7.3190    13.3940    22.1900     2.2320 
   74.7500   -25.4390    71.6040     9.4380     7.5310    13.7610    21.8400     2.2450 
   74.8750   -25.5630    71.7780     9.3910     7.5300    11.5240    21.6650     2.2560 
   75.0000   -25.6350    68.6870     9.0770     7.3150     8.9720    21.6600     2.2590 
   75.1250   -25.6380    65.8770     8.6370     6.9590     7.8580    21.8130     2.2540 
