~V
VERS. 2.00: Ver 2.00
~W
STRT.M 50.0000:
STOP.M 325.0000:
STEP.M 0.1250:
NULL. -999.2500:
UWI. F10039:
~C
DEPT.M :
GR.API :
RML.OHMM :
RI. :
RXO.OHMM :
CALI.CM :
DEN.GM/CC :
SP.MV :
~A
# ...
  218.7500    42.3950     7.1000     6.5140     6.5910    24.3740     2.4180   -20.0630 
  218.8750    41.2770     7.0420     6.4610     6.7700    24.4030     2.3860   -20.0180 
  219.0000    41.8550     7.0020     6.3950     6.8360    24.4530     2.3370   -19.9360 
  219.1250    43.6250     6.9690     6.3710     6.7130    24.6760     2.2970   -19.8120 
  219.2500    44.3190     6.9450     6.3980     6.3860    24.8030     2.2860   -19.6640 
  219.3750    44.7350     6.9350     6.4470     6.3090    24.7550     2.3090   -19.5020 
  219.5000    46.4640     6.9380     6.4770     6.3790    24.6350     2.3480   -19.3560 
  219.6250    47.8370     6.9740     6.4650     6.5440    24.5930     2.3790   -19.2310 
  219.7500    47.0670     7.0480     6.4390     6.7450    24.6350     2.3930   -19.1180 
  219.8750    45.1630     7.1310     6.4400     7.1460    24.7440     2.3970   -19.0100 
  220.0000    43.5480     7.2020     6.4950     7.5360    24.8470     2.4050   -18.9050 
  220.1250    44.4210     7.2700     6.6100     7.3430    24.7630     2.4220   -18.8120 
  220.2500    47.3450     7.3390     6.7450     6.9350    24.6410     2.4360   -18.7400 
  220.3750    49.6950     7.3890     6.8670     6.6530    24.5610     2.4370   -18.6920 
  220.5000    50.0210     7.4010     6.9500     6.6890    24.5060     2.4190   -18.6670 
  220.6250    49.1030     7.3840     6.9670     6.8150    24.4770     2.3900   -18.6660 
  220.7500    46.6660     7.3560     6.9260     6.9630    24.4840     2.3640   -18.6800 
  220.8750    42.5230     7.3060     6.8410     6.9580    24.4980     2.3490   -18.7070 
  221.0000    39.2100     7.2240     6.7290     7.0820    24.4500     2.3410   -18.7530 
  221.1250    38.1170     7.1190     6.6160     7.1150    24.4060     2.3340   -18.8190 
  221.2500    37.4120     7.0210     6.5230     6.8860    24.3860     2.3280   -18.8910 
  221.3750    36.1510     6.9530     6.4590     6.5970    24.3060     2.3300   -18.9630 
  221.5000    35.6860     6.9210     6.4280     6.3050    24.1920     2.3490   -19.0220 
  221.6250    35.3190     6.9390     6.4460     6.1070    24.0730     2.3880   -19.0700 
  221.7500    34.4210     7.0050     6.5100     6.1660    24.0330     2.4330   -19.1110 
  221.8750    33.5190     7.1190     6.6210     6.3510    24.0090     2.4650   -19.1570 
  222.0000    33.4770     7.2700     6.7670     6.5040    23.9780     2.4710   -19.2060 
  222.1250    35.3150     7.4300     6.9230     6.6950    23.9460     2.4440   -19.2410 
  222.2500    37.4340     7.5610     7.0500     6.7920    24.0400     2.4010   -19.2400 
  222.3750    38.0150     7.6290     7.1160     6.6040    24.3530     2.3580   -19.2060 
  222.5000    37.0790     7.6100     7.0970     6.5630    24.6990     2.3270   -19.1450 
  222.6250    37.3290     7.4890     6.9790     6.8280    24.7350     2.3130   -19.0600 
  222.7500    38.9910     7.3060     6.8020     7.1170    24.6950     2.3090   -18.9440 
  222.8750    40.0410     7.1000     6.6020     6.9890    24.6840     2.3150   -18.7870 
  223.0000    39.8650     6.9070     6.4140     6.6730    24.7470     2.3350   -18.5900 
  223.1250    39.9590     6.7660     6.2770     6.5010    24.7230     2.3700   -18.3830 
  223.2500    41.6670     6.6950     6.2080     6.3410    24.6130     2.4060   -18.1970 
  223.3750    43.9770     6.7110     6.2240     6.2130    24.6470     2.4260   -18.0340 
  223.5000    45.4980     6.8210     6.3310     6.2090    25.0190     2.4160   -17.8770 
  223.6250    45.8130     7.0180     6.5230     6.4910    25.7080     2.3780   -17.7230 
  223.7500    46.4690     7.2350     6.7330     6.7550    25.9510     2.3380   -17.5900 
  223.8750    46.2510     7.4060     6.8990     6.7710    25.5200     2.3140   -17.4940 
  224.0000    42.6590     7.4720     6.9630     6.6700    24.9330     2.3100   -17.4380 
  224.1250    37.4290     7.3930     6.8860     6.4370    24.7080     2.3180   -17.4040 
  224.2500    35.9670     7.2190     6.7170     6.2980    24.6650     2.3210   -17.3770 
  224.3750    38.2020     7.0100     6.5140     6.3120    24.6140     2.3210   -17.3590 
  224.5000    40.0720     6.8320     6.3420     6.2660    24.5870     2.3210   -17.3590 
  224.6250    39.5060     6.7590     6.2710     6.1590    24.5590     2.3300   -17.3620 
  224.7500    38.9440     6.7950     6.3060     6.2810    24.4360     2.3450   -17.3620 
  224.8750    39.6780     6.9300     6.4360     6.7610    24.2780     2.3620   -17.3530 
  225.0000    41.4270     7.1270     6.6280     7.0080    24.3070     2.3820   -17.3350 
  225.1250    43.2240     7.3330     6.8280     6.8940    24.4410     2.4120   -17.3060 
  225.2500    43.3020     7.4910     6.9810     6.8420    24.5060     2.4490   -17.2650 
  225.3750    41.1240     7.5640     7.0520     6.7400    24.6290     2.4790   -17.2140 
  225.5000    39.2710     7.5330     7.0220     6.6640    24.7540     2.4850   -17.1700 
  225.6250    40.3170     7.3900     6.8840     6.5170    24.7310     2.4590   -17.1370 
  225.7500    42.5960     7.1930     6.6920     6.4640    24.4710     2.4220   -17.1130 
  225.8750    43.8110     6.9980     6.5030     6.4600    24.2340     2.3910   -17.0930 
  226.0000    43.0560     6.8690     6.3780     6.5110    24.3590     2.3730   -17.0730 
  226.1250    41.3870     6.8780     6.3870     6.4930    25.0840     2.3640   -17.0530 
  226.2500    41.5200     7.0060     6.5110     6.3900    25.9700     2.3590   -17.0340 
  226.3750    42.6130     7.2090     6.7080     6.3710    26.6360     2.3610   -16.9960 
  226.5000    41.6020     7.4190     6.9120     6.3250    26.6930     2.3700   -16.9270 
  226.6250    40.3180     7.5620     7.0500     6.5380    26.7900     2.3760   -16.8330 
  226.7500    41.9400     7.6090     7.0960     6.7250    26.3830     2.3660   -16.7080 
  226.8750    45.2770     7.5480     7.0370     6.7730    25.6070     2.3360   -16.5780 
  227.0000    46.6390     7.3740     6.8680     6.5310    25.0310     2.2970   -16.4580 
  227.1250    45.5360     7.0850     6.5870     6.2450    25.0580     2.2640   -16.3490 
  227.2500    44.1700     6.7390     6.2520     5.8860    25.5710     2.2340   -16.2620 
  227.3750    42.9960     6.3990     5.9210     5.6200    26.3200     2.2010   -16.2080 
  227.5000    43.3160     6.1280     5.6580     5.4110    26.5320     2.1690   -16.1890 
  227.6250    46.8400     5.9990     5.5330     5.3910    26.0120     2.1590   -16.2150 
  227.7500    52.4650     6.0090     5.5420     5.5660    25.8630     2.1810   -16.2840 
  227.8750    58.8410     6.1480     5.6780     5.8280    26.1730     2.2320   -16.3810 
  228.0000    63.8240     6.4020     5.9240     6.1230    26.3550     2.2960   -16.4950 
  228.1250    67.7400     6.7500     6.2620     6.5610    25.9650     2.3500   -16.6200 
  228.2500    71.2070     7.1250     6.6270     7.0080    25.6750     2.3890   -16.7460 
  228.3750    73.4930     7.4670     6.9590     7.6040    25.4460     2.4150   -16.8710 
  228.5000    73.3630     7.7230     7.2060     7.6880    25.1540     2.4330   -16.9960 
  228.6250    71.5630     7.8440     7.3250     6.8890    24.8610     2.4420   -17.1120 
  228.7500    71.1140     7.8650     7.3450     6.4300    24.6060     2.4440   -17.2220 
  228.8750    73.4890     7.8220     7.3020     6.6260    24.4870     2.4410   -17.3270 
  229.0000    80.7700     7.7560     7.2390     7.2140    24.3780     2.4320   -17.4240 
  229.1250    93.8430     7.7040     7.1880     7.5500    24.2250     2.4220   -17.5090 
  229.2500   107.6860     7.6780     7.1630     7.4570    24.0990     2.4140   -17.5800 
  229.3750   114.6130     7.6720     7.1570     7.1110    24.0140     2.4100   -17.6220 
  229.5000   108.8250     7.6640     7.1500     6.9340    24.0170     2.4100   -17.6560 
  229.6250    95.7460     7.6310     7.1170     6.7730    24.0430     2.4130   -17.7080 
  229.7500    87.8170     7.5740     7.0620     6.7420    24.0260     2.4160   -17.7750 
  229.8750    88.3080     7.5150     7.0050     7.2670    23.9570     2.4190   -17.8560 
