~V
VERS. 2.00: Ver 2.00
~W
STRT.M 51.0000:
STOP.M 262.0000:
STEP.M 0.1250:
NULL. -999.2500:
UWI. F10019:
~C
DEPT.M :
DEN.GM/CC :
SP.MV :
GR.API :
CALI.CM :
RXO.OHMM :
RI. :
RML.OHMM :
~A
# ...
  242.2500     2.4420    -4.4390    29.1100    23.9360    17.7840     6.6820     8.2870 
  242.3750     2.4070    -4.4170    30.6340    23.7700    14.2130     6.0220     7.2170 
  242.5000     2.3480    -4.3510    32.1610    23.5070     8.8940     5.0420     5.9980 
  242.6250     2.2950    -4.2430    32.2780    23.3550     5.4170     4.1840     5.0750 
  242.7500     2.2580    -4.1620    31.2590    23.4440     4.0320     3.5930     4.5250 
  242.8750     2.2370    -4.1120    30.4760    23.6770     3.6670     3.2790     4.2990 
  243.0000     2.2360    -4.0350    29.8670    23.7570     3.5910     3.1980     4.3230 
  243.1250     2.2460    -3.9100    29.5540    23.7170     3.5300     3.2090     4.4440 
  243.2500     2.2610    -3.7940    29.0590    23.6660     3.4570     3.2430     4.5760 
  243.3750     2.2670    -3.6970    28.5330    23.6760     3.3980     3.2660     4.6680 
  243.5000     2.2520    -3.6190    28.4690    23.6680     3.3920     3.2730     4.7130 
  243.6250     2.2240    -3.5960    29.1230    23.6780     3.4390     3.2790     4.7330 
  243.7500     2.1930    -3.5460    31.0500    23.6710     3.4760     3.2870     4.7390 
  243.8750     2.1630    -3.4650    34.4810    23.4890     3.5010     3.2890     4.7210 
  244.0000     2.1400    -3.4670    38.0160    23.0230     3.5680     3.2630     4.6370 
  244.1250     2.1400    -3.5260    38.4170    22.8190     3.6120     3.1940     4.4640 
  244.2500     2.1670    -3.5990    34.6590    22.9570     3.5380     3.0880     4.2230 
  244.3750     2.2040    -3.6240    29.3150    23.2790     3.4880     2.9810     4.0040 
  244.5000     2.2280    -3.6460    25.9140    23.4280     3.6870     2.9780     3.9870 
  244.6250     2.2390    -3.6660    25.4970    23.4230     4.1740     3.1730     4.2810 
  244.7500     2.2530    -3.7180    26.6550    23.4300     5.0830     3.6420     4.9590 
  244.8750     2.2850    -3.8190    27.9260    23.5420     7.7190     4.3980     6.0070 
  245.0000     2.3350    -3.8550    27.3220    23.7400    14.4990     5.2890     7.1760 
  245.1250     2.3790    -3.8770    24.9990    23.9160    20.2920     5.9070     7.8650 
  245.2500     2.3990    -3.8840    22.9260    24.0250    19.3660     5.9330     7.6520 
  245.3750     2.3890    -3.9590    22.6530    24.0060    12.6280     5.3770     6.7000 
  245.5000     2.3550    -4.0600    23.4740    23.9050     7.0380     4.5710     5.6340 
  245.6250     2.3200    -4.1480    23.5710    23.8490     4.6740     3.8880     4.8910 
  245.7500     2.2980    -4.2270    23.9160    23.9180     4.0510     3.4430     4.5350 
  245.8750     2.2940    -4.2460    25.6690    24.0150     3.9680     3.2360     4.5040 
  246.0000     2.2980    -4.2290    27.9990    24.0840     3.9290     3.2320     4.6940 
  246.1250     2.2970    -4.1970    29.2250    24.1130     3.8440     3.3160     4.9290 
  246.2500     2.2920    -4.2110    29.2660    24.1300     3.7480     3.4220     5.1180 
  246.3750     2.2930    -4.2210    28.8380    24.1030     3.7040     3.5160     5.2320 
  246.5000     2.3060    -4.2380    27.9540    24.0180     3.7700     3.5860     5.2820 
  246.6250     2.3200    -4.2180    27.7860    23.9600     3.8740     3.6420     5.2970 
  246.7500     2.3250    -4.1710    28.4630    23.9510     3.9570     3.6830     5.2880 
  246.8750     2.3190    -4.1360    28.9580    23.9910     3.9800     3.7060     5.2600 
  247.0000     2.3090    -4.1530    29.4630    24.0730     3.9420     3.6980     5.2180 
  247.1250     2.3000    -4.2000    30.1460    24.1270     3.9560     3.6690     5.1760 
  247.2500     2.2880    -4.2430    30.5510    24.0430     4.0480     3.6350     5.1430 
  247.3750     2.2710    -4.3070    30.3180    23.9300     4.1900     3.6130     5.1270 
  247.5000     2.2550    -4.3530    30.0680    23.8220     4.3000     3.6160     5.1350 
  247.6250     2.2500    -4.4170    30.4120    23.7600     4.3530     3.6340     5.1580 
  247.7500     2.2570    -4.4670    30.6350    23.7480     4.3670     3.6550     5.1850 
  247.8750     2.2750    -4.5260    30.6720    23.7820     4.3860     3.6680     5.1980 
  248.0000     2.2950    -4.5570    30.0670    23.7840     4.4520     3.6630     5.1870 
  248.1250     2.3090    -4.5540    29.1970    23.7870     4.5900     3.6420     5.1560 
  248.2500     2.3220    -4.4820    29.0960    23.8970     4.7090     3.6120     5.1140 
  248.3750     2.3380    -4.3740    30.1630    24.0880     4.7060     3.5930     5.0860 
  248.5000     2.3440    -4.2180    31.0020    24.1760     4.7000     3.6280     5.1170 
  248.6250     2.3320    -4.0570    30.7040    24.1410     4.8180     3.7310     5.2270 
  248.7500     2.3160    -3.8950    30.0240    24.0830     5.1140     3.9000     5.4230 
  248.8750     2.3140    -3.7330    29.8290    24.0760     5.5170     4.1120     5.6860 
  249.0000     2.3280    -3.6110    30.5730    24.0950     5.9250     4.3120     5.9510 
  249.1250     2.3450    -3.5350    30.8670    24.1190     6.2540     4.4480     6.1340 
  249.2500     2.3620    -3.5600    30.2910    24.1400     6.4480     4.4850     6.1850 
  249.3750     2.3750    -3.6420    29.7550    24.1660     6.2560     4.4160     6.0910 
  249.5000     2.3590    -3.7720    30.6620    24.1890     5.7300     4.2550     5.8730 
  249.6250     2.3100    -3.9470    31.5460    24.2190     5.1130     4.0670     5.6220 
  249.7500     2.2450    -4.1500    31.5000    24.4280     4.6340     3.8990     5.4010 
  249.8750     2.1870    -4.3310    30.9160    24.8830     4.2550     3.7770     5.2520 
  250.0000     2.1500    -4.4760    30.0030    25.0590     4.0380     3.7190     5.2060 
  250.1250     2.1350    -4.5720    28.9360    24.7080     3.9970     3.7020     5.2320 
  250.2500     2.1420    -4.5770    28.7200    24.5110     4.0660     3.7080     5.2910 
  250.3750     2.1700    -4.5450    29.9810    24.7790     4.1540     3.7200     5.3490 
  250.5000     2.2030    -4.4840    31.7680    25.3050     4.2410     3.7240     5.3810 
  250.6250     2.2200    -4.4110    33.3920    25.4590     4.4270     3.7180     5.3910 
  250.7500     2.2070    -4.3420    34.5950    25.1740     4.5180     3.7050     5.3880 
  250.8750     2.1740    -4.3560    33.7140    24.9260     4.3420     3.6920     5.3810 
  251.0000     2.1540    -4.4090    30.5100    25.2130     4.0130     3.6870     5.3770 
  251.1250     2.1620    -4.4750    28.7380    25.4520     3.8060     3.6910     5.3770 
  251.2500     2.1920    -4.5540    28.7130    25.0390     3.8360     3.7000     5.3750 
  251.3750     2.2280    -4.6670    28.7130    24.4480     3.9210     3.7060     5.3620 
  251.5000     2.2610    -4.8180    28.7130    24.1860     3.9720     3.6960     5.3320 
  251.6250     2.2870    -4.9410    28.7130    24.1480     4.0030     3.6690     5.2910 
  251.7500     2.3070    -5.0690    28.7130    24.1320     4.1250     3.6270     5.2520 
  251.8750     2.3200    -5.1060    28.7130    24.1230     4.2480     3.5830     5.2220 
  252.0000     2.3260    -5.1360    28.7130    24.0850     4.2980     3.5520     5.2060 
  252.1250     2.3250    -5.1760    28.7130    24.0450     4.3500     3.5350     5.1920 
  252.2500     2.3190    -5.2480    28.7130    24.0050     4.3700     3.5270     5.1710 
  252.3750     2.3120    -5.2950    28.7130    23.9520     4.3100     3.5200     5.1390 
  252.5000     2.3080    -5.3800    28.7130    23.8980     4.2020     3.5090     5.0890 
  252.6250     2.3040    -5.5050    28.7130    23.8540     4.1200     3.4940     5.0260 
  252.7500     2.2970    -5.6400    28.7130    23.8390     4.0740     3.4740     4.9550 
  252.8750     2.2740    -5.8010    28.7130    23.8380     4.0720     3.4530     4.8880 
  253.0000     2.2340    -5.9900    28.7130    23.8190     4.1590     3.4380     4.8480 
  253.1250     2.2000    -6.1640    28.7130    23.8310     4.3130     3.4340     4.8400 
  253.2500     2.1920    -6.3290    28.7130    23.8550     4.5470     3.4400     4.8590 
  253.3750     2.2110    -6.4910    28.7130    23.8330     4.8590     3.4520     4.8890 
