~V
VERS. 2.00: Ver 2.00
~W
STRT.M 50.0000:
STOP.M 221.0000:
STEP.M 0.1250:
NULL. -999.2500:
UWI. F10024:
~C
DEPT.M :
GR.API :
RML.OHMM :
RI. :
RXO.OHMM :
CALI.CM :
DEN.GM/CC :
SP.MV :
~A
# ...
   95.0000    86.1750     6.0840     5.7710     6.6310    23.3250     2.2960    -7.8920 
   95.1250    80.0550     5.9760     5.8860     7.1970    23.3090     2.2670    -7.7240 
   95.2500    74.5000     6.2700     6.2230     7.6420    23.3020     2.2260    -7.5650 
   95.3750    73.5210     7.2510     6.9240     8.2180    23.3980     2.1840    -7.3330 
   95.5000    74.4290     9.0640     8.1240     8.7240    23.5670     2.1600    -7.0130 
   95.6250    71.0820    11.5480     9.8770    10.9200    23.6870     2.1880    -6.5800 
   95.7500    66.8180    13.7110    11.6110    18.6400    23.7550     2.2690    -6.0790 
   95.8750    66.5010    14.3810    12.4240    34.4720    23.8870     2.3810    -5.5510 
   96.0000    70.8090    12.9670    11.6670    34.2190    24.0600     2.4780    -5.0410 
   96.1250    79.4620    10.1920     9.7160    17.0760    24.1670     2.5100    -4.6310 
   96.2500    88.6940     7.6720     7.8080     8.2410    24.2340     2.4800    -4.2970 
   96.3750    93.7650     6.4900     6.4300     6.2440    24.2650     2.4160    -4.1180 
   96.5000    92.8250     6.0680     5.6740     6.2050    24.2730     2.3510    -4.0470 
   96.6250    89.2210     6.0550     5.5170     6.2540    24.2570     2.3090    -4.0700 
   96.7500    87.4680     6.2370     5.6760     6.2390    24.2180     2.2820    -4.1780 
   96.8750    87.0150     6.4880     5.9600     6.2420    24.1450     2.2610    -4.2590 
   97.0000    85.9320     6.9150     6.2470     6.5630    24.0180     2.2370    -4.3520 
   97.1250    82.5270     7.2640     6.5370     7.0550    23.7400     2.2130    -4.3590 
   97.2500    79.2750     7.6330     6.8840     7.4260    23.2950     2.2040    -4.3030 
   97.3750    79.4940     8.0000     7.2900     7.7940    22.7530     2.2220    -4.1960 
   97.5000    83.5790     8.5390     7.6820     9.4570    22.3970     2.2700    -4.0340 
   97.6250    87.7770     8.5700     7.8600    13.4650    22.4630     2.3280    -3.8760 
   97.7500    89.8940     8.1700     7.6870    14.3740    22.8640     2.3640    -3.6930 
   97.8750    90.8690     7.3810     7.1570     9.5140    23.3260     2.3630    -3.5280 
   98.0000    92.0510     6.4580     6.4390     6.8760    23.7230     2.3290    -3.3630 
   98.1250    94.2210     5.8100     5.8340     6.4360    23.9400     2.2830    -3.2440 
   98.2500    97.0880     5.7050     5.5600     6.0920    24.0770     2.2560    -3.2040 
   98.3750    96.2210     6.3160     5.7570     6.0340    24.1720     2.2620    -3.1920 
   98.5000    88.8080     7.6770     6.5070     7.9490    24.1730     2.2970    -3.2410 
   98.6250    80.1850     9.5960     7.8230    13.5020    24.0060     2.3430    -3.2590 
   98.7500    75.6040    11.3540     9.2790    19.1750    23.7910     2.3700    -3.2350 
   98.8750    73.5790    12.2670    10.3540    16.6510    23.6580     2.3610    -3.2240 
   99.0000    72.6300    12.0150    10.6320    13.2090    23.5640     2.3190    -3.1920 
   99.1250    75.2880    10.8440    10.0580    11.1710    23.5290     2.2630    -3.1280 
   99.2500    80.7900     9.5610     9.1900     9.5500    23.6000     2.2240    -3.0490 
   99.3750    84.8000     8.5150     8.3440     8.1350    23.7490     2.2120    -2.9510 
   99.5000    86.0570     7.7690     7.6400     7.7410    23.9330     2.2200    -2.8320 
   99.6250    86.6580     7.2850     7.1000     7.3700    23.9930     2.2330    -2.7300 
   99.7500    88.0970     6.9690     6.6760     7.2510    24.0060     2.2430    -2.6520 
   99.8750    90.1920     6.8010     6.3570     6.9080    24.0700     2.2510    -2.6060 
  100.0000    92.7650     6.7770     6.1510     6.8640    24.1830     2.2620    -2.6000 
  100.1250    96.0510     6.9170     6.1030     7.0760    24.2620     2.2760    -2.6310 
  100.2500    98.0790     7.1590     6.1970     7.2240    24.2900     2.2860    -2.6520 
  100.3750    96.2150     7.4150     6.3920     7.0360    24.2830     2.2880    -2.6870 
  100.5000    90.8570     7.5770     6.6170     7.5950    24.2670     2.2870    -2.7530 
  100.6250    87.9160     7.5100     6.7620     8.6660    24.2510     2.2910    -2.7790 
  100.7500    90.7880     7.2380     6.7560     8.4760    24.2570     2.3020    -2.8260 
  100.8750    96.0180     6.8610     6.6020     7.0800    24.2750     2.3150    -2.8500 
  101.0000    99.2070     6.5200     6.3730     6.3200    24.2600     2.3210    -2.8380 
  101.1250    99.3440     6.3600     6.2020     6.2270    24.1560     2.3190    -2.8500 
  101.2500    98.5620     6.4050     6.1800     6.2780    23.9910     2.3090    -2.8500 
  101.3750    97.4260     6.6390     6.3340     6.5540    23.8040     2.2970    -2.8500 
  101.5000    95.0650     6.9990     6.6280     7.1730    23.6910     2.2850    -2.8200 
  101.6250    92.2510     7.3820     6.9510     7.8280    23.6880     2.2780    -2.7770 
  101.7500    90.6250     7.6550     7.1620     8.3720    23.7580     2.2780    -2.7400 
  101.8750    91.2360     7.7250     7.1750     8.1710    23.8670     2.2860    -2.6900 
  102.0000    91.3020     7.5620     6.9670     7.5930    23.9720     2.2970    -2.6550 
  102.1250    89.0050     7.1980     6.5690     7.2970    24.0210     2.3010    -2.6310 
  102.2500    89.6830     6.7590     6.1060     6.6810    23.9440     2.2980    -2.6150 
  102.3750    97.8940     6.3150     5.6610     6.2970    23.7780     2.2890    -2.6370 
  102.5000   107.1510     5.9100     5.2950     6.1960    23.6390     2.2830    -2.6670 
  102.6250   107.9670     5.6200     5.0810     6.2100    23.5960     2.2840    -2.7570 
  102.7500   104.8920     5.5210     5.0470     6.0430    23.5980     2.2890    -2.8660 
  102.8750   104.1680     5.7010     5.2320     5.6680    23.6130     2.2890    -2.9830 
  103.0000   103.0720     6.1990     5.6450     5.7740    23.6320     2.2790    -3.1370 
  103.1250    95.2570     6.9710     6.2580     6.5880    23.6440     2.2550    -3.2410 
  103.2500    86.3230     7.7520     6.8980     7.8210    23.6190     2.2250    -3.3170 
  103.3750    83.3740     8.2760     7.3830     8.7790    23.6100     2.2010    -3.3160 
  103.5000    86.8900     8.3620     7.5620     8.6980    23.6630     2.1910    -3.2840 
  103.6250    90.8360     7.9730     7.3630     7.9930    23.7810     2.2000    -3.2320 
  103.7500    92.0950     7.4110     6.9840     7.3700    23.9370     2.2170    -3.1250 
  103.8750    94.0050     6.9040     6.5950     6.9410    24.0580     2.2330    -3.0230 
  104.0000    96.1510     6.5860     6.3180     6.9060    24.0680     2.2450    -2.8750 
  104.1250    95.5900     6.4900     6.2110     7.0790    23.9140     2.2550    -2.7470 
  104.2500    94.7120     6.5040     6.2140     6.9100    23.7930     2.2650    -2.6520 
  104.3750    96.3270     6.5610     6.2750     6.4690    23.7600     2.2740    -2.5850 
  104.5000    98.4540     6.6380     6.3570     6.2670    23.6990     2.2780    -2.5570 
  104.6250    96.3640     6.7670     6.4590     6.4140    23.6600     2.2780    -2.5100 
  104.7500    93.6070     6.9820     6.5990     6.7840    23.6380     2.2810    -2.5050 
  104.8750    93.0320     7.2840     6.7910     7.3270    23.6390     2.2890    -2.5240 
  105.0000    91.3190     7.6210     7.0070     7.9340    23.6350     2.2990    -2.5510 
  105.1250    86.9230     7.8660     7.1670     8.0590    23.6160     2.3030    -2.6230 
  105.2500    84.8300     7.9260     7.2100     7.7720    23.5910     2.2970    -2.7130 
  105.3750    86.7710     7.7760     7.1330     7.3020    23.5810     2.2840    -2.8210 
  105.5000    89.3070     7.3350     6.9950     7.1940    23.5730     2.2690    -2.9540 
  105.6250    90.3990     7.1580     6.8770     6.9370    23.5280     2.2580    -3.1250 
  105.7500    93.2550     7.0880     6.8190     6.5260    23.4150     2.2490    -3.3110 
  105.8750    97.0800     7.1800     6.8360     6.6420    23.2600     2.2400    -3.5110 
  106.0000    98.6880     7.4130     6.9430     7.2130    23.1270     2.2330    -3.7350 
  106.1250    97.2080     7.7280     7.1830     8.1010    23.0770     2.2300    -3.9670 
