~V
VERS. 2.00: Ver 2.00
~W
STRT.M 64.0000:
STOP.M 260.0000:
STEP.M 0.1250:
NULL. -999.2500:
UWI. F10016:
~C
DEPT.M :
GR.API :
RML.OHMM :
RI. :
RXO.OHMM :
CALI.CM :
DEN.GM/CC :
SP.MV :
~A
# ...
  210.2500    69.2970    35.2670    32.2450    46.5770    23.9270     2.3860   -26.4560 
  210.3750    66.3570    39.3330    36.0190    52.9050    23.9580     2.4130   -27.0540 
  210.5000    64.2280    42.6030    39.3030    51.8790    23.9400     2.4250   -27.6490 
  210.6250    66.4670    44.3870    41.2670    46.3950    23.8910     2.4120   -28.2670 
  210.7500    69.6980    45.1110    42.1250    45.1380    23.8460     2.3860   -28.8700 
  210.8750    70.3550    45.3990    42.4160    48.2010    23.8380     2.3560   -29.4170 
  211.0000    69.2670    45.8860    42.7610    52.5910    23.8800     2.3310   -29.9320 
  211.1250    68.3310    47.0860    43.6890    56.0130    23.9410     2.3150   -30.4600 
  211.2500    68.1330    48.9920    45.2890    53.5150    23.9900     2.3070   -30.9780 
  211.3750    68.1310    51.5850    47.6440    51.4260    23.9780     2.3030   -31.4280 
  211.5000    67.7330    54.9370    50.9000    54.2010    23.9450     2.2980   -31.7690 
  211.6250    66.3220    59.4520    55.4630    61.0190    23.9310     2.2900   -31.9930 
  211.7500    65.0480    65.1490    61.2380    71.6510    23.9380     2.2790   -32.1990 
  211.8750    64.6750    71.8180    67.9870    83.0950    23.9520     2.2690   -32.3590 
  212.0000    64.9250    78.6910    75.0450    92.1170    23.9730     2.2640   -32.3790 
  212.1250    65.5420    84.0870    80.9990   100.2890    23.9540     2.2660   -32.2540 
  212.2500    66.0720    86.7480    84.6240    99.9910    23.9330     2.2700   -32.0680 
  212.3750    65.2070    86.0910    85.1400    90.1860    23.9380     2.2730   -31.8180 
  212.5000    62.9520    82.5230    82.6010    78.0980    23.9750     2.2710   -31.5250 
  212.6250    61.8430    77.2250    77.8600    74.3090    24.0410     2.2660   -31.2390 
  212.7500    64.5150    72.0680    72.9060    68.8870    24.0850     2.2580   -30.9290 
  212.8750    69.0790    68.1450    68.9950    61.5100    24.1100     2.2490   -30.6150 
  213.0000    71.7020    66.1710    66.9150    57.7410    24.0860     2.2400   -30.3770 
  213.1250    72.2470    67.0100    67.4600    59.7690    24.0690     2.2430   -30.2250 
  213.2500    71.7180    70.4800    70.4500    64.0480    24.0530     2.2740   -30.0780 
  213.3750    67.6750    76.5720    75.9730    69.5680    24.0340     2.3370   -29.9960 
  213.5000    59.6680    84.9880    83.8950    80.4160    24.0140     2.4130   -30.0350 
  213.6250    55.2250    94.9920    93.6410   105.6270    23.9880     2.4610   -30.1600 
  213.7500    57.9840   104.7350   103.3220   129.6630    23.9510     2.4590   -30.3040 
  213.8750    63.8510   112.6010   111.2800   142.0030    23.9260     2.4110   -30.4790 
  214.0000    66.8640   117.4310   116.3590   132.6480    23.9400     2.3430   -30.6940 
  214.1250    65.1990   118.5570   117.9390   117.5450    23.9560     2.2870   -30.9360 
  214.2500    62.5680   118.0780   117.4520   115.7650    23.9400     2.2550   -31.1980 
  214.3750    61.3760   118.4400   116.0750   123.9510    23.8810     2.2410   -31.4420 
  214.5000    62.1080   121.9030   114.8370   128.2980    23.8300     2.2360   -31.6280 
  214.6250    63.2630   123.9800   114.6620   130.8600    23.9180     2.2350   -31.7850 
  214.7500    64.6850   125.5740   115.7660   129.3960    24.0310     2.2370   -31.9700 
  214.8750    65.8280   127.1880   118.0260   135.7540    24.0970     2.2390   -32.1500 
  215.0000    65.1320   128.7490   120.7400   147.9980    24.1030     2.2410   -32.2570 
  215.1250    63.0300   128.2380   122.1620   153.8010    24.0060     2.2410   -32.2910 
  215.2500    61.3110   124.2550   120.7170   151.8510    23.8850     2.2400   -32.3520 
  215.3750    60.8910   116.3440   115.5910   137.7400    23.8270     2.2410   -32.4310 
  215.5000    61.1630   105.4320   107.1890   114.8920    23.8720     2.2440   -32.4770 
  215.6250    64.4660    93.5510    96.8970    91.9180    23.9320     2.2520   -32.4980 
  215.7500    69.6780    82.7990    86.8070    76.4950    24.0060     2.2640   -32.5070 
  215.8750    71.8760    74.1440    77.9810    70.7410    24.0670     2.2780   -32.5160 
  216.0000    68.4100    67.9230    70.9110    72.1630    24.0760     2.2900   -32.5740 
  216.1250    62.8750    64.3750    65.9970    59.3130    24.0420     2.2950   -32.7220 
  216.2500    61.2490    62.3580    62.8300    52.0040    23.9800     2.2930   -32.8800 
  216.3750    63.0180    62.0130    61.3090    53.2540    23.9370     2.2850   -33.0690 
  216.5000    64.8480    64.1850    61.4350    54.8000    23.9850     2.2730   -33.3560 
  216.6250    64.9850    69.3070    63.7860    69.8520    24.0070     2.2620   -33.6870 
  216.7500    64.2110    75.2480    68.5470    76.5760    23.9920     2.2510   -33.9960 
  216.8750    63.7260    81.2710    76.2090    81.2900    23.9650     2.2420   -34.3060 
  217.0000    63.9220    87.8760    87.1750    89.3160    23.9370     2.2340   -34.6250 
  217.1250    63.0850   101.0480   102.2680   124.5630    23.9330     2.2300   -34.8910 
  217.2500    61.3320   119.4300   120.6370   176.6670    23.9520     2.2310   -35.0550 
  217.3750    58.4580   141.2050   141.2180   213.0360    23.9670     2.2330   -35.1330 
  217.5000    55.2560   163.7050   162.0650   229.6030    23.9460     2.2330   -35.1380 
  217.6250    54.0980   183.8700   180.2200   237.8730    23.8810     2.2290   -35.0310 
  217.7500    56.8440   200.4170   194.5950   236.3590    23.8050     2.2240   -34.8450 
  217.8750    61.7100   213.7400   205.6730   242.4000    23.8130     2.2190   -34.6270 
  218.0000    64.2650   225.1570   214.9840   267.2060    23.8640     2.2170   -34.3810 
  218.1250    63.3620   234.8990   223.4190   291.3500    23.9100     2.2150   -34.0450 
  218.2500    61.0710   241.2520   229.8280   301.1180    23.9370     2.2100   -33.6850 
  218.3750    58.2480   241.1800   231.4880   306.7560    23.9790     2.2030   -33.3340 
  218.5000    56.2110   232.6240   226.0850   308.8440    24.0120     2.1960   -32.9280 
  218.6250    56.1780   215.4260   212.5780   269.0350    23.9930     2.1940   -32.4660 
  218.7500    56.8780   194.8980   195.2010   207.3320    23.9670     2.1980   -32.0590 
  218.8750    57.8450   175.1020   177.6310   162.8930    23.9510     2.2050   -31.6190 
  219.0000    60.4430   158.6560   162.5890   153.4990    23.9390     2.2130   -31.1100 
  219.1250    63.6480   146.3370   151.1870   149.8350    23.9210     2.2160   -30.6620 
  219.2500    64.4950   135.3700   141.1290   135.3480    23.8780     2.2170   -30.2490 
  219.3750    61.9350   123.1550   129.9810   116.4290    23.7600     2.2180   -29.8170 
  219.5000    59.3320   108.1750   116.0760    89.1820    23.5500     2.2240   -29.4370 
  219.6250    63.3010    91.3250    99.4970    59.8810    23.2640     2.2350   -29.1270 
  219.7500    70.3980    77.1990    83.1360    42.3830    22.9650     2.2490   -28.8480 
  219.8750    74.0970    68.9910    69.4420    36.4340    22.8290     2.2590   -28.6280 
  220.0000    72.4760    63.7950    59.8560    37.2620    22.8930     2.2640   -28.4360 
  220.1250    68.9950    58.9820    55.2360    43.1780    23.1600     2.2630   -28.2500 
  220.2500    66.1850    55.8890    54.1140    52.2180    23.4640     2.2600   -28.1520 
  220.3750    63.9040    56.4710    55.5370    58.6230    23.7410     2.2580   -28.1140 
  220.5000    62.8930    59.9640    58.5600    61.6250    23.9360     2.2580   -28.0760 
  220.6250    64.2590    65.9170    62.4750    61.9320    23.9210     2.2560   -28.1250 
  220.7500    66.1510    72.5220    66.7170    62.4330    23.8730     2.2510   -28.1740 
  220.8750    67.2450    78.0920    71.1850    67.4100    23.8770     2.2440   -28.2180 
  221.0000    66.7950    81.9550    75.7470    85.8740    23.8980     2.2400   -28.3140 
  221.1250    65.6180    83.9730    79.9040    98.1030    23.9330     2.2470   -28.4590 
  221.2500    66.8130    85.2910    83.1360   106.4950    23.9810     2.2640   -28.5490 
  221.3750    70.4820    86.7480    85.1860   101.2560    24.0210     2.2850   -28.6210 
