~V
VERS. 2.00: Ver 2.00
~W
STRT.M 55.0000:
STOP.M 264.0000:
STEP.M 0.1250:
NULL. -999.2500:
UWI. F10017:
~C
DEPT.M :
DEN.GM/CC :
SP.MV :
GR.API :
CALI.CM :
RXO.OHMM :
RI. :
RML.OHMM :
~A
# ...
  145.0000     2.3160   -42.4130   102.5840    24.1870     7.1690     7.6220     7.5310 
  145.1250     2.3260   -42.8890    99.7890    24.1870     7.1450     7.5340     7.2000 
  145.2500     2.3390   -43.3130    98.4170    24.1820     7.1410     7.2650     6.4970 
  145.3750     2.3620   -43.6550    96.5260    24.1760     6.9350     6.9000     5.7610 
  145.5000     2.3810   -43.8770    94.4910    24.1740     6.5110     6.5510     5.3510 
  145.6250     2.3660   -43.9400    95.4460    24.1790     6.2800     6.3490     5.5070 
  145.7500     2.3220   -43.9540   100.1600    24.1980     6.6440     6.3610     6.0640 
  145.8750     2.2650   -43.9080   103.8220    24.2380     7.5940     6.6630     6.9200 
  146.0000     2.2150   -43.8960   100.4700    24.3010     8.8270     7.3530     8.0730 
  146.1250     2.2000   -43.8320    90.3170    24.3880    10.6450     8.6870     9.8300 
  146.2500     2.2370   -43.6210    80.8210    24.4070    14.8480    10.8130    12.4650 
  146.3750     2.3290   -43.2730    75.0500    24.3310    23.5720    14.0010    16.2760 
  146.5000     2.4510   -42.7790    70.4330    24.1450    35.1310    18.4440    21.3970 
  146.6250     2.5340   -42.0930    66.1300    24.0180    43.3850    23.8860    27.3410 
  146.7500     2.5320   -41.1230    63.7790    23.9360    46.1150    28.5850    32.1270 
  146.8750     2.4460   -39.8600    63.8550    23.8200    44.5470    30.5760    33.7090 
  147.0000     2.3150   -38.2710    64.9780    23.6640    39.0040    29.1760    31.6050 
  147.1250     2.1910   -36.4490    66.2430    23.3400    29.1940    25.6200    27.4790 
  147.2500     2.0910   -34.5810    68.0360    22.7100    19.1980    22.1490    23.7270 
  147.3750     2.0170   -32.6990    70.6880    21.8840    12.5770    19.6280    21.1700 
  147.5000     1.9720   -30.8360    73.4090    21.2010     9.9770    18.2950    19.9730 
  147.6250     1.9580   -29.0020    74.8900    20.9420     9.6060    18.2780    20.2420 
  147.7500     1.9540   -27.3550    73.2850    20.8810     9.5800    19.1950    21.5270 
  147.8750     1.9450   -25.9370    69.9140    20.8710     9.4700    20.7400    23.4670 
  148.0000     1.9320   -24.8030    67.8390    20.8280     9.2360    22.4660    25.5510 
  148.1250     1.9280   -23.9290    67.5270    20.6680     8.8190    23.7460    27.0550 
  148.2500     1.9400   -23.2170    67.9300    20.3970     8.2340    24.3160    27.6960 
  148.3750     1.9610   -22.6550    70.2840    20.0810     7.6540    24.2230    27.5510 
  148.5000     1.9790   -22.2470    74.3010    19.7940     7.2820    23.7200    26.9770 
  148.6250     1.9810   -22.0160    73.9660    19.6130     7.0850    23.1470    26.4900 
  148.7500     1.9720   -21.8720    70.0020    19.6000     6.9370    22.7900    26.4140 
  148.8750     1.9620   -21.7860    68.6720    19.7160     6.9410    22.7740    26.8030 
  149.0000     1.9600   -21.6670    70.0470    19.8330     7.2150    23.1120    27.5020 
  149.1250     1.9670   -21.5210    67.6770    19.8690     7.7270    23.7180    28.2440 
  149.2500     1.9680   -21.4080    62.5190    19.9350     8.1910    24.3030    28.7980 
  149.3750     1.9510   -21.3230    59.9680    20.0940     8.3080    24.6000    28.9920 
  149.5000     1.9210   -21.3070    60.2880    20.3280     7.8780    24.4550    28.7160 
  149.6250     1.8940   -21.4350    59.8080    20.5210     7.0970    23.9330    27.9790 
  149.7500     1.8950   -21.6610    57.7960    20.6010     6.4740    23.3900    27.1460 
  149.8750     1.9460   -21.9050    57.0040    20.6030     6.1520    23.0760    26.5530 
  150.0000     2.0540   -22.1860    59.4020    20.5520     5.9690    23.1150    26.4410 
  150.1250     2.1810   -22.4680    64.5160    20.2540     5.7200    23.4790    26.8390 
  150.2500     2.2540   -22.7130    67.8460    19.5530     5.4280    23.8110    27.2930 
  150.3750     2.2510   -22.9860    66.7450    18.5710     5.2450    23.7640    27.4150 
  150.5000     2.2020   -23.3200    62.3730    17.7280     5.2430    23.1220    27.0100 
  150.6250     2.1640   -23.5860    59.7410    17.4020     5.4330    21.8710    26.0020 
  150.7500     2.1490   -23.7930    61.2470    17.3870     5.7410    20.4380    24.6580 
  150.8750     2.1410   -23.9000    66.2220    17.4930     6.1660    19.1820    23.2750 
  151.0000     2.1310   -23.8750    71.6370    17.6970     6.7210    18.3700    22.1880 
  151.1250     2.1170   -23.7600    72.8670    18.0690     7.3210    18.2320    21.8030 
  151.2500     2.1030   -23.5860    70.5900    18.5760     7.8000    18.6950    22.2030 
  151.3750     2.0860   -23.3340    67.4110    19.1900     8.1100    19.7040    23.3590 
  151.5000     2.0630   -22.9790    64.6510    19.8090     8.4030    21.1050    25.0080 
  151.6250     2.0330   -22.5180    62.7250    20.1670     9.2050    22.6360    26.7130 
  151.7500     2.0060   -22.0670    61.9050    20.2630    10.6350    23.9810    28.0890 
  151.8750     1.9850   -21.6980    62.2560    20.1490    11.5540    24.9490    28.9250 
  152.0000     1.9750   -21.4900    62.4270    19.7940    11.0080    25.4410    29.1290 
  152.1250     1.9730   -21.5190    62.0920    19.2710     9.2670    25.3780    28.6710 
  152.2500     1.9780   -21.6670    63.9960    18.6530     8.1850    24.9050    27.8690 
  152.3750     1.9920   -21.9110    66.6910    17.9810     7.4390    24.1070    26.9500 
  152.5000     2.0140   -22.2100    67.2540    17.3040     6.7740    23.1000    26.1220 
  152.6250     2.0330   -22.6100    65.8260    16.8170     6.2550    22.0560    25.6070 
  152.7500     2.0380   -23.0120    65.8430    16.5950     6.0000    21.1480    25.3750 
  152.8750     2.0310   -23.4100    67.0320    16.5430     6.0230    20.4820    25.2570 
  153.0000     2.0200   -23.7590    67.0450    16.5540     6.1300    20.1040    25.0990 
  153.1250     2.0170   -24.0030    66.0840    16.5930     6.1440    20.0240    24.8490 
  153.2500     2.0180   -24.1560    67.2600    16.6480     6.1690    20.1010    24.5860 
  153.3750     2.0130   -24.2170    69.5350    16.7330     6.2900    20.2370    24.3400 
  153.5000     1.9940   -24.2110    70.2620    16.7930     6.3430    20.3520    24.1170 
  153.6250     1.9650   -24.2030    69.4190    16.7300     6.1540    20.3830    23.9450 
  153.7500     1.9410   -24.1710    68.7860    16.6180     5.9240    20.3440    23.8440 
  153.8750     1.9300   -24.0800    69.2620    16.5500     5.9020    20.2760    23.8670 
  154.0000     1.9270   -23.9490    69.9870    16.5320     6.0950    20.2410    24.0570 
  154.1250     1.9300   -23.7930    68.8090    16.5340     6.3300    20.3330    24.3890 
  154.2500     1.9350   -23.6130    66.9810    16.5320     6.4380    20.6100    24.8110 
  154.3750     1.9460   -23.4060    66.5620    16.5280     6.4060    21.1010    25.3750 
  154.5000     1.9650   -23.2040    67.5520    16.5270     6.2640    21.7730    26.1340 
  154.6250     1.9890   -23.0090    67.3570    16.5310     6.0530    22.5050    27.0190 
  154.7500     2.0120   -22.8230    64.9360    16.5330     5.8390    23.0830    27.7250 
  154.8750     2.0310   -22.7190    63.1780    16.5340     5.6580    23.3380    27.9430 
  155.0000     2.0450   -22.7040    64.2630    16.5340     5.5050    23.1870    27.5160 
  155.1250     2.0580   -22.7420    67.8210    16.5320     5.3940    22.6640    26.5310 
  155.2500     2.0710   -22.8440    70.9600    16.5300     5.3350    22.0140    25.4390 
  155.3750     2.0780   -23.0380    70.8990    16.5320     5.3200    21.4020    24.5050 
  155.5000     2.0790   -23.2530    68.6820    16.5540     5.3460    20.9360    23.7980 
  155.6250     2.0840   -23.3770    67.1600    16.6040     5.3980    20.6760    23.3020 
  155.7500     2.0960   -23.4820    66.1660    16.6510     5.4660    20.5490    22.9620 
  155.8750     2.1120   -23.5780    65.1450    16.6690     5.5280    20.4950    22.8140 
  156.0000     2.1270   -23.6250    64.3970    16.6860     5.5770    20.4790    22.8880 
  156.1250     2.1340   -23.6210    63.8960    16.7760     5.6200    20.5150    23.1300 
