~V
VERS. 2.00: Ver 2.00
~W
STRT.M 50.0000:
STOP.M 280.0000:
STEP.M 0.1250:
NULL. -999.2500:
UWI. F10023:
~C
DEPT.M :
SP.MV :
DEN.GM/CC :
GR.API :
CALI.CM :
RXO.OHMM :
RI. :
RML.OHMM :
~A
# ...
   95.0000   -30.6160     2.1460    84.0740    23.2780     9.9280     7.2210     8.6920 
   95.1250   -31.3680     2.1210    90.2990    23.2580     8.6960     6.8050     8.2700 
   95.2500   -31.9300     2.1060    90.5990    23.3430     8.1200     6.5540     8.1160 
   95.3750   -32.4060     2.0960    87.4830    23.3880     7.9910     6.4710     8.1540 
   95.5000   -32.8240     2.0930    83.1590    23.3590     7.7790     6.5050     8.2790 
   95.6250   -33.0990     2.0970    78.4470    23.3140     7.4340     6.5970     8.4150 
   95.7500   -33.3090     2.1050    75.5420    23.3040     7.2220     6.6990     8.5290 
   95.8750   -33.3820     2.1130    75.7140    23.3460     7.3340     6.7960     8.6150 
   96.0000   -33.3000     2.1170    74.7290    23.4890     7.7250     6.8770     8.6630 
   96.1250   -33.0730     2.1110    70.5730    23.7130     8.1810     6.9140     8.6460 
   96.2500   -32.6990     2.1040    69.1060    23.9090     8.3770     6.9120     8.5870 
   96.3750   -32.1610     2.1010    70.8220    23.9870     8.2660     6.8990     8.5440 
   96.5000   -31.5000     2.1040    72.8740    24.0090     7.9390     6.9130     8.5700 
   96.6250   -30.6510     2.1190    75.8600    24.0700     7.8220     6.9570     8.6680 
   96.7500   -29.6800     2.1440    81.0780    24.0940     8.8670     6.9710     8.7280 
   96.8750   -28.6940     2.1720    86.1630    24.0390    11.3470     6.8790     8.6360 
   97.0000   -27.7370     2.1960    90.0340    23.9250    12.9230     6.6230     8.3170 
   97.1250   -26.8570     2.1980    96.5810    23.8240    10.8270     6.2020     7.7980 
   97.2500   -26.2330     2.1730   103.9550    23.8400     7.7610     5.7560     7.2840 
   97.3750   -25.7920     2.1310   107.4610    23.9410     6.1470     5.4190     6.9410 
   97.5000   -25.5770     2.0970   105.3130    24.0050     5.9280     5.3020     6.8890 
   97.6250   -25.7440     2.0940   100.4870    24.0100     6.3860     5.5300     7.2540 
   97.7500   -26.0960     2.1120    97.0960    24.0100     6.9670     6.0610     7.9410 
   97.8750   -26.5300     2.1370    95.0880    24.0100     7.5120     6.8090     8.8040 
   98.0000   -27.0290     2.1560    94.2250    24.0090     7.8930     7.5890     9.5900 
   98.1250   -27.5200     2.1530    92.0050    24.0070     8.0980     8.0940     9.9410 
   98.2500   -27.8070     2.1290    88.1040    23.9920     8.1770     8.1950     9.8140 
   98.3750   -27.9430     2.0980    86.2420    23.9370     8.1590     7.9280     9.3380 
   98.5000   -27.8590     2.0820    89.0400    23.8170     8.0460     7.4340     8.7160 
   98.6250   -27.4480     2.0910    96.2130    23.7640     7.6840     6.8630     8.1060 
   98.7500   -26.9470     2.1150   102.4240    23.7940     7.2750     6.3380     7.5920 
   98.8750   -26.3990     2.1420   105.2630    23.8870     6.9130     5.9290     7.2310 
   99.0000   -25.7910     2.1740   109.7040    23.9700     6.4920     5.6900     7.0750 
   99.1250   -25.2620     2.2150   115.5890    24.0020     6.3100     5.6760     7.1820 
   99.2500   -24.8480     2.2540   115.4980    24.0090     7.1240     5.8280     7.4580 
   99.3750   -24.5630     2.2710   109.7350    24.0060     8.8470     6.0650     7.7750 
   99.5000   -24.4790     2.2600   107.5590    23.9770     9.4400     6.2700     7.9800 
   99.6250   -24.6300     2.2320   111.1450    23.9080     8.3150     6.3180     7.9670 
   99.7500   -24.8670     2.2020   110.6700    23.8630     6.9290     6.2260     7.8450 
   99.8750   -25.2400     2.1730   107.2690    23.9050     6.3850     6.0680     7.7420 
  100.0000   -25.6930     2.1490   106.2190    23.9750     6.2540     5.9290     7.7480 
  100.1250   -26.1050     2.1360   106.3140    24.0050     6.5540     5.8790     7.8860 
  100.2500   -26.6080     2.1300   105.8420    24.0100     6.7530     5.9040     8.0570 
  100.3750   -27.1480     2.1220   104.7620    24.0100     6.9120     5.9580     8.1680 
  100.5000   -27.5900     2.1080   102.6060    24.0100     7.1780     5.9900     8.1760 
  100.6250   -27.9490     2.0950    98.7390    24.0100     7.4430     6.0150     8.1700 
  100.7500   -28.2400     2.0950    94.5090    24.0100     7.6910     6.1440     8.3490 
  100.8750   -28.3070     2.1050    91.7290    24.0100     7.8380     6.5000     8.8690 
  101.0000   -28.2370     2.1270    90.8300    24.0100     8.0620     7.1450     9.7690 
  101.1250   -28.0480     2.1790    90.1750    24.0030    10.0050     8.0190    10.8770 
  101.2500   -27.6390     2.2580    87.0560    23.9570    14.1540     8.7710    11.6720 
  101.3750   -27.0790     2.3320    83.5390    23.8390    16.9430     9.0270    11.6810 
  101.5000   -26.5290     2.3550    84.6230    23.7010    14.9870     8.6070    10.8260 
  101.6250   -25.9750     2.3050    90.5870    23.5540     9.7640     7.6980     9.5710 
  101.7500   -25.4920     2.2240    97.0890    23.4480     6.5530     6.7910     8.5290 
  101.8750   -25.1500     2.1560   101.9140    23.4060     6.3210     6.1120     7.8950 
  102.0000   -24.8330     2.1260   104.4150    23.4350     6.7520     5.7370     7.6620 
  102.1250   -24.5250     2.1350   104.1960    23.6480     6.8900     5.6700     7.7220 
  102.2500   -24.3360     2.1540   103.3800    23.8760     6.5820     5.7340     7.8220 
  102.3750   -24.1830     2.1680   102.6320    23.9880     6.2420     5.7950     7.8190 
  102.5000   -23.9790     2.1750   103.6940    24.0100     6.2670     5.7810     7.6810 
  102.6250   -23.7610     2.1800   107.4390    24.0100     6.3160     5.6970     7.4570 
  102.7500   -23.4210     2.1890   113.2330    24.0100     5.9660     5.6030     7.2340 
  102.8750   -23.0440     2.1990   119.4970    24.0100     5.4520     5.5320     7.0550 
  103.0000   -22.8020     2.2100   122.9470    24.0100     5.2930     5.4890     6.9350 
  103.1250   -22.6460     2.2200   122.4620    24.0270     5.5310     5.4480     6.8580 
  103.2500   -22.4660     2.2200   121.1120    24.0690     5.6930     5.3760     6.7760 
  103.3750   -22.3820     2.2150   121.5830    24.1070     5.6990     5.2620     6.6590 
  103.5000   -22.3560     2.2130   122.5700    24.0970     5.6010     5.1180     6.5040 
  103.6250   -22.3730     2.2240   123.0000    24.0380     5.4440     4.9920     6.3540 
  103.7500   -22.5790     2.2380   123.2430    24.0110     5.3260     4.9280     6.2800 
  103.8750   -22.8720     2.2460   121.7250    24.0040     5.4950     4.9620     6.3370 
  104.0000   -23.1430     2.2460   117.2660    24.0040     5.9980     5.1160     6.5510 
  104.1250   -23.4830     2.2340   111.7090    24.0000     6.5260     5.4050     6.9220 
  104.2500   -23.8050     2.2070   107.2210    23.9600     6.8960     5.7680     7.3590 
  104.3750   -24.0310     2.1780   103.5490    23.8530     7.2810     6.1350     7.7640 
  104.5000   -24.2290     2.1670    99.7880    23.7220     7.7280     6.4170     8.0370 
  104.6250   -24.3370     2.1760    97.6830    23.7100     7.9620     6.5100     8.0720 
  104.7500   -24.2480     2.1860    97.5800    23.8030     7.6530     6.4320     7.9210 
  104.8750   -24.0660     2.1920   100.0100    23.8980     7.0090     6.2350     7.6600 
  105.0000   -23.8140     2.1990   104.4070    23.8880     6.4440     5.9860     7.3730 
  105.1250   -23.4260     2.2070   108.3020    23.6810     6.2280     5.7470     7.1250 
  105.2500   -23.0760     2.2120   109.8600    23.4300     6.1130     5.5450     6.9280 
  105.3750   -22.8140     2.2160   108.4510    23.2240     6.0460     5.3880     6.7790 
  105.5000   -22.5520     2.2250   106.6900    23.1110     5.9360     5.2800     6.6830 
  105.6250   -22.3890     2.2360   106.2300    23.0850     5.7200     5.2470     6.6730 
  105.7500   -22.3380     2.2380   106.5270    23.0800     5.5350     5.2970     6.7570 
  105.8750   -22.2880     2.2260   108.2310    23.0800     5.5590     5.4340     6.9290 
  106.0000   -22.3080     2.2010   109.8470    23.0800     5.8310     5.6360     7.1550 
  106.1250   -22.4280     2.1760   109.3400    23.0790     6.1540     5.8460     7.3610 
