~V
VERS. 2.00: Ver 2.00
~W
STRT.M 57.0000:
STOP.M 296.0000:
STEP.M 0.1250:
NULL. -999.2500:
UWI. F10043:
~C
DEPT.M :
GR.API :
RML.OHMM :
RI. :
RXO.OHMM :
CALI.CM :
DEN.GM/CC :
SP.MV :
~A
# ...
  270.7500    64.4430     6.3210     6.0320     4.9900    23.9550     2.3980   -11.5420 
  270.8750    63.6320     6.3800     6.0070     5.0680    23.8750     2.3990   -11.5110 
  271.0000    61.7610     6.4320     6.0290     5.2840    23.8350     2.3960   -11.4750 
  271.1250    62.4040     6.5080     6.1440     5.3270    23.8270     2.3920   -11.4430 
  271.2500    63.6670     6.5590     6.2830     5.1880    23.8270     2.3870   -11.4380 
  271.3750    64.0000     6.5400     6.3560     5.1160    23.8150     2.3810   -11.4430 
  271.5000    63.3790     6.5200     6.3000     5.1590    23.7860     2.3730   -11.4440 
  271.6250    62.3670     6.4840     6.1180     5.2610    23.7530     2.3610   -11.4320 
  271.7500    62.0700     6.3660     5.9410     5.1510    23.8190     2.3480   -11.4440 
  271.8750    63.3520     6.2850     5.8760     5.2050    23.9470     2.3360   -11.4750 
  272.0000    65.7110     6.2850     5.9600     5.3210    24.0530     2.3300   -11.5300 
  272.1250    66.1060     6.3140     6.1390     5.5890    24.0760     2.3380   -11.5810 
  272.2500    64.7270     6.3880     6.2960     6.0610    24.0210     2.3590   -11.6210 
  272.3750    63.2760     6.6780     6.3800     6.4980    23.8690     2.3900   -11.6330 
  272.5000    62.2010     6.7910     6.4160     6.6090    23.7280     2.4250   -11.6270 
  272.6250    61.5410     6.7970     6.4780     6.3510    23.8170     2.4530   -11.6120 
  272.7500    62.6690     7.1350     6.5800     5.9810    24.0600     2.4680   -11.5630 
  272.8750    64.2470     7.1030     6.6680     5.9990    24.2420     2.4670   -11.5010 
  273.0000    63.2740     7.0870     6.6790     6.3680    24.3270     2.4490   -11.4320 
  273.1250    59.2990     7.1200     6.5950     6.8050    24.2800     2.4180   -11.3770 
  273.2500    56.5160     7.1910     6.5140     6.6090    24.1850     2.3850   -11.3160 
  273.3750    57.2220     7.2890     6.5290     6.1650    24.1370     2.3600   -11.2590 
  273.5000    61.0510     7.5440     6.6780     6.0390    24.1050     2.3490   -11.2300 
  273.6250    64.6130     7.6400     6.9050     6.4750    24.0430     2.3580   -11.2110 
  273.7500    63.5400     7.7970     7.0860     7.2950    24.0200     2.3810   -11.2120 
  273.8750    59.4110     7.9720     7.1770     8.4240    24.0590     2.4130   -11.2370 
  274.0000    58.2750     8.0750     7.2190     9.2900    24.0920     2.4480   -11.2670 
  274.1250    61.6530     8.1400     7.3090     9.9200    24.1010     2.4770   -11.2930 
  274.2500    64.5320     8.2190     7.4790    10.9770    24.1200     2.4930   -11.3460 
  274.3750    65.5860     8.3590     7.6660    11.5060    24.1470     2.4960   -11.4180 
  274.5000    65.7440     8.5140     7.7670    10.5860    24.1600     2.4910   -11.4810 
  274.6250    64.3470     8.4790     7.7190     9.6230    24.1220     2.4850   -11.5590 
  274.7500    61.4170     8.3850     7.6310     9.1500    23.9850     2.4830   -11.6300 
  274.8750    59.2420     8.5230     7.6180     9.5010    23.8090     2.4840   -11.6790 
  275.0000    58.3970     8.8430     7.7340     9.5790    23.8650     2.4860   -11.7250 
  275.1250    57.9300     8.9640     7.9080     9.0570    24.1570     2.4880   -11.7770 
  275.2500    58.5480     9.0040     7.9780     8.0570    24.3220     2.4900   -11.8470 
  275.3750    60.6320     8.9010     7.8480     7.2130    24.3170     2.4940   -11.9170 
  275.5000    62.9630     8.6720     7.5550     6.9460    24.1790     2.4960   -11.9930 
  275.6250    63.5220     8.4460     7.2830     7.2550    23.8540     2.4840   -12.0330 
  275.7500    64.4670     8.3790     7.2000     7.2320    23.5030     2.4540   -12.0820 
  275.8750    66.8400     8.5790     7.3640     7.7950    23.2920     2.4110   -12.1220 
  276.0000    67.3500     9.1060     7.7740     9.3560    23.3220     2.3680   -12.1460 
  276.1250    64.3760    10.0100     8.4590    11.0320    23.6450     2.3460   -12.1350 
  276.2500    63.4960    11.1360     9.3630    12.4690    23.9990     2.3540   -12.0700 
  276.3750    66.3310    12.3080    10.4220    14.1380    24.1540     2.3890   -11.9720 
  276.5000    68.6960    13.3060    11.4730    15.1390    24.1880     2.4380   -11.8590 
  276.6250    67.0600    13.8580    12.1980    15.0640    24.2070     2.4870   -11.7400 
  276.7500    65.4740    13.9610    12.4550    14.3070    24.1790     2.5250   -11.6030 
  276.8750    66.3860    13.6950    12.2890    13.4530    24.1690     2.5470   -11.4610 
  277.0000    68.7820    13.1940    11.8900    11.8820    24.1760     2.5530   -11.3220 
  277.1250    68.9730    12.5900    11.4800    10.2710    24.1850     2.5400   -11.2180 
  277.2500    66.5720    12.0400    11.1730     9.0320    24.1900     2.5170   -11.1390 
  277.3750    63.3420    11.6560    10.9720     8.5380    24.2260     2.4910   -11.0730 
  277.5000    62.1470    11.5090    10.8380     9.2410    24.2680     2.4700   -10.9920 
  277.6250    62.4960    11.6180    10.7620    10.7950    24.2270     2.4640   -10.9540 
  277.7500    62.7850    11.8420    10.7580    11.6960    24.1820     2.4700   -10.9220 
  277.8750    62.7860    12.0360    10.8350    11.9650    24.1620     2.4840   -10.9410 
  278.0000    63.5540    12.0720    10.9490    12.9970    24.1670     2.5000   -10.9740 
  278.1250    66.0570    11.8680    10.9740    14.6300    24.1750     2.5110   -11.0180 
  278.2500    67.9350    11.5150    10.8200    14.2680    24.1400     2.5170   -11.0410 
  278.3750    66.2520    11.1120    10.4930    13.1960    23.9910     2.5200   -11.0780 
  278.5000    62.6110    10.7570    10.1030    12.7290    23.7150     2.5210   -11.1330 
  278.6250    62.1570    10.5320     9.8430    12.1680    23.7050     2.5190   -11.1710 
  278.7500    64.1430    10.4390     9.7990    11.6040    23.8240     2.5120   -11.2150 
  278.8750    64.9370    10.4830     9.9410    11.5150    23.8830     2.5030   -11.2000 
  279.0000    63.9120    10.6550    10.1740    11.8800    23.8230     2.4940   -11.1880 
  279.1250    62.8320    10.9440    10.4160    12.2560    23.7460     2.4930   -11.1510 
  279.2500    62.5500    11.2680    10.6720    11.9130    23.7100     2.5000   -11.0870 
  279.3750    63.0330    11.5600    10.9870    11.2940    23.7220     2.5130   -11.0180 
  279.5000    64.4320    11.7680    11.3450    11.0930    23.7840     2.5260   -10.9740 
  279.6250    64.9550    11.8430    11.5980    11.1560    23.8840     2.5330   -10.9300 
  279.7500    63.5030    11.7900    11.6210    10.6740    24.0090     2.5330   -10.8670 
  279.8750    61.5110    11.6000    11.4120    10.1940    24.0800     2.5290   -10.8230 
  280.0000    60.2930    11.2780    11.0790    10.0330    24.0780     2.5250   -10.7970 
  280.1250    58.9890    10.8470    10.7400     9.6490    24.0110     2.5230   -10.7970 
  280.2500    57.2320    10.3790    10.4010     9.1920    23.9660     2.5210   -10.8340 
  280.3750    57.0780     9.9130     9.9890     8.5690    24.0250     2.5160   -10.8700 
  280.5000    60.0340     9.4770     9.4730     7.7690    24.0990     2.5040   -10.9010 
  280.6250    63.1840     9.1240     8.9550     7.5570    24.1140     2.4860   -10.9310 
  280.7500    63.3230     8.8940     8.6180     7.8860    24.1270     2.4660   -10.9650 
  280.8750    60.6650     8.8430     8.5790     8.3660    24.1810     2.4480   -11.0030 
  281.0000    57.6430     9.0090     8.8420     9.2510    24.1720     2.4400   -11.0110 
  281.1250    57.1570     9.4220     9.3270    10.9560    24.1440     2.4490   -10.9860 
  281.2500    59.2820     9.9810     9.8500    11.6320    24.1360     2.4700   -10.9950 
  281.3750    62.3230    10.5840    10.3170    11.5840    24.1670     2.5000   -11.0050 
  281.5000    63.9040    11.1280    10.7020    11.6960    24.1980     2.5290   -11.0110 
  281.6250    62.8240    11.5110    11.0360    12.3000    24.1400     2.5480   -11.0210 
  281.7500    60.1360    11.7410    11.3600    12.9420    24.0780     2.5500   -11.0140 
  281.8750    57.3000    11.8540    11.6610    12.5830    24.0290     2.5340   -11.0200 
