~V
VERS. 2.00: Ver 2.00
~W
STRT.M 50.0000:
STOP.M 278.0000:
STEP.M 0.1250:
NULL. -999.2500:
UWI. F10031:
~C
DEPT.M :
GR.API :
RML.OHMM :
RI. :
RXO.OHMM :
CALI.CM :
DEN.GM/CC :
SP.MV :
~A
# ...
   83.7500    80.9930     5.8510     4.9430     5.9860    23.4300     2.3080   -14.0980 
   83.8750    82.9780     7.1270     5.6100     7.3520    23.4840     2.3190   -14.5940 
   84.0000    83.9580     9.4540     6.9990    11.5010    23.7130     2.3550   -15.1870 
   84.1250    81.0540    12.4430     9.0330    18.8480    23.8310     2.4150   -15.8730 
   84.2500    72.6930    15.0170    11.0640    26.7900    23.8350     2.4790   -16.5890 
   84.3750    62.7840    16.2220    12.3920    31.9070    23.7720     2.5210   -17.3270 
   84.5000    56.9570    15.5280    12.4560    28.3280    23.6560     2.5220   -18.0700 
   84.6250    57.4550    13.1830    11.1530    17.6910    23.5030     2.4740   -18.8040 
   84.7500    59.7510    10.6450     9.4690    11.4290    23.3910     2.4070   -19.5330 
   84.8750    61.6310     8.7290     8.0440     8.7480    23.3290     2.3430   -20.1770 
   85.0000    62.9270     7.6090     7.1090     7.8990    23.2900     2.2950   -20.6750 
   85.1250    64.6750     7.1820     6.6750     7.6290    23.2550     2.2680   -20.9890 
   85.2500    66.8650     7.0780     6.5140     7.3310    23.2260     2.2550   -21.1780 
   85.3750    68.9340     7.1530     6.4990     7.0050    23.2260     2.2530   -21.2580 
   85.5000    71.4540     7.2180     6.5380     6.7720    23.2390     2.2560   -21.2830 
   85.6250    74.1220     7.2350     6.5740     6.8410    23.2470     2.2610   -21.3080 
   85.7500    75.9510     7.2230     6.5900     7.1090    23.2470     2.2610   -21.3310 
   85.8750    76.7770     7.2030     6.5910     7.2080    23.2450     2.2580   -21.3820 
   86.0000    76.2040     7.2020     6.5930     6.9850    23.2440     2.2510   -21.4720 
   86.1250    74.8540     7.2610     6.6190     6.7490    23.2430     2.2440   -21.6090 
   86.2500    73.6780     7.3860     6.6760     6.8610    23.2430     2.2400   -21.7760 
   86.3750    72.8710     7.5610     6.7550     7.2490    23.2450     2.2370   -21.9720 
   86.5000    71.4850     7.7500     6.8350     7.5650    23.2470     2.2360   -22.1670 
   86.6250    68.8960     7.8900     6.8820     7.6390    23.2500     2.2370   -22.3230 
   86.7500    67.1350     7.9560     6.8820     7.6210    23.2570     2.2390   -22.4030 
   86.8750    67.0480     7.9490     6.8360     7.6040    23.2710     2.2410   -22.3930 
   87.0000    67.8920     7.8920     6.7550     7.6440    23.2920     2.2410   -22.3190 
   87.1250    68.5220     7.8030     6.6480     7.6070    23.3020     2.2380   -22.1960 
   87.2500    68.2420     7.6970     6.5280     7.4730    23.3050     2.2350   -22.0520 
   87.3750    67.6730     7.5790     6.4000     7.2730    23.3050     2.2320   -21.8760 
   87.5000    67.3390     7.4570     6.2750     7.0410    23.3050     2.2310   -21.6680 
   87.6250    68.5060     7.3530     6.1690     6.8340    23.3050     2.2320   -21.4250 
   87.7500    72.0580     7.2790     6.0930     6.6820    23.3050     2.2340   -21.2120 
   87.8750    74.8970     7.2320     6.0490     6.6520    23.3040     2.2370   -21.0510 
   88.0000    75.8100     7.1990     6.0310     6.7580    23.3010     2.2400   -20.9220 
   88.1250    76.8430     7.1610     6.0270     7.0000    23.2880     2.2450   -20.8380 
   88.2500    78.2560     7.1160     6.0210     7.2710    23.2580     2.2500   -20.7510 
   88.3750    78.6890     7.0680     6.0010     7.4560    23.1960     2.2550   -20.6800 
   88.5000    77.5050     7.0220     5.9580     7.5990    23.0930     2.2600   -20.6350 
   88.6250    76.6680     6.9680     5.8820     7.7280    22.9850     2.2620   -20.6640 
   88.7500    76.1620     6.8950     5.7800     7.7610    22.9170     2.2630   -20.7410 
   88.8750    74.9170     6.8090     5.6740     7.5930    22.8950     2.2620   -20.8580 
   89.0000    73.2610     6.7530     5.6060     7.3980    22.8930     2.2610   -21.0270 
   89.1250    71.1870     6.8480     5.6670     7.3990    22.8950     2.2610   -21.2340 
   89.2500    70.3160     7.1710     5.9080     7.5350    22.9000     2.2630   -21.4960 
   89.3750    71.1210     7.7460     6.3490     7.7590    22.9170     2.2640   -21.8000 
   89.5000    72.3020     8.5050     6.9480     8.0980    22.9630     2.2580   -22.1510 
   89.6250    73.4080     9.2580     7.5730     8.6300    23.0670     2.2430   -22.5330 
   89.7500    73.2980     9.7810     8.0490     9.1330    23.2090     2.2260   -22.8870 
   89.8750    70.0420     9.9460     8.2620     9.4440    23.3240     2.2160   -23.1820 
   90.0000    64.3440     9.7580     8.1930     9.5840    23.3650     2.2220   -23.4040 
   90.1250    61.5810     9.3460     7.9200     9.6100    23.3670     2.2450   -23.5760 
   90.2500    63.4610     8.9610     7.6280     9.5210    23.3780     2.2730   -23.7050 
   90.3750    67.1710     8.7370     7.4250     9.4770    23.4070     2.2920   -23.7490 
   90.5000    70.0070     8.7040     7.3510     9.6240    23.4140     2.2940   -23.6590 
   90.6250    70.9250     8.8100     7.3980     9.7650    23.4120     2.2790   -23.3890 
   90.7500    70.1950     8.9110     7.4740     9.8650    23.4170     2.2590   -23.0110 
   90.8750    68.5870     8.9020     7.4910     9.8420    23.4320     2.2410   -22.5320 
   91.0000    66.8740     8.7050     7.3710     9.6300    23.4630     2.2290   -21.9330 
   91.1250    66.8420     8.2450     7.0290     9.1360    23.5650     2.2270   -21.1750 
   91.2500    68.7270     7.5970     6.5160     8.3400    23.6710     2.2360   -20.3080 
   91.3750    71.9710     6.8670     5.9190     7.1840    23.7180     2.2580   -19.4060 
   91.5000    76.5020     6.2270     5.3660     6.0540    23.7170     2.2910   -18.5690 
   91.6250    80.4050     5.9630     5.0610     5.4700    23.6870     2.3270   -17.9060 
   91.7500    82.1820     6.2190     5.1090     5.5020    23.6180     2.3510   -17.4280 
   91.8750    82.4400     7.0500     5.5780     5.9490    23.4880     2.3550   -17.1610 
   92.0000    80.9640     8.3530     6.4480     6.6480    23.3140     2.3390   -17.1100 
   92.1250    74.7050     9.8200     7.5890     7.4940    23.1430     2.3080   -17.3030 
   92.2500    66.8940    10.9890     8.6710     8.3680    23.0200     2.2750   -17.6460 
   92.3750    65.2430    11.5580     9.4180     9.0970    22.9760     2.2470   -18.0820 
   92.5000    71.5840    11.4550     9.6710     9.5220    23.0070     2.2290   -18.5540 
   92.6250    77.9930    10.8660     9.4330     9.6800    23.0720     2.2270   -18.9740 
   92.7500    80.1320    10.2460     9.0180     9.8060    23.1200     2.2400   -19.2770 
   92.8750    80.0260     9.8040     8.6120     9.9780    23.1410     2.2640   -19.4230 
   93.0000    79.4310     9.5380     8.2780    10.1470    23.1420     2.2900   -19.4020 
   93.1250    77.9840     9.2540     7.9490    10.2820    23.1690     2.3080   -19.2010 
   93.2500    76.4420     8.7640     7.5220    10.2500    23.2320     2.3190   -18.9060 
   93.3750    75.5380     8.0430     6.9680     9.8350    23.3140     2.3280   -18.5720 
   93.5000    75.2650     7.2340     6.3580     8.9850    23.3860     2.3450   -18.2480 
   93.6250    76.1100     6.6350     5.8680     7.6200    23.4640     2.3690   -17.9840 
   93.7500    78.4310     6.4270     5.6240     6.3820    23.5380     2.3870   -17.7990 
   93.8750    80.4060     6.6480     5.6760     6.1290    23.5430     2.3890   -17.7060 
   94.0000    78.1290     7.1810     5.9820     6.9940    23.4330     2.3670   -17.7050 
   94.1250    71.7390     7.7650     6.4160     8.1540    23.2890     2.3280   -17.7360 
   94.2500    67.1350     8.1110     6.7630     8.8130    23.1720     2.2890   -17.7100 
   94.3750    65.7910     8.0690     6.8820     8.7920    23.1000     2.2610   -17.5600 
   94.5000    65.6710     7.6510     6.7230     8.2870    23.0810     2.2500   -17.2310 
   94.6250    66.6220     7.0110     6.3340     7.5150    23.1390     2.2540   -16.7100 
   94.7500    69.7290     6.4070     5.9000     6.5790    23.2760     2.2640   -16.0850 
   94.8750    73.7430     5.9660     5.5330     5.8480    23.4760     2.2740   -15.4360 
