~V
VERS. 2.00: Ver 2.00
~W
STRT.M 57.0000:
STOP.M 296.0000:
STEP.M 0.1250:
NULL. -999.2500:
UWI. F10043:
~C
DEPT.M :
GR.API :
RML.OHMM :
RI. :
RXO.OHMM :
CALI.CM :
DEN.GM/CC :
SP.MV :
~A
# ...
  102.0000    82.0450     7.6510     6.4990     6.7410    23.7280     2.3610   -17.7250 
  102.1250    75.2280     9.5480     8.0560     8.0280    23.5470     2.3590   -18.4230 
  102.2500    70.8430    11.2960     9.6160     9.3880    23.3990     2.3770   -19.1310 
  102.3750    67.9320    12.2890    10.6910    10.0710    23.1740     2.4040   -19.8260 
  102.5000    65.2840    12.1810    10.9310     9.8870    22.9090     2.4200   -20.4770 
  102.6250    65.0640    11.1720    10.3750     9.3170    22.7290     2.3980   -21.0480 
  102.7500    67.8730    10.0670     9.6070     9.2450    22.5990     2.3450   -21.5090 
  102.8750    70.0170     9.2650     8.9400     9.4830    22.4660     2.2800   -21.8460 
  103.0000    69.4050     8.8760     8.5040     9.6480    22.3020     2.2280   -22.0640 
  103.1250    68.8890     8.8570     8.3470     9.5270    22.1290     2.2040   -22.2000 
  103.2500    69.0010     8.9900     8.3700     9.2950    21.9580     2.1980   -22.2900 
  103.3750    67.6380     9.1630     8.4870     9.0720    21.7820     2.2000   -22.3480 
  103.5000    64.7200     9.3200     8.6050     8.9300    21.7000     2.2060   -22.4120 
  103.6250    63.7310     9.4250     8.6620     8.9950    21.7790     2.2140   -22.4470 
  103.7500    64.9500     9.4650     8.6850     9.1960    21.8980     2.2210   -22.4670 
  103.8750    66.0630     9.4320     8.6990     9.3590    21.9500     2.2220   -22.4910 
  104.0000    66.6820     9.3380     8.6820     8.9140    21.9570     2.2130   -22.5340 
  104.1250    67.2160     9.2110     8.5700     8.5300    21.9590     2.1900   -22.5650 
  104.2500    67.9060     9.0970     8.3940     8.3370    21.9790     2.1650   -22.5860 
  104.3750    69.1120     9.0290     8.2370     8.3670    22.0380     2.1470   -22.5940 
  104.5000    68.8910     9.0310     8.1750     8.5220    22.1310     2.1460   -22.5650 
  104.6250    66.1450     9.1160     8.2320     8.6670    22.2250     2.1650   -22.5220 
  104.7500    64.0050     9.2490     8.3430     8.6650    22.3200     2.1950   -22.4610 
  104.8750    64.4910     9.3900     8.4660     8.5560    22.4160     2.2200   -22.4000 
  105.0000    65.9220     9.4970     8.5660     8.5590    22.4470     2.2260   -22.3270 
  105.1250    65.5350     9.5140     8.6100     8.6350    22.3890     2.2030   -22.2660 
  105.2500    64.7150     9.4350     8.5940     8.6420    22.3200     2.1630   -22.2140 
  105.3750    64.4580     9.2800     8.5260     8.6260    22.2690     2.1260   -22.1660 
  105.5000    64.5550     9.0910     8.4190     8.5100    22.1940     2.1060   -22.1190 
  105.6250    64.8820     8.9370     8.2860     8.2980    22.1220     2.1160   -22.0820 
  105.7500    66.7200     8.8550     8.1430     8.0600    22.0430     2.1440   -22.0820 
  105.8750    70.1330     8.8300     8.0090     7.8870    21.9880     2.1770   -22.0820 
  106.0000    72.1560     8.8150     7.9060     7.9330    21.9630     2.1980   -22.1010 
  106.1250    70.0190     8.7530     7.8330     8.1550    21.9570     2.1980   -22.1590 
  106.2500    68.3370     8.6440     7.7610     8.1890    21.9630     2.1860   -22.2320 
  106.3750    70.3900     8.5230     7.6760     7.9470    22.0200     2.1760   -22.3100 
  106.5000    73.3490     8.4410     7.5870     7.7520    22.2150     2.1780   -22.4240 
  106.6250    73.3850     8.4550     7.5390     8.1790    22.6010     2.1930   -22.5970 
  106.7500    71.7360     8.5550     7.5700     8.9340    23.0140     2.2080   -22.7630 
  106.8750    68.9090     8.7090     7.6940     9.4870    23.3500     2.2150   -22.9380 
  107.0000    65.6480     8.8880     7.9030     9.8750    23.5400     2.2120   -23.1140 
  107.1250    65.1020     9.0730     8.1550    10.0600    23.5870     2.2070   -23.2590 
  107.2500    66.8830     9.2740     8.3870    10.1530    23.5850     2.2090   -23.4130 
  107.3750    68.2700     9.4970     8.5700    10.1680    23.5790     2.2130   -23.5850 
  107.5000    68.3720     9.7120     8.7210    10.0510    23.5630     2.2120   -23.7490 
  107.6250    67.5880     9.8210     8.8520     9.9770    23.5230     2.2030   -23.8280 
  107.7500    66.9520     9.7570     8.9010     9.9730    23.4800     2.1950   -23.8740 
  107.8750    67.3410     9.5120     8.7820     9.8970    23.4650     2.1980   -23.8830 
  108.0000    68.5340     9.1480     8.4810     9.5480    23.4420     2.2150   -23.8650 
  108.1250    69.3160     8.7880     8.1050     9.1260    23.3490     2.2350   -23.8110 
  108.2500    68.4760     8.5290     7.8160     8.9900    23.2070     2.2440   -23.7030 
  108.3750    66.7870     8.4030     7.6770     9.0950    23.1320     2.2360   -23.5310 
  108.5000    67.3430     8.4010     7.6860     9.3200    23.1110     2.2150   -23.2850 
  108.6250    70.3310     8.5140     7.8390     9.4750    23.0850     2.1940   -23.0090 
  108.7500    71.4660     8.7030     8.0950     9.5640    23.0360     2.1840   -22.6870 
  108.8750    70.3120     8.9320     8.4050     9.6550    22.9930     2.1840   -22.3280 
  109.0000    70.0040     9.1290     8.6760    10.2400    22.9750     2.1920   -21.9050 
  109.1250    71.2940     9.1170     8.7390    11.3060    23.0190     2.2030   -21.4130 
  109.2500    73.2980     8.7870     8.5260    11.5250    23.1790     2.2130   -20.8500 
  109.3750    79.1840     8.1230     8.0280    10.1820    23.4950     2.2230   -20.2180 
  109.5000    89.4110     7.2490     7.3160     8.4620    23.8830     2.2340   -19.5680 
  109.6250    97.7860     6.4090     6.5310     6.7410    24.2860     2.2490   -18.9190 
  109.7500   101.9560     5.7860     5.8650     5.7220    24.5420     2.2670   -18.3170 
  109.8750   104.3580     5.4440     5.4450     5.4820    24.6540     2.2830   -17.7830 
  110.0000   104.9770     5.3800     5.3190     5.7960    24.5960     2.2930   -17.3460 
  110.1250   104.4030     5.5750     5.4600     6.2580    24.3810     2.2930   -17.0550 
  110.2500   105.3990     5.9080     5.7220     6.2610    24.0320     2.2860   -16.8880 
  110.3750   106.9600     6.2930     6.0400     6.3830    23.7850     2.2800   -16.8460 
  110.5000   104.9050     6.6540     6.3910     6.5800    23.6920     2.2820   -16.8940 
  110.6250    97.3240     6.9170     6.7260     7.4670    23.6430     2.2940   -17.0530 
  110.7500    91.7630     7.0650     6.9560     8.1130    23.5980     2.3060   -17.2550 
  110.8750    91.8200     7.1100     7.0240     7.8890    23.5770     2.3090   -17.4740 
  111.0000    94.1600     7.0960     6.9640     7.4530    23.5510     2.2990   -17.6760 
  111.1250    91.9800     7.0920     6.8900     7.1510    23.4540     2.2790   -17.8500 
  111.2500    86.3280     7.1500     6.8790     7.1110    23.3030     2.2590   -18.0240 
  111.3750    82.9940     7.2880     6.9260     7.1540    23.1590     2.2460   -18.2160 
  111.5000    84.1690     7.4970     7.0090     7.1740    23.0200     2.2400   -18.4510 
  111.6250    85.0700     7.7560     7.1390     7.3610    22.9000     2.2390   -18.6840 
  111.7500    83.4540     8.0330     7.3360     7.5530    22.8390     2.2380   -18.9240 
  111.8750    82.4640     8.3150     7.5840     7.7380    22.8140     2.2380   -19.1540 
  112.0000    83.7810     8.5850     7.8200     7.9340    22.8060     2.2390   -19.4150 
  112.1250    85.6940     8.8040     7.9740     8.1470    22.8340     2.2430   -19.7200 
  112.2500    85.7880     8.9470     8.0710     8.4530    22.8790     2.2530   -20.0500 
  112.3750    85.3790     8.9980     8.1450     8.6570    22.9780     2.2720   -20.3660 
  112.5000    85.6520     8.9620     8.1900     8.7200    23.1870     2.2950   -20.6600 
  112.6250    82.4910     8.8610     8.1490     8.5670    23.5230     2.3120   -20.9820 
  112.7500    75.5190     8.7480     8.0350     8.4240    23.8620     2.3110   -21.3290 
  112.8750    70.1030     8.6550     7.9110     8.4230    24.1820     2.2880   -21.7120 
  113.0000    71.4930     8.5920     7.8530     8.5820    24.4510     2.2470   -22.0820 
  113.1250    76.5850     8.5560     7.8700     8.7310    24.5790     2.2020   -22.3820 
