~V
VERS. 2.00: Ver 2.00
~W
STRT.M 55.0000:
STOP.M 310.0000:
STEP.M 0.1250:
NULL. -999.2500:
UWI. F10049:
~C
DEPT.M :
GR.API :
RML.OHMM :
RI. :
RXO.OHMM :
CALI.CM :
DEN.GM/CC :
SP.MV :
~A
# ...
  190.0000    67.5040    14.0610    13.7470    11.6410    25.9670     2.0610   -16.4530 
  190.1250    66.4730    15.1490    14.9920    12.0710    25.8980     2.0530   -15.9060 
  190.2500    64.7830    15.9000    15.8210    12.8190    25.7600     2.1090   -15.2070 
  190.3750    66.4760    15.8690    15.7640    12.7160    25.6990     2.2160   -14.3630 
  190.5000    72.5630    14.8610    14.6730    11.4030    25.9980     2.3350   -13.3440 
  190.6250    78.2050    13.0630    12.8430     9.2730    26.3860     2.4110   -12.1490 
  190.7500    79.2990    11.2040    11.0010     8.6190    26.1170     2.4330   -10.7960 
  190.8750    80.0150     9.7280     9.5160     8.4740    25.4700     2.4120    -9.3830 
  191.0000    84.1900     8.7830     8.5160     8.3790    25.0600     2.3740    -8.0600 
  191.1250    88.0070     8.3040     8.0230     7.5090    24.9280     2.3370    -6.8800 
  191.2500    89.1930     8.0150     7.8230     6.4120    24.8670     2.3080    -5.8350 
  191.3750    89.1590     7.7830     7.7560     5.4410    24.9510     2.2880    -4.9700 
  191.5000    90.1000     7.5490     7.6980     4.9580    25.0730     2.2810    -4.3410 
  191.6250    91.2010     7.3130     7.6150     5.3580    25.1230     2.2890    -3.9920 
  191.7500    91.1870     7.1130     7.5530     6.0820    25.1090     2.3040    -3.7700 
  191.8750    90.8660     6.9850     7.5260     6.7250    25.0680     2.3170    -3.5890 
  192.0000    91.3250     6.9400     7.4830     7.4550    25.0370     2.3170    -3.4480 
  192.1250    91.2600     6.9600     7.3550     7.7470    25.0440     2.2990    -3.4030 
  192.2500    89.2150     7.0160     7.1890     8.7230    25.0710     2.2720    -3.4080 
  192.3750    85.5170     7.1450     7.1090     8.5960    25.1310     2.2490    -3.3930 
  192.5000    83.6750     7.4450     7.2710     6.9650    25.1970     2.2360    -3.3670 
  192.6250    84.6680     8.0570     7.8350     6.2520    25.2700     2.2310    -3.3690 
  192.7500    85.1930     8.8760     8.6630     6.7910    25.2990     2.2240    -3.4450 
  192.8750    83.6290     9.6470     9.4610     9.0470    25.2520     2.2130    -3.5660 
  193.0000    80.0400    10.0310     9.8020    14.8990    25.1320     2.2020    -3.6290 
  193.1250    78.1540     9.7130     9.3500    18.8500    24.9520     2.2070    -3.6110 
  193.2500    80.0510     8.9480     8.5190    15.3400    24.8600     2.2390    -3.5350 
  193.3750    83.9740     8.1280     7.7770     8.2630    24.9890     2.2930    -3.4500 
  193.5000    86.0420     7.6780     7.4590     5.0690    25.1850     2.3540    -3.4140 
  193.6250    83.4690     8.0020     7.8060     5.1630    25.2790     2.4000    -3.4030 
  193.7500    79.6910     8.9850     8.6700     8.1220    25.3270     2.4260    -3.4140 
  193.8750    77.2050    10.3390     9.8020    15.9000    25.3660     2.4400    -3.4260 
  194.0000    77.5520    11.5840    10.7410    21.3500    25.3990     2.4510    -3.4550 
  194.1250    81.0930    12.1000    10.8890    15.1160    25.3810     2.4690    -3.5620 
  194.2500    84.2010    11.8520    10.3810     9.0270    25.2520     2.4870    -3.7470 
  194.3750    83.3070    11.1260     9.6440     6.9680    25.1090     2.4980    -3.9570 
  194.5000    78.1310    10.3580     9.0790     6.2890    25.0140     2.4990    -4.1460 
  194.6250    73.7950     9.9420     8.9500     5.8340    24.9070     2.4930    -4.3040 
  194.7500    72.6700     9.9140     9.1960     5.8810    24.7730     2.4840    -4.3980 
  194.8750    72.4090    10.2120     9.7140     6.7200    24.7380     2.4770    -4.4470 
  195.0000    70.7860    10.7470    10.3440     8.6310    24.8560     2.4750    -4.4890 
  195.1250    67.5810    11.4300    10.8880    11.0940    25.0180     2.4810    -4.5090 
  195.2500    64.2870    12.0970    11.2220    11.2300    25.1970     2.4910    -4.4920 
  195.3750    60.4210    12.5870    11.2880    11.0170    25.2780     2.5010    -4.4250 
  195.5000    57.0990    12.7520    11.0820    12.0340    25.2340     2.5080    -4.3410 
  195.6250    57.6050    12.4990    10.6610    14.6400    25.1660     2.5100    -4.2280 
  195.7500    60.9660    12.0360    10.2090    13.6540    25.1380     2.5070    -4.1700 
  195.8750    64.3470    11.5990     9.8740    10.4620    25.1500     2.5010    -4.1870 
  196.0000    64.9220    11.4040     9.7770     7.6570    25.1710     2.4900    -4.2270 
  196.1250    62.5890    11.6300    10.0630     7.3790    25.2280     2.4720    -4.2500 
  196.2500    58.3160    12.1900    10.6850     8.6480    25.3050     2.4520    -4.2810 
  196.3750    54.5620    12.9620    11.5550    10.5710    25.3290     2.4360    -4.3360 
  196.5000    54.0760    13.7720    12.4900    11.9940    25.2740     2.4300    -4.3540 
  196.6250    54.8850    14.4130    13.2360    12.1440    25.1570     2.4340    -4.3260 
  196.7500    55.2880    14.8340    13.7180    11.7400    25.1220     2.4420    -4.2230 
  196.8750    56.4080    15.0960    14.0010    11.4010    25.1230     2.4500    -4.0760 
  197.0000    59.0810    15.3170    14.1980    11.2870    25.0870     2.4590    -3.9520 
  197.1250    62.1230    15.5900    14.3660    11.3340    25.0030     2.4660    -3.8530 
  197.2500    65.1410    15.8660    14.4540    12.4860    24.9150     2.4710    -3.6700 
  197.3750    67.8490    16.0170    14.3640    13.4950    24.8570     2.4710    -3.4870 
  197.5000    67.6430    15.9180    14.0300    12.4660    24.8650     2.4660    -3.3810 
  197.6250    64.4610    15.4720    13.4140    11.9100    25.0090     2.4590    -3.3570 
  197.7500    62.4930    14.7840    12.6270    11.6950    25.1910     2.4570    -3.4580 
  197.8750    61.9970    13.9640    11.7750    11.0430    25.2740     2.4600    -3.6700 
  198.0000    60.2670    13.1490    10.9880    10.9550    25.2120     2.4640    -3.8640 
  198.1250    58.8860    12.5310    10.4260    10.7420    25.0800     2.4610    -3.9620 
  198.2500    60.4780    12.2070    10.1340    10.1650    25.0220     2.4460    -4.0960 
  198.3750    62.9260    12.2150    10.1300     9.3820    25.0330     2.4250    -4.2250 
  198.5000    63.8320    12.5120    10.3740     9.2440    25.0920     2.4070    -4.3070 
  198.6250    63.9830    12.9850    10.7850     9.5880    25.1160     2.4040    -4.3530 
  198.7500    64.7420    13.4500    11.2300     9.9420    25.1030     2.4110    -4.3510 
  198.8750    63.7200    13.8130    11.6580    10.1200    25.0810     2.4200    -4.2740 
  199.0000    61.4320    14.0510    12.0590    11.0030    25.0300     2.4240    -4.1730 
  199.1250    62.4910    14.2160    12.4690    12.3760    24.8930     2.4210    -4.1130 
  199.2500    64.1670    14.4410    12.9300    13.3070    24.6910     2.4170    -4.0790 
  199.3750    63.8050    14.8290    13.4470    13.6660    24.5340     2.4170    -4.0410 
  199.5000    62.8850    15.4080    13.9800    14.1360    24.4920     2.4210    -3.9850 
  199.6250    63.2350    16.0950    14.4350    15.1180    24.5160     2.4270    -3.8980 
  199.7500    64.8710    16.6780    14.7360    15.9920    24.4380     2.4360    -3.8070 
  199.8750    65.8740    16.9910    14.8320    16.4900    24.4200     2.4490    -3.7420 
  200.0000    67.3550    16.9510    14.7180    16.2420    24.5590     2.4690    -3.6700 
  200.1250    68.6670    16.5450    14.4090    15.8490    24.8070     2.4910    -3.6160 
  200.2500    68.3290    15.9540    14.0080    15.2050    24.8660     2.5080    -3.6360 
  200.3750    66.5870    15.3180    13.5950    14.5030    24.7650     2.5170    -3.6810 
  200.5000    64.5130    14.7660    13.2290    14.2070    24.5780     2.5210    -3.6830 
  200.6250    63.5750    14.4160    12.9590    13.7440    24.4540     2.5240    -3.6530 
  200.7500    62.9520    14.2470    12.7930    13.3170    24.4570     2.5300    -3.5290 
  200.8750    62.4820    14.2060    12.7510    13.4720    24.6630     2.5390    -3.3890 
  201.0000    63.5620    14.2240    12.8510    13.8300    24.9750     2.5470    -3.3810 
  201.1250    65.7200    14.2820    13.1120    14.0310    25.1250     2.5530    -3.4430 
