~V
VERS. 2.00: Ver 2.00
~W
STRT.M 55.0000:
STOP.M 293.0000:
STEP.M 0.1250:
NULL. -999.2500:
UWI. F10038:
~C
DEPT.M :
SP.MV :
DEN.GM/CC :
GR.API :
RML.OHMM :
RI. :
RXO.OHMM :
CALI.CM :
~A
# ...
  201.2500   -30.5850     2.3310    67.5580    13.2960    11.6460    16.7710    23.4480 
  201.3750   -30.4980     2.3300    68.0230    13.3040    11.6170    16.5250    23.4500 
  201.5000   -30.4260     2.3270    68.1860    13.2950    11.5790    16.3020    23.4530 
  201.6250   -30.3760     2.3200    66.0890    13.2560    11.5270    16.3460    23.4520 
  201.7500   -30.3470     2.3120    63.6750    13.1900    11.4630    16.5610    23.4470 
  201.8750   -30.3540     2.3050    63.4780    13.0980    11.3900    16.8070    23.4350 
  202.0000   -30.4080     2.3010    64.9880    12.9920    11.3160    16.9400    23.4140 
  202.1250   -30.4850     2.3020    65.6970    12.8910    11.2500    16.9040    23.3840 
  202.2500   -30.5750     2.3070    65.0690    12.8130    11.1960    16.6340    23.3590 
  202.3750   -30.6660     2.3120    63.2900    12.7720    11.1570    16.2910    23.3340 
  202.5000   -30.7190     2.3160    61.8690    12.7670    11.1320    15.9710    23.3220 
  202.6250   -30.7190     2.3150    62.2840    12.7820    11.1160    15.8230    23.3370 
  202.7500   -30.6760     2.3110    62.0820    12.7900    11.1010    15.8530    23.3820 
  202.8750   -30.6110     2.3050    59.7700    12.7780    11.0830    16.0520    23.4470 
  203.0000   -30.5480     2.3010    56.7600    12.7410    11.0570    16.3180    23.5150 
  203.1250   -30.5130     2.2990    56.8190    12.6970    11.0300    16.3650    23.5190 
  203.2500   -30.4930     2.2990    59.6830    12.6680    11.0090    16.1180    23.5060 
  203.3750   -30.4830     2.2990    63.4080    12.6680    11.0000    15.7070    23.4740 
  203.5000   -30.4750     2.2990    66.4360    12.6910    11.0010    15.2730    23.4240 
  203.6250   -30.4720     2.3000    66.0370    12.7100    10.9970    14.9130    23.3570 
  203.7500   -30.4930     2.3000    64.6950    12.7010    10.9720    14.6030    23.2990 
  203.8750   -30.5240     2.3020    64.4150    12.6560    10.9200    14.2740    23.2570 
  204.0000   -30.5600     2.3040    64.7110    12.5880    10.8450    13.9110    23.2330 
  204.1250   -30.5820     2.3060    64.5860    12.5360    10.7680    13.5510    23.2030 
  204.2500   -30.6090     2.3080    64.6640    12.5230    10.7110    13.3160    23.1400 
  204.3750   -30.6780     2.3110    64.7690    12.5570    10.6840    13.2610    23.0380 
  204.5000   -30.8050     2.3160    64.4090    12.5950    10.6850    13.4430    22.9290 
  204.6250   -31.0230     2.3180    64.9370    12.6140    10.7020    13.7810    22.9130 
  204.7500   -31.3170     2.3140    66.3810    12.5460    10.7120    14.1030    23.0130 
  204.8750   -31.6810     2.3010    66.1300    12.3930    10.7050    14.2990    23.2550 
  205.0000   -32.0800     2.2810    64.4980    12.2740    10.6770    14.3090    23.6890 
  205.1250   -32.4980     2.2570    64.7940    12.1610    10.6280    14.2710    24.1540 
  205.2500   -32.8980     2.2340    65.7970    12.0880    10.5700    14.2220    24.5850 
  205.3750   -33.2480     2.2160    64.9800    12.0310    10.5110    14.1540    24.9160 
  205.5000   -33.5270     2.2060    63.2380    11.9760    10.4570    14.1040    25.1370 
  205.6250   -33.7210     2.2050    62.8440    11.8970    10.4170    14.0590    25.2590 
  205.7500   -33.8410     2.2100    63.1760    11.8190    10.3880    14.0670    25.2710 
  205.8750   -33.8930     2.2210    61.9190    11.7590    10.3700    14.0830    25.2280 
  206.0000   -33.8930     2.2340    60.0630    11.6970    10.3560    14.1170    25.1820 
  206.1250   -33.8630     2.2450    59.1940    11.6830    10.3410    14.1460    25.1390 
  206.2500   -33.8350     2.2520    59.2300    11.6780    10.3210    14.1630    25.0900 
  206.3750   -33.8220     2.2540    60.3990    11.6870    10.2970    14.1480    25.0420 
  206.5000   -33.8320     2.2520    62.4000    11.7250    10.2750    14.1150    25.0000 
  206.6250   -33.8430     2.2480    63.8420    11.8150    10.2690    14.1520    24.9480 
  206.7500   -33.8260     2.2450    62.9960    11.9600    10.2860    14.3100    24.8900 
  206.8750   -33.7870     2.2430    59.9410    12.1200    10.3240    14.5910    24.8400 
  207.0000   -33.7290     2.2430    56.5920    12.2610    10.3780    14.9100    24.8020 
  207.1250   -33.6680     2.2440    54.5070    12.3910    10.4390    15.1150    24.7700 
  207.2500   -33.6030     2.2450    53.8520    12.4650    10.4990    15.1070    24.7590 
  207.3750   -33.5350     2.2490    54.3000    12.5000    10.5630    14.9880    24.7150 
  207.5000   -33.4780     2.2540    56.2340    12.5520    10.6400    14.9470    24.6170 
  207.6250   -33.4520     2.2610    59.2920    12.6340    10.7430    15.1840    24.5240 
  207.7500   -33.4510     2.2690    62.3260    12.7330    10.8650    15.6320    24.4660 
  207.8750   -33.4680     2.2770    62.9560    12.8320    10.9900    16.1530    24.4300 
  208.0000   -33.4970     2.2830    60.9320    12.9030    11.0980    16.5420    24.4300 
  208.1250   -33.5000     2.2860    57.6780    12.9150    11.1620    16.4240    24.4430 
  208.2500   -33.4720     2.2870    55.8750    12.8700    11.1840    16.0150    24.4490 
  208.3750   -33.4130     2.2850    56.3910    12.7780    11.1710    15.5670    24.4320 
  208.5000   -33.3200     2.2800    57.0210    12.6590    11.1380    15.1580    24.3990 
  208.6250   -33.1760     2.2700    57.2850    12.5410    11.1000    14.8210    24.3070 
  208.7500   -32.9930     2.2580    57.5130    12.4360    11.0690    14.5000    24.1510 
  208.8750   -32.7600     2.2470    57.2830    12.3520    11.0480    14.1530    23.9260 
  209.0000   -32.4840     2.2380    56.5950    12.2870    11.0320    13.7450    23.6550 
  209.1250   -32.1920     2.2340    55.2770    12.2410    11.0170    13.2840    23.4510 
  209.2500   -31.9100     2.2300    53.2220    12.2340    11.0010    12.9650    23.3960 
  209.3750   -31.6780     2.2250    52.0110    12.2330    10.9890    12.8190    23.4600 
  209.5000   -31.4890     2.2200    52.9010    12.2480    10.9900    12.7540    23.6270 
  209.6250   -31.3420     2.2200    54.2880    12.2780    11.0180    12.7750    23.8640 
  209.7500   -31.2270     2.2280    53.7520    12.3390    11.0770    12.8760    24.0950 
  209.8750   -31.1240     2.2430    52.7090    12.4240    11.1630    13.0330    24.1940 
  210.0000   -31.0310     2.2590    54.3110    12.5160    11.2690    13.1700    24.1670 
  210.1250   -30.9380     2.2670    57.6720    12.6240    11.3780    13.1600    24.0670 
  210.2500   -30.8240     2.2610    58.8590    12.7500    11.4740    12.9890    23.9830 
  210.3750   -30.6500     2.2430    58.0500    12.8470    11.5340    12.7320    23.9450 
  210.5000   -30.3900     2.2170    57.8150    12.8510    11.5290    12.5050    23.9230 
  210.6250   -30.0360     2.1900    58.1050    12.7160    11.4040    12.4070    23.8710 
  210.7500   -29.6240     2.1700    56.2470    12.4390    11.1470    12.4280    23.7370 
  210.8750   -29.1580     2.1610    53.7070    12.0210    10.7600    12.5070    23.5350 
  211.0000   -28.6080     2.1610    53.8850    11.5040    10.2820    12.5980    23.3900 
  211.1250   -27.9520     2.1640    55.9380    10.9950     9.8100    12.8460    23.4400 
  211.2500   -27.1950     2.1720    56.1820    10.8370     9.6640    13.7930    23.6030 
  211.3750   -26.3200     2.1930    55.1390    12.3480    11.0630    17.2000    23.8210 
  211.5000   -25.3370     2.2420    54.1550    18.2370    16.5160    30.2530    23.9860 
  211.6250   -24.2260     2.3310    53.6460    32.6330    29.8450    81.2080    24.1140 
  211.7500   -22.9990     2.4430    52.3560    54.2990    49.9070   181.4250    24.2750 
  211.8750   -21.6810     2.5570    51.0130    78.4060    72.2280   314.7370    24.4920 
  212.0000   -20.2950     2.6520    50.9430    95.9310    88.4550   441.1400    24.6270 
  212.1250   -18.8380     2.7150    52.8900    93.0410    85.7790   472.4440    24.6180 
  212.2500   -17.3440     2.7580    54.3860    71.2140    65.5680   327.0260    24.5670 
  212.3750   -15.8370     2.7790    53.8350    44.5320    40.8630   144.1960    24.5050 
