~V
VERS. 2.00: Ver 2.00
~W
STRT.M 56.0000:
STOP.M 269.0000:
STEP.M 0.1250:
NULL. -999.2500:
UWI. F10026:
~C
DEPT.M :
GR.API :
RML.OHMM :
RI. :
RXO.OHMM :
CALI.CM :
DEN.GM/CC :
SP.MV :
~A
# ...
  179.7500    56.7920    43.8150    40.6800    69.6130    24.2570     2.3180   -33.2110 
  179.8750    54.7440    49.5330    47.2110    87.2160    24.2200     2.2890   -33.6580 
  180.0000    57.2910    51.9920    50.6020    91.8630    24.2200     2.2680   -34.1200 
  180.1250    62.5160    49.7570    49.0580    82.5060    24.2280     2.2520   -34.5650 
  180.2500    65.0650    44.5350    44.2320    68.5480    24.2370     2.2340   -34.9400 
  180.3750    65.0920    38.2250    38.0850    46.9540    24.2140     2.2190   -35.2600 
  180.5000    66.1210    32.5760    32.4210    26.8000    24.1320     2.2140   -35.5470 
  180.6250    68.1860    28.9540    28.5790    21.0980    23.9880     2.2270   -35.8610 
  180.7500    67.7930    27.2570    26.4960    23.5470    23.8530     2.2520   -36.2170 
  180.8750    64.3390    27.1840    25.9570    34.1490    23.8180     2.2790   -36.5690 
  181.0000    60.5780    28.2480    26.6140    39.7070    23.7610     2.3020   -36.8760 
  181.1250    59.6130    29.9130    28.1050    36.5530    23.4750     2.3130   -37.1180 
  181.2500    60.2850    31.5600    29.7980    34.1760    23.0150     2.3160   -37.3050 
  181.3750    60.6120    32.9110    31.3250    33.4980    22.7220     2.3110   -37.4470 
  181.5000    59.7560    33.8530    32.4700    33.0690    22.6960     2.3020   -37.5460 
  181.6250    59.5040    34.2730    33.0560    32.3350    22.6860     2.2920   -37.5850 
  181.7500    62.5650    34.2710    33.1910    31.5830    22.5530     2.2850   -37.5880 
  181.8750    67.1330    33.9900    33.0210    31.6350    22.4490     2.2830   -37.5490 
  182.0000    70.6840    33.6720    32.7610    30.1800    22.3250     2.2880   -37.4710 
  182.1250    71.2670    33.5810    32.6110    25.5130    22.1100     2.2970   -37.3780 
  182.2500    70.1870    33.6240    32.4870    23.3390    21.8930     2.3040   -37.3240 
  182.3750    68.4730    33.4080    32.0530    26.2450    21.7780     2.3060   -37.3110 
  182.5000    66.4900    32.4040    30.8770    30.0610    21.7530     2.3010   -37.3350 
  182.6250    66.9180    30.0940    28.5430    28.9480    21.7100     2.2900   -37.3590 
  182.7500    69.6390    26.8980    25.4560    25.2890    21.6370     2.2830   -37.3530 
  182.8750    72.7400    23.4140    22.1310    21.3340    21.7380     2.2840   -37.3460 
  183.0000    75.6620    20.1790    19.0890    17.5910    22.1180     2.2960   -37.3710 
  183.1250    78.9100    17.6930    16.8150    16.2610    22.6540     2.3150   -37.4560 
  183.2500    82.0190    16.0310    15.3270    16.0060    23.1540     2.3330   -37.5960 
  183.3750    83.8140    15.3800    14.5870    16.0650    23.4920     2.3470   -37.7810 
  183.5000    82.7790    15.4490    14.4780    16.1420    23.6410     2.3540   -37.9920 
  183.6250    77.9140    15.9520    14.9060    16.2140    23.4240     2.3550   -38.2320 
  183.7500    72.1510    16.6620    15.6230    17.3810    23.2550     2.3500   -38.4910 
  183.8750    70.8380    17.5020    16.4960    20.2040    23.1400     2.3430   -38.7550 
  184.0000    74.9070    18.3780    17.3940    23.7020    23.0920     2.3340   -39.0400 
  184.1250    77.7300    19.0970    18.1320    23.2090    23.0610     2.3260   -39.3300 
  184.2500    76.4910    19.4580    18.5490    24.2200    23.1340     2.3170   -39.6160 
  184.3750    73.5130    19.2950    18.4970    26.8840    23.2780     2.3100   -39.8890 
  184.5000    70.9270    18.5670    17.9120    26.2240    23.3820     2.3070   -40.1490 
  184.6250    68.3570    17.3670    16.8160    22.4230    23.4270     2.3100   -40.3900 
  184.7500    68.0760    16.0570    15.5230    19.1750    23.5180     2.3150   -40.6130 
  184.8750    70.4490    14.8820    14.2810    15.5430    23.6730     2.3160   -40.8170 
  185.0000    71.4800    14.0010    13.2780    13.4120    23.7770     2.3090   -41.0090 
  185.1250    69.0320    13.5160    12.6620    12.6630    23.8750     2.2960   -41.1820 
  185.2500    66.7000    13.3100    12.3470    12.3710    24.0260     2.2870   -41.2950 
  185.3750    66.2720    13.2870    12.2410    12.4870    24.1080     2.2840   -41.3480 
  185.5000    64.8810    13.3470    12.2440    12.8070    23.9920     2.2840   -41.3550 
  185.6250    62.8070    13.3910    12.2670    12.8060    23.8690     2.2770   -41.3170 
  185.7500    63.0960    13.3580    12.2620    12.7050    23.8920     2.2640   -41.2930 
  185.8750    63.9700    13.2410    12.2250    12.8990    24.0910     2.2500   -41.3020 
  186.0000    62.9910    13.0710    12.1690    13.0270    24.3780     2.2440   -41.2800 
  186.1250    61.2730    12.9120    12.1080    13.0850    24.5660     2.2490   -41.1730 
  186.2500    61.5470    12.8180    12.0530    13.1610    24.5560     2.2570   -41.0390 
  186.3750    63.2130    12.8100    12.0150    13.1380    24.3950     2.2580   -40.9130 
  186.5000    63.6050    12.8780    12.0120    12.9920    24.0620     2.2510   -40.7970 
  186.6250    63.4070    13.0010    12.0770    12.8950    23.9250     2.2390   -40.7030 
  186.7500    65.1000    13.1500    12.2140    13.0740    24.1260     2.2350   -40.5860 
  186.8750    69.2290    13.3190    12.4160    13.3790    24.2290     2.2420   -40.4130 
  187.0000    73.3470    13.5050    12.6550    13.7930    23.7670     2.2610   -40.2280 
  187.1250    74.8020    13.6730    12.8720    14.4950    23.3640     2.2830   -40.1080 
  187.2500    73.5700    13.7630    13.0090    14.7530    23.2540     2.2970   -40.0410 
  187.3750    69.2460    13.7230    13.0310    14.5200    23.4230     2.3000   -39.9830 
  187.5000    64.0730    13.5380    12.9390    13.9510    23.8350     2.2950   -39.9090 
  187.6250    61.9730    13.2390    12.7710    13.4730    24.3580     2.2860   -39.7930 
  187.7500    62.0240    12.9390    12.6080    12.9950    24.6210     2.2810   -39.6240 
  187.8750    61.9390    12.7230    12.4910    12.7650    24.6020     2.2780   -39.4200 
  188.0000    60.8270    12.6410    12.4320    12.5980    24.4200     2.2750   -39.1870 
  188.1250    59.5080    12.7030    12.4220    12.2850    24.2860     2.2660   -38.9020 
  188.2500    57.8040    12.8230    12.4220    11.8570    24.0880     2.2500   -38.5460 
  188.3750    57.3550    12.9260    12.4070    11.8070    24.0050     2.2290   -38.1120 
  188.5000    59.9520    12.9490    12.3450    11.9270    24.0160     2.2100   -37.6050 
  188.6250    61.7680    12.8440    12.1930    12.0400    23.9930     2.1990   -37.0290 
  188.7500    60.1800    12.6350    11.9500    12.1400    23.8930     2.1970   -36.4450 
  188.8750    58.0140    12.3570    11.6470    12.2800    23.7870     2.2000   -35.8640 
  189.0000    58.5000    12.1090    11.3830    12.4200    23.8240     2.2050   -35.2660 
  189.1250    60.5950    12.2040    11.4250    12.6940    23.9960     2.2110   -34.6020 
  189.2500    61.5330    13.0810    12.0830    13.2970    24.0170     2.2170   -33.8460 
  189.3750    60.1790    15.3850    13.8440    14.0140    23.9240     2.2270   -33.0130 
  189.5000    57.2940    19.8470    17.3760    16.0870    23.8690     2.2490   -32.1400 
  189.6250    56.3850    27.2180    23.6410    24.2670    23.8940     2.2930   -31.2730 
  189.7500    58.8140    35.5310    31.2930    44.4550    23.9090     2.3540   -30.4180 
  189.8750    62.8330    40.9770    37.1010    73.1740    23.8690     2.4190   -29.5580 
  190.0000    65.2200    39.5920    37.1640    95.2530    23.7600     2.4720   -28.6840 
  190.1250    65.8860    30.8190    30.1230    81.5240    23.5370     2.5030   -27.8130 
  190.2500    65.2840    20.8170    21.2020    44.6110    23.2080     2.5210   -27.0010 
  190.3750    62.0230    13.1530    13.8320    16.0010    23.0390     2.5320   -26.2810 
  190.5000    56.5880     8.6490     9.1020     6.1270    23.1250     2.5360   -25.6610 
  190.6250    54.0080     6.8110     6.8180     5.4120    23.3910     2.5250   -25.1370 
  190.7500    55.8140     6.2510     5.8220     5.6120    23.7260     2.4980   -24.6840 
  190.8750    58.4970     6.3630     5.6140     6.0050    24.0540     2.4650   -24.3120 
