~V
VERS. 2.00: Ver 2.00
~W
STRT.M 50.0000:
STOP.M 300.0000:
STEP.M 0.1250:
NULL. -999.2500:
UWI. F10041:
~C
DEPT.M :
DEN.GM/CC :
GR.API :
RML.OHMM :
RI. :
RXO.OHMM :
CALI.CM :
SP.MV :
~A
# ...
  196.2500     2.5610    52.4180    16.6860    17.3060    16.3020    23.4680    -8.1960 
  196.3750     2.5680    48.8050    16.2510    17.0420    17.5030    23.4450    -8.4130 
  196.5000     2.5610    48.3420    16.3520    17.1860    16.6330    23.3330    -8.6230 
  196.6250     2.5510    51.2590    16.8340    17.5700    16.3570    23.3180    -8.8420 
  196.7500     2.5480    53.8420    17.4040    17.9890    17.3120    23.3600    -9.1040 
  196.8750     2.5540    54.6270    17.9110    18.3850    17.9230    23.3930    -9.3900 
  197.0000     2.5650    54.0540    18.3100    18.7830    18.6360    23.4300    -9.6790 
  197.1250     2.5740    52.5020    18.6550    19.2520    18.0020    23.4490    -9.9450 
  197.2500     2.5790    51.5510    19.0140    19.7870    18.0110    23.4670   -10.1700 
  197.3750     2.5820    51.4550    19.3800    20.3180    18.0510    23.4810   -10.4270 
  197.5000     2.5890    52.0120    19.7080    20.7290    18.7930    23.4600   -10.7540 
  197.6250     2.5980    53.4440    19.9430    20.8570    19.2430    23.3760   -11.0690 
  197.7500     2.6040    54.6350    20.0720    20.7020    19.0380    23.3380   -11.3450 
  197.8750     2.5980    54.9710    20.0990    20.3320    18.1700    23.3620   -11.5560 
  198.0000     2.5790    54.0200    20.0660    19.8980    17.4220    23.3620   -11.6660 
  198.1250     2.5510    52.3780    20.0490    19.6180    17.1630    23.3860   -11.7620 
  198.2500     2.5260    51.3240    20.1070    19.5950    18.2470    23.4690   -11.8360 
  198.3750     2.5080    51.1450    20.2510    19.8250    19.8080    23.4260   -11.8340 
  198.5000     2.5000    50.9050    20.4490    20.1990    21.1700    23.0660   -11.5650 
  198.6250     2.4970    49.8120    20.6100    20.5190    23.3180    22.5830   -10.9900 
  198.7500     2.4930    48.7060    20.6350    20.6440    24.7820    22.2950   -10.1260 
  198.8750     2.4820    47.3280    20.4600    20.5440    23.1880    22.3140    -9.2380 
  199.0000     2.4690    46.8790    20.0960    20.2870    20.8850    22.5350    -8.4030 
  199.1250     2.4590    49.1000    19.6510    19.9900    19.5710    22.8110    -7.5530 
  199.2500     2.4550    51.0180    19.2760    19.7340    19.7630    22.9840    -6.7470 
  199.3750     2.4570    49.8300    19.0040    19.5040    20.3250    23.1180    -5.9590 
  199.5000     2.4580    48.6960    18.7400    19.2250    20.3660    23.2630    -5.3600 
  199.6250     2.4530    51.9090    18.2270    18.7530    18.7890    23.3830    -4.9970 
  199.7500     2.4440    56.2870    17.3380    18.0350    16.2690    23.3570    -4.8640 
  199.8750     2.4300    57.4890    16.1170    17.0690    14.6230    23.2340    -4.7770 
  200.0000     2.4140    54.7380    14.7500    15.9270    14.0940    23.0850    -4.7190 
  200.1250     2.3950    50.9200    13.4760    14.7320    13.4890    22.9330    -4.6630 
  200.2500     2.3790    48.3180    12.3940    13.6040    11.8980    22.7580    -4.5750 
  200.3750     2.3710    47.3820    11.5040    12.5960    10.2560    22.4760    -4.4910 
  200.5000     2.3740    46.7390    10.7670    11.7280     9.7230    21.9620    -4.3730 
  200.6250     2.3850    46.1570    10.1760    11.0380     9.2610    21.0880    -4.2620 
  200.7500     2.3940    47.0660     9.7170    10.5210     8.1460    20.4490    -4.1790 
  200.8750     2.3980    49.4910     9.3990    10.1890     7.6540    19.9930    -4.0810 
  201.0000     2.3970    52.2770     9.2050    10.0210     7.8210    19.5520    -3.9650 
  201.1250     2.3970    53.0020     9.0930     9.9490     8.1600    19.1760    -3.8530 
  201.2500     2.4010    51.0100     8.9890     9.8550     7.9880    19.0830    -3.7570 
  201.3750     2.4080    48.0940     8.8570     9.6900     7.7390    19.3290    -3.7090 
  201.5000     2.4170    47.3950     8.7030     9.4730     7.3470    19.8650    -3.7010 
  201.6250     2.4260    49.7700     8.5890     9.3060     7.3340    20.6470    -3.7450 
  201.7500     2.4320    52.0700     8.5770     9.2920     7.5270    21.5530    -3.6910 
  201.8750     2.4330    52.5690     8.6940     9.4970     8.1020    22.3920    -3.6290 
  202.0000     2.4280    52.3200     8.9430     9.9350     8.9640    23.0090    -3.5500 
  202.1250     2.4170    52.1830     9.3680    10.5900     9.5320    23.3320    -3.5040 
  202.2500     2.4050    51.5630     9.9740    11.3360    10.7230    23.4180    -3.4460 
  202.3750     2.3950    51.0430    10.7250    12.0530    12.5360    23.3390    -3.4160 
  202.5000     2.3940    51.5280    11.4900    12.6080    13.8100    23.0910    -3.4180 
  202.6250     2.4070    52.8770    12.0030    12.8410    13.3950    22.7810    -3.3680 
  202.7500     2.4300    53.8590    12.1380    12.7860    11.9960    22.5690    -3.4300 
  202.8750     2.4590    55.2000    11.9190    12.5340    10.4480    22.4670    -3.5410 
  203.0000     2.4860    57.0290    11.5180    12.2390     9.4460    22.4390    -3.6880 
  203.1250     2.5020    57.9160    11.2240    12.0980     9.6920    22.4500    -3.8550 
  203.2500     2.5070    56.0040    11.2280    12.1880    10.8830    22.4430    -4.0650 
  203.3750     2.5060    52.9840    11.5880    12.5030    12.3760    22.4260    -4.2480 
  203.5000     2.5060    52.0140    12.2420    12.9550    13.9620    22.4440    -4.3860 
  203.6250     2.5150    52.7920    13.0030    13.3950    14.4830    22.6420    -4.5130 
  203.7500     2.5340    53.3140    13.6090    13.7000    14.1660    22.8940    -4.6340 
  203.8750     2.5590    54.8990    13.9450    13.8350    14.1890    23.1260    -4.7370 
  204.0000     2.5870    56.9850    14.0600    13.8440    14.3720    23.3500    -4.8200 
  204.1250     2.6090    56.0760    14.1680    13.8320    14.3060    23.6220    -4.8480 
  204.2500     2.6200    53.5060    14.4760    13.9200    15.0340    23.8490    -4.8580 
  204.3750     2.6170    53.6220    15.0240    14.1880    16.0940    24.0290    -4.8340 
  204.5000     2.6020    56.8640    15.6940    14.6580    17.4540    24.1050    -4.8260 
  204.6250     2.5820    58.3730    16.2500    15.2820    18.5520    24.1260    -4.8590 
  204.7500     2.5650    56.7930    16.5790    15.8770    19.8260    24.1120    -4.8800 
  204.8750     2.5520    54.0460    16.7070    16.2860    18.8510    24.0650    -4.8810 
  205.0000     2.5400    53.5460    16.7220    16.4190    17.4130    24.0360    -4.8450 
  205.1250     2.5280    56.2710    16.6480    16.2660    16.3520    24.0540    -4.8940 
  205.2500     2.5180    58.7030    16.4410    15.9980    16.3250    24.0780    -4.9240 
  205.3750     2.5150    59.8050    16.0590    15.7320    15.7270    24.0610    -5.0050 
  205.5000     2.5210    60.6270    15.5520    15.5400    15.2510    23.9860    -5.0900 
  205.6250     2.5340    62.5340    15.0960    15.4560    15.2030    23.8220    -5.2110 
  205.7500     2.5460    64.2990    14.8480    15.4480    15.3400    23.6520    -5.3640 
  205.8750     2.5500    66.1210    14.8620    15.5060    15.2390    23.5320    -5.5350 
  206.0000     2.5450    68.2450    15.1010    15.6350    15.0960    23.5230    -5.7440 
  206.1250     2.5330    69.4810    15.4580    15.8500    15.6950    23.6190    -5.8950 
  206.2500     2.5190    71.8960    15.7550    16.0960    16.9770    23.8580    -6.0800 
  206.3750     2.5020    75.6050    15.8650    16.2690    17.9100    24.1020    -6.2560 
  206.5000     2.4800    78.9330    15.6680    16.2230    18.9980    24.2300    -6.4540 
  206.6250     2.4560    81.3110    15.1700    15.7900    17.9330    24.2240    -6.6670 
  206.7500     2.4340    84.5880    14.6790    15.0570    15.7200    24.2300    -6.8910 
  206.8750     2.4180    88.5780    14.2900    14.1800    12.6980    24.2490    -7.1730 
  207.0000     2.4090    89.2150    13.8870    13.3550    11.5560    24.2580    -7.4980 
  207.1250     2.4040    85.7430    13.4070    12.7710    12.0440    24.3440    -7.8960 
  207.2500     2.3970    83.2840    13.0380    12.4350    12.9250    24.5250    -8.3210 
  207.3750     2.3840    84.1760    12.9020    12.3110    13.4980    24.7370    -8.7950 
