~V
VERS. 2.00: Ver 2.00
~W
STRT.M 51.0000:
STOP.M 313.0000:
STEP.M 0.1250:
NULL. -999.2500:
UWI. F10047:
~C
DEPT.M :
SP.MV :
GR.API :
RML.OHMM :
RI. :
RXO.OHMM :
CALI.CM :
DEN.GM/CC :
~A
# ...
  264.7500     4.4050    96.3830     6.2250     5.7210     5.4940    24.9630     2.3630 
  264.8750     4.4790    94.2160     6.0860     5.5740     5.3650    24.8970     2.3590 
  265.0000     4.5150    93.4270     5.8680     5.4010     5.3850    24.8470     2.3530 
  265.1250     4.5000    95.6210     5.6530     5.2640     5.4460    24.8190     2.3510 
  265.2500     4.4300    97.5140     5.6030     5.2620     5.5350    24.7930     2.3610 
  265.3750     4.2690    97.0050     5.8540     5.4850     5.7860    24.7690     2.3880 
  265.5000     4.0260    93.4560     6.4900     5.9980     6.5340    24.7520     2.4290 
  265.6250     3.7380    87.6720     9.1960     6.8890     8.8540    24.7420     2.4650 
  265.7500     3.4190    83.3970    10.7030     8.0720    12.9280    24.7970     2.4750 
  265.8750     3.1010    81.6760    12.3220     9.4330    15.7170    25.0120     2.4490 
  266.0000     2.7790    80.2960    13.8870    10.8380    13.4200    25.3100     2.3930 
  266.1250     2.4620    76.6890    15.3920    12.2160    14.0620    25.4950     2.3270 
  266.2500     2.1340    73.2240    17.0020    13.6340    15.9800    25.5530     2.2730 
  266.3750     1.8060    71.9310    18.8580    15.1920    18.2590    25.5610     2.2370 
  266.5000     1.4830    71.7870    20.9840    16.9450    22.0150    25.5500     2.2170 
  266.6250     1.1090    71.0420    23.1760    18.7960    26.5690    25.4990     2.2060 
  266.7500     0.7580    70.6360    25.0470    20.4650    25.9850    25.3980     2.1970 
  266.8750     0.4720    70.6640    26.4220    21.7880    24.7920    25.2700     2.1870 
  267.0000     0.1590    70.8010    27.4470    22.8300    26.3080    25.1260     2.1740 
  267.1250    -0.1290    72.5500    28.5480    23.8860    26.4060    24.9850     2.1660 
  267.2500    -0.3600    75.5560    30.0950    25.2770    26.0670    24.9210     2.1750 
  267.3750    -0.5950    76.5260    32.2140    27.1710    27.0060    24.9150     2.2070 
  267.5000    -0.8080    74.0210    34.7600    29.5350    30.3890    24.9680     2.2560 
  267.6250    -0.9370    69.2250    37.2770    32.0700    35.5790    25.1390     2.3000 
  267.7500    -1.0520    64.2640    39.2730    34.2980    37.5760    25.3560     2.3180 
  267.8750    -1.1880    63.5130    40.4810    35.8930    37.0670    25.5060     2.3060 
  268.0000    -1.2750    68.3590    40.8120    36.6830    36.4870    25.5590     2.2740 
  268.1250    -1.4420    74.0920    40.1800    36.5100    36.6620    25.5620     2.2470 
  268.2500    -1.6780    76.5660    38.8900    35.6370    36.9380    25.5620     2.2380 
  268.3750    -1.9310    76.7480    37.1840    34.2830    37.4060    25.5620     2.2460 
  268.5000    -2.2360    77.1620    35.3990    32.7630    35.7090    25.5620     2.2640 
  268.6250    -2.5930    78.3920    34.1120    31.5840    31.6730    25.5620     2.2820 
  268.7500    -2.9990    78.9970    33.8150    31.2040    28.4370    25.5620     2.2950 
  268.8750    -3.4840    77.1340    35.0110    32.0850    29.8260    25.5620     2.3000 
  269.0000    -4.0380    72.9330    38.1940    34.7310    35.2610    25.5620     2.2930 
  269.1250    -4.6230    71.2230    44.4500    40.3100    44.3110    25.5620     2.2730 
  269.2500    -5.2570    71.2070    54.1520    49.3880    54.2550    25.5620     2.2490 
  269.3750    -5.9250    68.9120    68.2000    63.0140    68.9190    25.5620     2.2290 
  269.5000    -6.6080    63.9330    87.6610    82.2860    86.8800    25.5620     2.2190 
  269.6250    -7.3070    60.6380   114.5450   108.8210   120.8240    25.5620     2.2200 
  269.7500    -7.9430    59.4000   146.9970   140.0660   147.9350    25.5620     2.2240 
  269.8750    -8.5300    57.4560   180.7920   171.6790   161.6210    25.5590     2.2270 
  270.0000    -9.0970    56.0600   208.3990   197.2450   162.7330    25.5470     2.2290 
  270.1250    -9.5120    57.7110   220.9560   209.5030   163.2770    25.5190     2.2340 
  270.2500    -9.8630    61.0810   221.6200   210.8760   163.1400    25.4880     2.2390 
  270.3750   -10.2150    62.4420   216.0410   205.9420   163.6280    25.4520     2.2430 
  270.5000   -10.4810    61.7640   209.2370   199.3980   164.8440    25.3930     2.2400 
  270.6250   -10.6710    63.0260   203.8930   194.2260   172.4420    25.3320     2.2320 
  270.7500   -10.8880    64.1890   200.2110   190.9050   167.1240    25.2610     2.2240 
  270.8750   -11.0760    62.7760   198.0590   189.3590   154.3210    25.2100     2.2180 
  271.0000   -11.1950    60.0780   197.3520   189.4390   149.2980    25.1930     2.2170 
  271.1250   -11.3720    59.1160   198.3090   191.2050   149.9990    25.2050     2.2170 
  271.2500   -11.4750    58.2820   200.5830   194.1590   155.4430    25.2290     2.2180 
  271.3750   -11.5290    56.1320   203.7960   197.8890   163.2750    25.2520     2.2150 
  271.5000   -11.6570    54.7740   207.2740   201.7540   175.2740    25.2630     2.2090 
  271.6250   -11.8200    55.7640   210.2450   204.9880   184.8980    25.2680     2.2000 
  271.7500   -11.9860    57.1820   212.6800   207.5580   183.8030    25.3050     2.1910 
  271.8750   -12.1480    58.5080   214.9970   209.8670   178.8950    25.3900     2.1850 
  272.0000   -12.2770    59.0150   217.6680   212.4140   177.5890    25.4590     2.1820 
  272.1250   -12.4020    57.5920   220.9240   215.5440   182.4510    25.4830     2.1860 
  272.2500   -12.5030    55.3900   223.7960   218.5330   188.1050    25.4830     2.1950 
  272.3750   -12.5040    54.2210   223.8610   219.3460   184.3980    25.4820     2.2090 
  272.5000   -12.4370    54.7070   217.9230   215.1030   175.0340    25.4830     2.2230 
  272.6250   -12.2680    55.3580   203.4870   203.0290   170.6580    25.4840     2.2350 
  272.7500   -11.9590    56.2210   184.5780   186.0780   172.6380    25.4850     2.2440 
  272.8750   -11.6420    57.4370   165.3070   167.8760   159.3630    25.4850     2.2510 
  273.0000   -11.3990    58.3850   148.7870   151.6970   130.0320    25.4850     2.2600 
  273.1250   -11.0290    59.0240   137.1190   140.0360   107.6480    25.4850     2.2700 
  273.2500   -10.7010    58.8470   129.3630   132.2430   113.0400    25.4850     2.2770 
  273.3750   -10.5330    58.0920   124.5790   127.4170   122.3870    25.4850     2.2780 
  273.5000   -10.4100    57.1720   121.6540   124.4660   122.4620    25.4870     2.2720 
  273.6250   -10.3030    57.5310   119.3290   122.1650   115.7680    25.4910     2.2630 
  273.7500   -10.2590    59.1440   116.4050   119.2800   111.9020    25.4930     2.2540 
  273.8750   -10.2520    60.4690   112.6060   115.4680   109.4830    25.4930     2.2460 
  274.0000   -10.2010    61.0220   108.3970   111.1610   104.2910    25.4930     2.2430 
  274.1250   -10.1720    60.7820   104.9270   107.5050    95.0090    25.4950     2.2460 
  274.2500   -10.2150    60.4320   103.3020   105.6350    86.6720    25.4970     2.2530 
  274.3750   -10.1750    59.8290   104.6260   106.6810    85.8930    25.5000     2.2590 
  274.5000   -10.0580    59.8090   109.8710   111.6780    96.1380    25.5010     2.2640 
  274.6250   -10.0360    62.6820   120.1430   121.7990   107.5820    25.4990     2.2690 
  274.7500   -10.0030    66.3260   133.1790   134.7610   122.4420    25.4970     2.2760 
  274.8750    -9.9090    67.2290   144.7890   146.5090   142.7930    25.4970     2.2840 
  275.0000    -9.8440    65.5490   148.7890   151.3160   181.3590    25.4960     2.2920 
  275.1250    -9.7630    65.1140   138.8080   143.0490   193.7740    25.4770     2.2970 
  275.2500    -9.6300    65.3310   119.9310   125.6170   157.3050    25.4470     2.2980 
  275.3750    -9.4760    66.2040    98.7770   104.8360    99.8640    25.4190     2.2980 
  275.5000    -9.2510    68.0300    80.4680    85.9830    62.9810    25.4080     2.2960 
  275.6250    -9.0170    69.2770    67.8190    72.4820    55.0460    25.4080     2.2930 
  275.7500    -8.8410    70.2420    59.5790    63.5070    50.2300    25.4070     2.2890 
  275.8750    -8.6450    71.4470    54.7850    58.1760    46.3150    25.3890     2.2870 
