~V
VERS. 2.00: Ver 2.00
~W
STRT.M 50.0000:
STOP.M 221.0000:
STEP.M 0.1250:
NULL. -999.2500:
UWI. F10024:
~C
DEPT.M :
GR.API :
RML.OHMM :
RI. :
RXO.OHMM :
CALI.CM :
DEN.GM/CC :
SP.MV :
~A
   50.0000    42.1410    20.9550     0.7860    13.1210    24.2310  -999.2500  -999.2500 
   50.1250    42.9450    16.5240 2026688.3750     8.0140    24.2400  -999.2500  -999.2500 
   50.2500    44.8590     4.6210 526134.0630 719411.8130    24.2450  -999.2500  -999.2500 
   50.3750    45.8320     1.3180  -999.2500 69794.1170    24.2310  -999.2500  -999.2500 
   50.5000    45.5730     0.8530     0.4630     0.6650    24.1610  -999.2500  -999.2500 
   50.6250    44.8000     0.8400     0.4610     0.5770    24.0710  -999.2500  -999.2500 
   50.7500    44.0850     0.8260     0.4590     0.6040    24.0840  -999.2500  -999.2500 
   50.8750    43.1240     0.8190     0.4560     0.5710    24.2860  -999.2500  -999.2500 
   51.0000    41.8710     0.8110     0.4530     0.5640    24.6500  -999.2500  -999.2500 
   51.1250    42.1260     0.8000     0.4510     0.5570    24.9250  -999.2500  -999.2500 
   51.2500    44.6470     0.7810     0.4480     0.5430    25.0170  -999.2500  -999.2500 
   51.3750    47.6670     0.7560     0.4430     0.5290    24.8930  -999.2500  -999.2500 
   51.5000    48.8080     0.7350     0.4380     0.5190    24.6690     0.0000  -999.2500 
   51.6250    47.7500     0.7310     0.4320     0.5150    24.5680     0.0000  -999.2500 
   51.7500    48.5030     0.7370     0.4270     0.5130    24.6970     0.0000  -999.2500 
   51.8750    51.8800     0.7420     0.4240     0.5150    24.9390     1.6330  -999.2500 
   52.0000    55.4840     0.7350     0.4240     0.5200    25.1170     2.1550  -999.2500 
   52.1250    56.1010     0.7150     0.4240     0.5270    25.0850     2.1360  -999.2500 
   52.2500    52.9920     0.7060     0.4240     0.5340    24.8520     2.1510  -999.2500 
   52.3750    47.2970     0.7040     0.4240     0.5410    24.4980     2.2140  -999.2500 
   52.5000    41.9340     0.7050     0.4250     0.5480    24.2390     2.3250  -999.2500 
   52.6250    39.1050     0.7060     0.4290     0.5550    24.0910     2.4560  -999.2500 
   52.7500    38.9820     0.7100     0.4360     0.5630    24.0400     2.5620  -999.2500 
   52.8750    41.0150     0.7140     0.4460     0.5720    24.0550     2.6190  -999.2500 
   53.0000    44.8310     0.7220     0.4570     0.5840    24.0690     2.6250  -999.2500 
   53.1250    49.0720     0.7330     0.4670     0.6040    24.0630     2.5960  -999.2500 
   53.2500    51.4070     0.7440     0.4790     0.6320    24.0210     2.5610  -999.2500 
   53.3750    51.4730     0.7480     0.4910     0.6720    23.9910     2.5310  -999.2500 
   53.5000    49.7480     0.7490     0.5040     0.7110    23.9740     2.5090  -999.2500 
   53.6250    48.2380     0.7470     0.5160     0.7080    23.9560     2.4920  -999.2500 
   53.7500    49.6660     0.7310     0.5290     0.6630    23.9320     2.4790  -999.2500 
   53.8750    53.7540     0.6960     0.5430     0.6100    23.9240     2.4700  -999.2500 
   54.0000    59.4160     0.6690     0.5590     0.5840    23.9290     2.4650  -999.2500 
   54.1250    64.6590     0.6560     0.5780     0.5830    23.9180     2.4590  -999.2500 
   54.2500    69.3310     0.6490     0.6000     0.5830    23.8570     2.4490  -999.2500 
   54.3750    72.4280     0.6510     0.6220     0.5630    23.7780     2.4370  -999.2500 
   54.5000    72.2220     0.6670     0.6350     0.5290    23.7220     2.4250  -999.2500 
   54.6250    70.2630     0.6880     0.6090     0.5030    23.6860     2.4210  -999.2500 
   54.7500    68.6290     0.6520     0.5490     0.4960    23.6740     2.4260     0.0000 
   54.8750    68.1970     0.6010     0.4880     0.5000    23.6740     2.4400     0.0000 
   55.0000    67.0760     0.5770     0.4570     0.5030    23.6840     2.4550    47.6440 
   55.1250    65.4600     0.5770     0.4570     0.5060    23.6830     2.4550    49.0600 
   55.2500    66.9770     0.5790     0.4590     0.5080    23.6630     2.4330    50.2410 
   55.3750    71.1760     0.5830     0.4590     0.5100    23.6080     2.3900    50.9830 
   55.5000    74.1230     0.5880     0.4600     0.5140    23.5200     2.3370    47.6440 
   55.6250    72.2470     0.5930     0.4610     0.5230    23.5730     2.2920    46.3230 
   55.7500    68.2450     0.5940     0.4620     0.5320    23.7280     2.2630    45.1960 
   55.8750    64.0050     0.5950     0.4640     0.5390    23.8620     2.2420    44.1390 
   56.0000    61.0400     0.5960     0.4650     0.5420    23.9600     2.2110    42.9630 
   56.1250    59.3310     0.6000     0.4630     0.5410    24.1920     2.1510    41.5760 
   56.2500    56.5160     0.6090     0.4580     0.5440    24.5840     2.0650    40.0850 
   56.3750    52.0500     0.6210     0.4520     0.5630    24.8830     1.9740    38.5800 
   56.5000    46.9230     0.6330     0.4560     0.5980    24.9910     1.9060    37.1700 
   56.6250    44.2570     0.6460     0.4750     0.6150    24.9900     1.8880    35.9860 
   56.7500    44.5860     0.6600     0.5000     0.5910    24.9810     1.9140    35.0310 
   56.8750    46.9410     0.6730     0.5190     0.5460    24.9630     1.9650    34.3280 
   57.0000    48.7020     0.6840     0.5270     0.5140    24.9560     2.0190    33.9230 
   57.1250    48.0120     0.6960     0.5230     0.5090    24.9740     2.0590    33.8810 
   57.2500    47.1280     0.7100     0.5150     0.5160    24.9870     2.0870    34.1640 
   57.3750    46.4470     0.7240     0.5100     0.5240    24.9760     2.1120    34.7230 
   57.5000    46.6910     0.7400     0.5130     0.5340    24.9160     2.1460    35.4550 
   57.6250    47.4870     0.7540     0.5200     0.5450    24.7760     2.1920    36.2270 
   57.7500    47.3550     0.7580     0.5300     0.5570    24.6690     2.2410    37.0060 
   57.8750    46.7710     0.7550     0.5420     0.5740    24.6650     2.2830    37.8070 
   58.0000    47.0620     0.7480     0.5540     0.5860    24.7150     2.3090    38.6410 
   58.1250    47.0260     0.7480     0.5630     0.5950    24.6970     2.3140    39.5540 
   58.2500    45.3910     0.7530     0.5640     0.6250    24.5540     2.3070    40.4880 
   58.3750    44.6340     0.7640     0.5460     0.6560    24.2870     2.2970    41.4080 
   58.5000    46.6340     0.7730     0.5140     0.6320    23.9640     2.2920    42.2060 
   58.6250    49.7930     0.7780     0.4910     0.5600    23.7930     2.2980    42.8160 
   58.7500    50.5620     0.7700     0.4880     0.5240    23.8090     2.3110    43.2590 
   58.8750    49.6620     0.7550     0.4960     0.5440    23.9020     2.3250    43.5590 
   59.0000    49.6280     0.7390     0.5110     0.5730    23.9910     2.3290    43.6950 
   59.1250    51.6170     0.7460     0.5290     0.5850    24.0660     2.3080    43.5770 
   59.2500    53.5330     0.7720     0.5490     0.5990    24.1270     2.2660    43.1400 
   59.3750    53.8940     0.7970     0.5710     0.6220    24.2080     2.2140    42.2990 
   59.5000    53.5600     0.7940     0.5970     0.6490    24.3230     2.1710    41.0340 
   59.6250    53.4750     0.7880     0.6180     0.6450    24.5320     2.1590    39.4480 
   59.7500    51.9920     0.8000     0.6290     0.6090    24.7690     2.1750    37.8140 
   59.8750    48.1810     0.8300     0.6330     0.5800    24.9400     2.2090    36.2670 
   60.0000    43.3810     0.8550     0.6420     0.5930    25.0130     2.2460    34.9670 
   60.1250    39.9370     0.8930     0.6630     0.6290    25.0400     2.2710    34.0420 
   60.2500    38.9220     0.9560     0.5860     0.6050    25.0530     2.2840    33.5600 
   60.3750    41.0850     0.9990     0.3940     0.5580    25.0580     2.2880    33.5680 
   60.5000    45.6310     1.0070     0.2670     0.5090    25.0580     2.2940    33.9110 
   60.6250    48.7630     0.8280     0.2180     0.4770    25.0460     2.3240    34.1110 
   60.7500    49.7250     0.1300     0.2130     0.4700    24.9590     2.3840    33.7280 
   60.8750    51.6220    -0.4040     0.2360     0.4920    24.7270     2.4660    32.4250 
   61.0000    56.7520    -0.4780     0.2830     0.5610    24.3950     2.5390    29.9620 
   61.1250    65.7150    -0.1950     0.3720     1.5210    24.1080     2.5610    26.3240 
