~V
VERS. 2.00: Ver 2.00
~W
STRT.M 51.0000:
STOP.M 313.0000:
STEP.M 0.1250:
NULL. -999.2500:
UWI. F10047:
~C
DEPT.M :
SP.MV :
GR.API :
RML.OHMM :
RI. :
RXO.OHMM :
CALI.CM :
DEN.GM/CC :
~A
# ...
   84.7500    -4.3840    77.8170    10.9740     7.4430     7.6470    24.9320     2.2240 
   84.8750    -4.0340    78.0230    10.7410     7.4120     7.4590    24.9650     2.2420 
   85.0000    -3.6040    82.8160    10.0590     7.1000     6.3540    25.0580     2.2510 
   85.1250    -3.0820    90.3020     9.1960     6.6080     5.5030    25.2060     2.2490 
   85.2500    -2.4530    96.2430     8.4750     6.1250     5.2610    25.2090     2.2440 
   85.3750    -1.7950    98.9180     8.0170     5.7430     5.3500    25.0620     2.2390 
   85.5000    -1.1760    99.2150     7.8080     5.4880     5.3800    24.8820     2.2350 
   85.6250    -0.6970    99.6650     7.7610     5.3470     5.0940    24.8080     2.2330 
   85.7500    -0.4370   100.2240     7.7360     5.2530     4.8600    24.7930     2.2320 
   85.8750    -0.3500    98.6640     7.6820     5.1730     4.8640    24.7800     2.2350 
   86.0000    -0.3080    94.0930     7.5880     5.0920     5.0500    24.7420     2.2440 
   86.1250    -0.2780    89.2120     7.4690     5.0160     5.3150    24.6570     2.2540 
   86.2500    -0.3770    87.8000     7.3680     4.9610     5.3680    24.5670     2.2560 
   86.3750    -0.6240    89.8240     7.3730     4.9690     5.2550    24.4480     2.2450 
   86.5000    -0.9670    91.4070     7.6180     5.1030     5.1490    24.3000     2.2240 
   86.6250    -1.3300    89.3290     8.2870     5.4620     5.5690    24.1610     2.2090 
   86.7500    -1.6100    85.2150     9.2840     6.0170     6.7660    24.0500     2.2130 
   86.8750    -1.8730    82.5090    10.3870     6.6750     8.6520    24.0430     2.2290 
   87.0000    -2.1650    81.6650    11.2330     7.2540    10.1550    24.1260     2.2420 
   87.1250    -2.4760    80.4720    11.4050     7.5040     9.8200    24.1720     2.2310 
   87.2500    -2.7800    79.8050    11.0750     7.4520     8.0430    24.1680     2.2000 
   87.3750    -3.0010    80.8720    10.6030     7.2540     7.1080    24.1460     2.1640 
   87.5000    -3.1260    81.1650    10.3060     7.0760     7.1590    24.1360     2.1370 
   87.6250    -3.1560    78.9230    10.2990     7.0120     7.7660    24.1590     2.1290 
   87.7500    -3.1090    78.9670    10.3570     6.9990     8.6380    24.2220     2.1300 
   87.8750    -2.9760    83.2760    10.2480     6.9320     8.9040    24.3060     2.1340 
   88.0000    -2.8460    88.3560     9.8690     6.7340     7.2770    24.3660     2.1370 
   88.1250    -2.7650    89.8930     9.3250     6.4120     5.9790    24.4280     2.1380 
   88.2500    -2.5900    89.3470     8.8620     6.0850     5.4580    24.5400     2.1410 
   88.3750    -2.3210    87.3020     8.5830     5.8290     5.5050    24.7560     2.1450 
   88.5000    -2.0330    84.9540     8.4790     5.6750     5.5710    25.0000     2.1520 
   88.6250    -1.8140    88.1640     8.4770     5.6160     5.5240    25.1180     2.1610 
   88.7500    -1.7280    94.1260     8.4750     5.5960     5.5060    25.1490     2.1660 
   88.8750    -1.7360    96.1700     8.4340     5.5810     5.5790    25.1520     2.1660 
   89.0000    -1.7530    93.3880     8.3390     5.5490     5.7220    25.1520     2.1600 
   89.1250    -1.6950    90.9570     8.2080     5.5000     5.5430    25.1520     2.1500 
   89.2500    -1.6210    91.9050     8.1310     5.4750     5.7170    25.1520     2.1440 
   89.3750    -1.6780    92.6810     8.2200     5.5320     5.7940    25.1520     2.1450 
   89.5000    -1.9500    90.9810     8.5610     5.7220     5.5510    25.1350     2.1510 
   89.6250    -2.3490    87.5780     9.1690     6.0700     5.9280    25.0760     2.1600 
   89.7500    -2.6840    84.1450     9.8230     6.4760     7.4860    24.9870     2.1660 
   89.8750    -2.8990    82.2090    10.2760     6.8110     9.4500    24.9360     2.1670 
   90.0000    -3.0210    82.5750    10.3380     6.9520     9.4560    24.9480     2.1650 
   90.1250    -3.1180    85.9710     9.9480     6.8310     7.5170    25.0510     2.1630 
   90.2500    -3.2080    90.7020     9.3780     6.5720     6.2620    25.1700     2.1610 
   90.3750    -3.2250    95.4730     8.8580     6.2940     5.9290    25.2220     2.1630 
   90.5000    -3.0650    98.0680     8.5320     6.0870     5.8420    25.2290     2.1680 
   90.6250    -2.7360    95.9220     8.4520     5.9960     5.8600    25.2290     2.1800 
   90.7500    -2.3380    92.9320     8.5010     5.9790     5.6910    25.2290     2.1960 
   90.8750    -1.9270    94.7940     8.5870     5.9940     5.6940    25.2290     2.2090 
   91.0000    -1.5490   100.6130     8.6410     6.0010     5.6670    25.2290     2.2160 
   91.1250    -1.2280   101.4360     8.6040     5.9630     5.3960    25.2270     2.2140 
   91.2500    -0.9310    96.2980     8.4480     5.8620     5.3740    25.2260     2.2100 
   91.3750    -0.6020    92.2710     8.1290     5.6740     5.3290    25.2260     2.2070 
   91.5000    -0.2640    91.2230     7.6270     5.3890     4.9810    25.2280     2.2050 
   91.6250    -0.0110    92.5900     7.0130     5.0430     4.7000    25.2270     2.2050 
   91.7500     0.0380    95.5980     6.5040     4.7470     4.5820    25.2130     2.1990 
   91.8750    -0.1880    98.7510     6.3030     4.6070     4.5650    25.1690     2.1840 
   92.0000    -0.6700    97.9850     6.5670     4.7060     4.5620    25.0870     2.1580 
   92.1250    -1.3270    90.2100     7.4360     5.1500     4.9540    24.9420     2.1210 
   92.2500    -2.0440    81.3550     8.6940     5.8660     5.8840    24.8310     2.0870 
   92.3750    -2.7980    75.1170    10.0140     6.7170     6.8860    24.7900     2.0660 
   92.5000    -3.5430    71.8990    10.9340     7.4420     7.4270    24.7870     2.0660 
   92.6250    -4.1740    70.7410    10.9500     7.6820     7.5460    24.7900     2.0880 
   92.7500    -4.6230    71.6750    10.2770     7.4640     7.4530    24.7900     2.1160 
   92.8750    -4.8580    78.1230     9.3350     6.9970     6.9100    24.7880     2.1410 
   93.0000    -4.8840    87.3520     8.5490     6.5320     6.1370    24.7700     2.1560 
   93.1250    -4.7660    91.8440     8.2330     6.2750     6.0850    24.7180     2.1570 
   93.2500    -4.6120    89.6720     8.3210     6.2430     6.7020    24.6470     2.1500 
   93.3750    -4.4660    83.3810     8.6950     6.4010     7.2170    24.5760     2.1390 
   93.5000    -4.3670    78.8870     9.2090     6.6820     7.3090    24.4940     2.1270 
   93.6250    -4.4040    77.2140     9.7240     7.0080     7.0850    24.4080     2.1150 
   93.7500    -4.5460    73.9440    10.1660     7.3040     7.3400    24.3230     2.1070 
   93.8750    -4.6870    67.5740    10.5220     7.5410     7.7120    24.1490     2.1030 
   94.0000    -4.7410    61.9810    10.7900     7.7080     7.7590    23.8030     2.1050 
   94.1250    -4.6570    64.0620    10.8700     7.7570     7.5140    23.3310     2.1110 
   94.2500    -4.5400    68.9680    10.6330     7.6330     7.3420    23.1260     2.1190 
   94.3750    -4.4150    71.2040    10.0250     7.3090     7.1870    23.1040     2.1280 
   94.5000    -4.2350    70.4840     9.2470     6.8870     7.0560    23.1750     2.1430 
   94.6250    -3.9700    70.5020     8.8610     6.6490     6.7210    23.4400     2.1760 
   94.7500    -3.7110    73.8810     9.3130     6.8330     6.2370    23.9230     2.2270 
   94.8750    -3.5460    77.8500    10.8600     7.6100     6.5720    24.4790     2.2910 
   95.0000    -3.5490    77.5680    13.4900     9.0700     9.2770    24.7870     2.3490 
   95.1250    -3.7590    72.6980    16.6440    11.1040    20.0130    24.8120     2.3740 
   95.2500    -4.0180    68.3560    18.8400    12.8710    32.0720    24.6720     2.3620 
   95.3750    -4.3190    68.5240    18.8610    13.4550    27.0840    24.4350     2.3210 
   95.5000    -4.6970    72.5420    16.7280    12.5820    13.6890    24.2220     2.2690 
   95.6250    -5.1360    76.3460    13.9300    10.8950     9.3160    24.1340     2.2230 
   95.7500    -5.6140    76.0810    12.0140     9.3610     7.9500    24.0930     2.1880 
   95.8750    -6.0960    70.7310    10.6320     8.2970     7.6970    24.0690     2.1610 
