~V
VERS. 2.00: Ver 2.00
~W
STRT.M 56.0000:
STOP.M 268.0000:
STEP.M 0.1250:
NULL. -999.2500:
UWI. F10027:
~C
DEPT.M :
GR.API :
RML.OHMM :
RI. :
RXO.OHMM :
CALI.CM :
DEN.GM/CC :
SP.MV :
~A
# ...
  123.5000    88.2120     6.9910     6.2160     7.5090    24.2860     2.2380    -7.7580 
  123.6250    89.8360     7.1150     6.2890     7.6090    24.3210     2.2320    -7.8120 
  123.7500    89.7740     7.3850     6.4560     7.6180    24.3490     2.2340    -7.8340 
  123.8750    87.4780     7.7460     6.6930     7.4460    24.3590     2.2390    -7.8320 
  124.0000    86.6520     8.1070     6.9510     7.6210    24.3560     2.2420    -7.8310 
  124.1250    90.0610     8.3100     7.1330     8.8280    24.3440     2.2340    -7.8460 
  124.2500    93.4150     8.2790     7.1700    11.0230    24.3400     2.2180    -7.8550 
  124.3750    95.7500     8.0160     7.0390    12.0060    24.3600     2.2020    -7.8280 
  124.5000    97.5890     7.6160     6.7730     9.0890    24.3840     2.1990    -7.7760 
  124.6250    98.1010     7.2290     6.4520     7.3340    24.3920     2.2160    -7.7850 
  124.7500    97.7270     6.9680     6.1760     6.8840    24.3980     2.2420    -7.8920 
  124.8750    96.7870     6.8880     6.0110     7.0410    24.3840     2.2640    -8.0760 
  125.0000    93.8340     7.0140     5.9990     7.4050    24.3570     2.2740    -8.3250 
  125.1250    88.2620     7.3590     6.1860     7.4080    24.3570     2.2750    -8.6230 
  125.2500    85.2450     7.8180     6.5210     7.4030    24.3580     2.2780    -8.9720 
  125.3750    85.5490     8.2830     6.9330     7.9100    24.3290     2.2890    -9.4090 
  125.5000    84.7390     8.6310     7.3220     9.3850    24.2630     2.3010    -9.9300 
  125.6250    81.1990     8.7490     7.5650    11.2330    24.1270     2.3020   -10.4780 
  125.7500    78.1940     8.7200     7.6640    10.6050    23.9880     2.2890   -11.0140 
  125.8750    77.1290     8.7000     7.7020     9.2130    23.8640     2.2660   -11.5400 
  126.0000    76.1700     8.8630     7.8100     8.4000    23.7810     2.2430   -12.0610 
  126.1250    73.9960     9.3630     8.1550     8.7970    23.7280     2.2290   -12.5900 
  126.2500    70.8310    10.1040     8.7340     9.8760    23.7230     2.2200   -13.1290 
  126.3750    67.7160    10.9140     9.4570    11.3390    23.7560     2.2110   -13.6080 
  126.5000    66.4010    11.5610    10.1480    12.3820    23.7900     2.1980   -13.9460 
  126.6250    66.6840    11.7860    10.5490    12.5500    23.8360     2.1780   -14.1630 
  126.7500    66.4820    11.6050    10.5790    12.3810    23.9150     2.1570   -14.3000 
  126.8750    66.0180    11.1070    10.2550    12.1580    24.0250     2.1360   -14.3370 
  127.0000    67.6510    10.4290     9.6840    11.9080    24.1850     2.1170   -14.2640 
  127.1250    72.9320     9.7170     9.0080    11.8600    24.3650     2.1040   -14.0660 
  127.2500    78.1180     9.0920     8.3900    11.4650    24.2990     2.1040   -13.8000 
  127.3750    82.2450     8.6360     7.9270    10.6810    23.9410     2.1240   -13.5760 
  127.5000    84.6950     8.4060     7.6840     9.7830    23.6240     2.1600   -13.4640 
  127.6250    82.5820     8.4700     7.7280     9.2860    23.4840     2.1970   -13.3900 
  127.7500    77.0030     8.7640     7.9930     9.5120    23.4540     2.2170   -13.2780 
  127.8750    70.9620     9.2250     8.4230     9.9360    23.4790     2.2120   -13.1440 
  128.0000    65.9120     9.7610     8.9320    10.3210    23.6130     2.1870   -13.0070 
  128.1250    61.0240    10.2290     9.3890    10.6590    23.8330     2.1540   -12.8600 
  128.2500    57.4890    10.4900     9.6620    10.8340    24.0340     2.1270   -12.6280 
  128.3750    59.1320    10.4230     9.6410    11.0520    24.2140     2.1100   -12.1990 
  128.5000    65.6880     9.9570     9.2600    10.9190    24.3870     2.1050   -11.5480 
  128.6250    75.1980     9.0630     8.4920     9.6400    24.5540     2.1150   -10.8140 
  128.7500    85.5970     7.9520     7.5250     7.6350    24.6600     2.1350   -10.1350 
  128.8750    94.5360     6.8100     6.5230     6.1730    24.6920     2.1660    -9.5470 
  129.0000    99.7430     5.8300     5.6460     5.6690    24.6670     2.2030    -9.0450 
  129.1250   101.7690     5.2690     5.0840     5.5220    24.5930     2.2390    -8.6670 
  129.2500   102.5820     5.2150     4.8980     5.3400    24.4780     2.2720    -8.4590 
  129.3750    99.5070     5.7230     5.1370     5.3800    24.3250     2.3020    -8.4900 
  129.5000    90.1220     6.7560     5.8020     6.5410    24.1720     2.3370    -8.7950 
  129.6250    79.4680     8.1470     6.8340    10.3670    24.0650     2.3800    -9.2940 
  129.7500    73.9990     9.4550     7.9210    15.0220    23.9660     2.4140    -9.8390 
  129.8750    72.8740    10.3270     8.7720    13.3850    23.8630     2.4190   -10.3880 
  130.0000    73.6730    10.5980     9.1930    10.4600    23.8020     2.3820   -10.9560 
  130.1250    75.6710    10.3460     9.1570     9.7330    23.7820     2.3070   -11.5420 
  130.2500    75.6890     9.9670     8.9460    10.2010    23.7950     2.2290   -12.1060 
  130.3750    72.9590     9.6760     8.7400    10.7580    23.8630     2.1710   -12.5840 
  130.5000    71.7240     9.5430     8.6210    11.0330    24.0000     2.1460   -12.9150 
  130.6250    75.5090     9.5410     8.5930    10.8580    24.1360     2.1490   -13.1240 
  130.7500    77.5200     9.6030     8.6100    10.6710    24.1890     2.1610   -13.3180 
  130.8750    73.6000     9.7450     8.6750    10.7100    24.1120     2.1720   -13.5020 
  131.0000    67.5860    10.0100     8.8150    10.7380    23.9750     2.1750   -13.6230 
  131.1250    64.6620    10.4350     9.0800    11.1030    23.8820     2.1680   -13.6080 
  131.2500    64.3350    10.9330     9.4490    11.9490    23.8260     2.1560   -13.4610 
  131.3750    64.4140    11.4030     9.8750    12.6660    23.5820     2.1440   -13.2190 
  131.5000    64.9690    11.7520    10.2840    13.3140    23.2710     2.1370   -12.9210 
  131.6250    65.3530    11.9250    10.5910    13.6270    23.1730     2.1380   -12.5410 
  131.7500    65.4280    12.0020    10.7890    13.7220    23.3360     2.1450   -12.0240 
  131.8750    65.6270    12.0450    10.8920    13.6800    23.5320     2.1540   -11.3560 
  132.0000    66.1030    12.0540    10.8950    13.0830    23.6590     2.1660   -10.5590 
  132.1250    68.1820    11.8910    10.7120    12.6350    23.6840     2.1860    -9.7120 
  132.2500    72.3080    11.4270    10.2930    13.4770    23.6680     2.2160    -8.9230 
  132.3750    77.0490    10.6080     9.6200    14.0990    23.7190     2.2490    -8.2120 
  132.5000    81.2900     9.5290     8.7610    11.7280    23.8010     2.2760    -7.5560 
  132.6250    84.3080     8.4430     7.8630     9.0000    23.9260     2.2840    -6.9520 
  132.7500    86.6410     7.5870     7.0840     7.3580    24.0300     2.2800    -6.4480 
  132.8750    88.1730     7.0440     6.5000     6.9880    23.9770     2.2730    -6.1000 
  133.0000    87.4640     6.7740     6.1320     7.4060    23.8360     2.2690    -5.9140 
  133.1250    85.9920     6.6780     5.9790     7.3900    23.8650     2.2720    -5.8410 
  133.2500    87.7120     6.6400     5.9590     7.2060    24.1090     2.2760    -5.7770 
  133.3750    91.9910     6.6480     6.0360     6.9970    24.3270     2.2790    -5.7360 
  133.5000    94.7170     6.7310     6.1900     6.8790    24.4190     2.2840    -5.7740 
  133.6250    92.8410     6.9220     6.4190     7.1640    24.4200     2.2980    -5.8810 
  133.7500    90.1780     7.1740     6.6980     8.3670    24.4010     2.3200    -5.9750 
  133.8750    87.7040     7.4440     7.0040     9.8340    24.3630     2.3460    -6.0560 
  134.0000    84.2920     7.7030     7.3090     9.6630    24.3130     2.3670    -6.1650 
  134.1250    81.9330     7.9270     7.5780     8.5810    24.2550     2.3670    -6.2820 
  134.2500    82.2240     8.0880     7.7770     8.2250    24.1840     2.3430    -6.3630 
  134.3750    84.4080     8.1230     7.8630     8.5390    24.1360     2.3000    -6.3660 
  134.5000    87.7790     7.9750     7.7960     8.9800    24.1550     2.2530    -6.2620 
  134.6250    91.6280     7.6100     7.5420     8.8940    24.2290     2.2240    -6.1110 
