~V
VERS. 2.00: Ver 2.00
~W
STRT.M 50.0000:
STOP.M 221.0000:
STEP.M 0.1250:
NULL. -999.2500:
UWI. F10024:
~C
DEPT.M :
GR.API :
RML.OHMM :
RI. :
RXO.OHMM :
CALI.CM :
DEN.GM/CC :
SP.MV :
~A
# ...
  162.5000    67.0880    16.0650    15.9190    17.9310    24.0890     2.4480    -6.1220 
  162.6250    70.0710    13.2630    13.1310    13.2830    24.1120     2.4330    -6.1320 
  162.7500    76.2380    11.4920    11.1970    10.3160    24.1140     2.4110    -6.1310 
  162.8750    80.1880    10.8610    10.2300     9.2630    24.0830     2.3880    -6.1160 
  163.0000    78.0270    11.3010    10.2230    10.0840    23.9990     2.3710    -6.0550 
  163.1250    75.0530    12.6710    11.1960    12.4410    23.9390     2.3700    -5.9690 
  163.2500    75.8900    14.3160    12.6790    14.5060    23.9190     2.3820    -5.8840 
  163.3750    78.2140    15.6240    14.1610    16.2910    23.9250     2.3980    -5.8030 
  163.5000    78.4100    16.1050    15.1050    16.9720    23.9220     2.4070    -5.7070 
  163.6250    79.6940    15.6130    15.2000    16.4900    23.9640     2.3990    -5.6010 
  163.7500    82.8050    14.8020    14.8980    14.5160    24.0580     2.3770    -5.5050 
  163.8750    84.6370    14.1880    14.5950    13.0820    24.1150     2.3490    -5.4140 
  164.0000    85.3540    14.0650    14.5250    12.9110    24.1040     2.3190    -5.3410 
  164.1250    84.5770    14.5080    14.7560    15.8660    24.0520     2.2950    -5.3050 
  164.2500    81.9740    15.1820    15.1010    18.0420    23.9780     2.2800    -5.2430 
  164.3750    78.8340    15.7730    15.3570    18.7610    23.9280     2.2720    -5.1940 
  164.5000    77.6930    16.0350    15.3650    18.3480    23.9280     2.2690    -5.1700 
  164.6250    78.8520    15.9050    15.1270    17.0720    23.9840     2.2650    -5.1420 
  164.7500    78.6890    15.6730    14.8910    16.0980    24.0510     2.2640    -5.1640 
  164.8750    78.5700    15.5760    14.8450    16.6490    24.0920     2.2710    -5.1760 
  165.0000    79.0990    15.7300    15.0680    17.6270    24.1020     2.2850    -5.2000 
  165.1250    78.2810    16.1550    15.5500    17.9660    24.0810     2.2950    -5.2630 
  165.2500    75.5060    16.7870    16.1840    18.2140    24.0720     2.2920    -5.3440 
  165.3750    73.0710    17.6700    16.9840    18.8030    24.1040     2.2770    -5.4570 
  165.5000    71.6060    18.8040    17.9610    19.3610    24.1360     2.2650    -5.5660 
  165.6250    70.7060    20.0260    19.0080    20.7370    24.1470     2.2730    -5.6780 
  165.7500    70.4260    21.0530    19.9120    23.9910    24.1450     2.2990    -5.8040 
  165.8750    69.6740    21.7320    20.5460    31.4930    24.1380     2.3350    -5.9310 
  166.0000    67.5890    22.1220    20.9290    35.6550    24.1270     2.3690    -6.0670 
  166.1250    66.2600    22.6330    21.3270    27.3990    24.1270     2.3940    -6.1720 
  166.2500    66.3310    23.7370    22.1410    22.4770    24.0970     2.4070    -6.3170 
  166.3750    65.5970    25.6390    23.6240    27.0440    24.0580     2.4050    -6.4580 
  166.5000    62.5330    28.2170    25.8190    34.2750    24.0630     2.3840    -6.5920 
  166.6250    60.3660    31.0290    28.5520    38.5350    24.0490     2.3490    -6.7430 
  166.7500    60.8630    33.4160    31.2150    40.1110    23.9760     2.3160    -6.8600 
  166.8750    62.4580    34.9710    33.2720    38.9460    23.8980     2.2980    -6.9820 
  167.0000    63.4030    35.6780    34.4830    38.7310    23.8210     2.2970    -7.0920 
  167.1250    63.0390    35.8120    34.9220    39.0540    23.7310     2.3040    -7.1850 
  167.2500    62.0410    35.7720    34.9700    40.3720    23.7210     2.3030    -7.2420 
  167.3750    61.2610    35.6470    34.7410    40.5120    23.7340     2.2890    -7.2660 
  167.5000    62.0700    35.4510    34.3160    40.6320    23.7480     2.2640    -7.2810 
  167.6250    64.0890    35.1840    33.8030    37.3960    23.7360     2.2400    -7.2970 
  167.7500    64.5670    34.8650    33.3220    34.9400    23.7750     2.2230    -7.3060 
  167.8750    63.4330    34.4360    32.8800    36.5330    23.8170     2.2150    -7.3150 
  168.0000    63.6750    33.7890    32.3990    37.2990    23.8460     2.2130    -7.3180 
  168.1250    66.6760    32.8110    31.7500    35.6020    23.8320     2.2170    -7.2980 
  168.2500    69.5350    31.5830    30.9050    33.5270    23.7480     2.2220    -7.2810 
  168.3750    70.5730    30.1890    29.8590    32.6540    23.6180     2.2260    -7.2600 
  168.5000    70.2990    28.7620    28.6600    30.7650    23.5250     2.2280    -7.2270 
  168.6250    70.8580    27.5250    27.4600    29.2650    23.5380     2.2270    -7.1460 
  168.7500    71.2010    26.6100    26.4440    28.1890    23.5850     2.2250    -7.0740 
  168.8750    70.5660    26.1190    25.7710    27.5550    23.5970     2.2250    -6.9890 
  169.0000    68.3850    26.1620    25.6010    27.0270    23.5780     2.2250    -6.9030 
  169.1250    66.3260    26.9600    26.1870    28.2020    23.5740     2.2230    -6.8370 
  169.2500    65.9130    28.3930    27.4260    31.4720    23.6200     2.2170    -6.7600 
  169.3750    66.5590    30.2960    29.1570    34.0400    23.6550     2.2090    -6.7230 
  169.5000    67.6250    32.3560    31.1000    34.6140    23.6590     2.2010    -6.7080 
  169.6250    69.5110    34.0360    32.8260    36.8490    23.6600     2.1960    -6.7110 
  169.7500    70.0050    34.9750    34.0120    40.1430    23.6640     2.1930    -6.7320 
  169.8750    67.5920    35.0960    34.5480    40.2140    23.6650     2.1910    -6.7860 
  170.0000    63.5150    34.6280    34.5450    37.6240    23.6910     2.1910    -6.8660 
  170.1250    62.4920    34.0170    34.2560    35.8940    23.7560     2.1910    -6.9780 
  170.2500    64.4090    33.6860    34.0230    35.1630    23.7870     2.1910    -7.1080 
  170.3750    65.6520    33.7860    33.9960    35.7250    23.7900     2.1880    -7.2370 
  170.5000    65.6540    34.2160    34.1420    37.0590    23.8390     2.1870    -7.3850 
  170.6250    64.4870    34.6040    34.1810    39.0230    23.8710     2.1910    -7.5680 
  170.7500    63.8320    34.5770    33.8550    39.7840    23.8430     2.2010    -7.7030 
  170.8750    65.6140    34.0190    33.1300    39.1790    23.7470     2.2130    -7.8000 
  171.0000    69.2720    33.0790    32.1890    36.2920    23.6670     2.2230    -7.8610 
  171.1250    70.7200    32.1060    31.3490    34.2550    23.6400     2.2250    -7.8800 
  171.2500    68.6190    31.4340    30.8110    33.3700    23.6370     2.2210    -7.8670 
  171.3750    65.5990    31.2010    30.6500    33.7190    23.6330     2.2150    -7.8230 
  171.5000    64.2340    31.5410    30.8440    34.7160    23.6200     2.2070    -7.7390 
  171.6250    65.0550    32.0310    31.3190    35.0610    23.5990     2.1980    -7.6200 
  171.7500    66.7650    32.4140    31.8900    34.8760    23.6030     2.1910    -7.5200 
  171.8750    68.2840    32.9080    32.4660    34.3100    23.6220     2.1910    -7.4330 
  172.0000    68.0640    33.3610    33.0060    34.3270    23.6350     2.2050    -7.3610 
  172.1250    65.8570    34.0320    33.4970    35.5050    23.6380     2.2350    -7.2890 
  172.2500    64.2050    34.8730    33.9480    37.1110    23.6380     2.2640    -7.2450 
  172.3750    63.7350    35.2100    34.3800    38.4840    23.6190     2.2780    -7.2140 
  172.5000    62.5420    35.3040    34.8350    38.8270    23.5950     2.2680    -7.1960 
  172.6250    59.8680    35.4620    35.4100    37.4200    23.6380     2.2410    -7.1700 
  172.7500    59.7540    36.2580    36.1740    35.5460    23.7680     2.2180    -7.1690 
  172.8750    63.0940    37.9560    37.1180    35.8560    23.8380     2.2120    -7.1530 
  173.0000    66.3570    38.9510    38.0520    37.8100    23.8310     2.2220    -7.1410 
  173.1250    65.8210    39.4240    38.4220    40.0250    23.7440     2.2380    -7.1320 
  173.2500    63.5220    39.3970    37.8750    40.2160    23.6460     2.2480    -7.1230 
  173.3750    63.3420    38.6070    36.4110    40.5680    23.6280     2.2480    -7.1000 
  173.5000    64.9400    36.3730    34.4150    37.9560    23.7460     2.2400    -7.0620 
  173.6250    65.6990    34.1470    32.5550    33.0600    23.8300     2.2280    -7.0280 
