~V
VERS. 2.00: Ver 2.00
~W
STRT.M 50.0000:
STOP.M 207.0000:
STEP.M 0.1250:
NULL. -999.2500:
UWI. F10009:
~C
DEPT.M :
GR.API :
RML.OHMM :
RI. :
RXO.OHMM :
CALI.CM :
DEN.GM/CC :
SP.MV :
~A
# ...
  106.2500    64.6560    41.3200    37.1400    41.4750    23.3090     2.1930    -4.6340 
  106.3750    62.4710    45.7970    40.8240    46.1290    23.2220     2.1960    -4.6690 
  106.5000    59.5270    50.2220    44.6030    50.2550    23.0740     2.2010    -4.7090 
  106.6250    57.5290    54.4580    48.3460    54.4570    22.9810     2.2040    -4.7410 
  106.7500    57.2410    58.4430    51.9310    59.0820    22.9540     2.2040    -4.7740 
  106.8750    57.3240    62.0440    55.2200    63.1550    22.9580     2.2020    -4.8210 
  107.0000    56.8940    65.0470    58.0370    65.8150    22.9810     2.1980    -4.8710 
  107.1250    56.5010    67.0600    60.0670    67.1060    23.0480     2.1970    -4.9080 
  107.2500    56.1390    68.1560    61.3450    68.0590    23.1860     2.2010    -4.9290 
  107.3750    55.4450    68.5440    62.0040    69.2130    23.4020     2.2070    -4.9320 
  107.5000    54.9820    68.6250    62.3450    70.6190    23.6730     2.2130    -4.9270 
  107.6250    56.1380    68.7140    62.6790    71.0880    23.9330     2.2090    -4.9340 
  107.7500    57.9860    68.6660    62.9990    70.7380    24.0990     2.1940    -4.9590 
  107.8750    59.0990    68.0040    62.8890    70.7130    24.1230     2.1710    -5.0050 
  108.0000    58.9410    65.9480    61.6840    70.9340    24.0210     2.1500    -5.0650 
  108.1250    58.0870    61.9830    58.5030    68.7470    23.7990     2.1390    -5.1210 
  108.2500    58.0430    56.5730    53.7280    62.9630    23.4970     2.1410    -5.1680 
  108.3750    60.1270    50.8680    48.1820    54.7410    23.1860     2.1530    -5.1950 
  108.5000    62.8600    46.0030    42.9730    45.2280    22.9630     2.1670    -5.2010 
  108.6250    63.9710    41.9240    39.2710    39.5330    22.8840     2.1760    -5.1990 
  108.7500    63.8500    39.7470    37.1780    38.6880    22.9310     2.1790    -5.1980 
  108.8750    64.0620    39.0610    36.4720    40.3030    23.0760     2.1780    -5.1970 
  109.0000    65.3730    39.1890    36.6630    41.9400    23.2950     2.1780    -5.1940 
  109.1250    65.8620    39.3450    37.1100    42.3040    23.5430     2.1830    -5.1800 
  109.2500    65.5720    39.0000    37.2290    42.1260    23.7330     2.1900    -5.1620 
  109.3750    65.3790    38.1090    36.8560    41.2920    23.8280     2.1970    -5.1580 
  109.5000    64.7460    36.9910    36.1780    39.6710    23.8610     2.1980    -5.1730 
  109.6250    62.8920    36.2210    35.6580    38.4260    23.8970     2.1920    -5.1910 
  109.7500    61.4670    36.0910    35.6180    38.0330    23.9790     2.1820    -5.1900 
  109.8750    61.8010    36.5870    36.0910    39.1150    24.1150     2.1700    -5.1550 
  110.0000    62.5120    37.4320    36.8600    41.6960    24.2920     2.1590    -5.0960 
  110.1250    60.9840    38.0850    37.4460    44.1460    24.4540     2.1500    -5.0540 
  110.2500    58.8580    38.1030    37.4350    44.7960    24.5220     2.1420    -5.0420 
  110.3750    57.4890    37.3220    36.6620    43.3830    24.5080     2.1350    -5.0460 
  110.5000    58.6470    35.8930    35.2590    40.6190    24.4290     2.1310    -5.0470 
  110.6250    62.7390    34.2550    33.6270    37.3850    24.2740     2.1330    -5.0570 
  110.7500    65.9070    32.9790    32.2890    35.2880    24.0600     2.1410    -5.0910 
  110.8750    66.2470    32.4400    31.5780    34.9420    23.8260     2.1540    -5.1550 
  111.0000    65.3400    32.8820    31.7120    35.8920    23.6290     2.1710    -5.2370 
  111.1250    65.3360    34.5300    32.9100    37.9090    23.5140     2.1980    -5.3100 
  111.2500    65.1650    36.8940    34.7760    40.8770    23.4590     2.2420    -5.3670 
  111.3750    64.5020    39.2670    36.7250    45.3980    23.4430     2.3040    -5.3990 
  111.5000    64.0450    40.6780    37.9090    51.1490    23.4420     2.3750    -5.4110 
  111.6250    63.0400    39.8610    37.1610    57.1180    23.4410     2.4340    -5.4040 
  111.7500    60.3200    36.9730    34.5290    58.5970    23.4400     2.4620    -5.3930 
  111.8750    56.3430    32.8160    30.6880    49.5600    23.4380     2.4550    -5.3780 
  112.0000    52.9940    28.7170    26.8040    34.7260    23.4340     2.4210    -5.3630 
  112.1250    52.7730    26.2280    24.1900    26.9010    23.4260     2.3710    -5.3520 
  112.2500    55.1360    25.7280    23.1860    25.4530    23.4140     2.3180    -5.3340 
  112.3750    59.2440    27.1270    23.8160    28.3720    23.3970     2.2680    -5.3250 
  112.5000    62.3470    29.9330    25.8370    34.3750    23.3800     2.2260    -5.3440 
  112.6250    61.2430    33.3350    28.7900    38.8060    23.3800     2.1970    -5.3690 
  112.7500    58.2930    36.2540    31.6970    40.2130    23.3910     2.1810    -5.3880 
  112.8750    57.8990    38.0280    33.8200    39.5210    23.4140     2.1740    -5.4070 
  113.0000    61.6130    38.4500    34.7350    40.0440    23.4450     2.1740    -5.4310 
  113.1250    64.7220    37.7680    34.4270    39.8340    23.4770     2.1770    -5.4480 
  113.2500    65.0350    36.9240    33.7190    37.9170    23.4930     2.1790    -5.4550 
  113.3750    63.6750    36.5710    33.2380    35.0720    23.4940     2.1820    -5.4530 
  113.5000    61.5260    37.1090    33.4100    34.1520    23.4880     2.1830    -5.4400 
  113.6250    59.6400    38.7330    34.4970    37.5290    23.4860     2.1810    -5.4220 
  113.7500    58.2650    40.9220    36.1410    42.0940    23.5090     2.1750    -5.4100 
  113.8750    56.9670    43.1030    37.8930    45.6280    23.5750     2.1650    -5.4110 
  114.0000    55.2690    44.6180    39.1930    46.9480    23.6880     2.1540    -5.4290 
  114.1250    54.7300    44.6370    39.3120    46.2290    23.8160     2.1500    -5.4670 
  114.2500    56.3700    43.1180    38.1720    44.2890    23.8980     2.1540    -5.5360 
  114.3750    57.8310    40.3140    35.9660    41.8800    23.9120     2.1660    -5.6240 
  114.5000    57.3480    36.9240    33.2470    39.3450    23.8940     2.1850    -5.7140 
  114.6250    56.7740    34.2470    31.0080    35.9350    23.9030     2.2180    -5.7880 
  114.7500    58.3050    33.3870    30.1040    32.1810    23.9340     2.2710    -5.8340 
  114.8750    60.4180    34.8890    30.9950    31.9370    23.9490     2.3490    -5.8490 
  115.0000    60.7040    38.3890    33.5080    38.3500    23.9290     2.4440    -5.8390 
  115.1250    58.1540    42.1810    36.4630    49.7790    23.8740     2.5330    -5.8420 
  115.2500    55.4690    43.7150    37.7940    60.1020    23.8060     2.5890    -5.8570 
  115.3750    54.7780    41.2280    35.8960    63.1750    23.7340     2.5970    -5.8690 
  115.5000    56.2750    34.6260    30.4350    56.6320    23.6780     2.5590    -5.8740 
  115.6250    60.8410    25.8220    23.0490    39.6300    23.6830     2.4930    -5.8900 
  115.7500    67.5550    18.0900    16.5630    21.0390    23.7510     2.4260    -5.9230 
  115.8750    75.6860    12.5970    11.9540    10.8370    23.8530     2.3710    -5.9660 
  116.0000    84.0420     9.2720     9.1170     7.7460    23.9480     2.3330    -6.0060 
  116.1250    90.5630     8.0740     7.7650     7.0550    23.9830     2.3180    -6.0040 
  116.2500    94.2870     7.7360     7.2480     6.9830    23.9930     2.3200    -5.9590 
  116.3750    94.3500     7.8660     7.2630     7.1850    23.9940     2.3380    -5.8910 
  116.5000    92.3240     8.1530     7.5340     7.8070    23.9960     2.3660    -5.8220 
  116.6250    90.3500     8.3140     7.7790     8.8630    23.9970     2.3890    -5.7630 
  116.7500    88.9780     8.2290     7.8170     9.9150    23.9950     2.3960    -5.7200 
  116.8750    89.1430     7.9190     7.6150    10.2060    23.9930     2.3860    -5.7080 
  117.0000    90.3850     7.5210     7.2660     8.7850    23.9910     2.3610    -5.7360 
  117.1250    91.0560     7.2730     6.9730     7.3220    23.9910     2.3300    -5.8270 
  117.2500    90.8000     7.3170     6.8980     7.2340    23.9890     2.2990    -5.9670 
  117.3750    90.5260     7.6870     7.1000     7.9670    23.9820     2.2720    -6.1350 
