~V
VERS. 2.00: Ver 2.00
~W
STRT.M 56.0000:
STOP.M 235.0000:
STEP.M 0.1250:
NULL. -999.2500:
UWI. F10014:
~C
DEPT.M :
GR.API :
RML.OHMM :
RI. :
RXO.OHMM :
CALI.CM :
DEN.GM/CC :
SP.MV :
~A
# ...
   67.2500    87.2460     9.6360     8.5260     7.9260    24.5090     2.2150   -18.9700 
   67.3750    88.7360     9.6040     8.4410     8.9850    24.5330     2.2630   -18.3090 
   67.5000    85.0760     9.6740     8.4660    11.8550    24.4870     2.3030   -17.7190 
   67.6250    81.4800     9.6110     8.4390    11.3320    24.1970     2.3180   -17.2150 
   67.7500    82.5910     9.3450     8.2770     9.2640    23.8160     2.3100   -16.7540 
   67.8750    85.0540     8.9420     7.9980     7.4590    23.5220     2.2900   -16.3480 
   68.0000    85.3660     8.5280     7.6830     6.8740    23.3940     2.2720   -16.0670 
   68.1250    84.4750     8.2380     7.4350     6.9780    23.3750     2.2680   -15.9110 
   68.2500    85.4870     8.0810     7.2880     7.2350    23.4150     2.2740   -15.7430 
   68.3750    87.2680     8.0060     7.2200     7.3730    23.5980     2.2780   -15.5370 
   68.5000    84.8280     7.9450     7.1820     7.3760    24.0050     2.2740   -15.2950 
   68.6250    80.9060     7.8780     7.1510     7.2570    24.5870     2.2600   -15.0690 
   68.7500    79.9220     7.8520     7.1510     7.3170    25.0250     2.2460   -14.8970 
   68.8750    81.8660     7.9020     7.2110     7.4280    25.2340     2.2360   -14.7850 
   69.0000    83.6610     8.0160     7.3320     7.6390    25.2980     2.2280   -14.7100 
   69.1250    83.3280     8.1750     7.5090     7.7960    25.2230     2.2200   -14.6680 
   69.2500    82.8340     8.3850     7.7390     8.3190    25.0970     2.2150   -14.6680 
   69.3750    83.6590     8.6880     8.0480     9.0050    25.0190     2.2180   -14.7020 
   69.5000    87.1620     9.1250     8.4560     8.8820    24.9910     2.2340   -14.7270 
   69.6250    89.4910     9.6940     8.9630     8.8940    24.9290     2.2570   -14.7070 
   69.7500    85.6990    10.2320     9.4510    10.9690    24.8390     2.2680   -14.7240 
   69.8750    78.2770    10.5350     9.7580    12.8050    24.8340     2.2590   -14.8220 
   70.0000    74.5000    10.4580     9.7450    12.1420    24.9150     2.2330   -14.9200 
   70.1250    78.0180     9.9710     9.3630    10.2380    24.9560     2.2080   -14.9360 
   70.2500    83.0770     9.3390     8.8210     8.7520    24.9680     2.2000   -14.9290 
   70.3750    85.7720     8.7840     8.2980     8.0000    25.0000     2.2120   -14.9130 
   70.5000    86.3730     8.4480     7.9140     7.8250    25.0090     2.2330   -14.9140 
   70.6250    87.0550     8.3550     7.7170     7.8350    24.9650     2.2490   -14.9830 
   70.7500    86.4000     8.3690     7.6340     8.0410    24.9240     2.2550   -15.0020 
   70.8750    83.5860     8.4230     7.6250     8.4720    24.8790     2.2550   -14.9540 
   71.0000    82.1800     8.5180     7.6890     8.1570    24.8360     2.2500   -14.9710 
   71.1250    84.3770     8.7530     7.8810     7.7860    24.8210     2.2410   -15.1320 
   71.2500    85.1420     9.2020     8.2310     8.1020    24.7990     2.2320   -15.3350 
   71.3750    83.7770     9.8810     8.7570     9.6700    24.7680     2.2250   -15.5370 
   71.5000    84.1930    10.7340     9.4350    10.7530    24.7680     2.2220   -15.8000 
   71.6250    85.4360    11.6510    10.2090    11.3870    24.7960     2.2180   -16.1320 
   71.7500    82.2860    12.5010    10.9690    12.0600    24.7990     2.2080   -16.4530 
   71.8750    76.1170    13.2150    11.6330    13.0960    24.8030     2.1920   -16.7650 
   72.0000    71.2220    13.7800    12.1600    13.9290    24.8780     2.1750   -17.0710 
   72.1250    68.2350    14.2000    12.5310    14.3880    24.8910     2.1650   -17.3420 
   72.2500    67.0300    14.5090    12.7850    14.4510    24.8020     2.1610   -17.5850 
   72.3750    66.8690    14.7170    12.9430    14.4970    24.7080     2.1560   -17.7890 
   72.5000    66.3610    14.8620    13.0410    14.3540    24.6790     2.1440   -17.8890 
   72.6250    65.1790    15.0010    13.1280    14.1390    24.7990     2.1260   -17.8940 
   72.7500    63.4980    15.1710    13.2330    14.1160    24.9700     2.1110   -17.8970 
   72.8750    61.1810    15.3730    13.3560    14.2990    25.0690     2.1070   -17.9130 
   73.0000    59.6690    15.5740    13.4740    14.2780    25.0390     2.1150   -17.9400 
   73.1250    61.7920    15.6820    13.5250    14.4420    25.0380     2.1240   -17.9700 
   73.2500    64.9680    15.6370    13.4640    14.5090    25.1300     2.1270   -18.0110 
   73.3750    65.3970    15.4310    13.2830    14.1470    25.1900     2.1230   -18.0520 
   73.5000    64.5750    15.1310    13.0260    13.6730    25.1500     2.1180   -18.0700 
   73.6250    66.8700    14.8690    12.7840    13.0510    24.9330     2.1200   -18.1410 
   73.7500    70.4500    14.7630    12.6440    12.7260    24.6440     2.1300   -18.2750 
   73.8750    71.5460    14.8560    12.6450    12.7490    24.4110     2.1430   -18.3870 
   74.0000    69.6380    15.1050    12.7780    13.4770    24.3300     2.1520   -18.4110 
   74.1250    66.2350    15.3930    12.9860    14.2710    24.3970     2.1480   -18.3290 
   74.2500    63.3530    15.5900    13.1730    14.6120    24.6230     2.1320   -18.1920 
   74.3750    63.8790    15.6340    13.2760    13.9590    24.8970     2.1090   -18.0950 
   74.5000    68.2700    15.5180    13.2640    12.8430    24.9500     2.0900   -18.0820 
   74.6250    69.5000    15.2760    13.1330    11.8450    24.7720     2.0850   -17.9810 
   74.7500    66.2820    14.9900    12.9510    11.9290    24.5510     2.0880   -17.8120 
   74.8750    66.2730    14.6960    12.7590    12.7840    24.3430     2.0920   -17.6310 
   75.0000    71.8030    14.4290    12.5900    13.2160    24.1580     2.0940   -17.4570 
   75.1250    75.9530    14.2630    12.4970    13.3250    24.0280     2.0990   -17.3470 
   75.2500    76.4910    14.2670    12.5230    13.2230    23.9480     2.1150   -17.2760 
   75.3750    75.2070    14.4910    12.7070    13.4540    23.9270     2.1400   -17.1710 
   75.5000    73.3160    14.9160    13.0480    13.7230    24.0050     2.1640   -17.0150 
   75.6250    70.1470    15.3530    13.4230    13.6540    24.1840     2.1750   -16.8530 
   75.7500    67.1210    15.4660    13.5660    13.6070    24.2770     2.1740   -16.6540 
   75.8750    67.3390    14.9740    13.2250    13.3860    24.2460     2.1710   -16.3960 
   76.0000    72.4880    13.7910    12.3060    12.5860    24.3320     2.1730   -16.0500 
   76.1250    81.6820    12.1000    10.9450    10.8260    24.4950     2.1810   -15.6810 
   76.2500    88.0150    10.4260     9.5670     8.5570    24.7210     2.1910   -15.3520 
   76.3750    88.1650     9.1070     8.4340     7.4880    24.9560     2.1980   -15.0440 
   76.5000    84.6950     8.3190     7.6860     7.2570    25.0720     2.2060   -14.7380 
   76.6250    82.8390     8.1500     7.4160     7.3120    25.0970     2.2170   -14.4760 
   76.7500    82.7530     8.3630     7.4840     7.5090    25.0670     2.2290   -14.3500 
   76.8750    81.8950     8.7620     7.7680     7.8830    25.0060     2.2370   -14.3680 
   77.0000    79.0430     9.1330     8.1020     8.6800    24.9430     2.2390   -14.4830 
   77.1250    78.8670     9.2520     8.2810     9.0180    24.9300     2.2380   -14.5380 
   77.2500    83.5210     9.0960     8.2320     8.2860    24.9760     2.2420   -14.5310 
   77.3750    89.5570     8.7370     7.9880     7.4140    25.0230     2.2530   -14.5500 
   77.5000    91.5430     8.3060     7.6480     7.1720    25.0320     2.2690   -14.6190 
   77.6250    87.7260     7.9510     7.3320     7.1820    25.0010     2.2820   -14.6620 
   77.7500    84.9750     7.7400     7.1130     6.9760    24.9840     2.2900   -14.5740 
   77.8750    87.4010     7.6860     7.0110     6.9050    24.9950     2.2920   -14.3920 
   78.0000    93.6800     7.7610     7.0160     6.9470    25.0000     2.2890   -14.2280 
   78.1250    96.8540     7.9340     7.1100     6.8990    24.9920     2.2810   -14.1250 
   78.2500    93.4390     8.1250     7.2300     7.1120    24.9790     2.2710   -13.9980 
   78.3750    88.0600     8.2460     7.3120     7.3090    24.9630     2.2630   -13.8440 
