~V
VERS. 2.00: Ver 2.00
~W
STRT.M 64.0000:
STOP.M 308.0000:
STEP.M 0.1250:
NULL. -999.2500:
UWI. F10040:
~C
DEPT.M :
GR.API :
RML.OHMM :
RI. :
RXO.OHMM :
CALI.CM :
DEN.GM/CC :
SP.MV :
~A
# ...
  266.5000    60.8970   131.1390   112.2000   114.0150    24.6330     2.5580    -3.0940 
  266.6250    65.7960   114.1680    97.8710   108.3150    24.5970     2.5700    -2.9170 
  266.7500    69.0380   100.1560    85.5340   107.1850    24.7300     2.5390    -2.6890 
  266.8750    70.4970    90.6080    76.7270    91.1660    24.8820     2.4850    -2.4780 
  267.0000    70.2930    85.7030    71.8810    71.2100    24.9280     2.4380    -2.3440 
  267.1250    68.3670    84.7640    70.7030    71.1240    24.9020     2.4350    -2.1650 
  267.2500    65.4250    84.9170    70.8700    74.0030    24.8330     2.4720    -1.9650 
  267.3750    61.7260    83.9150    70.5280   103.5040    24.7840     2.5270    -1.8300 
  267.5000    59.7770    80.2800    68.3340   118.6530    24.7980     2.5680    -1.6660 
  267.6250    62.7910    73.5970    63.6980    89.1160    24.5990     2.5680    -1.4360 
  267.7500    66.5990    65.4920    57.6950    65.9790    24.5980     2.5400    -1.2480 
  267.8750    68.3510    56.9230    51.0020    64.3650    24.7440     2.5070    -1.0700 
  268.0000    69.8260    48.2240    43.8560    71.2410    24.9300     2.4900    -0.8300 
  268.1250    71.7030    39.3450    36.1910    70.8720    24.9620     2.4950    -0.6000 
  268.2500    70.8000    30.5670    28.4230    61.7230    24.8820     2.5040    -0.4270 
  268.3750    67.7860    22.5350    21.2400    39.2020    24.7880     2.4990    -0.2370 
  268.5000    67.0500    15.9350    15.3030    17.9600    24.8740     2.4720    -0.0790 
  268.6250    68.5300    11.4190    11.1680     9.1840    25.0380     2.4260    -0.0270 
  268.7500    69.7500     8.5330     8.4270     6.3080    25.1300     2.3760     0.0240 
  268.8750    70.2590     6.9020     6.7760     5.4490    25.0300     2.3320     0.0400 
  269.0000    70.3330     6.1480     5.9310     4.9510    24.8150     2.3020    -0.0670 
  269.1250    70.2660     6.0490     5.7490     5.5940    24.6630     2.2980    -0.2330 
  269.2500    72.6110     6.3090     5.9610     6.7050    24.5640     2.3200    -0.4120 
  269.3750    77.7560     6.8060     6.4390     7.3820    24.5420     2.3600    -0.6640 
  269.5000    81.4960     7.4290     7.0530     7.6690    24.5760     2.4040    -0.9280 
  269.6250    81.0720     8.0450     7.6630     8.5630    24.6780     2.4310    -1.1280 
  269.7500    80.5120     8.4860     8.1600     9.6740    24.7650     2.4370    -1.3400 
  269.8750    82.5370     8.6620     8.4970    10.4800    24.8340     2.4210    -1.5330 
  270.0000    86.2330     8.7370     8.6690    10.8150    24.8910     2.3940    -1.6720 
  270.1250    87.1840     8.7780     8.6790    10.7020    25.0000     2.3700    -1.7760 
  270.2500    84.6230     8.7920     8.5810    10.3160    24.9970     2.3590    -1.8650 
  270.3750    81.2020     8.7620     8.4120     9.8970    24.8290     2.3650    -1.9350 
  270.5000    79.6780     8.7350     8.2250     9.8060    24.6080     2.3840    -1.9710 
  270.6250    79.9800     8.7960     8.1140     9.4390    24.5560     2.4070    -2.0070 
  270.7500    80.2390     8.9990     8.1450     9.5960    24.7010     2.4250    -2.0600 
  270.8750    81.7280     9.3610     8.3470    10.3990    24.8960     2.4380    -2.0810 
  271.0000    83.3150     9.8370     8.6950    12.7910    24.9660     2.4490    -2.0320 
  271.1250    83.2270    10.2980     9.0970    14.6090    24.9570     2.4610    -1.9730 
  271.2500    81.6370    10.6010     9.4100    14.2290    24.9700     2.4700    -1.8950 
  271.3750    79.3620    10.6630     9.5330    12.0250    24.9500     2.4690    -1.7400 
  271.5000    77.8590    10.4710     9.4210     9.9910    24.8720     2.4540    -1.5750 
  271.6250    77.4520    10.0420     9.0520     9.0220    24.9280     2.4290    -1.4420 
  271.7500    76.4540     9.4790     8.5200     9.1760    24.9610     2.4070    -1.2480 
  271.8750    71.8960     8.8340     7.8850     8.3320    24.9150     2.3950    -1.0680 
  272.0000    65.2680     8.1520     7.2030     6.2500    24.9010     2.3950    -0.9830 
  272.1250    61.5590     7.5070     6.5500     5.2970    24.8100     2.4040    -0.9220 
  272.2500    61.2550     6.9690     5.9900     5.1910    24.8330     2.4150    -0.8910 
  272.3750    62.2370     6.5900     5.5690     5.5000    24.8770     2.4270    -0.9570 
  272.5000    62.1030     6.3940     5.3160     6.1660    24.8760     2.4370    -1.0680 
  272.6250    62.7520     6.4330     5.2740     7.2330    24.7960     2.4420    -1.1900 
  272.7500    66.5890     6.7170     5.4390     7.7540    24.7120     2.4410    -1.4070 
  272.8750    72.8800     7.3290     5.8570     7.6540    24.6930     2.4410    -1.6460 
  273.0000    76.6570     8.3710     6.5940     8.2470    24.7660     2.4550    -1.8250 
  273.1250    74.3940     9.9830     7.7720    11.1160    24.6280     2.4900    -2.0540 
  273.2500    71.7180    11.9580     9.2800    16.1080    24.2880     2.5340    -2.2860 
  273.3750    72.0030    13.9390    10.8930    18.8720    23.8710     2.5650    -2.4490 
  273.5000    74.6250    15.4090    12.2240    17.1110    23.6140     2.5670    -2.6060 
  273.6250    77.8360    15.7360    12.7380    14.0080    23.5850     2.5330    -2.7300 
  273.7500    81.3590    15.0620    12.4450    12.1370    23.6590     2.4850    -2.7740 
  273.8750    84.5180    13.7450    11.5600    11.3460    23.6960     2.4420    -2.7590 
  274.0000    85.5740    12.2130    10.3920    10.5450    23.6100     2.4150    -2.6920 
  274.1250    84.2570    10.7690     9.1800     8.7630    23.4110     2.4060    -2.5410 
  274.2500    82.2060     9.4670     8.0280     6.4160    23.3880     2.4040    -2.3190 
  274.3750    78.7590     8.3000     6.9660     4.6990    23.4890     2.4040    -2.0750 
  274.5000    70.9730     7.2930     6.0390     4.1240    23.7750     2.4030    -1.7940 
  274.6250    59.2890     6.5550     5.3420     4.2770    24.2590     2.4000    -1.4790 
  274.7500    50.2210     6.0940     4.8860     4.5970    24.5910     2.3950    -1.1840 
  274.8750    46.9830     5.8970     4.6620     4.8900    24.6960     2.3880    -0.9080 
  275.0000    46.7570     5.8990     4.6250     5.0890    24.7490     2.3810    -0.6960 
  275.1250    46.5740     6.0110     4.7130     4.8940    24.7940     2.3810    -0.5280 
  275.2500    47.2470     6.1190     4.8260     4.8530    24.8020     2.3880    -0.3720 
  275.3750    48.7680     6.1710     4.9130     5.1230    24.8010     2.4020    -0.2530 
  275.5000    49.9600     6.1540     4.9480     5.4680    24.6460     2.4180    -0.1830 
  275.6250    50.5740     6.0760     4.9210     5.3080    24.6540     2.4290    -0.1330 
  275.7500    51.7090     5.9710     4.8560     4.8880    24.6940     2.4340    -0.0670 
  275.8750    52.0790     5.8620     4.7710     4.7530    24.7410     2.4360    -0.0340 
  276.0000    49.9790     5.7620     4.6860     4.9550    24.7170     2.4400    -0.0240 
  276.1250    47.0020     5.6850     4.6240     5.0170    24.7020     2.4460     0.0200 
  276.2500    45.7470     5.6320     4.5920     5.0090    24.7180     2.4520     0.0430 
  276.3750    45.9600     5.6000     4.5870     4.9420    24.7430     2.4550     0.0520 
  276.5000    46.1670     5.5820     4.5930     5.0440    24.7550     2.4550     0.1100 
  276.6250    46.0010     5.5560     4.5860     5.0760    24.7580     2.4540     0.1820 
  276.7500    45.2290     5.5050     4.5460     4.9060    24.7660     2.4570     0.2320 
  276.8750    43.2750     5.4150     4.4680     4.6270    24.7690     2.4670     0.3050 
  277.0000    39.9350     5.2820     4.3530     4.3590    24.7510     2.4790     0.4330 
  277.1250    36.6320     5.0870     4.2080     4.0430    24.7080     2.4910     0.5050 
  277.2500    34.9060     4.8520     4.0550     3.8590    24.6910     2.4990     0.5340 
  277.3750    34.0540     4.6030     3.9090     3.7540    24.6920     2.5020     0.5810 
  277.5000    33.2190     4.3930     3.7890     3.6960    24.6920     2.5010     0.5740 
  277.6250    32.0740     4.2720     3.7100     3.7000    24.6720     2.4980     0.4700 
