~V
VERS. 2.00: Ver 2.00
~W
STRT.M 60.0000:
STOP.M 242.0000:
STEP.M 0.1250:
NULL. -999.2500:
UWI. F10022:
~C
DEPT.M :
GR.API :
RML.OHMM :
RI. :
RXO.OHMM :
CALI.CM :
DEN.GM/CC :
SP.MV :
~A
# ...
  183.7500    46.3080    17.3470    16.0610    17.3520    23.6360     2.5350    -6.2750 
  183.8750    44.3850    17.2180    15.8840    17.3790    23.6720     2.5460    -6.3780 
  184.0000    44.7220    17.3210    15.9020    17.7240    23.7710     2.5490    -6.5050 
  184.1250    45.6170    17.5690    16.0800    18.1520    23.8610     2.5430    -6.6190 
  184.2500    47.6680    17.7700    16.2680    18.3600    23.8850     2.5290    -6.7630 
  184.3750    51.7850    17.7920    16.3460    18.2400    23.8500     2.5120    -6.8800 
  184.5000    55.5610    17.5780    16.2410    17.8240    23.7880     2.4970    -6.9540 
  184.6250    55.1120    17.1650    15.9370    17.4060    23.7310     2.4910    -7.0750 
  184.7500    52.9500    16.7020    15.5420    16.9750    23.7580     2.4940    -7.1380 
  184.8750    51.7020    16.2630    15.1250    16.7890    23.7940     2.5020    -7.2100 
  185.0000    50.2660    15.8460    14.7120    16.7740    23.7760     2.5100    -7.2800 
  185.1250    46.7280    15.3750    14.2830    17.3300    23.7090     2.5140    -7.3020 
  185.2500    45.3640    14.7910    13.8040    17.9570    23.7030     2.5130    -7.3300 
  185.3750    48.3870    14.1110    13.2830    17.3520    23.7180     2.5090    -7.3260 
  185.5000    52.7220    13.4480    12.7910    15.4870    23.7490     2.5080    -7.3430 
  185.6250    54.4080    13.0420    12.5050    14.5130    23.7630     2.5130    -7.3290 
  185.7500    55.4700    13.0490    12.5590    14.3650    23.7500     2.5230    -7.2870 
  185.8750    56.7860    13.5290    13.0310    15.2470    23.7520     2.5340    -7.2540 
  186.0000    56.4140    14.3710    13.8610    16.6230    23.7570     2.5440    -7.1870 
  186.1250    53.2920    15.2080    14.7670    18.3140    23.7550     2.5470    -7.1410 
  186.2500    50.5520    15.5680    15.2930    19.7460    23.7370     2.5440    -7.1150 
  186.3750    49.4000    15.1470    15.0850    20.2330    23.6860     2.5320    -7.0990 
  186.5000    50.1600    13.9040    14.0210    19.0850    23.6000     2.5140    -7.0740 
  186.6250    54.2480    12.0690    12.2490    16.6590    23.4750     2.4910    -7.0760 
  186.7500    62.3320    10.2010    10.3420    12.9300    23.3460     2.4700    -7.1120 
  186.8750    70.6790     8.6250     8.6560     9.3590    23.2720     2.4550    -7.1660 
  187.0000    74.6090     7.4800     7.3720     7.0500    23.2490     2.4470    -7.2660 
  187.1250    74.9690     6.8290     6.6000     6.4080    23.2570     2.4430    -7.3720 
  187.2500    74.5250     6.5420     6.2280     6.3320    23.2800     2.4410    -7.4780 
  187.3750    73.3920     6.5990     6.2200     6.5880    23.3140     2.4410    -7.6250 
  187.5000    73.3460     7.0200     6.5720     7.2960    23.3500     2.4470    -7.8060 
  187.6250    75.8090     7.9060     7.3750     8.6110    23.3990     2.4580    -8.0050 
  187.7500    77.5130     9.1460     8.5550    10.2890    23.4530     2.4690    -8.1880 
  187.8750    76.1950    10.5620     9.9940    12.1700    23.4760     2.4770    -8.3490 
  188.0000    73.1460    11.8570    11.4400    14.0670    23.4910     2.4750    -8.4800 
  188.1250    70.3180    12.5850    12.4430    16.0310    23.5440     2.4610    -8.6040 
  188.2500    68.5990    12.6230    12.7650    17.2770    23.6550     2.4440    -8.6940 
  188.3750    69.5630    12.0550    12.3860    16.2480    23.7800     2.4280    -8.6980 
  188.5000    73.0830    11.1620    11.5370    13.4190    23.8540     2.4190    -8.6710 
  188.6250    75.5060    10.3050    10.5620    11.2960    23.8540     2.4200    -8.5850 
  188.7500    75.3360     9.6790     9.7230    10.4990    23.8430     2.4250    -8.4930 
  188.8750    74.8450     9.2910     9.0790    10.4870    23.8510     2.4280    -8.4180 
  189.0000    76.5910     9.0670     8.6180    10.4680    23.8880     2.4260    -8.3320 
  189.1250    79.6080     8.9890     8.3650     9.7790    23.9370     2.4200    -8.2320 
  189.2500    79.5190     9.1370     8.3660     9.3580    23.9900     2.4200    -8.1780 
  189.3750    77.8800     9.7220     8.7690     9.8890    24.0260     2.4260    -8.1920 
  189.5000    78.8850    10.9730     9.7530    11.7270    24.0340     2.4350    -8.2370 
  189.6250    80.4320    13.1170    11.5700    15.3890    24.0230     2.4360    -8.3350 
  189.7500    77.8960    15.8300    14.0360    20.5680    24.0200     2.4210    -8.4430 
  189.8750    72.6720    18.6830    16.8470    26.2340    24.0340     2.3900    -8.5410 
  190.0000    67.5120    21.1480    19.5110    30.5620    24.0440     2.3480    -8.6850 
  190.1250    64.4510    22.6260    21.3310    31.6300    24.0450     2.3090    -8.8420 
  190.2500    64.8350    23.1630    22.1410    30.2770    24.0450     2.2810    -8.9770 
  190.3750    67.7220    23.0180    22.0950    28.6000    24.0430     2.2680    -9.1070 
  190.5000    68.1920    22.6100    21.5970    27.1280    24.0380     2.2700    -9.2010 
  190.6250    64.8930    22.4420    21.1590    25.8640    24.0360     2.2820    -9.2850 
  190.7500    63.1930    22.8210    21.1400    25.6460    24.0360     2.2940    -9.3970 
  190.8750    63.2020    23.8940    21.7200    26.7710    24.0360     2.3000    -9.5090 
  191.0000    63.0030    25.6610    22.9530    29.1300    24.0360     2.3000    -9.6240 
  191.1250    63.1930    28.0250    24.8490    32.4050    24.0360     2.2970    -9.7300 
  191.2500    64.2040    30.5700    27.0780    35.8260    24.0360     2.2960    -9.8330 
  191.3750    64.9410    32.9480    29.3410    38.0170    24.0360     2.2990    -9.9590 
  191.5000    64.1350    34.8460    31.3210    38.1570    24.0360     2.3040   -10.0730 
  191.6250    62.5340    35.9250    32.6440    36.9180    24.0360     2.3070   -10.1750 
  191.7500    62.3580    36.2570    33.2830    35.5370    24.0360     2.3060   -10.2390 
  191.8750    64.0930    35.9440    33.2780    34.5570    24.0360     2.3050   -10.2700 
  192.0000    64.8730    35.1500    32.7430    34.1270    24.0360     2.3040   -10.2770 
  192.1250    61.2480    33.9570    31.7190    33.5040    24.0360     2.3020   -10.2700 
  192.2500    58.1200    32.4430    30.3050    32.3650    24.0360     2.2950   -10.2470 
  192.3750    58.8330    30.5550    28.4900    31.2100    24.0360     2.2860   -10.2020 
  192.5000    60.6920    28.2910    26.3090    30.7290    24.0350     2.2810   -10.1450 
  192.6250    59.7040    25.8620    23.9630    29.8050    24.0240     2.2930   -10.0720 
  192.7500    58.5150    23.8410    21.9210    27.2400    24.0030     2.3220   -10.0610 
  192.8750    59.3490    22.8830    20.6800    24.3360    23.9840     2.3610   -10.0720 
  193.0000    60.5980    23.6240    20.7350    23.1280    23.9760     2.3940   -10.0860 
  193.1250    59.6190    26.8970    22.8780    26.2290    23.9750     2.4020   -10.1970 
  193.2500    58.0600    32.3500    27.1070    34.0180    23.9720     2.3860   -10.2980 
  193.3750    56.3600    39.4570    33.2990    45.0130    23.9700     2.3550   -10.4230 
  193.5000    54.5940    47.2070    40.7890    55.4630    23.9590     2.3240   -10.6320 
  193.6250    54.3520    53.8840    48.0820    61.1330    23.9340     2.3050   -10.8070 
  193.7500    55.4710    58.1800    53.4720    62.2060    23.8950     2.2980   -10.9450 
  193.8750    56.5840    59.4760    55.8650    61.6510    23.8460     2.2980   -11.0970 
  194.0000    56.8500    57.6740    54.9340    60.0440    23.7840     2.2980   -11.2090 
  194.1250    56.8230    53.0820    50.6670    57.4750    23.6800     2.2930   -11.2790 
  194.2500    56.0410    46.9260    44.5980    54.1340    23.6000     2.2850   -11.3410 
  194.3750    54.2070    40.4930    37.9880    49.9260    23.5750     2.2760   -11.3660 
  194.5000    53.4790    34.9270    32.0400    42.6300    23.5960     2.2720   -11.3520 
  194.6250    56.5300    30.3860    27.8340    32.2360    23.6040     2.2720   -11.3050 
  194.7500    59.8940    27.8470    25.3510    26.8170    23.5900     2.2720   -11.2370 
  194.8750    59.9940    27.1090    24.4720    26.8530    23.5720     2.2720   -11.1510 
