~V
VERS. 2.00: Ver 2.00
~W
STRT.M 50.0000:
STOP.M 280.0000:
STEP.M 0.1250:
NULL. -999.2500:
UWI. F10023:
~C
DEPT.M :
SP.MV :
DEN.GM/CC :
GR.API :
CALI.CM :
RXO.OHMM :
RI. :
RML.OHMM :
~A
# ...
  218.7500   -18.6600     2.5510    74.8220    23.9590    52.1840    26.5770    29.2790 
  218.8750   -18.9370     2.5490    65.2510    23.8860    63.7500    34.1170    37.1690 
  219.0000   -19.2150     2.5000    60.6780    23.8610    61.4690    40.3080    43.2990 
  219.1250   -19.4540     2.4120    61.2850    23.8510    51.8300    43.1460    45.5680 
  219.2500   -19.6330     2.3090    62.6800    23.8360    45.7590    43.7940    45.7540 
  219.3750   -19.7790     2.2080    64.0040    23.8140    42.9050    43.8930    45.7820 
  219.5000   -19.9160     2.1330    66.5960    23.7390    42.2940    44.6990    46.7750 
  219.6250   -20.1030     2.1150    70.0100    23.5870    44.0680    46.7850    49.0520 
  219.7500   -20.2700     2.1350    71.3570    23.4530    47.5400    49.5280    51.8510 
  219.8750   -20.3510     2.1610    70.8010    23.4010    51.7970    52.2630    54.4680 
  220.0000   -20.3800     2.1700    69.2470    23.4800    55.9450    54.4200    56.3290 
  220.1250   -20.3270     2.1610    69.5540    23.8760    58.0790    55.2840    56.6270 
  220.2500   -20.2890     2.1640    71.7800    24.1790    57.1770    54.3320    54.6740 
  220.3750   -20.2640     2.1960    74.7400    24.2290    53.9240    50.8150    49.7380 
  220.5000   -20.2340     2.2480    75.4680    24.1450    50.1060    44.5590    42.1940 
  220.6250   -20.1850     2.2840    71.4790    23.9990    43.3740    36.6590    33.9020 
  220.7500   -20.0660     2.2840    68.0510    23.7850    33.2200    29.3740    26.9010 
  220.8750   -19.8740     2.2590    69.3420    23.5660    23.1550    23.8200    21.9040 
  221.0000   -19.6660     2.2370    74.5060    23.4520    17.1530    20.2540    18.9100 
  221.1250   -19.5140     2.2540    79.3370    23.4330    16.1950    18.6820    17.8200 
  221.2500   -19.4070     2.3100    81.1370    23.4320    17.2530    18.4100    17.9200 
  221.3750   -19.3550     2.3820    80.8500    23.4250    18.6560    19.0550    18.7760 
  221.5000   -19.3130     2.4350    77.6680    23.4040    19.5040    20.1440    19.8550 
  221.6250   -19.2000     2.4430    71.6320    23.3880    19.3310    21.0160    20.4930 
  221.7500   -19.1270     2.4270    67.9640    23.3780    18.7150    21.2620    20.4740 
  221.8750   -19.1400     2.4070    68.2130    23.4010    18.2050    20.8920    19.9550 
  222.0000   -19.2210     2.3900    70.7770    23.4200    18.3970    20.1480    19.2080 
  222.1250   -19.3750     2.3690    72.5790    23.4160    19.0430    19.2160    18.3820 
  222.2500   -19.5260     2.3430    74.1480    23.4090    18.9720    18.2030    17.5150 
  222.3750   -19.6590     2.3180    75.4470    23.3900    18.0840    17.2080    16.6800 
  222.5000   -19.7700     2.2970    74.2960    23.3810    17.0820    16.4170    16.0730 
  222.6250   -19.8980     2.2780    72.1510    23.3840    16.6060    16.1700    16.1140 
  222.7500   -20.0960     2.2480    72.8140    23.3700    16.9560    16.6570    17.0350 
  222.8750   -20.3400     2.2080    75.3460    23.3280    19.8030    18.1180    19.0600 
  223.0000   -20.5940     2.1710    75.4110    23.3550    26.0560    20.7420    22.3080 
  223.1250   -20.7770     2.1630    72.3670    23.5650    33.9730    24.6860    26.7940 
  223.2500   -20.9170     2.1830    70.3010    23.9200    39.6090    29.2000    31.6270 
  223.3750   -21.0070     2.2070    67.8710    24.1540    41.7010    33.2570    35.6750 
  223.5000   -21.0750     2.2130    64.0300    24.0600    40.9250    35.7950    37.9210 
  223.6250   -21.1730     2.1920    62.1410    23.7060    39.1120    36.1690    37.9340 
  223.7500   -21.2220     2.1620    64.3910    23.4180    38.1500    35.3140    36.8530 
  223.8750   -21.2480     2.1420    67.0590    23.2920    37.9910    33.9880    35.4900 
  224.0000   -21.2280     2.1410    67.4010    23.3220    37.8940    32.7070    34.3420 
  224.1250   -21.1690     2.1510    67.2400    23.5730    36.1930    31.7960    33.7100 
  224.2500   -21.0720     2.1560    69.4970    23.7860    33.0930    31.2960    33.5390 
  224.3750   -20.9760     2.1540    73.4300    23.6990    31.0230    31.1800    33.7070 
  224.5000   -20.9410     2.1500    75.2470    23.3600    31.5480    31.3210    34.0050 
  224.6250   -20.9170     2.1460    73.9530    23.1790    33.0630    31.5030    34.1420 
  224.7500   -20.8320     2.1460    73.8780    23.2230    33.2810    31.5410    33.9880 
  224.8750   -20.6590     2.1500    75.6670    23.3840    32.5930    31.3870    33.5630 
  225.0000   -20.4290     2.1570    77.6030    23.4070    31.7810    31.0900    32.9670 
  225.1250   -20.1790     2.1670    77.0640    23.3670    30.8870    30.7000    32.2970 
  225.2500   -19.9560     2.1810    74.9620    23.4410    29.8820    30.1960    31.5560 
  225.3750   -19.7880     2.1950    72.5840    23.6700    29.0130    29.4490    30.6130 
  225.5000   -19.6180     2.2020    70.6720    23.7920    28.2370    28.2920    29.2780 
  225.6250   -19.4040     2.2000    70.1500    23.6810    26.6730    26.5390    27.3270 
  225.7500   -19.1880     2.1930    70.6230    23.5980    24.7210    24.3570    24.9300 
  225.8750   -18.9800     2.1820    73.0950    23.6470    22.9310    21.9670    22.3650 
  226.0000   -18.8370     2.1710    78.1350    23.7210    21.1120    19.6500    19.9760 
  226.1250   -18.7860     2.1730    83.2150    23.6700    18.7490    17.7530    18.1630 
  226.2500   -18.7820     2.1960    85.3270    23.5270    16.6370    16.3950    16.9930 
  226.3750   -18.7540     2.2330    84.8410    23.3860    15.7740    15.6050    16.4460 
  226.5000   -18.6660     2.2640    84.8200    23.3060    16.2290    15.3140    16.3920 
  226.6250   -18.5700     2.2670    83.9760    23.2860    17.2470    15.4350    16.6510 
  226.7500   -18.5470     2.2520    79.3760    23.2530    17.6720    15.7370    16.9750 
  226.8750   -18.6070     2.2330    74.8260    23.1570    17.2750    16.1160    17.2940 
  227.0000   -18.7030     2.2160    76.3890    23.0420    16.3190    16.5790    17.7010 
  227.1250   -18.7900     2.2030    83.1780    22.8530    15.3190    17.3200    18.5240 
  227.2500   -18.8310     2.1960    85.3450    22.6010    15.2910    18.4970    19.9440 
  227.3750   -18.8080     2.1960    82.3680    22.3990    17.0640    20.1670    21.9330 
  227.5000   -18.8060     2.1960    79.7420    22.4860    20.9720    22.0920    24.0760 
  227.6250   -18.8660     2.1830    79.5460    22.8510    25.6870    23.3450    25.2270 
  227.7500   -18.9040     2.1680    78.2660    23.1900    27.2880    23.0120    24.5460 
  227.8750   -18.8960     2.1700    75.6080    23.3570    23.5050    20.8880    22.0020 
  228.0000   -18.8190     2.2070    75.6040    23.3860    16.4340    17.7190    18.4900 
  228.1250   -18.6720     2.2650    80.5370    23.4290    11.1620    14.6990    15.3170 
  228.2500   -18.5440     2.3070    86.6400    23.5310     8.9330    12.4830    13.1440 
  228.3750   -18.5120     2.3210    89.5910    23.6370     8.8830    11.2120    12.1030 
  228.5000   -18.5560     2.3180    88.3100    23.6530    10.3890    10.8530    12.1090 
  228.6250   -18.6140     2.3110    85.8590    23.6000    13.9050    11.4210    13.0730 
  228.7500   -18.6870     2.3000    83.4590    23.4840    17.7660    12.5790    14.5220 
  228.8750   -18.7470     2.2870    80.1130    23.3350    20.3470    14.0390    16.0990 
  229.0000   -18.8430     2.2770    77.5350    23.2420    20.9700    15.4780    17.4920 
  229.1250   -19.0110     2.2680    77.6150    23.2650    19.7200    16.6270    18.5120 
  229.2500   -19.2210     2.2500    78.3840    23.3170    19.0850    17.5560    19.3550 
  229.3750   -19.4450     2.2250    77.7600    23.3050    20.2810    18.4600    20.2780 
  229.5000   -19.5990     2.2030    75.7990    23.2780    22.9550    19.5380    21.4870 
  229.6250   -19.6680     2.1960    71.7770    23.2420    24.6210    20.9100    23.0830 
  229.7500   -19.7060     2.2040    69.0720    23.1690    25.6420    22.4540    24.8920 
  229.8750   -19.7530     2.2250    70.5770    23.0980    27.7210    24.0270    26.7320 
