~V
VERS. 2.00: Ver 2.00
~W
STRT.M 50.0000:
STOP.M 293.0000:
STEP.M 0.1250:
NULL. -999.2500:
UWI. F10037:
~C
DEPT.M :
GR.API :
RML.OHMM :
RI. :
RXO.OHMM :
CALI.CM :
SP.MV :
DEN.GM/CC :
~A
# ...
  173.7500    66.8260    21.2600    18.1030    18.1690    23.6320    -5.7490     2.2450 
  173.8750    65.6710    21.8040    18.7100    19.6880    23.6920    -5.7300     2.2450 
  174.0000    65.0850    22.1300    19.2430    20.7400    23.7220    -5.7190     2.2530 
  174.1250    63.5620    22.1100    19.5140    20.5830    23.6850    -5.7510     2.2610 
  174.2500    62.3850    21.8840    19.5530    19.5100    23.5440    -5.7920     2.2640 
  174.3750    62.5930    21.5720    19.4210    17.7200    23.2940    -5.8650     2.2600 
  174.5000    62.7600    21.2210    19.1570    15.9070    23.0210    -5.9940     2.2500 
  174.6250    62.3210    20.7150    18.6860    15.2320    22.8580    -6.1450     2.2390 
  174.7500    63.3920    19.8940    17.9260    14.6650    22.9280    -6.3350     2.2310 
  174.8750    65.5780    18.6390    16.7990    13.9210    23.2120    -6.5540     2.2290 
  175.0000    65.9410    16.9760    15.3330    12.8440    23.6120    -6.7630     2.2330 
  175.1250    64.3820    15.1460    13.7070    11.7310    23.8900    -6.9050     2.2450 
  175.2500    64.6190    13.5840    12.2680    10.6700    23.8980    -6.9850     2.2590 
  175.3750    67.2440    12.6390    11.2990     9.7300    23.5980    -6.9840     2.2730 
  175.5000    70.2530    12.5560    11.0210     9.5430    23.1190    -6.8540     2.2820 
  175.6250    70.2360    13.6170    11.7240    11.0180    22.6860    -6.6350     2.2830 
  175.7500    66.5750    15.6050    13.2950    13.8880    22.4140    -6.3260     2.2740 
  175.8750    60.0650    18.2860    15.6090    17.7380    22.3470    -5.9720     2.2560 
  176.0000    53.0910    21.2450    18.3660    21.7690    22.4070    -5.6460     2.2360 
  176.1250    48.6540    23.8290    21.0360    23.6760    22.5920    -5.3410     2.2200 
  176.2500    49.0090    25.5900    23.1140    23.9420    22.9550    -5.1300     2.2110 
  176.3750    52.8580    26.3670    24.3440    23.3990    23.4660    -4.9840     2.2110 
  176.5000    56.0800    26.2710    24.7160    22.7230    24.0300    -4.9190     2.2160 
  176.6250    58.1900    25.5280    24.3330    21.8620    24.5020    -4.9680     2.2220 
  176.7500    61.2800    24.5860    23.5960    21.1840    24.7830    -5.0410     2.2270 
  176.8750    64.1850    23.7310    22.7690    20.5880    24.8990    -5.1560     2.2320 
  177.0000    63.9380    23.1810    22.0840    19.7990    24.9280    -5.2800     2.2360 
  177.1250    60.2290    23.0650    21.7190    18.7330    24.9270    -5.3850     2.2410 
  177.2500    57.2790    23.1340    21.5510    18.1250    24.9410    -5.4870     2.2460 
  177.3750    56.4740    23.0370    21.3350    18.3440    24.9910    -5.6120     2.2510 
  177.5000    57.4480    22.4210    20.7840    18.8100    25.0320    -5.7490     2.2600 
  177.6250    58.2140    21.0430    19.6630    17.7810    24.9050    -5.8820     2.2710 
  177.7500    58.3080    19.2950    18.2110    15.7840    24.6070    -6.0150     2.2830 
  177.8750    59.2980    17.6670    16.7810    13.6780    24.2610    -6.0930     2.2910 
  178.0000    61.7150    16.6200    15.7510    11.9310    23.9820    -6.1160     2.2920 
  178.1250    62.7920    16.5590    15.5150    11.8760    23.7530    -6.0730     2.2860 
  178.2500    62.5850    17.3180    16.0270    13.0130    23.5150    -5.9630     2.2760 
  178.3750    62.6870    18.6710    17.1660    14.8370    23.2500    -5.7940     2.2660 
  178.5000    62.7600    20.2790    18.6790    16.6350    22.9990    -5.5660     2.2550 
  178.6250    61.1140    21.6650    20.1640    17.6260    22.8650    -5.3180     2.2460 
  178.7500    58.1650    22.4990    21.2380    18.8850    22.8940    -5.0660     2.2390 
  178.8750    56.5590    22.6590    21.7010    19.4970    23.0680    -4.8920     2.2340 
  179.0000    58.5560    22.2310    21.5540    19.0450    23.3100    -4.7730     2.2340 
  179.1250    62.2110    21.4540    20.9520    17.4150    23.5190    -4.7120     2.2400 
  179.2500    63.8840    20.7280    20.2750    15.4940    23.6010    -4.7150     2.2480 
  179.3750    62.6070    20.2950    19.7690    13.8830    23.5360    -4.7130     2.2580 
  179.5000    60.7210    20.2450    19.5560    12.8570    23.3800    -4.7360     2.2670 
  179.6250    59.6480    20.4750    19.6080    12.4360    23.2160    -4.7610     2.2750 
  179.7500    58.7500    20.6370    19.6600    12.6830    23.0690    -4.7640     2.2810 
  179.8750    59.1550    20.4710    19.4880    13.5900    22.9400    -4.7580     2.2840 
  180.0000    61.3270    19.8650    18.9690    14.5300    22.8240    -4.7060     2.2840 
  180.1250    62.4700    18.9290    18.1390    14.0390    22.7300    -4.6340     2.2820 
  180.2500    61.7000    18.0630    17.3100    12.7510    22.6570    -4.5380     2.2820 
  180.3750    59.9630    17.5780    16.7520    12.0990    22.6360    -4.4140     2.2870 
  180.5000    58.2630    17.6550    16.6520    12.5980    22.7080    -4.2600     2.2930 
  180.6250    56.3350    18.3860    17.1570    13.6540    22.8610    -4.0740     2.2940 
  180.7500    54.5910    19.5220    18.0940    14.8710    23.0300    -3.8640     2.2840 
  180.8750    54.2990    20.8610    19.2990    16.2970    23.1840    -3.6300     2.2650 
  181.0000    55.8230    22.2100    20.5790    17.4080    23.3200    -3.3940     2.2440 
  181.1250    56.8300    23.3890    21.7340    18.1750    23.4340    -3.1570     2.2290 
  181.2500    55.1570    24.3430    22.6890    18.5140    23.5110    -2.9720     2.2250 
  181.3750    52.8800    25.0670    23.4350    18.7350    23.5430    -2.8340     2.2290 
  181.5000    53.4210    25.6100    24.0090    18.8000    23.5430    -2.7340     2.2380 
  181.6250    56.2170    26.0250    24.4400    18.7800    23.5280    -2.7150     2.2470 
  181.7500    57.1290    26.3520    24.7740    18.9090    23.5130    -2.7620     2.2530 
  181.8750    55.8410    26.5340    24.9920    19.1330    23.5000    -2.8820     2.2550 
  182.0000    54.7610    26.4680    25.0400    19.4620    23.4920    -3.0640     2.2530 
  182.1250    55.7300    25.9730    24.7900    19.6470    23.5160    -3.3400     2.2470 
  182.2500    57.0020    25.0870    24.2390    19.8910    23.5640    -3.6500     2.2370 
  182.3750    57.0370    23.9760    23.4770    19.8390    23.6000    -4.0100     2.2230 
  182.5000    55.0280    23.0310    22.7780    19.1170    23.5790    -4.4860     2.2080 
  182.6250    52.9920    23.0060    22.7530    18.0410    23.4880    -4.9440     2.2070 
  182.7500    52.5290    24.2420    23.7770    17.5220    23.3850    -5.4110     2.2320 
  182.8750    53.2190    26.6520    25.8890    18.7700    23.3430    -5.8410     2.2920 
  183.0000    53.8390    29.4980    28.5540    22.7640    23.4230    -6.1950     2.3870 
  183.1250    53.8160    31.1120    30.3490    28.6770    23.5930    -6.4820     2.5020 
  183.2500    53.1970    30.2150    29.9730    32.8450    23.7160    -6.6680     2.6010 
  183.3750    54.0270    26.4720    26.8930    33.0570    23.6770    -6.7720     2.6580 
  183.5000    58.3220    20.9260    21.8310    27.1640    23.4580    -6.7990     2.6610 
  183.6250    66.8000    15.6770    16.6280    17.1870    23.1620    -6.7720     2.6170 
  183.7500    73.6470    11.9760    12.6850    10.8160    23.0030    -6.6770     2.5620 
  183.8750    75.0010     9.9570    10.2710     8.6570    23.0480    -6.5780     2.5180 
  184.0000    72.2910     9.3900     9.2300     8.6050    23.2770    -6.4940     2.4980 
  184.1250    70.1300    10.1730     9.5170    10.2330    23.6600    -6.3780     2.5050 
  184.2500    68.2400    11.8600    10.7580    12.6570    24.0910    -6.2990     2.5290 
  184.3750    64.1320    14.2010    12.7780    15.0810    24.4450    -6.2330     2.5620 
  184.5000    57.7760    16.8640    15.3120    17.4620    24.6360    -6.1580     2.5990 
  184.6250    53.9330    19.3570    17.9400    20.4400    24.6960    -6.0940     2.6380 
  184.7500    54.5390    21.2650    20.1760    21.2810    24.6990    -6.0580     2.6720 
  184.8750    55.8020    22.3670    21.7090    21.5180    24.6850    -6.0210     2.6980 
