~V
VERS. 2.00: Ver 2.00
~W
STRT.M 55.0000:
STOP.M 247.0000:
STEP.M 0.1250:
NULL. -999.2500:
UWI. F10032:
~C
DEPT.M :
GR.API :
RML.OHMM :
RI. :
RXO.OHMM :
CALI.CM :
DEN.GM/CC :
SP.MV :
~A
# ...
  190.0000    74.4680     6.3420     6.7560     6.3570    23.7150     2.4360   -13.5350 
  190.1250    69.6050     6.4600     6.5870     5.5340    24.0640     2.4000   -13.3150 
  190.2500    64.3170     6.9590     6.9040     5.7990    24.5750     2.3600   -13.1720 
  190.3750    63.0020     7.6320     7.5150     6.4690    24.8340     2.3280   -13.0700 
  190.5000    66.0680     8.2710     8.2350     7.0370    24.7260     2.3130   -13.0470 
  190.6250    70.8130     8.6310     8.7810     7.7070    24.5080     2.3210   -13.1140 
  190.7500    74.2750     8.6850     8.9990     8.4710    24.3740     2.3380   -13.2060 
  190.8750    76.1210     8.5370     8.9450     8.3880    24.3500     2.3550   -13.2970 
  191.0000    76.8110     8.3570     8.7760     7.9420    24.4100     2.3610   -13.4010 
  191.1250    75.9120     8.3030     8.6280     7.6500    24.5550     2.3550   -13.4940 
  191.2500    74.7640     8.3990     8.5780     7.7830    24.6200     2.3430   -13.5500 
  191.3750    74.7390     8.6140     8.6260     7.9870    24.4300     2.3290   -13.5610 
  191.5000    77.7170     8.8820     8.6950     8.3570    24.0680     2.3170   -13.5600 
  191.6250    81.2990     9.0830     8.6710     8.7640    23.9020     2.3040   -13.5400 
  191.7500    80.5520     9.1130     8.5200     8.6410    24.0570     2.2900   -13.4590 
  191.8750    75.7960     8.9350     8.2270     7.9420    24.3360     2.2780   -13.3600 
  192.0000    70.7950     8.5960     7.8180     7.7520    24.5580     2.2750   -13.2540 
  192.1250    66.9410     8.2130     7.4190     7.7660    24.6430     2.2880   -13.0770 
  192.2500    63.6530     7.9190     7.1340     7.4840    24.6360     2.3170   -12.8730 
  192.3750    62.2970     7.7820     6.9710     6.9190    24.6000     2.3540   -12.7050 
  192.5000    62.7490     7.8190     6.9110     6.6490    24.5540     2.3890   -12.5590 
  192.6250    62.1810     8.0260     6.9660     7.4080    24.5190     2.4050   -12.4070 
  192.7500    61.9540     7.8510     7.0900     8.0360    24.4890     2.3990   -12.2750 
  192.8750    64.6860     7.6760     7.2400     7.9530    24.4770     2.3740   -12.1790 
  193.0000    68.4370     7.9190     7.4000     7.4130    24.4780     2.3400   -12.1070 
  193.1250    69.0590     8.1230     7.5620     7.5280    24.4590     2.3120   -12.0350 
  193.2500    68.2780     8.3070     7.7030     7.6930    24.4380     2.2990   -11.9480 
  193.3750    69.0610     8.4400     7.8170     7.8360    24.4670     2.3030   -11.8470 
  193.5000    70.5180     8.4490     7.8820     8.0600    24.5360     2.3160   -11.7040 
  193.6250    69.3010     8.2720     7.8280     8.4610    24.6210     2.3330   -11.4930 
  193.7500    67.0490     8.0260     7.6860     8.5020    24.6680     2.3450   -11.2650 
  193.8750    64.8150     7.8660     7.5680     7.9600    24.6490     2.3500   -11.0360 
  194.0000    62.8170     7.9150     7.5670     7.6400    24.6130     2.3460   -10.8010 
  194.1250    61.1920     8.2050     7.7030     8.4380    24.5820     2.3340   -10.5760 
  194.2500    63.8970     8.5430     7.8830     9.7230    24.5510     2.3240   -10.3730 
  194.3750    72.9150     8.7140     7.9820     9.4770    24.5100     2.3230   -10.1840 
  194.5000    83.3110     8.5470     7.8540     8.4950    24.4260     2.3350   -10.0190 
  194.6250    88.1890     7.9890     7.4340     7.6070    24.2870     2.3590    -9.8840 
  194.7500    91.0600     7.3140     6.9340     6.6660    24.2270     2.3840    -9.7540 
  194.8750    95.0400     6.7620     6.5160     6.4560    24.2160     2.4030    -9.6290 
  195.0000    97.6910     6.4780     6.2650     6.5530    24.1710     2.4090    -9.5130 
  195.1250    94.6770     6.4970     6.2230     6.6460    24.1640     2.4020    -9.4060 
  195.2500    91.9250     6.6580     6.3030     6.8650    24.3850     2.3880    -9.2990 
  195.3750    91.1510     6.8380     6.4100     7.1910    24.6590     2.3740    -9.1920 
  195.5000    90.4740     6.9500     6.4920     7.1560    24.7880     2.3630    -9.0670 
  195.6250    91.3030     6.9440     6.5360     7.1240    24.7920     2.3590    -8.9270 
  195.7500    94.7500     6.8430     6.5180     7.0440    24.7920     2.3590    -8.8140 
  195.8750    97.6380     6.6680     6.4150     6.9450    24.7920     2.3600    -8.7150 
  196.0000    96.9000     6.4530     6.2640     6.7790    24.7920     2.3620    -8.5910 
  196.1250    92.7360     6.2690     6.1370     6.3970    24.7920     2.3640    -8.4620 
  196.2500    88.8850     6.1710     6.0550     6.0180    24.7920     2.3690    -8.3750 
  196.3750    88.1140     6.1800     6.0260     5.8810    24.7920     2.3760    -8.3060 
  196.5000    90.3930     6.2830     6.0570     6.0120    24.7920     2.3830    -8.2430 
  196.6250    92.2110     6.4320     6.1210     6.2140    24.8010     2.3890    -8.2280 
  196.7500    90.1200     6.5680     6.1720     6.3640    24.8210     2.3920    -8.2370 
  196.8750    86.5490     6.6560     6.2040     6.2270    24.8440     2.3940    -8.2100 
  197.0000    86.3350     6.6650     6.2050     6.1680    24.8640     2.3950    -8.1580 
  197.1250    88.6610     6.5460     6.1130     6.3760    24.8870     2.3950    -8.1460 
  197.2500    89.5690     6.3160     5.9390     6.5300    24.9020     2.3930    -8.1180 
  197.3750    88.2010     6.0200     5.7420     6.3840    24.9070     2.3900    -8.0220 
  197.5000    86.2670     5.7800     5.5860     6.1890    24.9010     2.3880    -7.9380 
  197.6250    85.6580     5.8360     5.5800     6.1020    24.8810     2.3860    -7.8850 
  197.7500    85.2490     6.2870     5.8200     6.2780    24.8450     2.3820    -7.7860 
  197.8750    84.1140     7.0870     6.3400     7.2840    24.8130     2.3710    -7.6730 
  198.0000    80.8890     8.0280     7.0410     8.2480    24.8030     2.3540    -7.5960 
  198.1250    75.7520     8.7060     7.6720     9.2450    24.8070     2.3390    -7.5290 
  198.2500    71.4950     8.8640     7.9880    10.9080    24.8080     2.3340    -7.4350 
  198.3750    69.1850     8.5050     7.8870    10.8610    24.7910     2.3410    -7.3310 
  198.5000    69.9850     7.9000     7.4930     7.9820    24.7540     2.3550    -7.2180 
  198.6250    73.3620     7.4780     7.1260     6.9430    24.6700     2.3630    -7.0940 
  198.7500    73.9190     7.4560     7.0150     6.9440    24.5930     2.3630    -6.9710 
  198.8750    70.4870     7.8650     7.2120     6.6030    24.5810     2.3610    -6.8650 
  199.0000    66.3860     8.6070     7.6940     6.4830    24.6490     2.3650    -6.7850 
  199.1250    65.7020     9.4250     8.3590     7.6920    24.6280     2.3780    -6.7070 
  199.2500    67.0820    10.0000     8.9350     9.8000    24.4710     2.3930    -6.6320 
  199.3750    69.0990    10.2150     9.2720    11.5210    24.2550     2.4080    -6.5940 
  199.5000    72.0120    10.1450     9.3820    12.3120    24.1070     2.4240    -6.5950 
  199.6250    75.9760     9.9530     9.3330    12.6940    24.0520     2.4450    -6.6000 
  199.7500    79.6500     9.8150     9.2390    13.0140    24.0700     2.4670    -6.5950 
  199.8750    82.0070     9.8120     9.1950    13.5090    24.1610     2.4780    -6.6140 
  200.0000    83.5070     9.9570     9.2580    13.3740    24.3710     2.4690    -6.6380 
  200.1250    84.2780    10.2300     9.4180    13.4560    24.6110     2.4350    -6.6320 
  200.2500    84.3260    10.5650     9.6340    14.3610    24.7110     2.3940    -6.6470 
  200.3750    85.1050    10.9170     9.9080    15.2990    24.7010     2.3610    -6.6950 
  200.5000    86.8800    11.2370    10.2050    15.7750    24.6760     2.3470    -6.7360 
  200.6250    88.0200    11.4810    10.4580    14.4960    24.6670     2.3600    -6.7600 
  200.7500    87.2530    11.6430    10.6530    13.4780    24.6540     2.3870    -6.8060 
  200.8750    85.6890    11.7230    10.7700    14.6050    24.6300     2.4180    -6.8750 
  201.0000    82.7060    11.7240    10.7780    16.2190    24.6250     2.4400    -6.9190 
  201.1250    79.6130    11.6430    10.6900    15.5510    24.6410     2.4450    -6.9560 
