~V
VERS. 2.00: Ver 2.00
~W
STRT.M 50.0000:
STOP.M 278.0000:
STEP.M 0.1250:
NULL. -999.2500:
UWI. F10031:
~C
DEPT.M :
GR.API :
RML.OHMM :
RI. :
RXO.OHMM :
CALI.CM :
DEN.GM/CC :
SP.MV :
~A
# ...
  207.5000    72.9590    12.9520    11.5580    13.4390    23.7730     2.3280    -8.3130 
  207.6250    73.0840    12.4800    11.1670    12.7380    23.8420     2.3420    -8.1880 
  207.7500    72.5960    12.1650    10.9270    12.6340    23.8390     2.3460    -8.0750 
  207.8750    72.1350    12.0210    10.8600    12.8030    23.7960     2.3390    -7.9830 
  208.0000    71.4270    12.0390    10.9620    13.0850    23.7400     2.3250    -7.9130 
  208.1250    70.5130    12.2350    11.2450    13.3530    23.6940     2.3110    -7.8840 
  208.2500    70.7970    12.5670    11.6530    13.6760    23.5750     2.3030    -7.8700 
  208.3750    71.6020    12.9860    12.1330    14.0110    23.3790     2.3010    -7.8710 
  208.5000    70.5350    13.3820    12.5790    14.3240    23.1610     2.3050    -7.8790 
  208.6250    67.2650    13.5300    12.7780    14.5930    22.9740     2.3140    -7.8920 
  208.7500    65.0700    13.2930    12.5960    14.4530    22.8440     2.3260    -7.9040 
  208.8750    65.3480    12.6400    11.9860    13.7740    22.8590     2.3370    -7.9130 
  209.0000    67.4300    11.6710    11.0300    12.2470    23.0110     2.3420    -7.9020 
  209.1250    69.7720    10.5850     9.9160    10.1960    23.2910     2.3380    -7.8740 
  209.2500    72.9290     9.6050     8.8780     8.6120    23.5260     2.3300    -7.8530 
  209.3750    76.9080     8.8360     8.0360     8.1640    23.6420     2.3230    -7.8420 
  209.5000    80.7060     8.3360     7.4580     8.2000    23.6710     2.3250    -7.8340 
  209.6250    82.6370     8.2420     7.2600     8.3430    23.6680     2.3370    -7.8340 
  209.7500    82.3060     8.6640     7.4860     8.8930    23.6600     2.3540    -7.8440 
  209.8750    79.6750     9.8820     8.3210    10.6630    23.6410     2.3740    -7.8700 
  210.0000    75.0890    12.3110    10.1240    14.0550    23.5970     2.3930    -7.9290 
  210.1250    68.7980    16.6920    13.6750    20.3280    23.5120     2.4120    -7.9910 
  210.2500    62.1680    22.7490    18.9740    29.5330    23.4130     2.4310    -8.0470 
  210.3750    56.8600    29.6780    25.5170    40.0260    23.3480     2.4440    -8.0950 
  210.5000    53.6370    35.8470    31.9080    49.8450    23.3140     2.4420    -8.1340 
  210.6250    53.1780    38.4200    35.3750    57.6420    23.3680     2.4150    -8.1480 
  210.7500    54.8950    36.4550    34.4910    57.8040    23.5730     2.3740    -8.1340 
  210.8750    58.1490    30.6360    29.5870    50.2650    23.8610     2.3350    -8.0860 
  211.0000    62.0240    23.2710    22.8720    38.0570    24.0470     2.3140    -8.0110 
  211.1250    66.1070    17.0520    17.0000    23.9960    24.0640     2.3170    -7.9180 
  211.2500    70.9040    12.8030    12.8220    14.0630    24.0310     2.3340    -7.8180 
  211.3750    75.8820    10.3330    10.2030    10.1180    24.0110     2.3510    -7.7230 
  211.5000    79.8550     9.1500     8.7700     9.2550    23.9950     2.3620    -7.6340 
  211.6250    81.2070     8.8400     8.2410     9.4340    23.9700     2.3670    -7.5770 
  211.7500    79.6760     8.8690     8.1550     9.6090    23.9350     2.3690    -7.5580 
  211.8750    77.0840     9.0100     8.2950     9.6950    23.9030     2.3700    -7.5630 
  212.0000    76.0800     9.1630     8.5230     9.7910    23.8810     2.3700    -7.5800 
  212.1250    77.9750     9.3680     8.8150     9.9960    23.8700     2.3660    -7.6210 
  212.2500    80.0660     9.7160     9.2140    10.4390    23.8580     2.3620    -7.6760 
  212.3750    80.4740    10.2580     9.7640    11.2100    23.8380     2.3620    -7.7360 
  212.5000    79.2320    10.9560    10.4430    12.3580    23.8180     2.3680    -7.7990 
  212.6250    77.1010    11.6550    11.1300    13.6930    23.8110     2.3790    -7.8450 
  212.7500    75.0400    12.1480    11.6350    14.7440    23.8090     2.3870    -7.8740 
  212.8750    73.5530    12.3070    11.8230    15.1450    23.8090     2.3890    -7.8960 
  213.0000    73.2280    12.1290    11.6690    14.6250    23.8090     2.3840    -7.9140 
  213.1250    73.7170    11.7840    11.3000    13.6190    23.8090     2.3780    -7.9270 
  213.2500    73.7410    11.5920    11.0130    13.0900    23.8090     2.3730    -7.9400 
  213.3750    73.4380    11.7710    11.0180    13.2490    23.8080     2.3720    -7.9530 
  213.5000    73.8680    12.3920    11.4120    14.0650    23.8050     2.3710    -7.9710 
  213.6250    73.1920    13.3640    12.1780    15.6620    23.7980     2.3690    -8.0060 
  213.7500    69.7510    14.3230    13.0300    17.4180    23.7830     2.3630    -8.0480 
  213.8750    65.7170    14.9800    13.7050    18.3680    23.7600     2.3550    -8.1100 
  214.0000    64.2910    15.1570    14.0010    18.3320    23.7440     2.3480    -8.1850 
  214.1250    65.6470    14.8270    13.8170    17.1210    23.7380     2.3500    -8.2660 
  214.2500    66.6000    14.2950    13.3890    15.6470    23.7340     2.3620    -8.3430 
  214.3750    66.9730    13.7930    12.9200    14.5260    23.7260     2.3800    -8.4080 
  214.5000    66.7680    13.4520    12.5520    14.2570    23.7110     2.3950    -8.4650 
  214.6250    65.8740    13.3030    12.3480    14.4810    23.6920     2.3990    -8.5120 
  214.7500    65.7780    13.2410    12.2410    14.5410    23.6730     2.3920    -8.5560 
  214.8750    67.1450    13.2050    12.1820    14.1550    23.6600     2.3790    -8.5850 
  215.0000    68.4650    13.1770    12.1460    13.7000    23.6440     2.3660    -8.6060 
  215.1250    67.7530    13.1850    12.1460    13.5440    23.6230     2.3570    -8.6280 
  215.2500    65.9190    13.2530    12.1990    13.6140    23.6000     2.3510    -8.6440 
  215.3750    65.1650    13.3820    12.3140    13.7520    23.5830     2.3510    -8.6650 
  215.5000    65.8320    13.5500    12.4740    13.9270    23.5610     2.3560    -8.6890 
  215.6250    66.1410    13.7280    12.6550    14.1080    23.5300     2.3690    -8.7200 
  215.7500    65.0920    13.9190    12.8430    14.2560    23.5030     2.3840    -8.7490 
  215.8750    64.3200    14.1630    13.0590    14.3830    23.4990     2.3940    -8.7690 
  216.0000    65.3320    14.5200    13.3440    14.5010    23.4820     2.3960    -8.7860 
  216.1250    66.5270    15.0600    13.7590    14.8880    23.4220     2.3890    -8.7750 
  216.2500    66.7200    15.7390    14.2810    15.7350    23.3720     2.3800    -8.7650 
  216.3750    67.0620    16.4700    14.8510    16.7750    23.3360     2.3740    -8.7570 
  216.5000    68.1500    17.1250    15.3720    17.8850    23.3150     2.3740    -8.7500 
  216.6250    68.5000    17.5430    15.7080    18.8300    23.2970     2.3760    -8.7450 
  216.7500    67.5500    17.7280    15.8560    19.2950    23.2820     2.3730    -8.7580 
  216.8750    66.3780    17.7820    15.8860    19.3950    23.2870     2.3610    -8.7920 
  217.0000    65.9190    17.9350    15.9660    19.7030    23.3190     2.3380    -8.8380 
  217.1250    66.0120    18.7060    16.4780    20.8470    23.3710     2.3080    -8.9070 
  217.2500    65.4580    20.5840    17.8270    23.4810    23.4070     2.2880    -8.9860 
  217.3750    62.3500    24.0700    20.5050    28.6180    23.4140     2.2950    -9.0620 
  217.5000    57.1430    29.4060    24.8820    37.7300    23.3930     2.3430    -9.1280 
  217.6250    53.1190    36.3450    31.0670    52.4030    23.3620     2.4400    -9.1900 
  217.7500    51.2280    43.2220    37.7360    70.1560    23.3220     2.5550    -9.2460 
  217.8750    49.9890    48.1990    43.2240    84.2790    23.2810     2.6530    -9.3150 
  218.0000    48.5340    49.6570    45.7900    85.6080    23.2660     2.7000    -9.4110 
  218.1250    48.9990    46.5580    43.9990    72.3350    23.2940     2.6700    -9.5470 
  218.2500    52.5260    41.0030    39.5040    55.8060    23.3550     2.5920    -9.7160 
  218.3750    57.1640    34.9310    34.0950    42.8120    23.4200     2.4930    -9.9210 
  218.5000    60.4520    29.7350    29.1860    35.2970    23.4550     2.3970   -10.1620 
  218.6250    60.8360    26.1750    25.6080    31.0030    23.4580     2.3230   -10.4190 
