~V
VERS. 2.00: Ver 2.00
~W
STRT.M 50.0000:
STOP.M 293.0000:
STEP.M 0.1250:
NULL. -999.2500:
UWI. F10037:
~C
DEPT.M :
GR.API :
RML.OHMM :
RI. :
RXO.OHMM :
CALI.CM :
SP.MV :
DEN.GM/CC :
~A
# ...
  162.5000    56.4610    25.5390    23.7720    19.6500    22.8900     0.5920     2.2220 
  162.6250    55.1420    25.9510    24.1350    20.0720    22.9660     0.6350     2.2290 
  162.7500    55.2960    26.4430    24.5680    20.7950    23.0790     0.6500     2.2360 
  162.8750    57.1690    26.8920    24.9590    21.6580    23.2370     0.6930     2.2390 
  163.0000    58.2140    27.2390    25.2420    22.0690    23.4310     0.6710     2.2350 
  163.1250    57.1460    27.5120    25.4200    20.6140    23.5620     0.6230     2.2260 
  163.2500    56.8980    27.7660    25.5520    17.5920    23.6130     0.5740     2.2210 
  163.3750    59.3790    27.9040    25.5790    15.1230    23.6000     0.4930     2.2210 
  163.5000    61.8970    27.6680    25.3090    15.8160    23.5400     0.4150     2.2270 
  163.6250    61.7030    26.6300    24.3890    20.0630    23.4510     0.3070     2.2370 
  163.7500    61.2240    24.8990    22.8630    24.8520    23.4150     0.2010     2.2460 
  163.8750    61.6100    22.8870    21.0230    27.1550    23.4320     0.1100     2.2540 
  164.0000    62.0730    21.1920    19.3430    26.3600    23.4490     0.0120     2.2600 
  164.1250    61.8490    20.4040    18.3530    25.0100    23.4450    -0.0370     2.2610 
  164.2500    60.9350    20.3940    18.0530    24.7260    23.4680    -0.0730     2.2580 
  164.3750    58.8940    20.8420    18.2490    25.3850    23.5570    -0.1190     2.2520 
  164.5000    56.7080    21.3460    18.6400    25.6240    23.6900    -0.1770     2.2480 
  164.6250    57.5010    21.6320    18.9820    23.3750    23.7910    -0.2620     2.2500 
  164.7500    58.9780    21.8970    19.3250    19.7020    23.7870    -0.3540     2.2570 
  164.8750    58.6750    22.5230    19.9160    17.3350    23.6780    -0.4460     2.2620 
  165.0000    58.1590    23.7460    20.9550    17.9760    23.5070    -0.5310     2.2620 
  165.1250    59.0010    25.3350    22.3310    20.8530    23.3560    -0.6500     2.2530 
  165.2500    58.1340    26.4130    23.3730    24.0010    23.2950    -0.8390     2.2390 
  165.3750    55.4270    26.1730    23.3740    25.2160    23.3590    -1.0880     2.2280 
  165.5000    54.6840    24.2280    21.9130    22.8620    23.4960    -1.3790     2.2250 
  165.6250    58.6670    20.9180    19.1050    18.8120    23.5780    -1.7170     2.2400 
  165.7500    65.3450    17.4830    16.0080    15.1280    23.5270    -2.0660     2.2700 
  165.8750    71.1660    14.5460    13.2630    12.8540    23.3980    -2.4610     2.3040 
  166.0000    72.6670    12.2110    11.1330    11.9520    23.2560    -2.8690     2.3350 
  166.1250    72.6030    10.5790     9.7040    12.0710    23.1930    -3.2560     2.3540 
  166.2500    75.7210     9.5820     8.7960    11.9510    23.1530    -3.6500     2.3620 
  166.3750    79.5450     9.3740     8.4040    10.4510    23.0900    -3.9610     2.3630 
  166.5000    80.4560     9.7750     8.5620     8.4740    23.0000    -4.2300     2.3570 
  166.6250    78.6290    10.8340     9.3410     8.5570    22.9130    -4.4140     2.3410 
  166.7500    75.9390    12.1520    10.4280     9.5240    22.8600    -4.5100     2.3190 
  166.8750    72.3650    13.2310    11.4370    10.6820    22.8120    -4.5880     2.2980 
  167.0000    70.1460    13.5160    11.9170    11.4440    22.7550    -4.6020     2.2890 
  167.1250    71.2500    12.4730    11.3550    10.9970    22.7400    -4.5680     2.2990 
  167.2500    72.3760    10.5950    10.0600     9.3750    22.8330    -4.5100     2.3240 
  167.3750    74.5910     8.5430     8.5050     7.3810    23.0950    -4.4200     2.3540 
  167.5000    81.3820     6.9160     7.1460     5.8150    23.4910    -4.3150     2.3810 
  167.6250    90.1700     5.9720     6.2700     5.1680    23.9330    -4.2450     2.4000 
  167.7500    93.7650     5.5520     5.5150     4.9450    24.2800    -4.1930     2.4140 
  167.8750    90.5480     5.4350     5.1140     4.8310    24.4720    -4.1370     2.4260 
  168.0000    86.0400     5.3190     4.9380     4.7140    24.5300    -4.1200     2.4370 
  168.1250    86.1790     5.2200     4.8750     4.6300    24.4940    -4.1110     2.4430 
  168.2500    88.4410     5.1420     4.8320     4.6190    24.4350    -4.1020     2.4440 
  168.3750    89.2690     5.1000     4.7900     4.5450    24.3840    -4.1060     2.4400 
  168.5000    89.3170     5.0690     4.7600     4.4380    24.3590    -4.1200     2.4360 
  168.6250    89.3240     5.0620     4.7540     4.4400    24.3680    -4.1170     2.4310 
  168.7500    88.8620     5.0700     4.7630     4.6060    24.3960    -4.1110     2.4270 
  168.8750    90.6990     5.0710     4.7700     4.8670    24.4290    -4.1230     2.4220 
  169.0000    95.3250     5.0590     4.7650     5.1030    24.4490    -4.1200     2.4180 
  169.1250    96.9250     5.0500     4.7520     5.2220    24.4470    -4.1470     2.4200 
  169.2500    92.7120     5.0790     4.7540     5.1600    24.4350    -4.1870     2.4290 
  169.3750    89.5190     5.1690     4.7960     5.0900    24.4230    -4.2270     2.4400 
  169.5000    92.5350     5.3290     4.8940     5.2110    24.4230    -4.2790     2.4480 
  169.6250    98.1420     5.5520     5.0610     5.5750    24.4230    -4.3030     2.4500 
  169.7500    98.4750     5.8010     5.2720     5.8860    24.4110    -4.3460     2.4460 
  169.8750    93.9330     6.0500     5.5080     6.0360    24.3890    -4.3880     2.4390 
  170.0000    90.3520     6.2860     5.7480     6.1130    24.3750    -4.4130     2.4310 
  170.1250    91.9360     6.4970     5.9740     6.2690    24.3830    -4.4620     2.4220 
  170.2500    93.6590     6.6870     6.1790     6.4430    24.4000    -4.4800     2.4100 
  170.3750    93.1300     6.8560     6.3580     6.5840    24.4150    -4.4890     2.3980 
  170.5000    92.9050     6.9990     6.5050     6.7380    24.4270    -4.4980     2.3870 
  170.6250    93.2020     7.1040     6.6030     6.8730    24.4330    -4.4970     2.3800 
  170.7500    90.8380     7.1750     6.6510     6.9740    24.4270    -4.5260     2.3790 
  170.8750    87.5380     7.2110     6.6480     6.9950    24.4000    -4.5640     2.3830 
  171.0000    85.3130     7.2110     6.5980     6.8410    24.3630    -4.6080     2.3900 
  171.1250    85.0560     7.1640     6.5010     6.5880    24.3370    -4.6660     2.3980 
  171.2500    85.1870     7.0760     6.3720     6.3720    24.3280    -4.7490     2.4050 
  171.3750    85.2470     6.9620     6.2490     6.2890    24.3220    -4.8400     2.4060 
  171.5000    85.4880     6.8620     6.1620     6.3570    24.2980    -4.9560     2.4010 
  171.6250    88.6850     6.8730     6.1630     6.5140    24.2350    -5.0980     2.3840 
  171.7500    92.0730     7.1030     6.2880     6.7480    24.1240    -5.2220     2.3580 
  171.8750    91.1520     7.6990     6.6230     7.2750    23.9740    -5.3220     2.3300 
  172.0000    84.7890     8.8410     7.2480     8.4480    23.8380    -5.4080     2.3090 
  172.1250    76.7310    10.8680     8.5410    10.9690    23.7560    -5.4730     2.3160 
  172.2500    69.6640    13.7630    10.6710    14.8750    23.7390    -5.4930     2.3590 
  172.3750    64.1910    17.3920    13.7480    20.0850    23.7690    -5.5310     2.4370 
  172.5000    62.2610    21.3230    17.2370    25.8370    23.8310    -5.5420     2.5360 
  172.6250    63.8370    24.6540    20.4140    30.1920    23.9050    -5.5370     2.6270 
  172.7500    64.4390    26.6400    22.5540    31.8250    23.9520    -5.5660     2.6790 
  172.8750    62.2080    26.9460    23.2500    30.3360    23.9330    -5.5770     2.6800 
  173.0000    58.4590    25.8110    22.5800    26.5790    23.8410    -5.6210     2.6310 
  173.1250    56.9350    23.9060    21.0170    21.6140    23.7050    -5.6640     2.5450 
  173.2500    59.0870    22.1420    19.4050    17.0970    23.5730    -5.7040     2.4510 
  173.3750    63.9120    20.9550    18.1910    14.7040    23.4840    -5.7430     2.3650 
  173.5000    68.4360    20.4900    17.5800    14.7020    23.4600    -5.7490     2.2990 
  173.6250    68.8280    20.7230    17.6470    16.3250    23.5400    -5.7560     2.2610 
