~V
VERS. 2.00: Ver 2.00
~W
STRT.M 50.0000:
STOP.M 207.0000:
STEP.M 0.1250:
NULL. -999.2500:
UWI. F10009:
~C
DEPT.M :
GR.API :
RML.OHMM :
RI. :
RXO.OHMM :
CALI.CM :
DEN.GM/CC :
SP.MV :
~A
# ...
  117.5000    90.5740     8.3180     7.5480     9.0430    23.9650     2.2510    -6.3130 
  117.6250    88.8800     9.0840     8.1500    10.0210    23.9300     2.2370    -6.4850 
  117.7500    84.9920     9.8300     8.7480    10.7220    23.8770     2.2290    -6.6440 
  117.8750    80.7540    10.5020     9.2690    11.2840    23.8140     2.2250    -6.7860 
  118.0000    78.0300    11.1240     9.7170    11.8850    23.7500     2.2280    -6.9070 
  118.1250    76.6600    11.7840    10.1650    12.5810    23.6890     2.2420    -6.9870 
  118.2500    76.2040    12.5320    10.6870    13.3970    23.6250     2.2660    -7.0360 
  118.3750    78.1700    13.3380    11.2870    14.3050    23.5730     2.2880    -7.0550 
  118.5000    81.7000    14.1040    11.9040    15.2040    23.5410     2.2910    -7.0500 
  118.6250    82.1450    14.6630    12.4000    15.9730    23.5470     2.2630    -7.0290 
  118.7500    78.9050    14.9630    12.7010    16.3660    23.5600     2.2200    -6.9990 
  118.8750    75.8500    15.0160    12.7930    16.1720    23.5250     2.1820    -6.9630 
  119.0000    76.8680    14.8910    12.7260    15.4160    23.3800     2.1660    -6.9200 
  119.1250    80.9960    14.6560    12.5700    15.1090    23.0750     2.1750    -6.8690 
  119.2500    82.8660    14.3590    12.3810    15.2080    22.7970     2.1930    -6.8040 
  119.3750    81.2330    13.9870    12.1500    15.2120    22.7210     2.2050    -6.7260 
  119.5000    79.1290    13.5230    11.8500    14.7650    22.8720     2.2070    -6.6390 
  119.6250    79.4360    12.9570    11.4480    13.7550    23.1660     2.1990    -6.5480 
  119.7500    80.2300    12.3320    10.9650    12.6590    23.4790     2.1940    -6.4510 
  119.8750    80.7790    11.6820    10.4250    11.8860    23.7280     2.1970    -6.3540 
  120.0000    81.1620    11.0330     9.8610    11.2760    23.8460     2.2120    -6.2580 
  120.1250    81.1620    10.4070     9.3070    10.5650    23.8690     2.2340    -6.1730 
  120.2500    82.1890     9.8140     8.7820     9.6320    23.8710     2.2530    -6.1110 
  120.3750    84.6590     9.2680     8.3030     8.7000    23.8750     2.2650    -6.0800 
  120.5000    88.0130     8.7780     7.8760     8.0480    23.8740     2.2680    -6.0730 
  120.6250    89.8070     8.3520     7.5020     7.8330    23.8360     2.2690    -6.0780 
  120.7500    90.2560     7.9740     7.1600     7.6410    23.7420     2.2760    -6.0750 
  120.8750    90.5250     7.6540     6.8460     7.3780    23.5920     2.2890    -6.0570 
  121.0000    90.4790     7.4320     6.5860     7.1400    23.4350     2.3060    -6.0360 
  121.1250    90.5940     7.4310     6.4700     7.0830    23.3860     2.3170    -6.0370 
  121.2500    90.8820     7.7200     6.5730     7.3790    23.5000     2.3190    -6.0640 
  121.3750    90.3340     8.3400     6.9590     8.2880    23.6930     2.3130    -6.1130 
  121.5000    87.4460     9.2510     7.6320    10.0610    23.8620     2.3050    -6.1760 
  121.6250    82.4050    10.3430     8.5420    12.4950    23.9410     2.2990    -6.2350 
  121.7500    78.6210    11.4520     9.5340    14.8540    23.9790     2.2920    -6.3020 
  121.8750    76.6680    12.5770    10.5560    16.5360    24.0020     2.2850    -6.3920 
  122.0000    74.1840    13.9080    11.6920    17.0930    24.0190     2.2850    -6.4970 
  122.1250    68.0940    15.9440    13.3160    18.8930    24.0110     2.3070    -6.5880 
  122.2500    60.7110    18.9070    15.6960    23.4890    23.9640     2.3540    -6.6520 
  122.3750    55.3690    22.7040    18.8890    29.5650    23.8650     2.4160    -6.6920 
  122.5000    52.3720    26.7370    22.5170    34.8350    23.7250     2.4710    -6.7110 
  122.6250    49.4950    29.6270    25.4720    35.6450    23.6220     2.4930    -6.7310 
  122.7500    47.7900    30.3160    26.6280    31.6630    23.5740     2.4830    -6.7620 
  122.8750    50.8730    28.3850    25.3800    26.6490    23.5870     2.4520    -6.7910 
  123.0000    58.3620    24.3710    22.0740    22.5690    23.6160     2.4150    -6.8090 
  123.1250    65.8840    19.6400    17.9500    18.6800    23.6170     2.3820    -6.8250 
  123.2500    71.7900    15.6830    14.4130    14.6940    23.5890     2.3570    -6.8460 
  123.3750    76.1720    13.1430    11.9900    11.5020    23.5470     2.3500    -6.8630 
  123.5000    78.5210    12.2030    10.8040    10.2260    23.4670     2.3640    -6.8740 
  123.6250    75.7350    13.0110    11.0040    12.2070    23.3340     2.4000    -6.8890 
  123.7500    68.3340    15.0330    12.2810    15.8840    23.1760     2.4450    -6.9010 
  123.8750    60.2450    17.8800    14.4580    20.1130    23.0180     2.4850    -6.9110 
  124.0000    54.9220    21.0420    17.2230    24.9680    22.9160     2.5150    -6.9270 
  124.1250    52.5900    23.8680    20.0810    27.2320    22.9210     2.5300    -6.9600 
  124.2500    50.4130    26.0130    22.5360    27.6870    23.0340     2.5360    -6.9960 
  124.3750    49.0560    27.4610    24.3940    28.7790    23.2080     2.5320    -7.0400 
  124.5000    50.5090    28.4430    25.7150    30.0840    23.3520     2.5230    -7.0960 
  124.6250    53.8140    29.2620    26.6800    30.3450    23.3350     2.5140    -7.1400 
  124.7500    55.7890    30.1420    27.5380    29.8480    23.1410     2.5080    -7.1600 
  124.8750    54.8370    31.0830    28.3410    30.5360    22.8560     2.5030    -7.1550 
  125.0000    51.0260    31.9630    29.0390    31.9670    22.6320     2.4950    -7.1360 
  125.1250    47.8240    32.5500    29.4720    32.5170    22.5460     2.4820    -7.1010 
  125.2500    47.7260    32.7310    29.5670    31.4470    22.5690     2.4720    -7.0620 
  125.3750    48.5570    32.4420    29.2740    30.9330    22.6660     2.4720    -7.0190 
  125.5000    48.5330    31.7350    28.6320    29.7940    22.7980     2.4840    -6.9710 
  125.6250    49.0440    30.7780    27.7780    26.9790    22.8850     2.5020    -6.9310 
  125.7500    49.6840    29.8730    26.9650    25.4550    22.9360     2.5190    -6.9160 
  125.8750    49.3350    29.2310    26.3700    25.7550    23.0460     2.5300    -6.9310 
  126.0000    48.5350    29.0260    26.1360    27.0290    23.2140     2.5350    -6.9590 
  126.1250    49.1110    29.4380    26.4340    28.3960    23.3880     2.5360    -6.9860 
  126.2500    49.9770    30.3190    27.1590    30.8310    23.5180     2.5360    -7.0100 
  126.3750    50.1940    31.4780    28.1750    33.4810    23.5880     2.5350    -7.0370 
  126.5000    49.7950    32.6580    29.2770    36.1460    23.6050     2.5360    -7.0700 
  126.6250    48.4330    33.5240    30.1850    37.8090    23.6080     2.5390    -7.1050 
  126.7500    48.0390    33.9500    30.7440    37.4240    23.6320     2.5460    -7.1380 
  126.8750    49.7230    33.9470    30.9190    34.9480    23.6670     2.5570    -7.1720 
  127.0000    51.9950    33.6400    30.7830    32.7800    23.6960     2.5710    -7.2130 
  127.1250    52.7180    33.1810    30.4540    33.3460    23.7270     2.5830    -7.2840 
  127.2500    51.8950    32.6790    30.0630    34.4410    23.7620     2.5890    -7.3900 
  127.3750    50.0690    32.1090    29.6150    34.5870    23.7870     2.5870    -7.5320 
  127.5000    48.1050    31.3910    29.0510    33.6290    23.8020     2.5770    -7.7040 
  127.6250    46.5550    30.4360    28.2800    32.3910    23.8060     2.5590    -7.8840 
  127.7500    45.8080    29.3120    27.3440    31.0290    23.8040     2.5400    -8.0510 
  127.8750    45.7700    28.1190    26.3280    29.2970    23.8070     2.5230    -8.1890 
  128.0000    46.7100    26.9820    25.3530    27.6440    23.8150     2.5120    -8.2950 
  128.1250    47.5700    26.0500    24.5710    27.0250    23.7990     2.5070    -8.3790 
  128.2500    48.0050    25.3610    24.0290    26.7370    23.7620     2.5030    -8.4490 
  128.3750    49.2000    24.9220    23.7320    26.4050    23.7090     2.4960    -8.4860 
  128.5000    52.0360    24.7050    23.6390    26.2860    23.6690     2.4850    -8.4850 
  128.6250    55.0160    24.6810    23.6900    26.6300    23.7020     2.4710    -8.4600 
