~V
VERS. 2.00: Ver 2.00
~W
STRT.M 57.0000:
STOP.M 255.0000:
STEP.M 0.1250:
NULL. -999.2500:
UWI. F10046:
~C
DEPT.M :
GR.API :
RML.OHMM :
RI. :
RXO.OHMM :
CALI.CM :
DEN.GM/CC :
SP.MV :
~A
# ...
  180.7500    33.6270     6.7590     5.9900     5.4520    26.8830     2.2840    -5.9360 
  180.8750    34.4660     6.7840     6.0130     5.5510    26.9930     2.2780    -5.9170 
  181.0000    35.6150     6.8160     6.0430     5.6150    26.5310     2.2930    -5.8960 
  181.1250    35.9770     6.8530     6.0780     5.5950    25.3820     2.3310    -5.8440 
  181.2500    35.5390     6.8840     6.1060     5.5290    25.1100     2.3720    -5.7650 
  181.3750    34.7630     6.8920     6.1140     5.4800    25.5110     2.3960    -5.6850 
  181.5000    34.0940     6.8700     6.0930     5.4870    25.5840     2.3920    -5.6210 
  181.6250    33.3130     6.8080     6.0350     5.5330    25.1820     2.3610    -5.5910 
  181.7500    32.0700     6.7140     5.9470     5.5170    25.0870     2.3200    -5.5510 
  181.8750    31.4470     6.6010     5.8420     5.4060    25.3140     2.2790    -5.5070 
  182.0000    32.1010     6.4930     5.7420     5.2000    25.7510     2.2440    -5.4870 
  182.1250    33.9090     6.4250     5.6780     4.9520    26.4250     2.2240    -5.4930 
  182.2500    36.0640     6.4040     5.6580     4.7620    26.9140     2.2220    -5.5300 
  182.3750    39.2890     6.4250     5.6780     4.6850    26.5490     2.2420    -5.5620 
  182.5000    44.5950     6.4740     5.7240     4.6970    25.1580     2.2770    -5.5660 
  182.6250    49.4630     6.5350     5.7810     4.7450    24.0620     2.3140    -5.5480 
  182.7500    50.6600     6.5840     5.8260     4.8370    23.9530     2.3370    -5.5210 
  182.8750    48.4760     6.5980     5.8390     4.9770    24.6640     2.3390    -5.4930 
  183.0000    45.1280     6.5630     5.8070     5.1130    25.7180     2.3210    -5.4440 
  183.1250    41.1140     6.4780     5.7270     5.2090    26.7070     2.2960    -5.4110 
  183.2500    36.5880     6.3800     5.6360     5.2560    27.3180     2.2760    -5.4020 
  183.3750    33.3650     6.3080     5.5680     5.2500    27.7990     2.2650    -5.4290 
  183.5000    33.3220     6.2950     5.5570     5.3030    28.1810     2.2650    -5.4990 
  183.6250    36.1870     6.3690     5.6260     5.4110    28.1120     2.2800    -5.5850 
  183.7500    38.4420     6.5070     5.7530     5.5240    27.7460     2.3080    -5.6700 
  183.8750    37.7790     6.6750     5.9070     5.6190    27.3060     2.3440    -5.7280 
  184.0000    35.7460     6.8340     6.0540     5.7040    26.9290     2.3770    -5.7620 
  184.1250    36.7900     6.9300     6.1560     5.7340    26.5850     2.3880    -5.7770 
  184.2500    39.0630     6.9610     6.2110     5.7130    26.5240     2.3810    -5.7920 
  184.3750    39.8720     6.9340     6.2270     5.6920    26.7560     2.3670    -5.8030 
  184.5000    39.1750     6.8650     6.2160     5.7570    26.8540     2.3640    -5.8040 
  184.6250    38.8120     6.8120     6.1850     5.9390    26.7030     2.3780    -5.7570 
  184.7500    38.7240     6.7720     6.1450     6.1730    26.3080     2.4000    -5.6640 
  184.8750    38.0670     6.7220     6.0960     6.4580    25.9510     2.4180    -5.5570 
  185.0000    37.0450     6.6830     6.0380     6.7340    25.8630     2.4260    -5.4570 
  185.1250    35.9950     6.6190     5.9570     6.9320    26.2010     2.4240    -5.3800 
  185.2500    37.4890     6.5360     5.8450     6.7120    26.4070     2.4180    -5.3010 
  185.3750    41.1210     6.4350     5.6990     6.0000    26.1060     2.4070    -5.2080 
  185.5000    43.8250     6.2730     5.5350     5.2850    25.6980     2.3910    -5.1030 
  185.6250    45.9450     6.1250     5.3970     5.0460    25.7600     2.3780    -5.0250 
  185.7500    51.7980     6.0430     5.3200     5.0480    25.8150     2.3760    -4.9840 
  185.8750    59.8010     6.0490     5.3260     5.1390    25.6090     2.3890    -4.9610 
  186.0000    63.4000     6.1440     5.4150     5.2750    25.3040     2.4110    -4.9190 
  186.1250    60.4350     6.3230     5.5830     5.5290    24.7390     2.4300    -4.8350 
  186.2500    59.7850     6.5450     5.7910     5.8330    24.1550     2.4400    -4.7610 
  186.3750    63.4250     6.7850     6.0120     6.0850    23.8160     2.4440    -4.7180 
  186.5000    65.9190     7.0050     6.2120     6.3010    23.9240     2.4470    -4.7240 
  186.6250    63.9420     7.1520     6.3450     6.5380    24.3590     2.4500    -4.7850 
  186.7500    62.3700     7.1940     6.3980     6.8830    24.6560     2.4500    -4.8860 
  186.8750    64.4830     7.1180     6.3690     7.1460    24.7660     2.4430    -5.0140 
  187.0000    68.6370     6.9140     6.2710     7.2610    24.7820     2.4290    -5.1760 
  187.1250    71.4460     6.6550     6.1270     7.2460    24.7610     2.4150    -5.3470 
  187.2500    72.3940     6.4350     5.9790     7.0440    24.7170     2.4030    -5.5020 
  187.3750    71.8230     6.3640     5.8640     6.7010    24.5590     2.3940    -5.6810 
  187.5000    72.3600     6.4280     5.8180     6.4550    24.2510     2.3870    -5.8780 
  187.6250    73.6530     6.6010     5.8910     6.5310    23.8690     2.3810    -6.0930 
  187.7500    72.3610     6.8630     6.0900     6.8370    23.6900     2.3750    -6.3110 
  187.8750    67.8860     7.1730     6.4200     7.3070    23.7030     2.3720    -6.5290 
  188.0000    65.3100     7.5650     6.8670     7.9410    23.9810     2.3740    -6.7500 
  188.1250    67.8170     8.0270     7.3840     8.8310    24.4950     2.3810    -6.9520 
  188.2500    70.6990     8.5110     7.8810     9.7530    24.9420     2.3920    -7.1230 
  188.3750    71.2150     8.9880     8.2860    10.4720    25.1570     2.4070    -7.2660 
  188.5000    70.0180     9.3190     8.5550    10.9060    25.1560     2.4250    -7.3910 
  188.6250    68.6170     9.4200     8.6580    10.7720    25.0370     2.4410    -7.4870 
  188.7500    66.1480     9.3520     8.6540    10.2590    24.9290     2.4520    -7.5650 
  188.8750    64.5630     9.1880     8.5820     9.6740    24.8850     2.4530    -7.6250 
  189.0000    68.4150     9.0300     8.4790     9.1940    24.9050     2.4450    -7.6600 
  189.1250    74.1770     8.9050     8.3780     9.0490    24.9260     2.4340    -7.6680 
  189.2500    74.7060     8.7900     8.3050     8.9580    24.8840     2.4270    -7.6750 
  189.3750    71.2920     8.7380     8.2700     8.8900    24.8300     2.4270    -7.6640 
  189.5000    69.6570     8.7270     8.2720     8.6730    24.7990     2.4340    -7.6230 
  189.6250    71.9170     8.7260     8.2930     8.4840    24.7890     2.4430    -7.5770 
  189.7500    72.9480     8.7350     8.3040     8.3890    24.7790     2.4490    -7.5350 
  189.8750    72.6080     8.7580     8.2950     8.3670    24.7610     2.4510    -7.5060 
  190.0000    72.9560     8.7970     8.2730     8.3990    24.7340     2.4510    -7.5200 
  190.1250    74.9760     8.8350     8.2510     8.5550    24.7310     2.4490    -7.6080 
  190.2500    75.6710     8.8320     8.2340     8.7030    24.7720     2.4450    -7.7150 
  190.3750    73.3900     8.7600     8.2090     8.6700    24.8040     2.4400    -7.8080 
  190.5000    70.3650     8.6360     8.1530     8.6150    24.8220     2.4330    -7.8800 
  190.6250    69.8790     8.4520     8.0480     8.6570    24.8090     2.4280    -7.9380 
  190.7500    70.6540     8.2990     7.9160     8.5890    24.7990     2.4260    -7.9800 
  190.8750    72.9190     8.0960     7.8000     8.6120    24.7880     2.4250    -8.0180 
  191.0000    76.2430     7.9530     7.7690     8.9210    24.7720     2.4230    -8.0630 
  191.1250    78.5010     8.0930     7.9630     9.4680    24.7730     2.4150    -8.1190 
  191.2500    77.6640     8.7380     8.4780    10.2910    24.7600     2.4030    -8.1910 
  191.3750    73.8390    10.1270     9.4430    11.6850    24.7400     2.3990    -8.2850 
  191.5000    68.4400    12.5500    10.9920    14.7180    24.7180     2.4140    -8.3980 
  191.6250    62.1080    16.0450    13.3530    19.5860    24.6710     2.4600    -8.4990 
  191.7500    56.1420    20.0620    16.4040    25.8760    24.6210     2.5240    -8.6090 
  191.8750    52.4830    23.9810    19.9830    32.8160    24.5970     2.5870    -8.7230 
