~V
VERS. 2.00: Ver 2.00
~W
STRT.M 50.0000:
STOP.M 244.0000:
STEP.M 0.1250:
NULL. -999.2500:
UWI. F10003:
~C
DEPT.M :
GR.API :
RML.OHMM :
RI. :
RXO.OHMM :
CALI.CM :
DEN.GM/CC :
SP.MV :
~A
# ...
  117.5000    65.6280    25.1670    19.7040    30.1730    24.5510     2.2130   -12.9690 
  117.6250    60.7820    30.5960    24.5040    37.3590    24.5670     2.1980   -12.8530 
  117.7500    58.4710    35.3060    29.1070    41.2840    24.5760     2.1910   -12.7820 
  117.8750    57.8640    38.6520    32.7580    42.5670    24.6320     2.1900   -12.7250 
  118.0000    58.0600    40.4730    35.0550    43.8830    24.7230     2.1890   -12.6800 
  118.1250    58.0390    40.9820    35.9750    44.5860    24.8270     2.1860   -12.6230 
  118.2500    58.2330    40.9040    36.1910    44.7440    24.8630     2.1800   -12.5990 
  118.3750    59.5730    40.4750    35.9960    44.5930    24.8930     2.1730   -12.6540 
  118.5000    61.7890    39.7170    35.4910    44.5590    24.9640     2.1670   -12.7510 
  118.6250    62.4470    38.5950    34.6810    44.2340    25.0260     2.1630   -12.8250 
  118.7500    61.4290    37.3340    33.7440    43.1520    25.0350     2.1620   -12.8780 
  118.8750    60.1890    36.1770    32.8680    41.4140    25.0200     2.1640   -12.9080 
  119.0000    59.4570    35.3200    32.2140    40.0220    25.0330     2.1710   -12.9070 
  119.1250    60.6920    34.8410    31.8790    39.6100    25.0790     2.1820   -12.9160 
  119.2500    64.0010    34.5200    31.7130    39.9390    25.0910     2.1940   -12.9520 
  119.3750    65.3310    34.1530    31.5570    40.0020    25.1070     2.2010   -12.9920 
  119.5000    62.2510    33.6230    31.2900    39.3610    25.1530     2.2020   -13.0390 
  119.6250    59.3070    33.0030    30.9200    38.1800    25.1200     2.1970   -13.1110 
  119.7500    59.8970    32.5590    30.6340    36.6740    25.0430     2.1940   -13.1900 
  119.8750    59.8090    32.5090    30.6200    36.6570    24.9740     2.1960   -13.2830 
  120.0000    55.9680    32.9590    30.9930    37.3300    24.9340     2.2060   -13.4030 
  120.1250    52.5010    33.8680    31.7920    37.8620    24.9440     2.2220   -13.4900 
  120.2500    53.3800    34.8650    32.7630    38.9170    24.9800     2.2380   -13.5140 
  120.3750    56.7530    35.6680    33.6250    39.4180    24.9510     2.2510   -13.5200 
  120.5000    59.9720    35.9390    34.0640    38.3380    24.8460     2.2580   -13.5040 
  120.6250    61.4330    35.5480    33.7050    37.0500    24.7580     2.2580   -13.4680 
  120.7500    62.4860    34.5160    32.6290    36.3370    24.7960     2.2550   -13.4290 
  120.8750    65.4050    33.2270    31.0820    33.2500    24.8570     2.2510   -13.3680 
  121.0000    69.8940    32.1060    29.4920    27.0590    24.8330     2.2490   -13.2880 
  121.1250    70.8180    30.8620    28.3800    24.2540    24.7820     2.2510   -13.3080 
  121.2500    67.1570    30.3720    27.8710    24.2530    24.7750     2.2510   -13.3990 
  121.3750    62.0040    30.4390    27.8620    25.8150    24.8300     2.2460   -13.4670 
  121.5000    58.9750    30.6410    28.0630    28.5990    24.9010     2.2360   -13.5230 
  121.6250    58.9590    30.4540    28.0660    30.3840    24.9400     2.2250   -13.5410 
  121.7500    60.4100    29.7890    27.7190    29.0030    24.9440     2.2210   -13.5280 
  121.8750    61.3690    28.9190    27.1660    26.2020    24.9510     2.2270   -13.5200 
  122.0000    61.2690    28.3460    26.7690    24.0900    24.9940     2.2380   -13.5150 
  122.1250    60.4680    28.7520    27.0900    23.8290    25.0030     2.2450   -13.4900 
  122.2500    58.3350    30.2530    28.3210    25.7700    24.9830     2.2410   -13.4430 
  122.3750    54.8090    32.7350    30.4650    30.4080    24.8150     2.2260   -13.3920 
  122.5000    51.7420    35.8120    33.2660    37.9460    24.3920     2.2040   -13.3230 
  122.6250    52.1100    38.7920    36.1440    43.3120    24.0230     2.1860   -13.2430 
  122.7500    54.1440    40.9180    38.3230    46.9260    23.8860     2.1770   -13.1780 
  122.8750    54.9670    41.6280    39.1970    49.6630    23.8770     2.1800   -13.1460 
  123.0000    53.8850    40.6760    38.4700    51.8620    23.8670     2.1910   -13.1310 
  123.1250    52.8270    38.0580    36.1190    51.5000    23.8520     2.2050   -13.0930 
  123.2500    52.7510    34.6530    32.9990    46.1840    23.8700     2.2170   -13.0450 
  123.3750    52.0620    31.2140    29.8040    36.0650    23.8850     2.2240   -12.9920 
  123.5000    50.1000    28.5200    27.2130    28.8350    23.9000     2.2240   -12.9210 
  123.6250    50.5680    27.5910    26.0880    27.1220    23.9090     2.2200   -12.8400 
  123.7500    56.3560    28.6930    26.7140    28.7280    23.8550     2.2170   -12.7580 
  123.8750    62.7220    31.8830    29.3000    34.9130    23.7830     2.2190   -12.6810 
  124.0000    64.3720    36.6560    33.6280    46.2440    23.7060     2.2250   -12.6200 
  124.1250    62.1190    41.6520    38.7330    60.0000    23.7190     2.2280   -12.5460 
  124.2500    60.6410    44.9470    42.6820    66.9710    23.8340     2.2250   -12.4690 
  124.3750    61.1720    45.0940    43.7780    65.6960    24.0600     2.2180   -12.3880 
  124.5000    60.8860    41.5520    41.0770    55.1770    24.2800     2.2110   -12.3370 
  124.6250    59.1100    34.8710    34.8180    38.3210    24.2500     2.2090   -12.3890 
  124.7500    57.7610    27.5350    27.6610    26.1390    24.2260     2.2140   -12.4820 
  124.8750    59.8490    21.1330    21.3500    19.9650    24.4710     2.2210   -12.5280 
  125.0000    66.6040    16.4700    16.6810    16.2370    24.8270     2.2280   -12.5170 
  125.1250    72.8290    13.9090    13.9290    13.4410    24.8940     2.2320   -12.4940 
  125.2500    75.5890    12.7820    12.4870    13.1420    24.6710     2.2360   -12.4640 
  125.3750    76.4250    12.6700    12.0300    14.6540    24.3190     2.2420   -12.4660 
  125.5000    75.2880    13.1920    12.2770    16.4570    24.0590     2.2470   -12.4780 
  125.6250    71.0710    14.0820    13.0310    16.4280    24.0370     2.2470   -12.4930 
  125.7500    66.7960    15.0850    14.0110    15.2540    24.2080     2.2440   -12.5410 
  125.8750    64.9110    16.1550    15.1010    14.7730    24.3920     2.2400   -12.6440 
  126.0000    63.9200    17.2840    16.2500    15.9850    24.2450     2.2410   -12.7990 
  126.1250    61.8560    18.5080    17.4730    18.2690    23.9210     2.2500   -12.9460 
  126.2500    60.2070    19.7970    18.7690    20.4410    23.7300     2.2640   -13.0940 
  126.3750    59.9330    21.1260    20.1220    21.8650    23.7450     2.2790   -13.2370 
  126.5000    60.6020    22.3810    21.4940    23.3460    23.9450     2.2950   -13.3950 
  126.6250    60.2810    23.6270    22.8180    25.1380    24.2700     2.3070   -13.5450 
  126.7500    57.9900    24.8990    24.0020    27.7980    24.5530     2.3140   -13.6740 
  126.8750    55.8880    26.2360    24.9260    29.8460    24.7440     2.3080   -13.7760 
  127.0000    56.0650    27.1270    25.4720    29.8730    24.8110     2.2880   -13.8320 
  127.1250    57.1230    27.4160    25.5180    30.6360    24.7280     2.2560   -13.9130 
  127.2500    55.8480    27.2960    25.2180    30.8590    24.6070     2.2230   -14.0110 
  127.3750    53.1600    26.9750    24.7410    30.4170    24.4540     2.2010   -14.1260 
  127.5000    52.2660    26.7030    24.2880    29.5420    24.2610     2.1920   -14.2380 
  127.6250    53.6220    26.7920    24.1160    27.0960    24.0970     2.1960   -14.2770 
  127.7500    55.3670    27.3610    24.3420    25.6690    23.9430     2.2050   -14.2670 
  127.8750    57.2120    28.3930    24.9860    25.5460    23.7740     2.2150   -14.2350 
  128.0000    58.2360    29.6560    25.9040    25.9270    23.6680     2.2260   -14.2230 
  128.1250    55.7680    30.6350    26.7250    26.1080    23.5490     2.2390   -14.2550 
  128.2500    52.4980    30.9050    27.0600    26.1920    23.2980     2.2490   -14.3110 
  128.3750    53.2420    30.3010    26.7120    25.7430    23.0260     2.2540   -14.3530 
  128.5000    56.3340    29.0020    25.7570    24.2240    23.0170     2.2510   -14.3740 
  128.6250    55.9620    27.4770    24.5210    22.3290    23.3350     2.2460   -14.4080 
