~V
VERS. 2.00: Ver 2.00
~W
STRT.M 50.0000:
STOP.M 266.0000:
STEP.M 0.1250:
NULL. -999.2500:
UWI. F10057:
~C
DEPT.M :
GR.API :
RML.OHMM :
RI. :
RXO.OHMM :
CALI.CM :
DEN.GM/CC :
SP.MV :
~A
# ...
  185.0000    45.2520     7.6890     6.7650     6.2800    26.0200     2.2110     2.7120 
  185.1250    44.4650     7.6100     6.6640     6.1480    26.1310     2.1780     2.6140 
  185.2500    46.1930     7.5690     6.6080     6.1260    26.0640     2.1700     2.5440 
  185.3750    49.7480     7.5700     6.5950     6.0820    25.8580     2.1850     2.4970 
  185.5000    53.5960     7.6140     6.6260     6.0130    25.6610     2.2070     2.4490 
  185.6250    58.8920     7.7040     6.7050     6.0260    25.7750     2.2230     2.3550 
  185.7500    65.7370     7.8190     6.8150     6.0640    26.0750     2.2360     2.2200 
  185.8750    72.6200     7.9350     6.9360     6.0420    26.1230     2.2590     2.0630 
  186.0000    79.0850     8.0200     7.0520     6.0390    25.6470     2.3000     1.8810 
  186.1250    83.5470     8.0340     7.1290     6.2970    25.0240     2.3450     1.6790 
  186.2500    83.2430     7.9700     7.1560     6.5330    24.8200     2.3720     1.4630 
  186.3750    79.6240     7.8490     7.1330     6.4740    24.9180     2.3770     1.2210 
  186.5000    78.6200     7.7100     7.0890     6.3350    24.9350     2.3730     0.9230 
  186.6250    81.2690     7.6200     7.0650     6.4420    24.7310     2.3820     0.5720 
  186.7500    82.4030     7.6100     7.0840     6.6450    24.5100     2.4050     0.1910 
  186.8750    82.8450     7.6740     7.1370     6.8070    24.3460     2.4280    -0.2230 
  187.0000    85.0830     7.7580     7.1840     7.2090    24.1290     2.4400    -0.6580 
  187.1250    85.6710     7.7750     7.1670     7.8150    23.8840     2.4340    -1.0930 
  187.2500    81.8520     7.6950     7.0870     7.9140    23.7850     2.4180    -1.5160 
  187.3750    78.0630     7.5450     6.9640     7.4130    23.8420     2.4030    -1.9430 
  187.5000    79.7090     7.3990     6.8310     6.8940    23.8970     2.3940    -2.3610 
  187.6250    84.7170     7.3910     6.7580     6.9220    23.8110     2.3970    -2.7620 
  187.7500    86.9210     7.6220     6.8240     7.3470    23.6930     2.4100    -3.1730 
  187.8750    85.6600     8.1590     7.1080     7.9220    23.6150     2.4280    -3.5880 
  188.0000    83.2170     8.9880     7.6410     8.6220    23.5640     2.4470    -3.9970 
  188.1250    80.9470     9.9970     8.4100    10.1050    23.5670     2.4610    -4.4180 
  188.2500    78.9890    10.9850     9.2690    12.7280    23.6470     2.4680    -4.8730 
  188.3750    77.4990    11.9260    10.1610    15.2490    23.7520     2.4680    -5.3510 
  188.5000    75.9200    13.0640    11.1910    15.5190    23.7860     2.4630    -5.8400 
  188.6250    72.4330    15.2310    12.8710    14.3500    23.7520     2.4560    -6.3420 
  188.7500    68.5800    19.3030    15.8950    16.5230    23.8050     2.4470    -6.8630 
  188.8750    65.3830    26.3590    21.3510    27.4740    23.9840     2.4300    -7.3970 
  189.0000    63.1690    37.4490    30.4810    58.7960    24.2150     2.3970    -7.9280 
  189.1250    60.5990    55.3390    44.6110   120.7270    24.4020     2.3480    -8.4190 
  189.2500    58.3560    79.5130    61.0910   138.4640    24.5200     2.2950    -8.8710 
  189.3750    58.7860    96.9200    75.9680   112.0940    24.5450     2.2550    -9.2860 
  189.5000    60.8570   108.5150    86.6930    93.9080    24.4540     2.2340    -9.6550 
  189.6250    60.8770   117.5670    95.3200    89.9540    24.2880     2.2330    -9.9580 
  189.7500    59.0250   130.9920   107.1390   113.9960    24.1170     2.2350   -10.1870 
  189.8750    57.4470   152.3950   125.1240   186.0850    24.0200     2.2320   -10.3880 
  190.0000    57.2180   181.4720   148.8240   294.4580    24.0640     2.2220   -10.6080 
  190.1250    56.8580   209.7150   171.7150   302.1720    24.1960     2.2100   -10.8470 
  190.2500    56.9970   221.9530   183.5710   266.7180    24.2680     2.1990   -11.0810 
  190.3750    57.9390   211.1600   178.9880   245.7780    24.2620     2.1920   -11.3050 
  190.5000    58.7300   184.9550   161.2560   214.3670    24.2540     2.1890   -11.5300 
  190.6250    59.7640   157.2940   139.4540   163.2090    24.2500     2.1920   -11.7560 
  190.7500    62.3320   135.4180   121.1170   122.3090    24.1740     2.1990   -11.9810 
  190.8750    66.3790   119.6900   107.8240   103.3420    24.0190     2.2070   -12.1660 
  191.0000    69.2430   108.4640    98.6450   100.0300    23.8990     2.2140   -12.2870 
  191.1250    68.4410    99.7350    91.9240    99.6360    23.9500     2.2170   -12.3780 
  191.2500    66.5560    91.1380    85.4300    93.3410    24.0360     2.2200   -12.4450 
  191.3750    65.8180    81.8040    78.1890    84.1660    23.9930     2.2290   -12.4810 
  191.5000    66.7800    71.9250    70.0850    74.8110    23.8070     2.2440   -12.4880 
  191.6250    70.1480    62.6380    61.9130    63.3200    23.6190     2.2640   -12.4650 
  191.7500    74.0710    54.7820    54.6230    51.7120    23.5200     2.2820   -12.4210 
  191.8750    75.7330    48.6420    48.6670    43.9000    23.5360     2.2920   -12.3540 
  192.0000    74.4750    44.2270    44.2040    41.0190    23.6570     2.2950   -12.2870 
  192.1250    72.1530    41.9070    41.6650    40.5320    23.8000     2.2960   -12.2700 
  192.2500    70.0800    41.6810    41.0440    38.8020    23.8980     2.3040   -12.3090 
  192.3750    67.3350    44.0600    42.7640    36.7470    23.9990     2.3190   -12.3650 
  192.5000    64.0330    49.7320    47.4540    38.3750    24.1680     2.3330   -12.3970 
  192.6250    62.1040    60.2580    56.6830    51.7700    24.3440     2.3310   -12.3990 
  192.7500    61.7120    75.4460    70.3310    85.0270    24.3960     2.3040   -12.3970 
  192.8750    61.1230    94.5790    87.5820   143.4800    24.2670     2.2550   -12.4050 
  193.0000    59.6490   115.0400   105.8190   180.2240    24.0640     2.1940   -12.3970 
  193.1250    58.7660   131.3690   120.2210   168.0030    24.0110     2.1420   -12.3420 
  193.2500    58.9900   140.7020   128.5060   160.8290    24.0910     2.1190   -12.2660 
  193.3750    58.9720   143.8110   131.2300   148.0080    24.1830     2.1410   -12.1760 
  193.5000    57.6240   143.9490   131.0000   133.2360    24.1910     2.2110   -12.0680 
  193.6250    56.3240   144.9510   131.2000   142.9370    24.0950     2.3050   -11.9370 
  193.7500    56.0030   148.5960   133.7030   172.3730    23.9650     2.3780   -11.7780 
  193.8750    56.1110   154.6800   138.5470   190.4220    23.9000     2.3990   -11.6060 
  194.0000    56.8450   161.1920   144.2140   190.2690    24.0200     2.3630   -11.4330 
  194.1250    58.3110   162.7070   146.5850   224.7520    24.3230     2.2900   -11.2530 
  194.2500    58.8420   154.9260   142.0020   318.1110    24.6510     2.2190   -11.0760 
  194.3750    58.1830   137.4090   129.3250   295.3320    24.9300     2.1660   -10.9130 
  194.5000    58.5320   114.7660   111.2050   159.8600    25.0950     2.1340   -10.7680 
  194.6250    61.4480   101.1150    92.9830    93.8500    25.1460     2.1230   -10.6330 
  194.7500    65.1820    84.7030    78.6820    70.5620    25.1550     2.1250   -10.4850 
  194.8750    69.0750    74.5660    69.5630    66.7420    25.1630     2.1360   -10.3140 
  195.0000    71.7190    69.7900    65.3690    70.6800    25.1220     2.1520   -10.1280 
  195.1250    70.4800    69.2350    65.3950    72.7130    24.9530     2.1670    -9.9290 
  195.2500    66.9360    70.2830    67.2810    71.7470    24.7390     2.1790    -9.7190 
  195.3750    65.4010    71.1430    69.3290    71.7580    24.5800     2.1880    -9.5170 
  195.5000    67.3760    70.3410    69.9740    72.8510    24.5320     2.1960    -9.3400 
  195.6250    68.8870    66.8300    67.8430    72.0060    24.5480     2.2040    -9.1850 
  195.7500    67.7850    61.5600    63.5670    66.5920    24.5490     2.2110    -9.0450 
  195.8750    65.4070    55.5620    58.0730    57.4910    24.5450     2.2150    -8.9450 
  196.0000    63.6740    49.6760    52.2860    49.4000    24.5400     2.2140    -8.8890 
  196.1250    64.7210    44.4700    46.9010    44.7450    24.5310     2.2080    -8.8660 
