~V
VERS. 2.00: Ver 2.00
~W
STRT.M 57.0000:
STOP.M 257.0000:
STEP.M 0.1250:
NULL. -999.2500:
UWI. F10004:
~C
DEPT.M :
GR.API :
RML.OHMM :
RI. :
RXO.OHMM :
CALI.CM :
DEN.GM/CC :
SP.MV :
~A
# ...
  135.7500    61.6780    27.7970    26.8890    24.0300    25.0010     2.1080    -1.3770 
  135.8750    59.0580    27.4520    26.5090    24.8850    24.9400     2.1050    -1.4550 
  136.0000    60.4660    26.4800    25.6830    23.8160    24.8710     2.1160    -1.5320 
  136.1250    67.3890    25.0310    24.4360    18.1490    24.8890     2.1430    -1.6160 
  136.2500    72.8480    23.7260    23.2300    12.8910    24.7780     2.1780    -1.6910 
  136.3750    71.9030    23.0390    22.4460    13.8370    24.5470     2.2120    -1.7340 
  136.5000    67.3640    23.2050    22.3080    19.4450    24.0830     2.2370    -1.7340 
  136.6250    63.4430    24.1770    22.8670    24.2680    23.7020     2.2360    -1.6810 
  136.7500    61.7130    25.3090    23.6660    22.7670    23.5720     2.2070    -1.5810 
  136.8750    62.7710    26.0290    24.2280    21.7090    23.7230     2.1540    -1.4410 
  137.0000    65.7350    25.9430    24.1520    21.3670    24.0190     2.0860    -1.3070 
  137.1250    66.3740    24.9760    23.2820    20.3780    24.0120     2.0230    -1.1690 
  137.2500    65.0190    23.7810    22.1480    18.9870    23.7380     1.9790    -1.0010 
  137.3750    64.7010    22.9340    21.2430    18.2280    23.5600     1.9560    -0.8290 
  137.5000    66.1680    22.8340    20.9160    18.1050    23.6280     1.9550    -0.6470 
  137.6250    67.6120    23.7740    21.4280    19.0420    23.8520     1.9730    -0.4580 
  137.7500    67.6910    25.5050    22.6280    22.3600    24.0650     1.9990    -0.2900 
  137.8750    68.2740    27.7620    24.3640    25.1390    24.1190     2.0280    -0.1640 
  138.0000    70.8850    30.1530    26.3630    24.8070    23.7110     2.0560    -0.0550 
  138.1250    73.0470    32.1540    28.2090    20.4430    22.9160     2.0780     0.0100 
  138.2500    72.2510    33.5420    29.6160    17.9160    21.9550     2.0900     0.0120 
  138.3750    69.9550    34.3400    30.5070    17.4420    21.1920     2.0950    -0.0510 
  138.5000    68.6410    34.7470    30.9830    18.3980    20.9660     2.0980    -0.1780 
  138.6250    68.8170    34.9950    31.2180    21.0010    21.3970     2.1100    -0.3740 
  138.7500    69.1030    35.2260    31.3790    24.2060    21.9980     2.1340    -0.5990 
  138.8750    68.4070    35.3890    31.4630    25.7770    22.4160     2.1690    -0.8460 
  139.0000    66.5650    35.3310    31.3870    25.5010    22.6010     2.2010    -1.1360 
  139.1250    64.4970    34.7980    30.9550    24.5570    22.4760     2.2150    -1.4550 
  139.2500    64.0490    33.7500    30.0960    23.5310    22.4140     2.2120    -1.8100 
  139.3750    63.8140    32.2070    28.7920    22.0010    22.4640     2.1990    -2.1890 
  139.5000    63.4380    30.2760    27.1040    19.9660    22.6230     2.1860    -2.5760 
  139.6250    65.7830    28.1180    25.1430    19.0340    22.7570     2.1840    -2.9820 
  139.7500    68.5190    25.9720    23.1380    18.5040    22.7980     2.1940    -3.3850 
  139.8750    68.3130    24.0040    21.2530    17.2870    22.7460     2.2050    -3.7470 
  140.0000    66.2530    22.3550    19.6320    15.3520    22.6030     2.2060    -4.0170 
  140.1250    65.5260    21.2210    18.4750    13.9210    22.4400     2.1820    -4.1690 
  140.2500    66.9700    20.5670    17.7700    13.7760    22.3730     2.1430    -4.2210 
  140.3750    69.2790    20.3360    17.4770    14.5930    22.3600     2.1070    -4.1770 
  140.5000    70.7440    20.4210    17.5160    15.5550    22.3680     2.0920    -4.0650 
  140.6250    68.1750    20.7110    17.8270    16.9850    22.3870     2.1130    -3.8810 
  140.7500    65.1090    21.0530    18.2700    17.1490    22.3990     2.1610    -3.6630 
  140.8750    65.6640    21.3700    18.7650    17.2200    22.3920     2.2220    -3.4580 
  141.0000    67.7240    21.6320    19.2450    18.8000    22.4150     2.2740    -3.2780 
  141.1250    69.0900    21.8320    19.6260    21.2870    22.5000     2.2960    -3.1320 
  141.2500    71.2900    21.9970    19.8750    20.0560    22.5590     2.2860    -2.9790 
  141.3750    73.5950    22.1460    19.9880    17.7910    22.5170     2.2570    -2.8400 
  141.5000    71.5810    22.3030    19.9990    16.9460    22.4190     2.2270    -2.7290 
  141.6250    66.2850    22.4510    19.9250    16.9830    22.2970     2.2120    -2.6430 
  141.7500    63.8890    22.5060    19.7650    16.8530    22.2340     2.2090    -2.5880 
  141.8750    65.4480    22.3530    19.4660    16.5620    22.2570     2.2070    -2.5430 
  142.0000    68.8090    21.9060    18.9740    16.2210    22.2870     2.1980    -2.5150 
  142.1250    71.8130    21.1910    18.3040    15.6620    22.3150     2.1770    -2.5320 
  142.2500    73.5620    20.6100    17.7280    15.0480    22.3920     2.1510    -2.6070 
  142.3750    73.9310    20.7160    17.6270    14.6780    22.5200     2.1340    -2.7180 
  142.5000    73.6060    22.0820    18.4260    15.5230    22.6120     2.1470    -2.8330 
  142.6250    73.6320    25.3050    20.7040    18.0520    22.6820     2.2080    -2.9360 
  142.7500    71.5400    29.7970    24.2540    25.8180    22.8030     2.2980    -3.0160 
  142.8750    66.8300    34.5030    28.4610    42.3920    22.9130     2.3800    -3.0720 
  143.0000    61.9630    37.8860    32.0890    46.8480    22.9230     2.4200    -3.1130 
  143.1250    61.7970    38.2490    33.4190    31.5430    23.0630     2.3950    -3.1160 
  143.2500    64.3700    36.2610    32.5430    22.5820    23.3790     2.3380    -3.0920 
  143.3750    66.4150    33.2010    30.3510    21.0610    23.7000     2.2780    -3.0630 
  143.5000    67.5890    30.3100    27.9180    22.8230    23.8580     2.2320    -3.0640 
  143.6250    68.0300    28.2600    25.9370    23.2720    23.7590     2.2040    -3.1130 
  143.7500    68.4490    26.7220    24.3460    22.2800    23.5260     2.1830    -3.1740 
  143.8750    68.7600    25.3330    22.9400    20.4360    23.3170     2.1710    -3.2220 
  144.0000    68.2830    23.9580    21.6210    18.6660    23.1810     2.1670    -3.2350 
  144.1250    69.0080    22.8480    20.5580    17.8360    23.1650     2.1720    -3.2190 
  144.2500    70.3340    22.2980    19.9560    18.1790    23.2170     2.1770    -3.1990 
  144.3750    71.3850    22.4760    19.9720    20.7660    23.2760     2.1730    -3.1790 
  144.5000    70.4790    23.3630    20.6410    22.3550    23.3090     2.1540    -3.1320 
  144.6250    67.7520    24.8240    21.9240    21.7680    23.2820     2.1240    -3.0550 
  144.7500    64.4790    26.4580    23.4770    21.2800    23.2900     2.0910    -2.9790 
  144.8750    61.1740    27.9690    25.0130    22.0580    23.4960     2.0680    -2.9070 
  145.0000    59.8920    29.1070    26.2490    23.2630    23.8250     2.0670    -2.8510 
  145.1250    61.9480    29.6270    26.9020    24.3940    23.9480     2.0970    -2.8100 
  145.2500    63.5060    29.6300    27.0420    24.2890    23.8840     2.1480    -2.7380 
  145.3750    62.8510    29.2700    26.7920    23.1090    23.8060     2.2020    -2.6200 
  145.5000    61.6290    28.7830    26.3320    22.1470    23.7270     2.2390    -2.4850 
  145.6250    63.5170    28.5150    25.9160    21.4820    23.5390     2.2460    -2.3240 
  145.7500    65.7910    28.7330    25.8040    21.2010    23.2860     2.2330    -2.1310 
  145.8750    65.8250    29.6140    26.1830    21.2560    23.1670     2.2120    -1.9320 
  146.0000    64.1740    31.1870    27.1520    21.9260    23.2090     2.1930    -1.7400 
  146.1250    63.9700    33.3070    28.7180    23.1060    23.5010     2.1800    -1.5710 
  146.2500    64.4570    35.4370    30.4780    26.1320    23.9160     2.1710    -1.4410 
  146.3750    62.4260    37.0710    32.0100    29.3460    24.1590     2.1620    -1.3340 
  146.5000    58.5240    37.8070    32.9210    29.3330    24.1390     2.1550    -1.2150 
  146.6250    56.9830    37.4080    32.9090    26.9850    24.1270     2.1500    -1.0720 
  146.7500    58.1590    36.4130    32.3250    25.5650    24.1260     2.1490    -0.9370 
  146.8750    59.2010    35.3720    31.5920    25.0150    24.0590     2.1500    -0.8030 
