~V
VERS. 2.00: Ver 2.00
~W
STRT.M 56.0000:
STOP.M 269.0000:
STEP.M 0.1250:
NULL. -999.2500:
UWI. F10026:
~C
DEPT.M :
GR.API :
RML.OHMM :
RI. :
RXO.OHMM :
CALI.CM :
DEN.GM/CC :
SP.MV :
~A
# ...
  191.0000    57.2570     6.7340     5.8360     6.1430    24.2430     2.4350   -24.0240 
  191.1250    53.0430     7.0620     6.2000     6.0940    24.2450     2.4120   -23.8170 
  191.2500    49.9610     7.2370     6.5000     5.8730    24.4730     2.3840   -23.6540 
  191.3750    47.5200     7.2880     6.7040     5.7480    24.9450     2.3460   -23.5270 
  191.5000    44.9620     7.2880     6.8520     5.6800    25.6950     2.3050   -23.4360 
  191.6250    42.9360     7.3050     6.9880     5.8720    26.0240     2.2810   -23.3810 
  191.7500    43.2310     7.3580     7.1180     6.2230    25.7090     2.2800   -23.3070 
  191.8750    45.8800     7.4440     7.2120     6.3800    25.2450     2.2940   -23.2060 
  192.0000    47.2200     7.5250     7.2360     6.2290    24.8970     2.3040   -23.0930 
  192.1250    44.3820     7.5360     7.1660     6.0730    24.9070     2.2930   -23.0040 
  192.2500    40.3950     7.4510     7.0400     6.1870    25.1940     2.2720   -22.9760 
  192.3750    38.1250     7.3090     6.8960     6.2790    24.9910     2.2580   -22.9720 
  192.5000    37.6170     7.1300     6.7670     6.3300    24.3360     2.2600   -22.9270 
  192.6250    37.8820     6.9690     6.6800     6.3420    23.9120     2.2670   -22.8400 
  192.7500    39.7390     6.8970     6.6370     6.3080    24.2430     2.2500   -22.7890 
  192.8750    42.2110     6.9370     6.6320     6.1830    25.5430     2.1980   -22.7840 
  193.0000    43.2470     7.0360     6.6510     6.0760    27.4980     2.1250   -22.8220 
  193.1250    41.8140     7.1060     6.6660     5.9880    28.3110     2.0690   -22.8750 
  193.2500    40.0020     7.1130     6.6520     5.9840    28.1010     2.0500   -22.8760 
  193.3750    39.8320     7.0730     6.5990     6.1240    28.1650     2.0650   -22.8450 
  193.5000    40.4810     7.0150     6.5090     6.3090    28.6940     2.0950   -22.8510 
  193.6250    39.5770     6.9710     6.3910     6.1390    28.1690     2.1200   -22.8960 
  193.7500    38.1430     6.9460     6.2710     5.9760    26.8760     2.1360   -22.9390 
  193.8750    38.6670     6.9380     6.1720     5.9340    25.8230     2.1440   -22.9720 
  194.0000    41.1710     6.9470     6.1200     5.9520    25.3080     2.1400   -22.9780 
  194.1250    43.1840     7.0000     6.1480     6.0220    24.9500     2.1200   -22.9540 
  194.2500    47.0070     7.1360     6.2630     6.2030    24.5460     2.0880   -22.9400 
  194.3750    53.9960     7.3960     6.4700     6.3830    24.3490     2.0610   -22.9580 
  194.5000    61.2070     7.8020     6.7700     6.6180    24.2810     2.0610   -23.0070 
  194.6250    64.5110     8.3370     7.1640     7.1570    24.3690     2.1070   -23.0630 
  194.7500    66.3450     8.8970     7.6000     7.8730    24.3810     2.1860   -23.0850 
  194.8750    68.9400     9.3860     8.0180     8.6280    24.5530     2.2750   -23.0670 
  195.0000    71.3430     9.7260     8.3530     9.8990    24.5810     2.3470   -23.0300 
  195.1250    70.7100     9.8520     8.5180    11.1780    24.6760     2.3780   -22.9880 
  195.2500    67.8600     9.8080     8.5160    10.6470    25.0290     2.3780   -22.9800 
  195.3750    63.3540     9.6260     8.3670     9.1940    25.4250     2.3620   -22.9900 
  195.5000    58.0970     9.3430     8.1180     8.5500    25.4270     2.3440   -22.9610 
  195.6250    54.3430     8.9970     7.8230     8.4090    25.2870     2.3350   -22.8830 
  195.7500    52.3400     8.6580     7.5410     7.5870    25.0960     2.3370   -22.7990 
  195.8750    51.5250     8.3780     7.2980     6.9540    24.9330     2.3490   -22.7240 
  196.0000    49.4670     8.1860     7.1030     6.7070    24.7560     2.3650   -22.6850 
  196.1250    45.6470     8.0740     6.9600     6.6410    24.7850     2.3720   -22.6860 
  196.2500    43.7340     7.9790     6.8480     6.5290    24.8020     2.3610   -22.6870 
  196.3750    45.6170     7.8630     6.7520     6.3600    24.6550     2.3340   -22.6700 
  196.5000    48.8640     7.7290     6.6650     6.2260    24.3740     2.3030   -22.6470 
  196.6250    50.1040     7.6300     6.5970     6.2540    24.0730     2.2900   -22.6250 
  196.7500    49.1970     7.6090     6.5600     6.4670    23.8220     2.2990   -22.6220 
  196.8750    47.4800     7.6610     6.5540     6.7960    23.6020     2.3180   -22.6500 
  197.0000    45.8640     7.7370     6.5660     6.9490    23.4220     2.3290   -22.6820 
  197.1250    43.3320     7.7500     6.5640     6.8400    23.3520     2.3170   -22.7120 
  197.2500    40.5610     7.6720     6.5340     6.5920    23.4150     2.2900   -22.7390 
  197.3750    39.0350     7.5370     6.4830     6.3080    23.6690     2.2630   -22.7570 
  197.5000    40.3600     7.4210     6.4280     6.0300    24.0250     2.2450   -22.7600 
  197.6250    43.1250     7.4170     6.3990     5.9240    24.4460     2.2450   -22.7570 
  197.7500    44.8700     7.5190     6.4090     6.1350    24.5140     2.2590   -22.7840 
  197.8750    46.1530     7.6720     6.4530     6.7050    24.2970     2.2830   -22.8340 
  198.0000    49.0080     7.7990     6.5150     7.4330    23.9850     2.3080   -22.8750 
  198.1250    52.1840     7.8420     6.5710     7.6320    23.8830     2.3240   -22.8740 
  198.2500    53.0140     7.8380     6.6070     7.3040    23.7960     2.3290   -22.8400 
  198.3750    52.1630     7.8460     6.6300     6.9800    23.7170     2.3240   -22.8250 
  198.5000    52.3190     7.9100     6.6550     6.8860    23.7890     2.3120   -22.8670 
  198.6250    52.8900     8.0210     6.6960     7.5750    23.9240     2.3030   -22.9540 
  198.7500    50.8080     8.1010     6.7400     8.2130    24.0220     2.3060   -22.9980 
  198.8750    47.3770     8.0910     6.7630     7.9350    24.0100     2.3260   -22.9730 
  199.0000    45.3670     7.9740     6.7430     7.4020    23.9610     2.3590   -22.9210 
  199.1250    44.7730     7.7940     6.6700     7.0770    23.9220     2.3900   -22.8990 
  199.2500    44.0910     7.6330     6.5680     6.8400    23.8940     2.4050   -22.9230 
  199.3750    43.5000     7.5270     6.4610     6.7410    23.8400     2.4030   -22.9420 
  199.5000    44.1310     7.4650     6.3630     6.6930    23.6870     2.3950   -22.9130 
  199.6250    46.0920     7.3980     6.2830     6.5730    23.4110     2.3960   -22.8360 
  199.7500    47.9320     7.2920     6.2130     6.4250    23.1730     2.4060   -22.7780 
  199.8750    49.4160     7.1600     6.1540     6.3070    23.0820     2.4180   -22.7840 
  200.0000    51.3610     7.0380     6.1090     6.2370    23.0560     2.4210   -22.8260 
  200.1250    53.3050     6.9730     6.0860     6.1880    23.2220     2.4090   -22.8560 
  200.2500    52.5380     6.9660     6.0900     6.0890    23.4050     2.3850   -22.8380 
  200.3750    50.1130     7.0000     6.1280     6.0630    23.6170     2.3580   -22.7870 
  200.5000    50.3350     7.0590     6.2050     6.0910    23.9650     2.3320   -22.7510 
  200.6250    56.6660     7.1400     6.3240     5.9990    24.2720     2.3150   -22.7650 
  200.7500    63.9870     7.2350     6.4590     6.1280    24.1580     2.3120   -22.8030 
  200.8750    69.1560     7.3250     6.5760     6.5800    23.7180     2.3220   -22.8220 
  201.0000    73.0750     7.3720     6.6430     7.1930    23.5010     2.3400   -22.8050 
  201.1250    76.9450     7.3310     6.6340     7.2800    23.7790     2.3610   -22.7710 
  201.2500    80.3870     7.2210     6.5830     7.1470    24.1840     2.3770   -22.7740 
  201.3750    82.6760     7.0890     6.5270     6.8790    24.5920     2.3850   -22.8310 
  201.5000    82.9580     6.9900     6.4930     6.6030    24.8640     2.3860   -22.9320 
  201.6250    80.8220     6.9640     6.4820     6.7620    24.8170     2.3800   -23.0380 
  201.7500    78.9350     6.9750     6.4590     7.2980    24.5760     2.3690   -23.0930 
  201.8750    77.7430     6.9760     6.4050     7.7260    24.4300     2.3550   -23.1150 
  202.0000    76.7220     6.9310     6.3210     7.7240    24.4050     2.3440   -23.1870 
  202.1250    75.7370     6.8540     6.2490     7.1730    24.2800     2.3380   -23.3270 
