~V
VERS. 2.00: Ver 2.00
~W
STRT.M 50.0000:
STOP.M 293.0000:
STEP.M 0.1250:
NULL. -999.2500:
UWI. F10037:
~C
DEPT.M :
GR.API :
RML.OHMM :
RI. :
RXO.OHMM :
CALI.CM :
SP.MV :
DEN.GM/CC :
~A
# ...
  140.0000    67.0030     8.0250     6.9470     8.9760    23.6730   -11.6270     2.2740 
  140.1250    64.3840     8.7880     7.5220    10.0050    23.4350   -12.1230     2.2780 
  140.2500    65.3940     9.4070     8.0840    10.9450    23.2300   -12.5490     2.2860 
  140.3750    65.3260     9.7040     8.4580    11.3470    23.1070   -12.9290     2.2920 
  140.5000    61.4350     9.6340     8.5660    10.9210    23.0730   -13.2200     2.2910 
  140.6250    58.6220     9.2820     8.4170     9.7420    23.1050   -13.4750     2.2800 
  140.7500    59.0010     8.8890     8.1790     9.1570    23.1940   -13.6690     2.2650 
  140.8750    59.1440     8.5860     7.9620     9.1260    23.3650   -13.7660     2.2480 
  141.0000    57.9150     8.4170     7.8270     9.3180    23.6230   -13.8180     2.2320 
  141.1250    56.8330     8.3690     7.7890     9.4330    23.9630   -13.7440     2.2210 
  141.2500    55.7270     8.3670     7.8000     9.5750    24.3010   -13.5860     2.2150 
  141.3750    54.7840     8.3710     7.8310     9.6720    24.5320   -13.3060     2.2140 
  141.5000    55.1520     8.3700     7.8640     9.6320    24.6050   -12.8720     2.2200 
  141.6250    58.3420     8.3590     7.8840     9.4440    24.5730   -12.3200     2.2300 
  141.7500    62.7230     8.3070     7.8560     9.1770    24.5440   -11.6580     2.2380 
  141.8750    65.2690     8.1480     7.7220     8.8810    24.5540   -10.8950     2.2410 
  142.0000    66.1840     7.8170     7.4250     8.5650    24.5990   -10.0520     2.2390 
  142.1250    70.4430     7.2580     6.9140     8.0710    24.6570    -9.1670     2.2410 
  142.2500    78.9070     6.5600     6.2660     7.2050    24.6980    -8.2580     2.2590 
  142.3750    87.1220     5.8190     5.5620     6.0320    24.7090    -7.4170     2.2950 
  142.5000    92.0010     5.1290     4.8900     4.9660    24.7060    -6.7320     2.3430 
  142.6250    95.6960     4.5730     4.3320     4.5870    24.7020    -6.2740     2.3890 
  142.7500    98.3490     4.1690     3.9140     4.4450    24.6950    -6.0030     2.4210 
  142.8750    98.9550     3.9590     3.6720     4.3360    24.6780    -5.9550     2.4370 
  143.0000    99.5770     4.0100     3.6560     4.2930    24.6480    -6.1580     2.4440 
  143.1250    99.6870     4.4600     3.9770     4.6510    24.5950    -6.6250     2.4530 
  143.2500    94.9860     5.2730     4.6110     5.5960    24.5280    -7.3670     2.4690 
  143.3750    84.4010     6.3650     5.5090     7.0440    24.4600    -8.3190     2.4880 
  143.5000    71.8780     7.5430     6.5360     8.7890    24.4100    -9.4180     2.4970 
  143.6250    62.5430     8.4740     7.4430    10.3480    24.4160   -10.5970     2.4760 
  143.7500    58.3540     8.9640     8.0390    10.8740    24.4960   -11.7680     2.4270 
  143.8750    58.6470     9.0260     8.2690    10.7710    24.6240   -12.9290     2.3630 
  144.0000    60.9550     8.8590     8.2310    10.7580    24.7250   -13.9590     2.3010 
  144.1250    62.2180     8.7290     8.1060    10.9070    24.7580   -14.8380     2.2590 
  144.2500    61.6220     8.7570     8.0490    10.9590    24.7600   -15.5850     2.2380 
  144.3750    59.2400     8.9260     8.0950    10.8020    24.7530   -16.1130     2.2310 
  144.5000    56.5690     9.1660     8.2160    10.6670    24.7390   -16.4920     2.2310 
  144.6250    55.1950     9.3930     8.3620    10.6160    24.7210   -16.6840     2.2330 
  144.7500    55.0900     9.5700     8.4880    10.5600    24.7050   -16.7790     2.2370 
  144.8750    55.6310     9.6900     8.5800    10.4900    24.6890   -16.8270     2.2400 
  145.0000    56.4440     9.7520     8.6280    10.4700    24.6630   -16.8330     2.2440 
  145.1250    56.2180     9.7430     8.6220    10.4930    24.6130   -16.8110     2.2450 
  145.2500    54.8700     9.6690     8.5680    10.4730    24.5530   -16.7540     2.2450 
  145.3750    54.9190     9.5420     8.4780    10.3640    24.5080   -16.6880     2.2420 
  145.5000    58.0840     9.3900     8.3690    10.1770    24.5130   -16.6020     2.2360 
  145.6250    61.5270     9.2630     8.2740     9.9280    24.5930   -16.4990     2.2280 
  145.7500    60.7690     9.2020     8.2180     9.6870    24.6890   -16.3730     2.2220 
  145.8750    58.5240     9.2250     8.2130     9.5590    24.7460   -16.2090     2.2180 
  146.0000    59.4100     9.3220     8.2550     9.6160    24.7630   -16.0160     2.2160 
  146.1250    61.7860     9.4620     8.3270     9.8330    24.7620   -15.8170     2.2180 
  146.2500    61.3230     9.6000     8.4020    10.0660    24.7550   -15.6070     2.2240 
  146.3750    59.6150     9.7140     8.4670    10.1740    24.7330   -15.3920     2.2300 
  146.5000    59.9660     9.8010     8.5180    10.2020    24.6790   -15.1980     2.2330 
  146.6250    61.3880     9.8660     8.5590    10.1770    24.5680   -14.9840     2.2290 
  146.7500    61.0570     9.9150     8.5960    10.1390    24.4060   -14.8190     2.2190 
  146.8750    59.2600     9.9380     8.6250    10.1150    24.2170   -14.6590     2.2080 
  147.0000    57.3140     9.9140     8.6320    10.1380    24.0380   -14.4900     2.2010 
  147.1250    57.2570     9.8070     8.5930    10.1640    23.9310   -14.3070     2.2040 
  147.2500    60.0770     9.6320     8.5020    10.0540    23.8610   -14.0080     2.2120 
  147.3750    63.2220     9.4250     8.3730     9.7860    23.8190   -13.6490     2.2240 
  147.5000    64.6930     9.2440     8.2370     9.4180    23.7840   -13.1770     2.2360 
  147.6250    63.8480     9.1590     8.1460     8.9550    23.7460   -12.6050     2.2460 
  147.7500    63.5650     9.1590     8.1130     8.6590    23.7160   -11.9600     2.2530 
  147.8750    64.7430     9.1780     8.1090     8.8360    23.6780   -11.2090     2.2570 
  148.0000    65.9230     9.1130     8.0710     9.2300    23.6180   -10.4130     2.2580 
  148.1250    66.8100     8.8390     7.9030     9.4350    23.5550    -9.5440     2.2580 
  148.2500    68.3650     8.3770     7.5910     9.2580    23.5120    -8.6550     2.2610 
  148.3750    71.2210     7.8080     7.1720     8.6220    23.4810    -7.7740     2.2700 
  148.5000    73.7610     7.2520     6.7190     7.5840    23.4480    -6.9150     2.2860 
  148.6250    74.6190     6.8290     6.3270     6.7410    23.4130    -6.1250     2.3050 
  148.7500    74.8980     6.5420     6.0260     6.2880    23.3770    -5.3990     2.3190 
  148.8750    75.4300     6.3500     5.8070     6.1760    23.3580    -4.7320     2.3230 
  149.0000    78.3100     6.1930     5.6400     6.1140    23.3840    -4.1260     2.3200 
  149.1250    85.7960     6.0220     5.4920     5.9110    23.5000    -3.6220     2.3160 
  149.2500    92.1690     5.8330     5.3490     5.6220    23.6780    -3.2170     2.3190 
  149.3750    92.5250     5.6570     5.2200     5.4260    23.8420    -2.9210     2.3300 
  149.5000    89.8520     5.5260     5.1230     5.3670    23.8820    -2.7160     2.3490 
  149.6250    90.5190     5.4650     5.0780     5.3670    23.6760    -2.6050     2.3680 
  149.7500    93.9100     5.4490     5.0700     5.4330    23.3120    -2.5360     2.3810 
  149.8750    95.1680     5.4490     5.0830     5.4850    22.9030    -2.5040     2.3820 
  150.0000    94.5570     5.4380     5.0990     5.4480    22.5050    -2.5510     2.3700 
  150.1250    94.9150     5.4180     5.1100     5.4260    22.1610    -2.6150     2.3460 
  150.2500    93.6740     5.4180     5.1220     5.4280    21.7320    -2.7400     2.3230 
  150.3750    90.0000     5.4840     5.1500     5.4900    21.1630    -2.8610     2.3070 
  150.5000    84.8370     5.6440     5.2050     5.6130    20.5410    -2.9720     2.3020 
  150.6250    82.1450     5.9290     5.3050     5.8010    20.1750    -3.1020     2.3050 
  150.7500    82.8650     6.3260     5.4560     5.9950    20.2040    -3.1680     2.3120 
  150.8750    84.1550     6.7530     5.6680     6.1760    20.5700    -3.2470     2.3200 
  151.0000    84.8620     7.1370     5.9380     6.5310    21.2030    -3.2840     2.3320 
  151.1250    84.1910     7.4780     6.2430     6.9940    22.0000    -3.2810     2.3480 
