~V
VERS. 2.00: Ver 2.00
~W
STRT.M 50.0000:
STOP.M 266.0000:
STEP.M 0.1250:
NULL. -999.2500:
UWI. F10057:
~C
DEPT.M :
GR.API :
RML.OHMM :
RI. :
RXO.OHMM :
CALI.CM :
DEN.GM/CC :
SP.MV :
~A
# ...
   72.5000    89.6790     8.5440     7.2810     7.6050    23.8300     2.2670    -2.1610 
   72.6250    86.6540     8.3290     6.9760     6.8500    23.4830     2.2800    -1.8910 
   72.7500    85.0610     8.4990     6.9680     7.1070    23.0660     2.2870    -1.6400 
   72.8750    85.1400     8.8800     7.1790     7.7080    22.8050     2.2920    -1.4620 
   73.0000    84.2520     9.2700     7.4790     8.2420    22.8390     2.2960    -1.3510 
   73.1250    80.8750     9.4750     7.7110     8.2780    23.2240     2.2940    -1.2250 
   73.2500    77.5280     9.4630     7.7870     7.9060    23.7420     2.2840    -1.1120 
   73.3750    76.1660     9.2630     7.6850     7.7970    24.1430     2.2700    -1.0480 
   73.5000    78.5240     8.9100     7.4200     8.3740    24.2950     2.2580    -1.0180 
   73.6250    86.5290     8.4130     7.0090     9.0480    24.2900     2.2600    -0.9800 
   73.7500    97.1100     7.8430     6.5310     8.7770    24.3020     2.2790    -0.9340 
   73.8750   105.6090     7.2740     6.0540     7.6190    24.3500     2.3110    -0.9330 
   74.0000   107.6130     6.7950     5.6510     6.5560    24.3980     2.3460    -1.0020 
   74.1250   105.9840     6.5420     5.4130     6.1870    24.4130     2.3710    -1.1870 
   74.2500   104.9400     6.5720     5.3860     6.2760    24.4160     2.3780    -1.4790 
   74.3750   102.0370     6.9170     5.6040     6.6370    24.4080     2.3680    -1.8350 
   74.5000    94.5660     7.5470     6.0610     7.2010    24.3830     2.3460    -2.2680 
   74.6250    85.6850     8.3690     6.7080     8.1770    24.3240     2.3170    -2.8330 
   74.7500    79.6530     9.1620     7.3890     9.5500    24.2340     2.2840    -3.4070 
   74.8750    75.2450     9.7450     7.9570    10.8330    24.1580     2.2510    -3.8350 
   75.0000    72.8270     9.9970     8.2920    11.4410    24.1330     2.2260    -4.0770 
   75.1250    73.9750     9.8630     8.2920    11.1380    24.1230     2.2170    -4.1570 
   75.2500    76.3650     9.5050     8.0540    10.2530    24.0400     2.2260    -4.0750 
   75.3750    79.5150     9.0530     7.6670     9.1980    23.8900     2.2490    -3.8140 
   75.5000    83.7520     8.6150     7.2320     8.4910    23.8040     2.2770    -3.3950 
   75.6250    88.8390     8.2560     6.8420     8.2090    23.9410     2.2990    -2.8390 
   75.7500    92.7940     7.9620     6.5160     7.8170    24.1980     2.3110    -2.3100 
   75.8750    93.8490     7.7220     6.2460     7.2240    24.3980     2.3120    -1.9500 
   76.0000    93.3330     7.5400     6.0320     6.8650    24.4480     2.3060    -1.7920 
   76.1250    93.3310     7.4430     5.8960     6.9510    24.4170     2.2970    -1.7960 
   76.2500    93.3050     7.4530     5.8580     6.9800    24.3940     2.2860    -1.9490 
   76.3750    91.5340     7.6260     5.9640     6.9680    24.3180     2.2720    -2.2900 
   76.5000    88.5920     8.0180     6.2510     7.3590    24.1180     2.2540    -2.8080 
   76.6250    87.6930     8.6780     6.7530     8.0810    23.8750     2.2390    -3.4310 
   76.7500    86.0310     9.5190     7.4010     8.6460    23.7220     2.2370    -4.0360 
   76.8750    81.7670    10.4330     8.1240     9.2820    23.5760     2.2510    -4.5900 
   77.0000    76.6730    11.2180     8.7800    10.4820    23.3600     2.2760    -5.1170 
   77.1250    73.5810    11.5510     9.1300    11.6620    23.2180     2.2950    -5.6170 
   77.2500    72.1310    11.4120     9.1280    11.9790    23.2750     2.2970    -6.0400 
   77.3750    71.5200    10.9420     8.8510    12.0420    23.4530     2.2810    -6.3350 
   77.5000    72.4560    10.3820     8.4490    12.0320    23.6630     2.2510    -6.5050 
   77.6250    74.2350     9.9770     8.0930    11.1900    23.9280     2.2200    -6.5710 
   77.7500    74.3870     9.7790     7.8550    10.3230    24.1480     2.1980    -6.5980 
   77.8750    74.3010     9.7260     7.7260    10.4460    24.1540     2.1940    -6.5690 
   78.0000    77.2730     9.7210     7.6600    11.7360    23.9540     2.2080    -6.4160 
   78.1250    83.2510     9.6950     7.6080    11.8810    23.8170     2.2340    -6.1190 
   78.2500    86.5180     9.6500     7.5400    10.1900    23.8830     2.2560    -5.7700 
   78.3750    86.3700     9.6290     7.4770     9.0370    23.9930     2.2610    -5.4300 
   78.5000    84.2330     9.6660     7.4530     9.6050    23.9710     2.2490    -5.1060 
   78.6250    80.0800     9.7790     7.5190    10.8500    23.8590     2.2270    -4.8120 
   78.7500    75.8730     9.9480     7.6690    10.9310    23.7860     2.2080    -4.5420 
   78.8750    73.9060    10.1600     7.8840    10.3680    23.7320     2.1970    -4.2820 
   79.0000    74.4990    10.4060     8.1330    10.3020    23.6570     2.1940    -4.0640 
   79.1250    75.4830    10.6540     8.3780    10.7410    23.5580     2.1980    -3.8790 
   79.2500    77.2360    10.8000     8.5500    11.0430    23.4500     2.2060    -3.6930 
   79.3750    80.0390    10.7070     8.5650    11.0840    23.3540     2.2200    -3.4940 
   79.5000    81.0700    10.3000     8.3600    11.0280    23.3280     2.2420    -3.2610 
   79.6250    79.9560     9.6470     7.9470    10.4700    23.4200     2.2680    -3.0020 
   79.7500    80.7380     9.0010     7.4850     9.1140    23.5880     2.2950    -2.7160 
   79.8750    85.8370     8.5480     7.1080     7.6850    23.8450     2.3170    -2.4020 
   80.0000    92.0860     8.3910     6.9060     7.1610    24.1840     2.3330    -2.0730 
   80.1250    91.9080     8.5360     6.9280     7.5670    24.4850     2.3350    -1.8170 
   80.2500    84.8120     8.7660     7.0570     7.8480    24.6420     2.3250    -1.6410 
   80.3750    76.4260     8.8930     7.1800     7.9130    24.6630     2.3050    -1.5470 
   80.5000    74.2350     8.8100     7.2070     8.2970    24.6120     2.2840    -1.5140 
   80.6250    80.4850     8.5390     7.1030     8.7620    24.5470     2.2770    -1.4720 
   80.7500    87.6620     8.2740     6.9540     8.3670    24.5270     2.2880    -1.4390 
   80.8750    90.0790     8.1450     6.8460     7.4530    24.5610     2.3110    -1.4790 
   81.0000    86.0000     8.1870     6.8190     7.0650    24.6170     2.3350    -1.6260 
   81.1250    79.5150     8.3470     6.8660     7.5720    24.6720     2.3480    -1.8340 
   81.2500    77.4940     8.5050     6.9170     8.0130    24.7300     2.3480    -2.0570 
   81.3750    80.0850     8.5970     6.9350     7.9640    24.7710     2.3380    -2.2760 
   81.5000    82.2810     8.6290     6.9220     7.7310    24.7620     2.3200    -2.5500 
   81.6250    82.3460     8.7220     6.9690     7.6750    24.6800     2.2980    -2.9940 
   81.7500    81.8290     9.0180     7.1700     7.7270    24.5020     2.2770    -3.5890 
   81.8750    79.9390     9.6090     7.5800     7.9960    24.1990     2.2620    -4.2610 
   82.0000    75.3460    10.4960     8.1960     8.8680    23.8580     2.2560    -4.9450 
   82.1250    71.2010    11.5680     8.9610    10.5250    23.6400     2.2570    -5.6550 
   82.2500    70.2750    12.5440     9.6960    12.1950    23.5250     2.2610    -6.3920 
   82.3750    70.3100    13.1820    10.2350    13.0930    23.4080     2.2630    -7.1670 
   82.5000    69.3990    13.3520    10.4600    13.1780    23.2530     2.2620    -7.9070 
   82.6250    68.2150    13.0870    10.3420    12.8650    23.1370     2.2590    -8.5170 
   82.7500    68.0000    12.7520    10.0990    12.3200    23.0860     2.2580    -9.0010 
   82.8750    67.7090    12.6360     9.9350    11.7300    23.0820     2.2640    -9.3980 
   83.0000    66.8240    12.9000     9.9910    11.4660    23.1130     2.2800    -9.7590 
   83.1250    67.6410    13.5600    10.3420    11.8070    23.1610     2.2980   -10.0450 
   83.2500    68.7360    14.3180    10.8390    12.3550    23.2110     2.3040   -10.2760 
   83.3750    67.1350    14.8620    11.2910    12.6140    23.2370     2.2870   -10.4560 
   83.5000    63.2130    14.9300    11.4960    12.6740    23.2140     2.2470   -10.6400 
   83.6250    61.2130    14.4090    11.3020    13.2540    23.1510     2.1950   -10.8470 
