~V
VERS. 2.00: Ver 2.00
~W
STRT.M 50.0000:
STOP.M 221.0000:
STEP.M 0.1250:
NULL. -999.2500:
UWI. F10024:
~C
DEPT.M :
GR.API :
RML.OHMM :
RI. :
RXO.OHMM :
CALI.CM :
DEN.GM/CC :
SP.MV :
~A
# ...
   61.2500    76.8330     0.3370     0.5270     3.0710    23.9670     2.5270    21.9570 
   61.3750    88.2310     1.0730     0.7910     4.7740    24.0370     2.4570    17.0140 
   61.5000    96.0870     1.9130     1.2120     5.2200    24.1650     2.3760    11.7740 
   61.6250    95.4790     2.6950     1.8790     4.6610    24.1800     2.3070     6.7670 
   61.7500    88.4300     3.3530     2.7760     4.9920    24.1720     2.2540     2.3320 
   61.8750    78.5120     4.8960     3.8630     6.3450    24.2740     2.2210    -1.2760 
   62.0000    70.9470     6.2940     5.0480     7.5070    24.3780     2.2120    -3.9550 
   62.1250    69.3030     7.6700     6.1610     8.0760    24.1760     2.2280    -5.8090 
   62.2500    71.1610     7.6270     7.0130     8.3310    23.8790     2.2480    -7.2540 
   62.3750    73.9730     7.8890     7.4990     8.6280    23.7180     2.2540    -8.3830 
   62.5000    76.2370     8.1910     7.6630     8.6320    23.6680     2.2390    -9.2100 
   62.6250    77.1600     8.3180     7.6720     8.4650    23.6230     2.2110    -9.8040 
   62.7500    75.3690     8.3370     7.7060     8.3670    23.5290     2.1880   -10.2600 
   62.8750    70.8510     8.3370     7.7990     8.4720    23.3910     2.1770   -10.6060 
   63.0000    67.6100     8.3370     7.9120     8.6670    23.2520     2.1730   -10.8460 
   63.1250    67.8430     8.3370     7.9730     8.8030    23.1590     2.1730   -10.9940 
   63.2500    69.5880     8.2030     7.9350     8.7480    23.0690     2.1730   -11.0560 
   63.3750    71.1890     7.9800     7.7670     8.5950    22.9470     2.1740   -11.0320 
   63.5000    71.8620     7.7750     7.4620     8.2850    22.8770     2.1740   -10.9250 
   63.6250    70.0550     7.4420     7.0670     8.2390    22.9740     2.1680   -10.7330 
   63.7500    66.5460     7.1950     6.7240     8.4510    23.3180     2.1510   -10.4830 
   63.8750    64.3140     7.1400     6.5970     8.7280    23.6780     2.1260   -10.1870 
   64.0000    65.1940     7.4650     6.8790     8.8770    23.9430     2.1080    -9.8510 
   64.1250    65.6290     8.6270     7.9510     9.3880    24.0070     2.1310    -9.4820 
   64.2500    63.7550    10.8650    10.0300    10.9040    23.9280     2.2060    -9.1400 
   64.3750    60.5890    14.5180    13.4270    15.7050    23.8810     2.3240    -8.8300 
   64.5000    58.3670    19.7740    18.3130    29.6030    24.0140     2.4580    -8.6000 
   64.6250    58.2120    26.1140    24.3310    51.8440    24.1810     2.5670    -8.4410 
   64.7500    58.9030    31.1900    29.6400    72.3490    24.2460     2.6340    -8.3950 
   64.8750    60.6840    32.7210    32.3080    74.8890    24.2430     2.6600    -8.4410 
   65.0000    63.7200    30.2350    31.4510    58.6380    24.2310     2.6550    -8.5690 
   65.1250    67.3940    25.3030    27.6650    43.2910    24.2230     2.6280    -8.7970 
   65.2500    69.7200    20.3320    23.0780    33.8910    24.1730     2.5910    -9.0210 
   65.3750    71.1460    16.2010    18.7350    25.6250    24.0240     2.5490    -9.2410 
   65.5000    72.6800    13.1540    15.1350    17.1090    23.8100     2.5040    -9.3810 
   65.6250    72.3070    11.2060    12.5170    13.2620    23.6830     2.4570    -9.3980 
   65.7500    67.8370     9.8790    10.5790    11.0520    23.5720     2.4080    -9.2740 
   65.8750    62.7690     8.8800     9.1190     9.8170    23.4840     2.3600    -9.0040 
   66.0000    63.6950     7.9910     7.9750     8.9260    23.4830     2.3180    -8.6240 
   66.1250    70.8870     7.1100     7.0670     8.3160    23.5970     2.2870    -8.1270 
   66.2500    77.9350     6.4810     6.3100     7.3090    23.8200     2.2670    -7.5960 
   66.3750    82.2000     6.1780     5.7080     5.9750    24.0890     2.2550    -7.0920 
   66.5000    85.0020     5.6880     5.2960     5.3060    24.2870     2.2490    -6.6650 
   66.6250    86.5380     5.4420     5.1190     5.3490    24.3520     2.2470    -6.3480 
   66.7500    86.8730     5.4620     5.1190     5.4170    24.3620     2.2480    -6.1610 
   66.8750    87.0410     5.6500     5.2340     5.1970    24.3710     2.2520    -6.1310 
   67.0000    88.2240     5.8330     5.3950     5.5350    24.3900     2.2590    -6.2010 
   67.1250    88.7800     6.3490     5.5450     6.0700    24.3890     2.2670    -6.4030 
   67.2500    87.1190     7.2730     5.7140     6.3660    24.3760     2.2730    -6.6740 
   67.3750    83.9250     8.2450     6.0280     6.1960    24.2930     2.2750    -6.9140 
   67.5000    80.8410     9.1850     6.6390     6.5660    24.0860     2.2750    -7.1230 
   67.6250    78.8830    10.2800     7.6930     8.1350    23.7720     2.2750    -7.2570 
   67.7500    77.2650    11.2630     8.9740    10.7070    23.6530     2.2770    -7.2940 
   67.8750    75.7430    11.8060    10.0450    15.7830    23.8140     2.2830    -7.2710 
   68.0000    75.3180    11.8890    10.3210    24.4930    24.0700     2.2890    -7.1900 
   68.1250    77.6440    10.6300     9.3840    20.7850    24.2060     2.2900    -7.0420 
   68.2500    83.9630     9.4470     7.8950    11.2080    24.2610     2.2850    -6.8480 
   68.3750    91.5270     7.8170     6.4600     6.6720    24.3100     2.2750    -6.6770 
   68.5000    94.9340     6.6080     5.4170     5.7270    24.3530     2.2630    -6.5310 
   68.6250    91.1410     5.7690     4.9330     5.9980    24.3470     2.2560    -6.4500 
   68.7500    87.1170     5.3520     4.8770     6.2590    24.3010     2.2560    -6.4540 
   68.8750    86.6400     5.9170     5.1340     6.7940    24.2440     2.2600    -6.4910 
   69.0000    86.5080     6.4530     5.5260     7.5520    24.1550     2.2650    -6.5980 
   69.1250    82.8700     6.7010     5.8150     8.9430    24.0260     2.2660    -6.7520 
   69.2500    79.3890     6.6230     5.8780     8.5460    23.8910     2.2620    -6.9310 
   69.3750    78.8500     6.3000     5.7370     6.9740    23.8160     2.2520    -7.1500 
   69.5000    80.0640     5.9180     5.5260     6.0610    23.7270     2.2390    -7.3970 
   69.6250    82.4130     5.7760     5.4780     6.0820    23.5470     2.2260    -7.6830 
   69.7500    84.2500     6.0500     5.7310     6.3070    23.3520     2.2230    -7.9960 
   69.8750    84.3640     6.8120     6.3570     6.1850    23.2830     2.2420    -8.3680 
   70.0000    83.0200     7.9840     7.3370     6.9690    23.3120     2.2880    -8.8010 
   70.1250    80.6720     9.2580     8.4910     9.5470    23.3340     2.3500    -9.2500 
   70.2500    78.1660    10.1470     9.4080    12.2030    23.3810     2.3980    -9.6890 
   70.3750    75.6460    10.3610     9.7720    11.5690    23.5240     2.4110   -10.0970 
   70.5000    73.1040     9.9390     9.5290     9.7180    23.6340     2.3830   -10.4250 
   70.6250    73.0960     9.3220     8.9110     9.0180    23.6670     2.3230   -10.6690 
   70.7500    75.9430     8.9780     8.3120     8.6580    23.6800     2.2590   -10.7880 
   70.8750    78.6430     8.6250     7.8870     8.5180    23.6910     2.2020   -10.7280 
   71.0000    77.8100     8.2660     7.6320     8.5700    23.6820     2.1610   -10.5040 
   71.1250    75.2870     8.0530     7.4530     8.5370    23.6680     2.1370   -10.0940 
   71.2500    75.8690     7.7040     7.2470     8.6940    23.6610     2.1270    -9.5860 
   71.3750    79.5460     7.4160     7.0120     8.4950    23.6080     2.1240    -8.9630 
   71.5000    83.1150     7.2530     6.7990     7.8840    23.4930     2.1260    -8.3190 
   71.6250    84.6720     7.1700     6.6900     7.2770    23.4210     2.1360    -7.6520 
   71.7500    85.2570     7.0610     6.6690     7.5300    23.4050     2.1630    -7.0010 
   71.8750    85.6520     7.0110     6.6550     7.5710    23.4990     2.2080    -6.4090 
   72.0000    87.4990     6.8930     6.5240     7.4510    23.7140     2.2610    -5.8650 
   72.1250    92.5570     6.7100     6.1340     7.2030    23.8520     2.3000    -5.4000 
   72.2500   101.3120     6.1470     5.5710     6.5970    23.8930     2.3160    -5.0020 
   72.3750   110.8710     5.4590     4.9860     5.5560    23.9120     2.3110    -4.6860 
