~V
VERS. 2.00: Ver 2.00
~W
STRT.M 50.0000:
STOP.M 300.0000:
STEP.M 0.1250:
NULL. -999.2500:
UWI. F10041:
~C
DEPT.M :
DEN.GM/CC :
GR.API :
RML.OHMM :
RI. :
RXO.OHMM :
CALI.CM :
SP.MV :
~A
# ...
   61.2500     2.1130    58.9080    10.5040     9.0290     9.7740    25.3000   -20.4420 
   61.3750     2.0540    59.6550    10.4510     9.0360     9.7900    25.2940   -20.5490 
   61.5000     2.0160    57.9890    10.3360     9.0040     9.5380    25.2200   -20.6940 
   61.6250     2.0230    57.2250    10.2190     8.9570     9.3030    25.0630   -20.7250 
   61.7500     2.0700    58.8570    10.1490     8.9300     9.4190    24.9430   -20.7850 
   61.8750     2.1370    62.0600    10.1440     8.9370     9.7440    24.8070   -20.8590 
   62.0000     2.2020    65.9300    10.1990     8.9720    10.1560    24.7350   -20.8070 
   62.1250     2.2380    69.7270    10.2980     9.0170    10.1680    24.8460   -20.6750 
   62.2500     2.2400    70.2650    10.3920     9.0470    10.1700    24.8900   -20.5520 
   62.3750     2.2140    66.8760    10.4320     9.0510    10.2560    24.7970   -20.4390 
   62.5000     2.1730    61.3180    10.3750     9.0220    10.3990    24.6460   -20.3480 
   62.6250     2.1330    58.0850    10.2100     8.9570    10.3040    24.4460   -20.3240 
   62.7500     2.1070    58.4520    10.0160     8.8740    10.1120    24.3100   -20.3380 
   62.8750     2.0980    61.5120     9.8730     8.7920    10.0050    24.2270   -20.4000 
   63.0000     2.1060    64.6780     9.8390     8.7290     9.9060    24.1520   -20.4920 
   63.1250     2.1260    66.3540     9.9440     8.7030     9.7600    24.1260   -20.5440 
   63.2500     2.1490    65.6210    10.1150     8.7080     9.6090    24.1720   -20.6090 
   63.3750     2.1690    62.7610    10.2840     8.7350     9.4920    24.2490   -20.6210 
   63.5000     2.1840    60.9810    10.3830     8.7650     9.5840    24.3110   -20.6310 
   63.6250     2.1950    61.4520    10.3420     8.7710     9.5140    24.3300   -20.7190 
   63.7500     2.2010    61.1890    10.1940     8.7420     9.2290    24.3400   -20.7600 
   63.8750     2.2040    60.4570    10.0100     8.6800     9.1070    24.3660   -20.7910 
   64.0000     2.2010    61.5160     9.8840     8.6040     9.1940    24.4470   -20.9260 
   64.1250     2.1900    62.7040     9.8960     8.5460     9.1110    24.5640   -21.1160 
   64.2500     2.1750    61.3380     9.9930     8.5150     9.0170    24.7090   -21.2440 
   64.3750     2.1590    60.2140    10.0880     8.5020     9.0230    24.8600   -21.3800 
   64.5000     2.1430    60.9010    10.1070     8.4890     9.0670    24.9700   -21.4670 
   64.6250     2.1310    60.9560    10.0320     8.4610     9.0670    24.9760   -21.4290 
   64.7500     2.1230    59.1700     9.9360     8.4280     8.9190    24.9140   -21.3690 
   64.8750     2.1210    57.4890     9.8910     8.4040     8.6560    24.8000   -21.2910 
   65.0000     2.1230    56.9010     9.9330     8.4000     8.4950    24.7080   -21.1080 
   65.1250     2.1240    58.0030    10.0310     8.4100     8.3920    24.6930   -20.8820 
   65.2500     2.1230    59.4010    10.0640     8.4000     8.3060    24.7250   -20.6810 
   65.3750     2.1200    58.9610     9.9350     8.3290     8.4150    24.7850   -20.4330 
   65.5000     2.1210    58.7430     9.6120     8.1690     8.5680    24.7600   -20.1910 
   65.6250     2.1280    63.4070     9.1770     7.9360     8.2180    24.4660   -19.9470 
   65.7500     2.1410    69.9000     8.8210     7.7230     7.5080    24.1870   -19.6000 
   65.8750     2.1580    72.2060     8.6720     7.6110     6.9610    24.1110   -19.1580 
   66.0000     2.1810    69.2560     8.7640     7.6370     6.9680    24.1690   -18.6690 
   66.1250     2.2060    67.3090     9.0260     7.7810     8.1200    24.1610   -18.1680 
   66.2500     2.2210    69.2670     9.2600     7.9270     9.5090    24.0250   -17.7070 
   66.3750     2.2210    72.0230     9.3170     7.9800     8.6670    23.9590   -17.2230 
   66.5000     2.2090    72.8370     9.1210     7.8820     7.7480    24.0200   -16.7140 
   66.6250     2.2010    72.5790     8.6800     7.6240     7.8380    24.0430   -16.3160 
   66.7500     2.2110    74.8590     8.1580     7.2940     7.9880    23.9540   -16.0320 
   66.8750     2.2370    77.8280     7.6730     6.9640     7.4220    23.8330   -15.7240 
   67.0000     2.2630    78.9230     7.2990     6.6910     6.7430    23.6920   -15.4000 
   67.1250     2.2670    79.7160     7.0820     6.5170     6.3030    23.5150   -15.0100 
   67.2500     2.2490    81.5010     6.9870     6.4160     6.0340    23.3560   -14.5520 
   67.3750     2.2190    81.6260     6.9810     6.3600     6.2360    23.4310   -14.1770 
   67.5000     2.1910    79.0920     7.0240     6.3140     6.8070    23.8120   -13.8910 
   67.6250     2.1820    78.8200     7.0700     6.2380     6.8520    24.2870   -13.5600 
   67.7500     2.1920    82.6710     7.0820     6.1190     6.2920    24.5490   -13.1680 
   67.8750     2.2140    87.0810     7.0400     5.9650     5.7800    24.7370   -12.8290 
   68.0000     2.2350    88.6610     6.9350     5.8000     5.8220    24.8950   -12.4960 
   68.1250     2.2470    88.6450     6.7770     5.6560     6.0460    24.9430   -12.1740 
   68.2500     2.2460    88.8190     6.6180     5.5480     6.3330    24.9320   -11.9270 
   68.3750     2.2360    88.8330     6.5040     5.4710     6.2860    24.9190   -11.6520 
   68.5000     2.2190    87.7830     6.4620     5.4210     5.7470    24.8920   -11.3080 
   68.6250     2.2020    88.4970     6.4980     5.4130     5.4620    24.6660   -10.9810 
   68.7500     2.1900    91.6320     6.5830     5.4690     5.5580    24.2320   -10.7390 
   68.8750     2.1840    92.6870     6.7160     5.6040     6.0240    23.9150   -10.6480 
   69.0000     2.1820    87.6490     6.9110     5.8080     6.4440    23.9120   -10.7420 
   69.1250     2.1810    82.2520     7.1830     6.0420     6.9170    24.1110   -10.9490 
   69.2500     2.1800    82.9880     7.4960     6.2620     7.0950    24.2140   -11.1720 
   69.3750     2.1820    86.7510     7.8150     6.4590     6.9040    24.2740   -11.4000 
   69.5000     2.1880    86.3860     8.1070     6.6380     6.8960    24.3840   -11.6410 
   69.6250     2.2030    81.9440     8.3230     6.7900     7.0570    24.4040   -11.9300 
   69.7500     2.2210    80.0660     8.4150     6.8710     7.2340    24.2440   -12.1690 
   69.8750     2.2390    83.2840     8.3180     6.8200     6.9980    23.9780   -12.2330 
   70.0000     2.2540    89.2950     7.9890     6.5920     5.9460    23.7860   -12.1500 
   70.1250     2.2690    93.1660     7.4140     6.1830     5.3760    23.6920   -12.0180 
   70.2500     2.2860    93.6690     6.7450     5.7170     5.0080    23.7040   -11.7600 
   70.3750     2.3020    95.1870     6.1340     5.3060     4.7340    23.7680   -11.4650 
   70.5000     2.3060    98.9000     5.7260     5.0410     4.5320    23.8010   -11.1380 
   70.6250     2.2880    97.4530     5.6550     4.9840     4.6140    23.7970   -10.6960 
   70.7500     2.2590    91.7410     5.8320     5.0630     5.0900    23.8140   -10.3240 
   70.8750     2.2350    89.4410     6.1060     5.1910     5.8060    23.8600   -10.1020 
   71.0000     2.2320    92.8370     6.2790     5.2690     5.8780    23.9640    -9.9750 
   71.1250     2.2510    98.0440     6.1550     5.1860     5.1560    24.1640    -9.7720 
   71.2500     2.2730   100.1710     5.7910     4.9520     4.6850    24.3440    -9.5880 
   71.3750     2.2840    99.8950     5.3270     4.6340     4.4420    24.5010    -9.3900 
   71.5000     2.2810    98.1510     4.9410     4.3470     4.2460    24.6760    -9.1830 
   71.6250     2.2700    94.9760     4.8550     4.2630     4.2320    24.7930    -9.0770 
   71.7500     2.2630    91.0040     5.1590     4.4610     4.7870    24.7440    -9.0190 
   71.8750     2.2630    85.1880     5.9110     4.9710     5.9010    24.6200    -8.9560 
   72.0000     2.2690    78.3360     7.0470     5.7450     6.8380    24.5380    -9.0000 
   72.1250     2.2760    72.2620     8.2680     6.6110     8.0770    24.4170    -9.3070 
   72.2500     2.2770    70.3000     9.0800     7.2830     8.2680    24.3040    -9.7640 
   72.3750     2.2690    74.4750     9.1590     7.5590     7.4670    24.2420   -10.2590 
