~V
VERS. 2.00: Ver 2.00
~W
STRT.M 50.0000:
STOP.M 237.0000:
STEP.M 0.1250:
NULL. -999.2500:
UWI. F10006:
~C
DEPT.M :
GR.API :
RML.OHMM :
RI. :
RXO.OHMM :
CALI.CM :
DEN.GM/CC :
SP.MV :
~A
# ...
  117.5000    60.8060    61.5750    60.0470    21.5510    17.3690     2.0810   -17.2140 
  117.6250    65.0510    60.3130    59.9740    25.8310    18.2840     2.1020   -17.1460 
  117.7500    67.8660    55.8460    56.5090    29.6750    19.4520     2.1290   -17.0750 
  117.8750    68.2570    49.0540    50.3670    30.1460    20.5620     2.1580   -16.9900 
  118.0000    68.2460    41.6440    43.2060    25.0600    21.3950     2.1790   -16.8750 
  118.1250    69.8300    35.6550    37.0850    19.2070    21.8080     2.1760   -16.7370 
  118.2500    72.9430    31.8170    32.8920    16.0900    21.9490     2.1480   -16.5930 
  118.3750    74.7120    30.1950    30.7800    16.4340    21.9930     2.1040   -16.4540 
  118.5000    72.3620    30.5520    30.6080    20.2790    22.1580     2.0630   -16.3290 
  118.6250    68.0940    32.8300    32.4570    25.3350    22.6750     2.0500   -16.2390 
  118.7500    68.1060    36.4240    35.8040    27.1350    23.3930     2.0750   -16.1910 
  118.8750    70.9140    40.9840    40.3350    30.2480    23.9330     2.1350   -16.1840 
  119.0000    71.8210    46.0590    45.5910    42.7690    24.1600     2.2130   -16.2290 
  119.1250    69.7340    50.9160    50.8560    51.8690    24.2240     2.2810   -16.3050 
  119.2500    68.1070    54.6930    55.2000    47.9520    23.9920     2.3170   -16.3650 
  119.3750    68.1260    56.5980    57.7440    35.7630    23.5690     2.3150   -16.3930 
  119.5000    68.1570    56.1750    57.8930    32.1170    23.1850     2.2810   -16.3790 
  119.6250    67.1890    53.4030    55.4370    33.0630    23.0300     2.2330   -16.2940 
  119.7500    66.1970    49.6850    51.7560    31.4160    23.0880     2.1890   -16.1580 
  119.8750    65.6860    46.1530    48.0020    27.4740    23.2040     2.1550   -15.9850 
  120.0000    65.3010    43.6700    45.0810    22.9980    23.2030     2.1330   -15.8020 
  120.1250    64.0660    42.9150    43.7100    22.7080    23.0470     2.1200   -15.6070 
  120.2500    63.4130    43.6140    43.7360    27.0770    23.1150     2.1120   -15.4230 
  120.3750    63.2750    45.4550    44.9710    34.9250    23.5890     2.1070   -15.2570 
  120.5000    62.7890    47.8810    46.9940    41.1960    24.2030     2.1040   -15.1100 
  120.6250    61.6810    49.9080    48.9560    41.5020    24.8460     2.1050   -14.9740 
  120.7500    60.3770    50.6030    49.8400    41.2290    25.1490     2.1100   -14.8400 
  120.8750    58.2150    49.4120    48.9760    42.8120    25.2150     2.1200   -14.7160 
  121.0000    55.3850    46.3470    46.2530    43.3460    25.1470     2.1290   -14.6010 
  121.1250    55.6710    41.9360    42.0950    36.7930    24.9320     2.1310   -14.5330 
  121.2500    59.2570    37.4320    37.7210    28.2680    24.7980     2.1260   -14.5080 
  121.3750    62.9290    33.6670    33.9370    24.3140    24.8990     2.1210   -14.5200 
  121.5000    63.0700    31.1510    31.2340    23.4530    25.0070     2.1210   -14.5550 
  121.6250    59.6880    30.1830    29.9030    25.4020    25.0670     2.1370   -14.6140 
  121.7500    58.3610    30.1880    29.4670    28.9470    24.9890     2.1650   -14.6980 
  121.8750    60.5360    30.4880    29.4780    32.5240    24.8390     2.2000   -14.7810 
  122.0000    64.9660    30.4050    29.4690    31.2740    24.6260     2.2330   -14.8270 
  122.1250    68.1170    29.3810    29.0630    26.3820    24.5220     2.2540   -14.8330 
  122.2500    68.6270    28.4590    28.3240    23.6570    24.4860     2.2580   -14.8290 
  122.3750    67.7400    27.6760    27.4430    21.3590    24.4350     2.2480   -14.8350 
  122.5000    66.9230    27.0390    26.5930    23.1760    24.3370     2.2310   -14.8610 
  122.6250    65.7650    26.5110    25.8300    23.5990    24.3640     2.2180   -14.9490 
  122.7500    63.3750    25.9660    25.0550    23.6760    24.5030     2.2150   -15.0950 
  122.8750    60.8570    25.2930    24.1840    22.5680    24.6210     2.2190   -15.2960 
  123.0000    61.6510    24.4830    23.2200    21.5010    24.6640     2.2240   -15.5670 
  123.1250    65.9530    23.6530    22.2750    19.9120    24.6480     2.2200   -15.8640 
  123.2500    68.7140    22.9360    21.4520    19.4750    24.6120     2.2100   -16.1450 
  123.3750    67.8850    22.3570    20.7650    21.4540    24.5790     2.1990   -16.4090 
  123.5000    65.4620    21.8530    20.1560    22.8300    24.5800     2.1940   -16.6750 
  123.6250    66.0780    21.2990    19.5390    21.7230    24.5720     2.2010   -16.9290 
  123.7500    68.6270    20.6430    18.8880    17.8700    24.3570     2.2140   -17.1470 
  123.8750    69.6680    19.9530    18.2650    13.5630    24.0080     2.2270   -17.3280 
  124.0000    67.9550    19.3840    17.7880    11.9520    23.7450     2.2370   -17.4660 
  124.1250    64.7530    19.2010    17.6460    13.3240    23.7740     2.2420   -17.5920 
  124.2500    62.8100    19.4750    17.8810    15.8610    23.8940     2.2390   -17.7360 
  124.3750    63.1980    20.1570    18.4730    18.2070    24.0240     2.2250   -17.8850 
  124.5000    65.1270    21.0080    19.2660    19.0500    24.1630     2.2020   -18.0060 
  124.6250    66.7410    21.5780    19.9120    19.1440    24.3650     2.1800   -18.1060 
  124.7500    69.0360    21.6050    20.1330    18.4260    24.6100     2.1710   -18.2090 
  124.8750    73.3090    21.1040    19.8590    15.9000    24.6990     2.1800   -18.3220 
  125.0000    77.5510    20.3210    19.2220    12.1670    24.5490     2.2020   -18.4430 
  125.1250    77.4650    19.6200    18.4620    10.8430    24.2440     2.2230   -18.5520 
  125.2500    74.1980    19.1380    17.7630    14.4000    24.0120     2.2330   -18.6280 
  125.3750    71.6150    18.7420    17.0970    19.5580    23.9030     2.2320   -18.6990 
  125.5000    72.5740    18.1450    16.3160    23.2860    23.9630     2.2310   -18.8000 
  125.6250    76.2030    17.0280    15.2260    21.3960    24.0940     2.2400   -18.9160 
  125.7500    78.5740    15.5330    13.9160    17.2670    24.1030     2.2580   -19.0280 
  125.8750    79.2740    14.0050    12.6260    12.5170    23.9750     2.2770   -19.1270 
  126.0000    79.4240    12.8900    11.6730    10.7560    23.7850     2.2880   -19.2010 
  126.1250    77.5250    12.7300    11.4860     9.8880    23.5930     2.2830   -19.2460 
  126.2500    72.2540    13.5970    12.1770    10.7500    23.3250     2.2670   -19.2880 
  126.3750    65.5610    15.5070    13.8530    13.3510    22.9820     2.2430   -19.3390 
  126.5000    60.6880    18.3260    16.5160    15.8500    22.7360     2.2190   -19.3990 
  126.6250    59.6060    21.6470    19.9590    15.9710    22.6410     2.2010   -19.4990 
  126.7500    60.3080    24.4740    23.2160    15.3270    22.5530     2.1940   -19.6480 
  126.8750    62.4540    25.7640    25.1270    15.0370    22.2400     2.2010   -19.8570 
  127.0000    65.1570    24.7740    24.7220    14.5330    21.7300     2.2220   -20.1230 
  127.1250    69.0250    21.3490    21.6640    11.7080    21.5900     2.2530   -20.4700 
  127.2500    75.7540    16.9920    17.5130     8.3500    21.8840     2.2850   -20.8660 
  127.3750    84.1030    12.8750    13.4790     6.1250    22.3850     2.3110   -21.2580 
  127.5000    91.1150     9.7540    10.3040     5.5340    22.6240     2.3270   -21.6100 
  127.6250    95.2970     8.0410     8.3590     5.9960    22.5370     2.3300   -21.8900 
  127.7500    97.6680     7.3290     7.3150     6.6180    22.4740     2.3260   -22.1060 
  127.8750    96.7190     7.2810     6.9390     7.2720    22.5380     2.3220   -22.2620 
  128.0000    92.6780     7.5430     6.9850     7.7530    22.6690     2.3250   -22.3760 
  128.1250    90.9980     7.8220     7.2580     7.9030    22.6440     2.3400   -22.4490 
  128.2500    91.8820     8.0880     7.6350     7.9170    22.4920     2.3590   -22.4940 
  128.3750    89.8670     8.5760     8.2070     7.8930    22.3700     2.3660   -22.5160 
  128.5000    82.9460     9.6530     9.1880     8.5200    22.3850     2.3440   -22.5200 
  128.6250    75.9310    11.8570    11.0120    11.7590    22.5600     2.2830   -22.4820 
