~V
VERS. 2.00: Ver 2.00
~W
STRT.M 50.0000:
STOP.M 250.0000:
STEP.M 0.1250:
NULL. -999.2500:
UWI. F10033:
~C
DEPT.M :
SP.MV :
GR.API :
RML.OHMM :
RI. :
RXO.OHMM :
CALI.CM :
DEN.GM/CC :
~A
# ...
  151.2500    -7.8470    53.7590    26.4000    23.4530    25.1730    24.5600     2.6230 
  151.3750    -7.9200    51.4590    29.5180    26.2700    28.6120    24.6060     2.6480 
  151.5000    -8.0490    49.7030    32.1850    28.9040    29.0750    24.7280     2.6690 
  151.6250    -8.1880    50.7630    33.3040    30.2340    31.1970    24.9510     2.6850 
  151.7500    -8.2910    51.0170    32.5920    29.7820    32.8790    25.1990     2.7020 
  151.8750    -8.3810    48.8960    30.2010    27.6210    32.0240    25.3640     2.7210 
  152.0000    -8.4880    48.0100    26.7180    24.3740    26.2990    25.4050     2.7350 
  152.1250    -8.6190    50.9190    22.9320    20.9080    19.5900    25.3480     2.7300 
  152.2500    -8.7410    54.0980    19.5640    17.9120    17.1490    25.3060     2.6980 
  152.3750    -8.8300    55.1930    16.9610    15.6480    16.5950    25.3550     2.6420 
  152.5000    -8.8600    54.5310    15.2550    14.1770    14.9440    25.3970     2.5730 
  152.6250    -8.8970    53.4440    14.5590    13.5720    14.1100    25.3720     2.5140 
  152.7500    -8.9830    51.7810    14.5900    13.6050    14.0490    25.3220     2.4790 
  152.8750    -9.1060    50.9920    15.1660    14.1470    14.8770    25.2810     2.4680 
  153.0000    -9.2330    52.9400    16.0710    15.0340    17.5510    25.2590     2.4710 
  153.1250    -9.3520    55.4850    17.0610    16.0650    20.2290    25.2630     2.4760 
  153.2500    -9.4770    55.9550    17.9020    16.9960    20.3790    25.2950     2.4770 
  153.3750    -9.5940    54.0440    18.4810    17.6760    19.3700    25.3470     2.4760 
  153.5000    -9.6660    51.5080    18.7810    18.0440    18.7500    25.4090     2.4750 
  153.6250    -9.6530    49.5810    18.8010    18.0750    20.0850    25.4370     2.4750 
  153.7500    -9.6240    49.4970    18.6220    17.8710    21.1660    25.4450     2.4740 
  153.8750    -9.6030    51.0140    18.2910    17.4950    20.0140    25.4410     2.4710 
  154.0000    -9.5770    52.7310    17.8980    17.0360    18.1910    25.4250     2.4700 
  154.1250    -9.5230    53.3360    17.5930    16.6220    17.2280    25.3920     2.4740 
  154.2500    -9.4380    53.0790    17.4810    16.3550    17.7260    25.3520     2.4820 
  154.3750    -9.3330    53.4390    17.5970    16.2870    19.0300    25.2750     2.4920 
  154.5000    -9.2100    55.7370    17.9060    16.4180    19.4820    25.1720     2.4980 
  154.6250    -9.0960    59.0600    18.3260    16.7140    20.0030    25.0800     2.5000 
  154.7500    -8.9940    60.1440    18.7830    17.0990    20.9640    25.0550     2.4990 
  154.8750    -8.8700    58.0270    19.3140    17.5800    21.7350    25.0740     2.4990 
  155.0000    -8.7270    55.1100    20.0180    18.2170    21.9790    25.0620     2.5010 
  155.1250    -8.5990    53.7980    21.0550    19.1300    21.9930    25.0210     2.5070 
  155.2500    -8.4970    53.3130    22.4130    20.3200    22.9420    24.9740     2.5140 
  155.3750    -8.4190    53.5520    23.9810    21.7210    24.8030    24.9600     2.5220 
  155.5000    -8.3610    53.8190    25.4630    23.1090    27.6150    24.9510     2.5280 
  155.6250    -8.3290    54.4680    26.2420    23.9650    30.4390    24.9790     2.5330 
  155.7500    -8.3110    54.7100    26.0220    23.9700    29.6590    25.0150     2.5330 
  155.8750    -8.3090    53.1020    24.8430    23.1050    27.4590    24.9730     2.5290 
  156.0000    -8.3490    50.5500    23.1170    21.6930    25.2270    24.8230     2.5190 
  156.1250    -8.4410    49.1950    21.4860    20.2560    21.9290    24.6630     2.5050 
  156.2500    -8.5800    49.4250    20.4130    19.2040    20.2300    24.5610     2.4920 
  156.3750    -8.7560    49.0700    20.0420    18.6990    21.1860    24.4930     2.4830 
  156.5000    -8.9600    47.0150    20.2790    18.7300    22.4320    24.4430     2.4760 
  156.6250    -9.1380    46.3600    20.8570    19.1600    22.6090    24.4210     2.4690 
  156.7500    -9.2690    48.9490    21.3550    19.6350    22.3060    24.4220     2.4580 
  156.8750    -9.3740    52.2500    21.5390    19.9190    22.3270    24.4370     2.4450 
  157.0000    -9.4270    52.7900    21.3540    19.9090    22.1130    24.4510     2.4330 
  157.1250    -9.4300    51.6360    20.9490    19.6690    20.5990    24.3750     2.4230 
  157.2500    -9.4020    51.6710    20.6330    19.4480    18.2700    24.3220     2.4150 
  157.3750    -9.3330    53.0600    20.5660    19.3950    17.8310    24.3660     2.4080 
  157.5000    -9.2440    54.0250    20.7660    19.5570    18.4500    24.4810     2.4040 
  157.6250    -9.1830    52.7100    21.1350    19.8880    19.7470    24.4610     2.4060 
  157.7500    -9.1710    49.6140    21.4560    20.2180    21.1270    24.4320     2.4120 
  157.8750    -9.2100    46.8200    21.5800    20.4040    22.0590    24.5090     2.4190 
  158.0000    -9.3050    46.9630    21.4610    20.3780    21.5580    24.6740     2.4260 
  158.1250    -9.3920    48.4290    21.1810    20.1780    20.6660    24.7300     2.4320 
  158.2500    -9.4300    47.7300    20.9330    19.9680    20.3080    24.6860     2.4400 
  158.3750    -9.4460    45.4510    20.8310    19.8590    20.5070    24.5950     2.4460 
  158.5000    -9.4550    44.5980    20.9330    19.9180    20.2810    24.5230     2.4490 
  158.6250    -9.4160    47.6200    21.2320    20.1630    19.4620    24.5040     2.4470 
  158.7500    -9.3130    50.6010    21.5810    20.4750    19.6540    24.5470     2.4440 
  158.8750    -9.1520    51.0010    21.8540    20.7330    21.1180    24.5420     2.4460 
  159.0000    -8.9330    49.7990    21.9560    20.8370    23.4930    24.4720     2.4540 
  159.1250    -8.7240    50.5380    21.8140    20.7120    24.0030    24.5830     2.4640 
  159.2500    -8.5880    52.4880    21.5160    20.4390    23.2680    24.8760     2.4690 
  159.3750    -8.4900    52.5480    21.1800    20.1180    22.6790    25.1560     2.4660 
  159.5000    -8.4330    49.9400    20.9390    19.8540    22.7770    25.2440     2.4580 
  159.6250    -8.4480    47.5610    20.9370    19.7660    23.2190    25.2120     2.4510 
  159.7500    -8.4970    47.1510    21.1790    19.8730    23.4640    25.2740     2.4510 
  159.8750    -8.5370    47.6070    21.6340    20.1780    23.8060    25.3930     2.4570 
  160.0000    -8.5550    47.4970    22.2380    20.6500    24.1750    25.4520     2.4630 
  160.1250    -8.5290    47.0970    22.9320    21.2540    24.4570    25.4490     2.4630 
  160.2500    -8.4970    48.1310    23.6490    21.9110    24.6930    25.3910     2.4600 
  160.3750    -8.5270    50.1570    24.3550    22.5780    25.4470    25.2050     2.4610 
  160.5000    -8.5880    50.5280    25.0250    23.2210    26.4770    24.8510     2.4690 
  160.6250    -8.6230    49.1470    25.6200    23.8000    26.6080    24.7030     2.4840 
  160.7500    -8.6160    49.0000    26.1250    24.2940    26.5860    24.8540     2.4950 
  160.8750    -8.5920    50.4600    26.5250    24.6830    26.6710    25.0310     2.4970 
  161.0000    -8.6330    50.4400    26.8090    24.9540    27.6690    25.0630     2.4870 
  161.1250    -8.7690    48.2320    26.9090    25.0480    26.9850    25.0390     2.4710 
  161.2500    -8.8520    47.8650    26.7510    24.9080    25.9090    25.0780     2.4560 
  161.3750    -8.8060    48.4070    26.2380    24.4510    25.1480    25.1360     2.4480 
  161.5000    -8.6720    47.1860    25.3490    23.6600    24.8470    25.1250     2.4470 
  161.6250    -8.5170    46.8170    24.2100    22.6420    23.6690    24.9710     2.4550 
  161.7500    -8.4080    49.1560    23.1440    21.6730    21.6220    24.6810     2.4680 
  161.8750    -8.3400    52.0160    22.3900    20.9540    19.9840    24.4770     2.4820 
  162.0000    -8.2610    52.3480    22.0710    20.5920    19.9790    24.4680     2.4950 
  162.1250    -8.1440    51.2090    22.1880    20.6190    22.4830    24.6500     2.5030 
  162.2500    -8.0550    51.2520    22.4650    20.8250    24.0550    24.8250     2.5050 
  162.3750    -8.0330    51.6430    22.6970    21.0440    23.3300    25.0070     2.4990 
