~V
VERS. 2.00: Ver 2.00
~W
STRT.M 55.0000:
STOP.M 279.0000:
STEP.M 0.1250:
NULL. -999.2500:
UWI. F10072:
~C
DEPT.M :
GR.API :
RML.OHMM :
RI. :
RXO.OHMM :
CALI.CM :
DEN.GM/CC :
SP.MV :
~A
# ...
   88.7500    66.8020    11.0570     8.5270     9.1510    23.4870     2.1680   -22.5180 
   88.8750    67.8680    10.9400     8.5140     9.3090    23.5630     2.1690   -22.4840 
   89.0000    69.1290    10.6640     8.3920     9.4190    23.6140     2.1640   -22.3870 
   89.1250    70.3770    10.2890     8.1870     9.2800    23.6970     2.1570   -22.1990 
   89.2500    72.6260     9.9510     7.9730     8.8340    23.7540     2.1540   -21.9270 
   89.3750    74.6150     9.7450     7.8070     8.4170    23.7020     2.1550   -21.5700 
   89.5000    73.1330     9.7050     7.7310     8.2780    23.5980     2.1600   -21.1250 
   89.6250    69.3370     9.8030     7.7590     8.5530    23.5740     2.1640   -20.6150 
   89.7500    67.7970     9.9140     7.8110     8.9190    23.6410     2.1630   -20.0200 
   89.8750    68.3680     9.9430     7.8030     9.0700    23.7240     2.1580   -19.3510 
   90.0000    68.8910     9.8310     7.6720     9.0050    23.7660     2.1560   -18.6070 
   90.1250    72.8130     9.5550     7.3990     8.4410    23.7900     2.1680   -17.8030 
   90.2500    80.8450     9.2010     7.0720     7.5070    23.8660     2.1970   -16.9390 
   90.3750    88.4620     8.8440     6.7630     6.9390    24.0370     2.2390   -16.0690 
   90.5000    91.9250     8.5430     6.5220     6.8500    24.2560     2.2810   -15.2370 
   90.6250    90.9670     8.3370     6.3940     7.0850    24.3490     2.3080   -14.6090 
   90.7500    88.6810     8.2070     6.3580     6.6020    24.2380     2.3160   -14.2400 
   90.8750    85.1920     8.1410     6.3870     6.5980    24.0030     2.3110   -14.0870 
   91.0000    80.4250     8.1430     6.4490     6.9450    23.8040     2.3000   -14.1090 
   91.1250    76.9020     8.2470     6.5400     6.9480    23.7300     2.2870   -14.2400 
   91.2500    75.3140     8.4370     6.6740     6.8300    23.7360     2.2700   -14.4810 
   91.3750    75.4330     8.6530     6.8420     6.6870    23.7780     2.2490   -14.7940 
   91.5000    75.1250     8.8000     6.9970     6.8480    23.8000     2.2280   -15.0960 
   91.6250    74.6960     8.7500     7.0360     7.8670    23.7950     2.2170   -15.1730 
   91.7500    76.1670     8.4960     6.9160     8.1600    23.8300     2.2210   -14.9380 
   91.8750    80.2660     8.0840     6.6530     7.4330    23.9650     2.2370   -14.4410 
   92.0000    85.9660     7.6000     6.3180     6.3010    24.5830     2.2540   -13.8270 
   92.1250    90.4450     7.1520     6.0040     5.9600    25.4210     2.2640   -13.2410 
   92.2500    92.5580     6.7950     5.7590     6.0710    25.6370     2.2680   -12.7120 
   92.3750    93.6140     6.5510     5.5970     6.2340    24.9530     2.2740   -12.2090 
   92.5000    94.6120     6.4110     5.5080     5.8530    24.4720     2.2830   -11.7250 
   92.6250    95.9070     6.3670     5.4790     5.4880    24.4740     2.2920   -11.3810 
   92.7500    95.7870     6.3840     5.4870     5.2990    24.4690     2.2900   -11.2820 
   92.8750    93.9210     6.4530     5.5340     5.4840    24.4430     2.2760   -11.4650 
   93.0000    91.6430     6.5690     5.6190     6.1580    24.3960     2.2580   -11.7930 
   93.1250    91.8660     6.7210     5.7180     6.4940    24.3840     2.2460   -12.1280 
   93.2500    94.7840     6.8770     5.7840     6.4060    24.4250     2.2460   -12.4240 
   93.3750    97.3980     7.0160     5.7950     6.2450    24.4560     2.2540   -12.7240 
   93.5000    96.9660     7.1360     5.7730     6.3910    24.4560     2.2670   -13.0620 
   93.6250    95.6390     7.2650     5.7840     6.4840    24.4440     2.2750   -13.3940 
   93.7500    96.3520     7.4440     5.8790     6.6160    24.4190     2.2730   -13.6960 
   93.8750    97.1750     7.7040     6.0780     6.5630    24.3230     2.2600   -14.0180 
   94.0000    94.2840     8.0600     6.3800     6.8190    24.1210     2.2360   -14.4450 
   94.1250    87.6710     8.5100     6.7910     7.1890    23.8310     2.2100   -15.0440 
   94.2500    82.7850     8.9990     7.2750     7.6020    23.5670     2.1960   -15.6830 
   94.3750    79.8580     9.4770     7.7830     7.9380    23.3250     2.2000   -16.3230 
   94.5000    77.0100     9.8970     8.2470     8.1360    23.1320     2.2160   -16.9620 
   94.6250    75.7790    10.2200     8.5750     8.3870    23.0970     2.2300   -17.5930 
   94.7500    76.8290    10.4800     8.7740     8.6560    23.2070     2.2290   -18.1910 
   94.8750    77.6880    10.7220     8.9010     8.8790    23.3790     2.2100   -18.6780 
   95.0000    76.7580    10.9860     9.0320     9.1370    23.5300     2.1820   -19.0370 
   95.1250    74.9360    11.2980     9.2330     9.8490    23.6080     2.1580   -19.2940 
   95.2500    73.2640    11.6280     9.5010    10.4730    23.6300     2.1450   -19.5610 
   95.3750    71.7300    11.9350     9.7890    10.5750    23.6260     2.1440   -19.8830 
   95.5000    70.6330    12.1640    10.0340    10.1510    23.6120     2.1510   -20.2520 
   95.6250    68.8170    12.2070    10.1360     9.6530    23.6310     2.1570   -20.6380 
   95.7500    65.1060    12.0030    10.0550     9.5020    23.7210     2.1590   -21.0140 
   95.8750    62.1810    11.4970     9.7620     9.6800    23.8220     2.1540   -21.4050 
   96.0000    62.5710    10.7030     9.2580     9.7650    23.8410     2.1440   -21.7960 
   96.1250    66.0370     9.7300     8.5760     9.5160    23.6960     2.1350   -22.1440 
   96.2500    67.8560     8.8840     7.9000     9.1790    23.4510     2.1270   -22.4540 
   96.3750    67.9840     8.5640     7.4620     8.8610    23.2450     2.1200   -22.6990 
   96.5000    67.9650     9.2550     7.5280     8.6100    23.1380     2.1220   -22.8570 
   96.6250    67.8450    11.5510     8.5260     9.0490    23.1520     2.1570   -22.9660 
   96.7500    66.1960    15.0460    10.5890    11.9190    23.3000     2.2330   -23.0750 
   96.8750    62.6870    18.9090    13.7410    21.7910    23.5720     2.3360   -23.1840 
   97.0000    60.3570    21.8000    17.2600    50.9910    23.8470     2.4280   -23.3270 
   97.1250    59.8840    21.9130    18.7620    76.3710    23.8890     2.4520   -23.5700 
   97.2500    60.1190    19.4250    17.3190    49.9310    23.7790     2.4050   -23.9380 
   97.3750    61.4940    15.6680    14.2560    22.7240    23.6750     2.3140   -24.4310 
   97.5000    64.5330    12.2780    11.2970    12.4350    23.6730     2.2240   -25.0050 
   97.6250    67.8810    10.4620     9.3750     9.9760    23.7830     2.1720   -25.6580 
   97.7500    68.4450     9.8120     8.3330     9.4650    23.9270     2.1530   -26.3380 
   97.8750    67.3580     9.7690     7.9550     9.3880    23.9990     2.1510   -27.0230 
   98.0000    66.4160     9.9820     7.9990     9.4760    23.9780     2.1480   -27.6840 
   98.1250    64.9430    10.2890     8.2390     9.3560    23.8350     2.1350   -28.2600 
   98.2500    64.0010    10.5260     8.4780     9.5000    23.6300     2.1110   -28.7750 
   98.3750    64.9220    10.6690     8.6590    10.5410    23.5140     2.0830   -29.2050 
   98.5000    67.2340    10.7370     8.7760    12.2730    23.5960     2.0560   -29.5980 
   98.6250    67.7690    10.7480     8.8230    11.9900    23.8970     2.0390   -29.9070 
   98.7500    66.5280    10.7190     8.8110    11.4660    24.1850     2.0340   -30.1650 
   98.8750    64.7010    10.6420     8.7380    11.3320    24.3640     2.0390   -30.3780 
   99.0000    63.4270    10.5130     8.6150    11.0830    24.4390     2.0510   -30.5440 
   99.1250    62.2050    10.3320     8.4690    10.2940    24.4650     2.0670   -30.6690 
   99.2500    60.8770    10.1350     8.3320     9.6830    24.4710     2.0830   -30.7120 
   99.3750    60.8470     9.9410     8.2040     9.4180    24.4730     2.0950   -30.7000 
   99.5000    62.0350     9.7580     8.0700     9.3380    24.4540     2.1030   -30.6120 
   99.6250    63.0880     9.5960     7.9140     9.2570    24.2960     2.1060   -30.4790 
   99.7500    62.6990     9.4800     7.7640     9.1210    23.9890     2.1020   -30.3190 
   99.8750    62.3820     9.4490     7.6720     9.0420    23.7350     2.0940   -30.1400 
