~V
VERS. 2.00: Ver 2.00
~W
STRT.M 56.0000:
STOP.M 235.0000:
STEP.M 0.1250:
NULL. -999.2500:
UWI. F10014:
~C
DEPT.M :
GR.API :
RML.OHMM :
RI. :
RXO.OHMM :
CALI.CM :
DEN.GM/CC :
SP.MV :
~A
# ...
  179.7500    60.4340    56.4600    50.3360    61.6900    25.1200     2.2440   -13.1150 
  179.8750    61.0750    57.2980    51.3430    60.7420    25.0110     2.2210   -13.1480 
  180.0000    61.3530    57.6890    51.8150    60.6340    24.8960     2.1930   -13.1600 
  180.1250    63.4220    56.8720    51.2070    63.3110    24.7770     2.1710   -13.2040 
  180.2500    63.7410    54.5680    49.3110    66.3690    24.6580     2.1630   -13.2940 
  180.3750    61.0640    51.0050    46.2880    63.5070    24.5760     2.1690   -13.3960 
  180.5000    59.1370    46.9100    42.7190    50.7930    24.5280     2.1860   -13.4840 
  180.6250    61.0900    43.3030    39.4430    41.8920    24.5140     2.2070   -13.5560 
  180.7500    61.5320    40.7230    36.9680    37.7520    24.5040     2.2270   -13.6430 
  180.8750    59.2110    39.3300    35.4850    37.4350    24.5150     2.2420   -13.7420 
  181.0000    58.5030    39.0510    35.0040    38.0690    24.5790     2.2520   -13.8190 
  181.1250    60.8620    39.8090    35.5410    38.3880    24.6390     2.2540   -13.8760 
  181.2500    62.1950    41.2290    36.7750    39.1560    24.7060     2.2560   -13.9270 
  181.3750    60.4170    43.1710    38.5620    40.1890    24.8600     2.2680   -13.9270 
  181.5000    57.0160    45.4790    40.7430    41.8700    24.9690     2.2960   -13.8190 
  181.6250    55.4990    47.8180    43.0220    47.0540    24.9040     2.3410   -13.6660 
  181.7500    56.4290    49.6800    44.9430    50.8260    24.7160     2.3860   -13.5720 
  181.8750    57.9310    50.6320    46.1030    52.7210    24.4080     2.4200   -13.5080 
  182.0000    57.7640    50.4370    46.2360    46.7940    23.9450     2.4390   -13.4100 
  182.1250    56.1770    49.0470    45.2080    34.6740    23.3670     2.4470   -13.2880 
  182.2500    56.1230    47.0760    43.5320    27.6010    22.7750     2.4460   -13.2030 
  182.3750    57.9130    44.9730    41.6280    24.7110    22.3970     2.4280   -13.1730 
  182.5000    60.4790    43.1040    39.8640    25.6570    22.5470     2.3830   -13.2340 
  182.6250    59.9710    41.7700    38.5630    28.9400    23.0800     2.3100   -13.3550 
  182.7500    57.2240    40.8970    37.7070    33.0120    23.5780     2.2370   -13.4160 
  182.8750    55.9470    40.3380    37.1940    34.8180    23.9000     2.1910   -13.4090 
  183.0000    57.3110    39.8920    36.8590    34.4710    23.9770     2.1870   -13.4390 
  183.1250    58.7170    39.3240    36.4970    31.6820    23.9270     2.2230   -13.5620 
  183.2500    58.6860    38.5060    35.9420    29.4260    23.8590     2.2660   -13.6910 
  183.3750    60.1190    37.4260    35.1280    28.0580    23.8350     2.2950   -13.8160 
  183.5000    63.2920    36.1760    34.0940    27.8490    23.8500     2.2990   -13.9380 
  183.6250    64.3930    34.8950    32.9540    27.7470    23.8670     2.2840   -13.9920 
  183.7500    62.6080    33.7240    31.8670    27.0730    23.8700     2.2640   -14.0120 
  183.8750    60.8930    32.7840    30.9610    27.3360    23.8690     2.2530   -14.0660 
  184.0000    61.8210    32.2040    30.3580    28.0960    23.8520     2.2560   -14.1200 
  184.1250    65.2600    32.1410    30.2100    28.1770    23.8080     2.2750   -14.0770 
  184.2500    68.0220    32.4670    30.4160    27.4080    23.7700     2.2990   -13.9720 
  184.3750    67.2470    33.0070    30.8340    27.7490    23.8190     2.3170   -13.8540 
  184.5000    62.7980    33.5190    31.2600    30.4410    24.0230     2.3200   -13.7170 
  184.6250    59.1840    33.7220    31.4430    34.4000    24.4020     2.3060   -13.6060 
  184.7500    61.0620    33.5840    31.3260    35.9860    24.8030     2.2860   -13.4980 
  184.8750    65.2020    33.1940    30.9690    34.3010    25.0610     2.2680   -13.3480 
  185.0000    66.6460    32.7010    30.4940    32.0490    25.1490     2.2580   -13.1320 
  185.1250    64.2420    32.2460    30.0320    32.9550    25.1450     2.2560   -12.8990 
  185.2500    61.4310    31.8870    29.6550    34.4530    25.1290     2.2620   -12.7210 
  185.3750    59.1440    31.6210    29.3760    34.3330    25.1100     2.2760   -12.5890 
  185.5000    57.6020    31.4330    29.1810    33.7300    25.1080     2.2990   -12.4570 
  185.6250    58.5060    31.3860    29.0950    31.9640    25.1180     2.3250   -12.2640 
  185.7500    60.3330    31.5050    29.1320    31.7240    25.0990     2.3400   -12.0850 
  185.8750    60.2210    31.7030    29.2320    32.0400    25.0620     2.3370   -11.9780 
  186.0000    58.5000    31.7380    29.2180    32.3760    25.0370     2.3170   -11.9230 
  186.1250    58.0100    31.1860    28.7490    34.3840    24.9730     2.2930   -11.8420 
  186.2500    57.9670    29.9400    27.7100    34.2160    24.7940     2.2830   -11.7130 
  186.3750    56.8390    28.1260    26.1800    29.5680    24.5850     2.2940   -11.5880 
  186.5000    56.1600    26.1640    24.5000    25.0910    24.4670     2.3190   -11.4750 
  186.6250    57.7490    24.7870    23.2720    25.0070    24.4140     2.3370   -11.3550 
  186.7500    58.7970    24.4610    22.8830    24.5200    24.3680     2.3320   -11.2730 
  186.8750    57.5100    25.4630    23.5810    24.3530    24.3820     2.3090   -11.1740 
  187.0000    55.8670    27.7970    25.4470    27.2640    24.5010     2.2860   -11.0770 
  187.1250    56.6370    31.0300    28.2790    34.4860    24.5490     2.2960   -11.0230 
  187.2500    58.7130    33.7830    30.9140    41.4990    24.4500     2.3400   -10.9810 
  187.3750    60.3990    34.7280    32.0620    43.9220    24.2460     2.3970   -10.9340 
  187.5000    60.3510    33.1950    30.9470    40.9130    24.0890     2.4350   -10.9010 
  187.6250    58.9190    29.6240    27.8560    35.9180    24.2410     2.4250   -10.9000 
  187.7500    58.4310    25.8410    24.4390    28.6070    24.6010     2.3830   -10.9130 
  187.8750    59.7380    22.9060    21.6410    21.1050    24.8770     2.3320   -10.9940 
  188.0000    61.4430    21.2780    19.8870    18.9770    24.9850     2.2960   -11.0720 
  188.1250    61.7660    21.1700    19.4090    20.6240    24.9540     2.2850   -11.1340 
  188.2500    61.1030    22.1690    19.9190    22.8980    24.8780     2.2860   -11.3020 
  188.3750    60.2120    24.0590    21.2830    23.4060    24.7600     2.2910   -11.4730 
  188.5000    57.8510    26.5110    23.2720    24.2120    24.6540     2.2930   -11.5820 
  188.6250    55.4260    28.8760    25.3860    25.8740    24.5790     2.2950   -11.6900 
  188.7500    55.3540    30.4090    26.9220    29.7970    24.5190     2.2970   -11.7900 
  188.8750    56.9650    30.6460    27.4160    32.6440    24.5350     2.3020   -11.8460 
  189.0000    58.1540    29.5680    26.7680    31.7050    24.6860     2.3060   -11.9230 
  189.1250    59.7850    27.6110    25.2520    26.9000    24.8610     2.3090   -12.0730 
  189.2500    62.0330    25.7040    23.6290    22.8460    24.8560     2.3100   -12.1640 
  189.3750    61.5250    24.3280    22.3250    21.7120    24.6900     2.3130   -12.1740 
  189.5000    59.2590    23.5810    21.4750    21.8290    24.4970     2.3160   -12.2070 
  189.6250    59.4630    23.2730    20.9990    21.0040    24.4100     2.3200   -12.2480 
  189.7500    61.8210    22.9680    20.5760    20.0210    24.4000     2.3230   -12.2920 
  189.8750    63.1170    22.4120    19.9940    19.2120    24.4410     2.3250   -12.3280 
  190.0000    62.4530    21.5400    19.1710    18.2170    24.4970     2.3290   -12.2980 
  190.1250    62.1470    20.4990    18.1870    17.1180    24.5060     2.3370   -12.2100 
  190.2500    61.9790    19.5630    17.2580    15.5570    24.4550     2.3460   -12.1700 
  190.3750    61.9390    18.8740    16.5100    14.8940    24.3880     2.3520   -12.2320 
  190.5000    62.1800    18.4800    15.9990    14.8680    24.3350     2.3530   -12.3600 
  190.6250    64.0460    18.4290    15.7800    15.4420    24.3200     2.3510   -12.5130 
  190.7500    67.4890    18.6960    15.8310    16.2870    24.3330     2.3550   -12.6500 
  190.8750    69.3510    19.3870    16.2210    17.1410    24.3780     2.3650   -12.8240 
