~V
VERS. 2.00: Ver 2.00
~W
STRT.M 64.0000:
STOP.M 220.0000:
STEP.M 0.1250:
NULL. -999.2500:
UWI. F10051:
~C
DEPT.M :
SP.MV :
GR.API :
RML.OHMM :
RI. :
RXO.OHMM :
CALI.CM :
DEN.GM/CC :
~A
# ...
  187.7500    -9.7750    69.8940    10.3140     8.8930     8.0350    23.7850     2.4280 
  187.8750    -9.8530    69.5780    10.3370     8.9420     8.4300    23.8960     2.4120 
  188.0000    -9.9430    73.9200    10.3910     9.0090     8.6930    23.9200     2.4080 
  188.1250   -10.0480    80.1460    10.5000     9.1120     8.9220    23.9230     2.4270 
  188.2500   -10.1750    82.7900    10.6660     9.2580     9.2560    23.8890     2.4600 
  188.3750   -10.2780    81.2390    10.8940     9.4550     9.7320    23.8320     2.4950 
  188.5000   -10.3450    77.8370    11.1850     9.7050    10.3860    23.7100     2.5160 
  188.6250   -10.3820    76.0560    11.5320    10.0080    11.3500    23.5590     2.5070 
  188.7500   -10.3820    75.4570    11.8820    10.3270    12.5220    23.6230     2.4790 
  188.8750   -10.3730    73.5620    12.1780    10.6190    13.3400    23.7460     2.4480 
  189.0000   -10.3330    71.6650    12.3590    10.8350    13.4280    23.8460     2.4310 
  189.1250   -10.2740    71.6220    12.3700    10.9180    12.8640    23.9030     2.4410 
  189.2500   -10.1810    70.9260    12.2590    10.8940    12.5740    23.8660     2.4650 
  189.3750   -10.0830    68.9790    12.0960    10.8080    12.6310    23.7930     2.4890 
  189.5000   -10.0040    69.4430    11.9620    10.7260    13.1100    23.7140     2.5020 
  189.6250    -9.9360    72.9910    11.9440    10.7260    13.6660    23.6930     2.5030 
  189.7500    -9.8940    73.3560    12.0400    10.8250    13.8490    23.5370     2.5040 
  189.8750    -9.8330    69.3050    12.2160    11.0090    13.7060    23.4140     2.5150 
  190.0000    -9.7960    65.5320    12.4170    11.2400    13.3120    23.4530     2.5390 
  190.1250    -9.7560    65.5110    12.5790    11.4610    12.5750    23.6110     2.5670 
  190.2500    -9.7170    66.3840    12.6750    11.6310    11.6110    23.6620     2.5860 
  190.3750    -9.6770    67.0510    12.7140    11.7360    10.6030    23.5610     2.5900 
  190.5000    -9.6130    66.9260    12.7280    11.7890     9.8080    23.3820     2.5760 
  190.6250    -9.5230    66.1190    12.7740    11.8190     9.7850    23.3540     2.5500 
  190.7500    -9.4240    66.9350    12.8640    11.8630    10.4390    23.5060     2.5260 
  190.8750    -9.3430    70.3850    12.9900    11.9390    11.4590    23.7300     2.5120 
  191.0000    -9.2470    74.9770    13.2050    12.0520    12.4870    23.8580     2.5120 
  191.1250    -9.1460    77.4030    13.4450    12.2040    13.8080    23.9310     2.5210 
  191.2500    -9.0390    77.8770    13.7160    12.3870    14.6160    23.9510     2.5300 
  191.3750    -8.9600    76.8600    13.9510    12.6010    14.8740    23.9340     2.5330 
  191.5000    -8.9290    75.2210    14.2000    12.8540    14.9890    23.8990     2.5300 
  191.6250    -8.9320    76.2340    14.5790    13.1530    14.9890    23.9080     2.5270 
  191.7500    -8.9290    78.1910    14.9710    13.4730    14.8520    23.9820     2.5270 
  191.8750    -8.8900    78.8760    15.3950    13.7780    14.5920    24.0130     2.5320 
  192.0000    -8.8440    77.2530    15.7440    14.0250    14.4950    23.9960     2.5410 
  192.1250    -8.7860    73.7270    15.8820    14.1580    14.5970    23.9490     2.5520 
  192.2500    -8.7100    72.5730    15.8050    14.1790    14.9530    23.9120     2.5600 
  192.3750    -8.6150    74.2210    15.6530    14.1100    15.3800    23.8980     2.5640 
  192.5000    -8.4840    76.5120    15.4740    13.9900    15.6720    23.8960     2.5620 
  192.6250    -8.3540    76.9600    15.3260    13.8710    15.7460    23.8810     2.5560 
  192.7500    -8.2280    76.5590    15.2280    13.7880    15.4050    23.8590     2.5520 
  192.8750    -8.1240    77.3060    15.1730    13.7440    14.9160    23.8530     2.5500 
  193.0000    -8.0510    78.3950    15.1360    13.7280    14.4580    23.8760     2.5510 
  193.1250    -8.0230    78.2450    15.0890    13.7160    14.3900    23.9090     2.5530 
  193.2500    -8.0320    76.6500    15.0300    13.7010    14.5580    23.9370     2.5550 
  193.3750    -8.0370    74.8640    14.9820    13.6930    14.6710    23.9450     2.5550 
  193.5000    -8.0570    73.7330    14.9860    13.7230    14.4990    23.9320     2.5560 
  193.6250    -8.0920    72.6820    15.1060    13.8430    14.5420    23.9010     2.5590 
  193.7500    -8.1510    74.7870    15.3530    14.0670    15.1260    23.8870     2.5620 
  193.8750    -8.2380    79.4810    15.7160    14.3970    16.1550    23.8890     2.5640 
  194.0000    -8.3310    82.1460    16.1520    14.8060    17.2140    23.9040     2.5630 
  194.1250    -8.3970    79.4860    16.5780    15.2370    17.7820    23.9320     2.5570 
  194.2500    -8.4470    75.7480    16.9140    15.6130    18.0740    23.9320     2.5520 
  194.3750    -8.4930    73.3050    17.1110    15.8820    17.9690    23.9090     2.5490 
  194.5000    -8.5390    72.4330    17.1650    16.0250    17.2820    23.8910     2.5490 
  194.6250    -8.5620    73.8770    17.1100    16.0520    16.0710    23.8870     2.5510 
  194.7500    -8.5850    77.1080    17.0430    16.0440    15.1870    23.8850     2.5520 
  194.8750    -8.6030    79.1420    17.0260    16.0610    15.1760    23.8840     2.5530 
  195.0000    -8.6120    78.8070    17.0870    16.1370    16.0470    23.8830     2.5540 
  195.1250    -8.6110    76.8940    17.2100    16.2740    17.4550    23.8830     2.5580 
  195.2500    -8.6120    74.7210    17.3170    16.4120    18.9780    23.8830     2.5610 
  195.3750    -8.6410    73.3230    17.3400    16.4880    19.7770    23.8770     2.5630 
  195.5000    -8.6730    73.6230    17.2320    16.4510    19.6390    23.8650     2.5630 
  195.6250    -8.6750    76.6640    16.9590    16.2550    18.7940    23.8510     2.5630 
  195.7500    -8.6430    79.6640    16.5810    15.9410    17.4990    23.8650     2.5640 
  195.8750    -8.5780    79.8650    16.1500    15.5530    15.8700    23.8790     2.5700 
  196.0000    -8.5080    77.9670    15.7190    15.1420    14.4650    23.8830     2.5800 
  196.1250    -8.4380    76.8760    15.3490    14.7690    13.7110    23.8730     2.5900 
  196.2500    -8.3620    76.9470    15.0690    14.4720    13.2570    23.8450     2.5940 
  196.3750    -8.2670    76.8210    14.9050    14.2800    12.8830    23.8090     2.5860 
  196.5000    -8.1420    75.2910    14.8830    14.2260    12.4960    23.7760     2.5640 
  196.6250    -8.0440    72.0060    15.0810    14.3860    11.8100    23.7630     2.5300 
  196.7500    -7.9590    68.9680    15.5120    14.7770    11.0830    23.7400     2.4960 
  196.8750    -7.8870    68.8380    16.1930    15.4200    10.6240    23.7160     2.4770 
  197.0000    -7.8120    72.9540    17.0990    16.2980    11.0970    23.6940     2.4800 
  197.1250    -7.7530    77.1700    18.1690    17.3670    13.5720    23.6400     2.5080 
  197.2500    -7.7000    78.6340    19.2520    18.4870    17.2190    23.5840     2.5450 
  197.3750    -7.6600    79.3280    20.2370    19.5430    20.9260    23.5090     2.5770 
  197.5000    -7.6720    79.8580    21.0460    20.4440    23.5620    23.5160     2.5950 
  197.6250    -7.6970    79.2460    21.6090    21.0900    25.3800    23.6090     2.5980 
  197.7500    -7.7390    77.0930    21.9540    21.4910    26.8790    23.6550     2.5930 
  197.8750    -7.8050    75.0020    22.0850    21.6450    28.1270    23.6650     2.5810 
  198.0000    -7.8610    74.8180    22.0020    21.5570    28.9920    23.6650     2.5590 
  198.1250    -7.9350    76.6570    21.6800    21.2060    26.7830    23.6650     2.5300 
  198.2500    -8.0080    78.3130    21.1880    20.6720    22.5070    23.6630     2.5030 
  198.3750    -8.0490    78.0310    20.5920    20.0270    18.6390    23.6640     2.4900 
  198.5000    -8.0750    76.7930    19.9750    19.3560    16.0210    23.6710     2.4980 
  198.6250    -8.0630    75.8990    19.4430    18.7690    13.8000    23.7160     2.5250 
  198.7500    -8.0260    73.3840    19.0820    18.3480    13.1620    23.7490     2.5560 
  198.8750    -7.9800    71.2710    18.9680    18.1660    13.4650    23.7800     2.5790 
