~V
VERS. 2.00: Ver 2.00
~W
STRT.M 50.0000:
STOP.M 313.0000:
STEP.M 0.1250:
NULL. -999.2500:
UWI. F10034:
~C
DEPT.M :
GR.API :
RML.OHMM :
RI. :
RXO.OHMM :
CALI.CM :
DEN.GM/CC :
SP.MV :
~A
# ...
  128.7500    57.2200     7.8870     6.7810     8.9330    23.2360     2.2390   -17.1010 
  128.8750    56.4880     7.4280     6.4040     8.5190    23.2420     2.2460   -16.2620 
  129.0000    57.2300     7.0050     6.0210     7.8850    23.2820     2.2560   -15.3890 
  129.1250    61.8480     6.7070     5.7080     7.1910    23.3090     2.2670   -14.5380 
  129.2500    67.0960     6.4910     5.4740     6.7590    23.3020     2.2780   -13.7510 
  129.3750    69.5400     6.2990     5.3020     6.8650    23.2910     2.2860   -13.0420 
  129.5000    69.0350     6.1070     5.1710     7.3330    23.3050     2.2920   -12.3880 
  129.6250    70.3070     5.9630     5.0980     7.2180    23.3440     2.2960   -11.8310 
  129.7500    74.0420     5.9870     5.1170     6.7470    23.3970     2.2980   -11.4300 
  129.8750    76.7170     6.2630     5.2710     6.5720    23.4290     2.2960   -11.2580 
  130.0000    75.5330     6.7960     5.5780     7.1730    23.3710     2.2890   -11.2600 
  130.1250    72.0600     7.4750     6.0010     8.0640    23.3230     2.2790   -11.3310 
  130.2500    70.8320     7.9520     6.3940     8.5250    23.3340     2.2690   -11.3830 
  130.3750    70.2640     8.1460     6.6220     8.6090    23.3740     2.2620   -11.3710 
  130.5000    67.9640     7.9650     6.5920     8.3150    23.4050     2.2600   -11.2860 
  130.6250    67.8120     7.4390     6.2780     7.6000    23.4310     2.2680   -11.0550 
  130.7500    71.8960     6.8300     5.8460     6.6750    23.4560     2.2850   -10.6520 
  130.8750    75.4120     6.3210     5.4240     5.8940    23.4650     2.3060   -10.0620 
  131.0000    74.4590     6.0200     5.1080     5.6130    23.4760     2.3230    -9.3470 
  131.1250    71.4420     5.9760     4.9580     5.7970    23.5550     2.3310    -8.6090 
  131.2500    71.6240     6.0850     4.9380     5.9320    23.6410     2.3320    -7.8890 
  131.3750    74.5120     6.2550     4.9980     5.9700    23.6780     2.3290    -7.2700 
  131.5000    76.1010     6.3940     5.0780     5.9630    23.6230     2.3270    -6.8220 
  131.6250    72.4250     6.4060     5.1010     5.9550    23.5230     2.3280    -6.6010 
  131.7500    68.4760     6.2810     5.0370     5.9990    23.4880     2.3310    -6.5330 
  131.8750    67.8910     6.0360     4.8850     5.9540    23.5420     2.3340    -6.5600 
  132.0000    69.4940     5.7220     4.6730     5.6250    23.6900     2.3370    -6.6580 
  132.1250    70.7050     5.4480     4.4690     5.2830    23.8640     2.3410    -6.8480 
  132.2500    73.9380     5.3500     4.3690     5.2540    23.9300     2.3470    -7.1540 
  132.3750    78.4530     5.5490     4.4660     5.5970    23.8580     2.3570    -7.5510 
  132.5000    80.8990     6.0980     4.8150     6.3580    23.6920     2.3680    -8.0210 
  132.6250    79.6110     6.9430     5.4190     7.7930    23.5400     2.3730    -8.5650 
  132.7500    75.7050     7.7850     6.0850     9.4870    23.4680     2.3640    -9.1480 
  132.8750    69.2220     8.3350     6.6050    11.0900    23.4590     2.3370    -9.7540 
  133.0000    62.8390     8.3850     6.7970    12.0090    23.4250     2.3000   -10.3480 
  133.1250    62.2760     7.8680     6.5460    10.4640    23.3980     2.2670   -10.8310 
  133.2500    65.2250     7.1400     6.0700     8.2730    23.4300     2.2480   -11.1820 
  133.3750    68.4560     6.5010     5.5850     6.8880    23.4930     2.2420   -11.4420 
  133.5000    70.2380     6.1450     5.2500     6.3900    23.5050     2.2410   -11.6800 
  133.6250    68.2920     6.1470     5.1590     6.7460    23.4650     2.2360   -11.9290 
  133.7500    64.0290     6.3470     5.2380     7.2620    23.4330     2.2280   -12.1360 
  133.8750    61.7470     6.6020     5.4040     7.4560    23.4460     2.2220   -12.2600 
  134.0000    64.3570     6.7970     5.5740     7.2220    23.5020     2.2200   -12.3290 
  134.1250    70.0460     6.8450     5.6670     6.9980    23.5310     2.2230   -12.3980 
  134.2500    75.4140     6.7670     5.6730     7.1710    23.5410     2.2270   -12.4450 
  134.3750    77.4510     6.6120     5.6070     7.2570    23.5410     2.2310   -12.4060 
  134.5000    75.1850     6.4630     5.5210     7.0640    23.5410     2.2390   -12.1960 
  134.6250    73.7380     6.4310     5.4880     6.7340    23.5440     2.2540   -11.7780 
  134.7500    76.6310     6.5380     5.5360     6.5460    23.5790     2.2710   -11.3030 
  134.8750    80.4780     6.7450     5.6440     6.4300    23.6650     2.2850   -10.8540 
  135.0000    79.8700     6.9500     5.7470     6.3950    23.7360     2.2910   -10.4400 
  135.1250    75.7920     6.9750     5.7380     6.4850    23.6890     2.2860   -10.0160 
  135.2500    74.8980     6.7490     5.5650     6.1190    23.6760     2.2770    -9.6230 
  135.3750    79.4110     6.2920     5.2360     5.3790    23.8100     2.2710    -9.3440 
  135.5000    86.6580     5.7120     4.8100     4.8710    23.9250     2.2720    -9.2690 
  135.6250    90.9650     5.1720     4.3890     4.7530    23.8340     2.2840    -9.4850 
  135.7500    92.2000     4.8040     4.0700     4.7530    23.6200     2.2980    -9.9320 
  135.8750    93.0280     4.6900     3.9240     4.7490    23.4960     2.3080   -10.6270 
  136.0000    93.8550     4.8810     4.0060     4.8320    23.5030     2.3090   -11.5840 
  136.1250    94.1960     5.4400     4.3890     5.4150    23.5240     2.3030   -12.8980 
  136.2500    90.2560     6.2490     5.0060     6.4010    23.5000     2.3010   -14.4900 
  136.3750    80.8020     7.1620     5.7680     7.7020    23.4890     2.3070   -16.1830 
  136.5000    70.0880     7.9720     6.5270     8.8430    23.5010     2.3140   -17.8170 
  136.6250    65.0970     8.4160     7.0640     9.1490    23.4990     2.3070   -19.2830 
  136.7500    64.0180     8.4770     7.3020     9.0280    23.4990     2.2840   -20.5470 
  136.8750    62.1520     8.2560     7.2700     8.7620    23.4630     2.2520   -21.5950 
  137.0000    59.7500     7.9360     7.0850     8.5230    23.3860     2.2260   -22.4210 
  137.1250    60.9570     7.7070     6.8870     8.4320    23.3170     2.2140   -22.9510 
  137.2500    63.6130     7.6270     6.7520     8.3920    23.2790     2.2100   -23.2430 
  137.3750    62.9170     7.6680     6.6800     8.2920    23.2850     2.2050   -23.4060 
  137.5000    57.7600     7.7560     6.6380     8.1580    23.3310     2.1930   -23.5090 
  137.6250    53.4980     7.7920     6.5740     8.1770    23.4720     2.1770   -23.5490 
  137.7500    53.6070     7.7070     6.4510     8.2880    23.7240     2.1600   -23.5370 
  137.8750    56.5160     7.4820     6.2600     8.3810    23.9780     2.1490   -23.4430 
  138.0000    59.2310     7.1800     6.0320     8.4470    24.0680     2.1420   -23.2420 
  138.1250    59.6110     7.0870     5.9260     8.6320    24.0400     2.1410   -22.9220 
  138.2500    58.9990     7.6020     6.1950     9.3460    24.0260     2.1500   -22.5010 
  138.3750    59.4400     9.0860     7.1290    11.5040    24.0380     2.1830   -21.9800 
  138.5000    59.6330    11.6340     8.8910    16.9120    24.0600     2.2510   -21.3760 
  138.6250    55.3980    14.8310    11.3810    26.5170    24.0520     2.3590   -20.7830 
  138.7500    50.0210    17.5030    13.7980    36.7500    24.0150     2.4670   -20.2990 
  138.8750    48.6680    18.5740    15.2550    44.3290    23.9620     2.5320   -19.9760 
  139.0000    51.8320    17.4490    15.0430    41.7240    23.9050     2.5230   -19.8270 
  139.1250    54.7390    14.4510    13.0570    25.2020    23.8800     2.4440   -19.8350 
  139.2500    55.9510    11.3100    10.6330    13.0490    23.8990     2.3530   -19.9200 
  139.3750    56.7450     8.9960     8.6360     8.6820    23.9520     2.2810   -20.0770 
  139.5000    57.4600     7.7330     7.3560     7.6760    24.0400     2.2370   -20.3050 
  139.6250    56.7570     7.3440     6.7740     7.6660    24.1510     2.2170   -20.5310 
  139.7500    55.2500     7.2780     6.5380     7.6320    24.2620     2.2060   -20.6630 
  139.8750    56.0870     7.2400     6.4310     7.5720    24.3540     2.2000   -20.6200 
