~V
VERS. 2.00: Ver 2.00
~W
STRT.M 50.0000:
STOP.M 325.0000:
STEP.M 0.1250:
NULL. -999.2500:
UWI. F10039:
~C
DEPT.M :
GR.API :
RML.OHMM :
RI. :
RXO.OHMM :
CALI.CM :
DEN.GM/CC :
SP.MV :
~A
# ...
  252.5000    71.2920    31.6230    28.1720    29.8320    23.6070     2.3000   -15.8460 
  252.6250    68.6670    32.7410    29.2400    30.8960    23.8040     2.3000   -16.0120 
  252.7500    65.3590    33.6590    30.0590    33.1560    23.8750     2.2990   -16.2030 
  252.8750    62.6450    34.3240    30.5790    34.4580    23.7700     2.3000   -16.4210 
  253.0000    61.8330    34.7390    30.8460    32.7680    23.6280     2.3050   -16.6330 
  253.1250    63.2880    34.9530    30.9840    31.3590    23.6260     2.3130   -16.8320 
  253.2500    64.9760    35.1120    31.1530    32.5830    23.8110     2.3230   -17.0150 
  253.3750    65.6130    35.3350    31.4060    34.2280    24.0680     2.3310   -17.1750 
  253.5000    65.0450    35.7060    31.7200    34.5790    24.2160     2.3350   -17.2930 
  253.6250    66.0800    36.2640    32.0200    32.8950    24.2510     2.3320   -17.3720 
  253.7500    68.4150    36.9240    32.2660    33.1260    24.2580     2.3220   -17.4060 
  253.8750    68.7400    37.6490    32.5050    35.0680    24.2630     2.3130   -17.3990 
  254.0000    66.4380    38.5050    32.8650    37.3290    24.2560     2.3180   -17.3670 
  254.1250    64.5270    39.8110    33.6680    36.0500    24.2410     2.3570   -17.3060 
  254.2500    63.6250    41.9260    35.2160    35.9240    24.2360     2.4230   -17.2230 
  254.3750    62.6260    45.3230    37.9070    38.8260    24.2350     2.4950   -17.1270 
  254.5000    61.4160    50.4760    42.1340    45.4920    24.2090     2.5450   -17.0190 
  254.6250    60.7310    58.0610    48.4510    58.1030    24.1190     2.5550   -16.8590 
  254.7500    59.9500    67.6140    56.4310    80.3580    23.9990     2.5490   -16.6720 
  254.8750    60.1510    78.5940    65.6260   101.3350    23.9010     2.5520   -16.4340 
  255.0000    61.8590    90.2310    75.4510    96.6270    23.8270     2.5730   -16.1530 
  255.1250    61.5720   101.0390    84.8630    76.4400    23.8430     2.5960   -15.8490 
  255.2500    59.2710   108.1100    91.6370    83.0440    23.9250     2.5970   -15.5310 
  255.3750    57.7530   106.9520    92.1200   104.9500    24.0230     2.5720   -15.1840 
  255.5000    57.4400    93.7260    83.0860   141.8940    24.0330     2.5360   -14.8350 
  255.6250    58.0420    69.6460    64.5840   112.4390    23.9630     2.5110   -14.5220 
  255.7500    58.0780    45.1020    44.4260    47.3520    23.9650     2.5030   -14.2430 
  255.8750    56.6610    27.1520    27.8950    16.0520    24.0180     2.5050   -14.0140 
  256.0000    53.9000    16.4080    16.9010     7.7480    24.0880     2.5090   -13.8350 
  256.1250    51.4100    11.2720    11.2200     6.5250    24.0720     2.5070   -13.7080 
  256.2500    49.9680     8.8550     8.3420     6.9500    24.0020     2.5010   -13.6390 
  256.3750    49.5670     7.9590     7.1310     7.3180    23.9580     2.4890   -13.6400 
  256.5000    50.2200     7.8440     6.8780     7.4240    24.0140     2.4730   -13.6760 
  256.6250    50.1010     8.0490     7.1270     7.2220    24.1970     2.4590   -13.7440 
  256.7500    47.6920     8.2250     7.4280     7.0790    24.3220     2.4550   -13.8320 
  256.8750    45.7080     8.2730     7.5930     6.8790    24.3460     2.4660   -13.9440 
  257.0000    47.4980     8.2130     7.5770     6.7220    24.3450     2.4890   -14.0730 
  257.1250    51.1910     8.1310     7.4400     6.7240    24.3840     2.5150   -14.2060 
  257.2500    52.6510     8.0880     7.3160     6.9400    24.3870     2.5310   -14.3300 
  257.3750    52.2780     8.0910     7.2780     7.2330    24.3260     2.5310   -14.4350 
  257.5000    52.7790     8.1270     7.3480     7.3650    24.2520     2.5180   -14.5380 
  257.6250    54.0040     8.1810     7.4940     7.4230    24.1960     2.4950   -14.6420 
  257.7500    52.8560     8.2290     7.6190     7.4350    24.1490     2.4730   -14.7420 
  257.8750    50.1320     8.2410     7.6450     7.4090    24.1470     2.4570   -14.8250 
  258.0000    49.5990     8.2020     7.5360     7.2600    24.2020     2.4520   -14.9110 
  258.1250    53.5080     8.0950     7.3110     7.1790    24.2540     2.4590   -15.0050 
  258.2500    56.8560     7.9890     7.0790     6.9660    24.2720     2.4730   -15.1120 
  258.3750    55.9440     7.8870     6.9260     6.8370    24.2370     2.4870   -15.2470 
  258.5000    51.7870     7.7970     6.8970     7.0000    24.1620     2.4950   -15.3930 
  258.6250    48.4230     7.7380     6.9960     7.2970    24.1030     2.4900   -15.5440 
  258.7500    49.0560     7.7190     7.1450     7.3810    24.1150     2.4770   -15.6740 
  258.8750    51.7790     7.7380     7.2770     7.2220    24.1760     2.4640   -15.7950 
  259.0000    53.0960     7.7790     7.3340     7.1540    24.2050     2.4560   -15.8880 
  259.1250    51.5060     7.7860     7.2610     7.2860    24.1910     2.4590   -15.9490 
  259.2500    51.0800     7.7190     7.0780     7.2750    24.1770     2.4700   -15.9770 
  259.3750    53.1750     7.5930     6.8200     7.1630    24.1630     2.4840   -15.9590 
  259.5000    54.1890     7.4450     6.5390     7.1480    24.1390     2.4950   -15.9190 
  259.6250    51.3250     7.2870     6.3110     6.9810    24.1700     2.4980   -15.8460 
  259.7500    48.2870     7.1180     6.1860     6.6560    24.1820     2.4950   -15.7790 
  259.8750    49.4220     6.9460     6.1960     6.4300    24.1860     2.4880   -15.7300 
  260.0000    56.5640     6.7900     6.3510     6.4060    24.1970     2.4830   -15.6940 
  260.1250    68.8390     6.8850     6.6460     6.7160    24.1590     2.4800   -15.6620 
  260.2500    80.7970     7.1430     7.0000     7.1830    24.1070     2.4760   -15.6210 
  260.3750    87.6220     7.4680     7.3380     7.5170    24.0470     2.4700   -15.5930 
  260.5000    90.3040     7.7510     7.5930     7.7080    24.0190     2.4640   -15.5540 
  260.6250    93.9200     7.9050     7.7200     7.6220    24.0250     2.4600   -15.5340 
  260.7500    97.3820     7.9390     7.7700     7.6380    24.0140     2.4590   -15.5080 
  260.8750    97.1190     7.8880     7.7950     7.6020    23.9870     2.4590   -15.4590 
  261.0000    94.4510     7.7930     7.8330     7.2730    23.9530     2.4570   -15.4020 
  261.1250    95.8180     7.6740     7.8750     7.0370    23.9260     2.4540   -15.3480 
  261.2500    98.1710     7.5540     7.8780     7.0700    23.9310     2.4530   -15.3160 
  261.3750    98.2620     7.4590     7.8010     7.2260    23.9560     2.4550   -15.3030 
  261.5000    96.3440     7.4110     7.6320     7.0560    23.9860     2.4550   -15.3170 
  261.6250    92.5370     7.4070     7.3740     7.0970    24.0150     2.4490   -15.3400 
  261.7500    89.2620     7.3860     7.0730     7.0070    24.0590     2.4430   -15.3840 
  261.8750    89.6130     7.2810     6.7560     6.9710    24.0860     2.4470   -15.4370 
  262.0000    94.0910     7.0630     6.4450     6.9090    24.0620     2.4620   -15.5000 
  262.1250    97.6440     6.7840     6.1910     6.7330    24.0200     2.4780   -15.5760 
  262.2500    98.1860     6.6360     6.0820     6.6630    23.9940     2.4790   -15.6710 
  262.3750    97.2520     6.8880     6.2660     6.9930    23.9860     2.4570   -15.7660 
  262.5000    92.4550     7.8760     6.9410     8.5760    23.9600     2.4220   -15.8730 
  262.6250    82.6210    10.2760     8.5370    14.9070    23.8670     2.3940   -15.9920 
  262.7500    74.2060    14.2290    11.2480    30.4230    23.7650     2.3820   -16.1200 
  262.8750    69.2630    19.5740    15.2190    46.8020    23.7800     2.3830   -16.2530 
  263.0000    66.1460    25.5700    20.2020    44.0470    23.9530     2.3810   -16.3860 
  263.1250    63.7790    30.7680    25.2470    38.1350    24.0930     2.3670   -16.5110 
  263.2500    62.4800    34.1830    29.1800    36.5140    24.1290     2.3490   -16.6060 
  263.3750    61.5040    35.7480    31.5370    37.5080    24.1330     2.3410   -16.6960 
  263.5000    61.2100    36.1590    32.5670    39.5030    24.1450     2.3520   -16.7710 
  263.6250    64.6190    36.1980    32.7570    36.1080    24.1590     2.3800   -16.8410 
