~V
VERS. 2.00: Ver 2.00
~W
STRT.M 50.0000:
STOP.M 250.0000:
STEP.M 0.1250:
NULL. -999.2500:
UWI. F10033:
~C
DEPT.M :
SP.MV :
GR.API :
RML.OHMM :
RI. :
RXO.OHMM :
CALI.CM :
DEN.GM/CC :
~A
# ...
  162.5000    -8.0720    51.5830    22.7760    21.1600    22.6820    25.0970     2.4840 
  162.6250    -8.1360    51.0610    22.7020    21.1380    21.6520    24.9160     2.4660 
  162.7500    -8.1610    50.6730    22.5890    21.0590    20.4210    24.6020     2.4500 
  162.8750    -8.1480    49.8370    22.4790    20.9690    19.9550    24.4700     2.4440 
  163.0000    -8.0940    47.6040    22.3410    20.8610    20.7460    24.5750     2.4480 
  163.1250    -7.9700    45.7980    22.0790    20.6740    21.7770    24.8000     2.4590 
  163.2500    -7.8220    46.2620    21.7060    20.4020    21.9360    25.0200     2.4710 
  163.3750    -7.6690    47.9080    21.3000    20.0920    21.2970    25.1560     2.4810 
  163.5000    -7.5050    49.4710    20.9590    19.8120    20.6420    25.2110     2.4860 
  163.6250    -7.3090    48.9470    20.7500    19.6150    20.7820    25.1920     2.4870 
  163.7500    -7.1080    47.8330    20.6100    19.4710    20.9650    25.2100     2.4850 
  163.8750    -6.8940    47.8710    20.4350    19.3100    21.7410    25.3030     2.4820 
  164.0000    -6.6670    50.1580    20.1260    19.0530    22.6390    25.4210     2.4810 
  164.1250    -6.4820    51.6880    19.6280    18.6360    21.8330    25.4540     2.4870 
  164.2500    -6.3440    50.4800    19.0400    18.1170    21.0820    25.4510     2.4980 
  164.3750    -6.2190    49.2960    18.4580    17.5730    20.4840    25.4430     2.5080 
  164.5000    -6.0830    49.8100    17.9600    17.0780    19.7250    25.4340     2.5120 
  164.6250    -5.9600    50.0300    17.6090    16.7040    19.3960    25.4240     2.5060 
  164.7500    -5.8940    48.9080    17.3910    16.4560    19.1810    25.4200     2.4930 
  164.8750    -5.9170    48.6930    17.3150    16.3440    18.9210    25.4180     2.4790 
  165.0000    -6.0390    49.6780    17.4100    16.3890    18.8920    25.4020     2.4700 
  165.1250    -6.2220    49.0810    17.7250    16.6340    19.0330    25.4030     2.4730 
  165.2500    -6.3720    47.2980    18.1870    17.0210    19.3030    25.4010     2.4800 
  165.3750    -6.4890    46.0550    18.7140    17.4840    20.2140    25.3800     2.4870 
  165.5000    -6.6050    45.8500    19.1930    17.9330    21.9890    25.3610     2.4890 
  165.6250    -6.7440    46.5250    19.4970    18.2530    22.3060    25.3920     2.4830 
  165.7500    -6.8690    47.8030    19.6310    18.4260    21.4560    25.4250     2.4770 
  165.8750    -6.9530    48.1760    19.6530    18.4810    20.6770    25.4390     2.4730 
  166.0000    -6.9890    47.2940    19.6420    18.4720    20.9390    25.4400     2.4760 
  166.1250    -6.9750    47.3020    19.6620    18.4520    21.8400    25.4400     2.4830 
  166.2500    -6.9750    49.5050    19.6880    18.4220    21.8080    25.4400     2.4890 
  166.3750    -7.0080    52.4900    19.6390    18.3320    21.5430    25.4400     2.4920 
  166.5000    -7.0550    53.2590    19.4570    18.1360    21.2080    25.4350     2.4920 
  166.6250    -7.1040    49.5920    19.1690    17.8540    21.2580    25.4180     2.4910 
  166.7500    -7.1520    45.2610    18.9100    17.5940    21.0180    25.3950     2.4940 
  166.8750    -7.1840    44.6930    18.7740    17.4360    19.9620    25.3830     2.5010 
  167.0000    -7.1890    47.8790    18.7940    17.4160    19.4200    25.3860     2.5110 
  167.1250    -7.2070    49.3810    18.9510    17.5350    20.3330    25.4040     2.5200 
  167.2500    -7.2440    48.7560    19.1740    17.7360    20.9110    25.4270     2.5260 
  167.3750    -7.2860    47.0330    19.4550    18.0050    20.5990    25.4290     2.5270 
  167.5000    -7.3050    45.4480    19.8040    18.3410    20.4660    25.4160     2.5220 
  167.6250    -7.2470    44.9970    20.2080    18.7160    20.4430    25.4220     2.5150 
  167.7500    -7.1500    46.5640    20.5580    19.0470    22.6050    25.4630     2.5090 
  167.8750    -7.0820    48.0310    20.7170    19.2280    26.0910    25.4990     2.5080 
  168.0000    -7.0660    47.4940    20.5730    19.1690    23.9480    25.4940     2.5100 
  168.1250    -7.0360    47.5680    20.0940    18.8230    21.8700    25.5180     2.5160 
  168.2500    -6.9470    50.0050    19.4880    18.3380    19.9660    25.5430     2.5240 
  168.3750    -6.8000    52.5220    18.9370    17.8480    19.2410    25.5770     2.5310 
  168.5000    -6.6330    52.5460    18.5690    17.4650    19.1420    25.6020     2.5350 
  168.6250    -6.5390    50.9200    18.4450    17.2600    19.0700    25.5900     2.5330 
  168.7500    -6.4920    50.6140    18.4640    17.1790    19.1810    25.5750     2.5260 
  168.8750    -6.4650    50.5050    18.5570    17.1730    19.1930    25.5690     2.5200 
  169.0000    -6.4610    49.2740    18.6790    17.2020    18.9820    25.5760     2.5180 
  169.1250    -6.4780    47.0640    18.7890    17.2350    18.8990    25.5890     2.5230 
  169.2500    -6.5190    45.5590    18.8580    17.2560    19.4430    25.5900     2.5300 
  169.3750    -6.6150    45.4670    18.8770    17.2670    20.1590    25.5610     2.5360 
  169.5000    -6.7610    46.2890    18.8700    17.2850    19.7630    25.5170     2.5390 
  169.6250    -6.8730    46.7300    18.9100    17.3620    19.4620    25.4910     2.5410 
  169.7500    -6.9160    46.8410    19.0800    17.5420    19.2300    25.4830     2.5430 
  169.8750    -6.9260    48.9690    19.4150    17.8500    20.1530    25.4870     2.5460 
  170.0000    -6.9280    52.6260    19.8610    18.2470    22.0620    25.4780     2.5450 
  170.1250    -6.9190    52.4860    20.2650    18.6100    23.5720    25.4930     2.5370 
  170.2500    -6.8940    49.0450    20.4890    18.8080    23.8460    25.5100     2.5270 
  170.3750    -6.8360    47.9190    20.4860    18.7860    23.4300    25.5250     2.5150 
  170.5000    -6.7500    50.7670    20.2970    18.5770    22.2640    25.5150     2.5070 
  170.6250    -6.6820    53.2600    20.0310    18.2850    20.6360    25.4900     2.5030 
  170.7500    -6.6640    52.7170    19.8090    18.0370    20.7220    25.4930     2.5010 
  170.8750    -6.6710    50.2640    19.6780    17.8880    21.3620    25.5030     2.4990 
  171.0000    -6.6500    48.8570    19.6450    17.8470    21.6680    25.5010     2.4960 
  171.1250    -6.6290    50.0920    19.6960    17.9060    21.9710    25.4900     2.4950 
  171.2500    -6.6530    50.8250    19.7820    18.0060    22.0900    25.4780     2.4960 
  171.3750    -6.7140    49.4610    19.8680    18.1140    22.4770    25.4760     2.5020 
  171.5000    -6.7890    46.2350    19.9320    18.1990    22.2230    25.4730     2.5090 
  171.6250    -6.8930    43.4990    19.9440    18.2290    22.4300    25.4900     2.5170 
  171.7500    -7.0280    42.9920    19.8990    18.1980    21.8580    25.4960     2.5220 
  171.8750    -7.1620    44.5550    19.7990    18.1070    21.6070    25.4860     2.5240 
  172.0000    -7.3160    46.3110    19.6530    17.9660    21.1840    25.4580     2.5220 
  172.1250    -7.4700    46.9330    19.4660    17.7850    21.0940    25.4450     2.5220 
  172.2500    -7.5970    48.5830    19.2680    17.5910    20.7230    25.4400     2.5220 
  172.3750    -7.7150    50.4580    19.0940    17.4110    20.5550    25.4400     2.5210 
  172.5000    -7.8380    50.1920    18.9820    17.2780    20.5460    25.4400     2.5150 
  172.6250    -7.9380    48.0880    18.9900    17.2410    19.9070    25.4410     2.5000 
  172.7500    -8.0220    47.0820    19.1140    17.2990    20.0090    25.4440     2.4820 
  172.8750    -8.1010    47.1810    19.3150    17.4270    20.7990    25.4500     2.4700 
  173.0000    -8.1610    47.6050    19.5200    17.5700    21.4630    25.4460     2.4680 
  173.1250    -8.1930    47.7450    19.6220    17.6460    21.5530    25.4400     2.4770 
  173.2500    -8.2020    48.1030    19.5630    17.6020    20.4230    25.4310     2.4900 
  173.3750    -8.1660    50.1740    19.3270    17.4130    20.0780    25.4370     2.5000 
  173.5000    -8.0830    52.4260    18.9560    17.0980    20.3050    25.4550     2.5030 
  173.6250    -7.9950    51.6490    18.5650    16.7260    19.9780    25.4820     2.4960 
