~V
VERS. 2.00: Ver 2.00
~W
STRT.M 55.0000:
STOP.M 297.0000:
STEP.M 0.1250:
NULL. -999.2500:
UWI. F10076:
~C
DEPT.M :
DEN.GM/CC :
SP.MV :
GR.API :
CALI.CM :
RXO.OHMM :
RI. :
RML.OHMM :
~A
# ...
  167.5000     2.1470   -10.5410    70.7240    23.4630    10.9790    11.3250    12.1780 
  167.6250     2.1650   -10.1530    76.4400    23.2770     9.4290    10.8720    11.5550 
  167.7500     2.2140    -9.7450    82.6770    23.1550     7.7110    10.0780    10.6310 
  167.8750     2.2710    -9.2770    86.1550    23.0560     6.8010     9.0830     9.5660 
  168.0000     2.3060    -8.7410    88.8350    22.9150     6.3530     8.0380     8.5080 
  168.1250     2.3120    -8.2200    94.6550    22.8580     5.5520     7.1060     7.6130 
  168.2500     2.3120    -7.7810   102.3010    22.8370     4.8460     6.3660     6.9350 
  168.3750     2.3100    -7.3600   108.6750    22.7580     4.5120     5.8480     6.4970 
  168.5000     2.3070    -6.9660   111.9990    22.6780     4.4330     5.5430     6.2830 
  168.6250     2.3030    -6.5580   113.1600    23.0410     4.4660     5.4530     6.2730 
  168.7500     2.2980    -6.2310   112.1390    23.7150     4.5770     5.4910     6.3590 
  168.8750     2.2900    -5.9410   110.7680    24.2330     4.7100     5.5880     6.4620 
  169.0000     2.2800    -5.7520   108.4340    24.4390     4.7540     5.6690     6.5130 
  169.1250     2.2810    -5.5420   105.0360    24.4640     4.7210     5.6540     6.4410 
  169.2500     2.3030    -5.3560   105.5130    24.4310     4.6650     5.5300     6.2510 
  169.3750     2.3390    -5.1970   111.4100    24.3390     4.6150     5.3370     5.9990 
  169.5000     2.3750    -5.1300   115.7590    24.1950     4.5410     5.1660     5.7960 
  169.6250     2.3920    -5.0780   111.6940    24.0900     4.4340     5.1380     5.7890 
  169.7500     2.3890    -4.9990   108.7400    24.0580     4.4740     5.2840     5.9990 
  169.8750     2.3730    -4.9880   110.1070    24.0970     4.9680     5.5950     6.3840 
  170.0000     2.3520    -5.0200   110.1940    24.1730     6.0600     6.0130     6.8430 
  170.1250     2.3290    -5.0840   104.8880    24.1660     6.8390     6.4060     7.1950 
  170.2500     2.3060    -5.1090   101.4820    24.1030     6.5320     6.6460     7.3420 
  170.3750     2.2860    -5.1420   103.5440    24.0520     5.6550     6.6900     7.2930 
  170.5000     2.2700    -5.1550   106.7810    24.0360     5.1940     6.5840     7.1330 
  170.6250     2.2640    -5.2140   105.2290    24.0710     5.3500     6.4030     6.9460 
  170.7500     2.2670    -5.2580   100.9820    24.1740     5.4950     6.2100     6.7580 
  170.8750     2.2790    -5.2700    98.8050    24.3210     5.4270     6.0010     6.5420 
  171.0000     2.2880    -5.2580   100.1310    24.4690     5.1730     5.7630     6.2800 
  171.1250     2.2850    -5.3020   104.5380    24.5250     4.8790     5.5200     6.0130 
  171.2500     2.2730    -5.3310   109.7410    24.5430     4.6480     5.3330     5.8210 
  171.3750     2.2570    -5.3740   113.3970    24.5530     4.6310     5.2490     5.7590 
  171.5000     2.2390    -5.3860   113.1390    24.6160     4.8860     5.3020     5.8550 
  171.6250     2.2230    -5.3890   109.0380    24.7670     5.3630     5.5230     6.1240 
  171.7500     2.2200    -5.4590   105.0950    24.9470     5.7050     5.8590     6.4930 
  171.8750     2.2370    -5.5250   103.8750    25.0300     5.9860     6.2560     6.9010 
  172.0000     2.2730    -5.5570   105.0940    25.0440     6.7270     6.6530     7.2800 
  172.1250     2.3130    -5.5430   104.8850    25.0420     7.7200     6.9840     7.5520 
  172.2500     2.3420    -5.6000   102.6570    25.0120     7.8360     7.2160     7.6940 
  172.3750     2.3620    -5.6520   100.3350    24.8960     7.3670     7.3270     7.7010 
  172.5000     2.3810    -5.6970    97.5620    24.6780     7.5140     7.3310     7.6150 
  172.6250     2.4050    -5.7030    94.4000    24.5810     7.8340     7.3380     7.5890 
  172.7500     2.4210    -5.6970    93.6190    24.6690     7.9910     7.5410     7.8320 
  172.8750     2.4200    -5.6870    96.2640    24.8010     8.1530     8.1280     8.5320 
  173.0000     2.4020    -5.7460    98.3430    24.8620     9.7400     9.2640     9.8280 
  173.1250     2.3700    -5.7720    95.3720    24.7610    16.8460    11.0950    11.7680 
  173.2500     2.3320    -5.7610    90.5820    24.6480    23.5420    13.1780    13.7520 
  173.3750     2.2940    -5.7640    86.0300    24.6660    23.9040    14.7070    14.8620 
  173.5000     2.2640    -5.8070    84.2500    24.8410    19.2630    14.8440    14.3850 
  173.6250     2.2520    -5.8540    87.5710    24.9020    15.1120    13.4720    12.6190 
  173.7500     2.2620    -5.8560    92.4620    24.8170    11.4680    11.8380    10.9480 
  173.8750     2.2910    -5.8850    94.5670    24.6810     9.0230    10.7440    10.0580 
  174.0000     2.3290    -5.9050    92.2190    24.6140     8.8180    10.5720    10.1840 
  174.1250     2.3600    -5.9090    90.5150    24.6100    11.0130    11.6490    11.5340 
  174.2500     2.3710    -5.8900    90.9600    24.6100    16.0460    13.8060    13.8370 
  174.3750     2.3590    -5.8470    89.3220    24.6100    22.9980    16.7100    16.6270 
  174.5000     2.3380    -5.8190    84.2170    24.6320    27.3820    19.3320    18.7600 
  174.6250     2.3320    -5.8530    80.5820    24.6730    25.6310    19.8310    18.5410 
  174.7500     2.3370    -5.8680    82.9860    24.6550    20.2290    18.3740    16.6350 
  174.8750     2.3360    -5.8650    87.4490    24.5220    14.3600    16.2060    14.4630 
  175.0000     2.3240    -5.8130    90.5020    24.5190    10.1070    14.4760    13.0330 
  175.1250     2.3100    -5.8480    91.6680    24.6330     9.8580    13.8930    12.8490 
  175.2500     2.3030    -5.9050    90.0630    24.7110    12.9180    14.3210    13.6320 
  175.3750     2.3070    -5.9570    85.2460    24.6370    16.3520    15.5640    15.1210 
  175.5000     2.3200    -5.9350    81.0270    24.5140    17.8330    17.2750    16.9110 
  175.6250     2.3420    -5.8940    80.8660    24.4670    17.0440    18.8750    18.3760 
  175.7500     2.3680    -5.9080    81.0620    24.4750    16.3310    19.9450    19.2300 
  175.8750     2.3930    -5.9260    81.0170    24.4790    16.4350    20.5500    19.6870 
  176.0000     2.4140    -5.9470    83.2970    24.4330    17.6770    21.0830    20.2120 
  176.1250     2.4260    -5.9440    86.1060    24.4210    19.5090    21.9510    21.1800 
  176.2500     2.4260    -5.9230    85.1840    24.4750    21.2570    23.1160    22.4460 
  176.3750     2.4160    -5.9200    81.5100    24.5200    23.2580    24.3460    23.7170 
  176.5000     2.4030    -5.9350    80.2340    24.5130    26.0540    25.3570    24.6880 
  176.6250     2.3980    -5.9140    82.8050    24.4730    26.7990    25.8790    25.1000 
  176.7500     2.4080    -5.9170    85.0310    24.4650    24.8060    25.9850    25.0840 
  176.8750     2.4250    -5.9110    85.0930    24.4990    22.7890    25.8010    24.8010 
  177.0000     2.4380    -5.9600    84.0690    24.5360    22.8630    25.4700    24.4000 
  177.1250     2.4280    -5.9630    84.3010    24.5540    22.8970    25.0640    23.9170 
  177.2500     2.4010    -5.9440    84.8270    24.5470    21.6910    24.5410    23.2700 
  177.3750     2.3740    -5.9220    85.0410    24.5180    20.8390    23.8170    22.3840 
  177.5000     2.3620    -5.9660    86.1040    24.5170    21.1100    22.9030    21.3310 
  177.6250     2.3690    -6.0040    90.0470    24.4790    20.4210    21.9660    20.3610 
  177.7500     2.3780    -5.9900    95.0260    24.4240    18.2100    21.2140    19.6720 
  177.8750     2.3740    -5.9720    97.5330    24.4430    16.9080    20.6930    19.2520 
  178.0000     2.3550    -5.9230    96.3210    24.4600    17.7510    20.2370    18.8610 
  178.1250     2.3310    -5.9220    92.2480    24.3410    18.8040    19.4990    18.1050 
  178.2500     2.3270    -5.9080    88.1120    24.1720    17.7510    18.4280    16.9950 
  178.3750     2.3450    -5.8670    86.3160    24.2210    15.3420    17.2720    15.8490 
  178.5000     2.3740    -5.8130    87.8570    24.4310    12.6060    16.4130    15.1110 
  178.6250     2.3960    -5.8030    90.1050    24.5240    11.8650    16.3470    15.2980 
