~V
VERS. 2.00: Ver 2.00
~W
STRT.M 57.0000:
STOP.M 177.0000:
STEP.M 0.1250:
NULL. -999.2500:
UWI. F10011:
~C
DEPT.M :
DEN.GM/CC :
SP.MV :
GR.API :
CALI.CM :
RXO.OHMM :
RI. :
RML.OHMM :
~A
# ...
  158.2500     2.2580   -25.7600    79.2980    23.3590    90.9670    75.4070    76.7150 
  158.3750     2.2690   -25.7630    78.0060    23.3180    86.8010    75.3560    76.6630 
  158.5000     2.2750   -25.7660    76.9620    23.2700    82.5630    73.5830    74.8550 
  158.6250     2.2680   -25.7530    77.9090    23.2500    77.9850    71.1290    72.3510 
  158.7500     2.2560   -25.7360    78.0510    23.2460    76.4390    68.4460    69.6150 
  158.8750     2.2470   -25.7010    75.8940    23.2460    78.0370    65.8180    66.9340 
  159.0000     2.2410   -25.6690    74.8100    23.2500    77.8430    63.8630    64.9400 
  159.1250     2.2380   -25.6260    77.5230    23.2660    74.1000    63.8540    64.9310 
  159.2500     2.2350   -25.5930    80.0740    23.2960    76.0330    66.4860    67.6160 
  159.3750     2.2340   -25.5270    79.5160    23.3210    92.0270    72.2210    73.4660 
  159.5000     2.2350   -25.4490    77.6060    23.3310   119.0960    80.7440    82.1590 
  159.6250     2.2350   -25.3490    76.9780    23.3300   139.9820    90.5530    92.1640 
  159.7500     2.2330   -25.2450    76.1860    23.3280   149.9750    98.9360   100.7150 
  159.8750     2.2290   -25.1640    74.6200    23.3270   154.3660   104.1820   106.0660 
  160.0000     2.2240   -25.0710    73.0360    23.3270   157.1580   106.1860   108.1100 
  160.1250     2.2220   -24.9230    71.8740    23.3270   159.1630   106.6000   108.5310 
  160.2500     2.2260   -24.6900    70.2600    23.3270   162.5540   107.4890   109.4390 
  160.3750     2.2270   -24.4290    68.4680    23.3250   164.5260   108.4700   110.4400 
  160.5000     2.2180   -24.1260    67.8710    23.3200   162.0250   107.0010   108.9410 
  160.6250     2.1980   -23.7980    69.5060    23.3050   155.6710    97.7220    99.4760 
  160.7500     2.1830   -23.3900    70.8550    23.2850   141.7280    79.8320    81.2290 
  160.8750     2.1820   -22.8870    71.2300    23.2580   112.6040    57.3070    58.2530 
  161.0000     2.1940   -22.3140    74.1560    23.2400    72.1760    36.9280    37.4660 
  161.1250     2.2230   -21.7180    80.0670    23.2260    39.8600    23.6010    23.8730 
  161.2500     2.2670   -21.1240    83.6030    23.1860    20.5420    15.5760    15.6880 
  161.3750     2.3120   -20.5310    85.7240    23.1100    10.9660    11.0340    11.0550 
  161.5000     2.3360   -19.9590    91.9260    23.0500     7.1870     8.5810     8.5520 
  161.6250     2.3280   -19.4240   102.2900    23.0390     6.6230     7.4960     7.5680 
  161.7500     2.3010   -18.9560   110.0460    23.0600     7.0550     7.0530     7.4580 
  161.8750     2.2700   -18.5060   113.1080    23.0820     7.3600     6.9070     7.4460 
  162.0000     2.2490   -18.0930   112.0350    23.0910     6.9810     6.7810     7.2910 
  162.1250     2.2430   -17.7240   105.6460    23.0940     6.2450     6.5140     6.9230 
  162.2500     2.2390   -17.3700    96.2250    23.1110     5.5460     6.1850     6.5370 
  162.3750     2.2330   -17.0210    88.1750    23.1550     4.9590     5.9320     6.3020 
  162.5000     2.2250   -16.7260    84.6660    23.2070     4.7080     5.8780     6.3170 
  162.6250     2.2220   -16.5450    86.6560    23.2290     5.2100     6.1250     6.6370 
  162.7500     2.2240   -16.3880    90.0210    23.2350     6.2200     6.5760     7.1390 
  162.8750     2.2310   -16.3220    92.8270    23.2350     7.0600     7.0820     7.6710 
  163.0000     2.2420   -16.3300    95.0390    23.2350     7.1750     7.4460     8.0480 
  163.1250     2.2520   -16.4030    95.9620    23.2350     6.8590     7.4680     8.0780 
  163.2500     2.2580   -16.4670    95.3920    23.2350     6.6720     7.2130     7.8310 
  163.3750     2.2620   -16.5450    92.4090    23.2350     6.6040     6.7990     7.4470 
  163.5000     2.2660   -16.5800    87.8690    23.2350     6.5910     6.3470     7.0700 
  163.6250     2.2690   -16.5510    83.9500    23.2380     6.7110     5.9570     6.8030 
  163.7500     2.2690   -16.4880    81.8900    23.2600     6.5690     5.6610     6.6480 
  163.8750     2.2690   -16.4350    80.8640    23.3120     6.0470     5.4730     6.6070 
  164.0000     2.2680   -16.4030    79.3800    23.3720     5.6070     5.3980     6.6750 
  164.1250     2.2680   -16.4140    78.6060    23.4440     5.7910     5.4180     6.8400 
  164.2500     2.2690   -16.5040    79.7300    23.5260     6.4010     5.4820     7.0420 
  164.3750     2.2720   -16.6620    82.0500    23.5760     6.6710     5.5870     7.2630 
  164.5000     2.2690   -16.9030    84.1880    23.5910     6.2580     5.7670     7.5360 
  164.6250     2.2590   -17.1390    84.7480    23.5760     6.1960     6.0960     7.9570 
  164.7500     2.2630   -17.4950    83.1040    23.5250     7.9650     6.5800     8.5550 
  164.8750     2.3000   -17.8820    80.6150    23.4440    11.9430     7.1910     9.2850 
  165.0000     2.3580   -18.2940    80.2020    23.3950    16.1490     7.8340     9.9970 
  165.1250     2.3980   -18.7330    82.3180    23.3520    16.0130     8.2960    10.4180 
  165.2500     2.4030   -19.1880    81.9090    23.2090    12.7210     8.4440    10.4530 
  165.3750     2.3770   -19.5960    79.1160    22.9840     9.6380     8.2720    10.1630 
  165.5000     2.3310   -19.9770    77.9430    22.8680     8.5800     7.8930     9.7190 
  165.6250     2.2860   -20.4000    79.7470    22.9890     8.6410     7.4860     9.3240 
  165.7500     2.2650   -20.6880    80.2890    23.1810     8.5910     7.1820     9.0720 
  165.8750     2.2690   -20.8760    78.4020    23.3220     8.3020     7.0180     8.9650 
  166.0000     2.2800   -21.0210    76.6960    23.3720     8.0380     6.9720     8.9610 
  166.1250     2.2780   -21.0630    76.3830    23.3720     8.0920     7.0030     9.0080 
  166.2500     2.2680   -21.0570    76.9380    23.3720     8.2700     7.0500     9.0440 
  166.3750     2.2600   -21.0280    76.9380    23.3720     8.3760     7.0730     9.0280 
  166.5000     2.2600   -20.9600    76.9380    23.3720     8.3050     7.0380     8.9330 
  166.6250     2.2670   -20.7520    76.9380    23.3720     8.0520     6.9160     8.7450 
  166.7500     2.2730   -20.5540    76.9380    23.3650     7.6830     6.7350     8.5070 
  166.8750     2.2720   -20.3330    76.9380    23.3380     7.1760     6.5310     8.2640 
  167.0000     2.2630   -20.0260    76.9380    23.2790     6.5920     6.3360     8.0480 
  167.1250     2.2570   -19.6620    76.9380    23.2460     6.1300     6.1800     7.8750 
  167.2500     2.2580   -19.2330    76.9380    23.2340     5.8710     6.0580     7.7340 
  167.3750     2.2640   -18.8050    76.9380    23.2310     5.7880     5.9630     7.6240 
  167.5000     2.2700   -18.3790    76.9380    23.2320     5.8230     5.8930     7.5520 
  167.6250     2.2750   -17.9610    76.9380    23.2560     5.8690     5.8470     7.5370 
  167.7500     2.2840   -17.5710    76.9380    23.3550     5.9040     5.8270     7.5740 
  167.8750     2.2980   -17.2540    76.9380    23.5440     6.0170     5.8440     7.6660 
  168.0000     2.3170   -17.0070    76.9380    23.6860     6.2940     5.9110     7.8110 
  168.1250     2.3320   -16.8790    76.9380    23.7320     6.8590     6.0560     8.0120 
  168.2500     2.3340   -16.8850    76.9380    23.7340     7.8200     6.2710     8.2510 
  168.3750     2.3260   -16.9600    76.9380    23.7340     9.1640     6.5470     8.5120 
  168.5000     2.3180   -17.0860    76.9380    23.7340    10.3080     6.8570     8.7800 
  168.6250     2.3140   -17.2970    76.9380    23.7330    10.4160     7.1580     9.0320 
  168.7500     2.3120   -17.5470    76.9380    23.7310     9.5700     7.4070     9.2460 
  168.8750     2.3110   -17.8330    76.9380    23.7290     8.6270     7.5780     9.4040 
  169.0000     2.3120   -18.1230    76.9380    23.7280     8.0560     7.6610     9.5020 
  169.1250     2.3160   -18.3980    76.9380    23.7280     7.6690     7.6600     9.5610 
  169.2500     2.3170   -18.6450    76.9380    23.7280     7.3260     7.6180     9.6220 
  169.3750     2.3130   -18.9150    76.9380    23.7280     7.2450     7.5600     9.6940 
