~V
VERS. 2.00: Ver 2.00
~W
STRT.M 64.0000:
STOP.M 308.0000:
STEP.M 0.1250:
NULL. -999.2500:
UWI. F10040:
~C
DEPT.M :
GR.API :
RML.OHMM :
RI. :
RXO.OHMM :
CALI.CM :
DEN.GM/CC :
SP.MV :
~A
# ...
  289.0000    40.6890     4.0460     3.8090     4.1820    24.6850     2.4290    -1.5990 
  289.1250    40.5860     4.0250     3.7700     4.2720    24.6840     2.4250    -1.6450 
  289.2500    40.7940     4.0040     3.7270     4.2650    24.6800     2.4230    -1.6750 
  289.3750    41.3520     4.0060     3.6920     4.1660    24.6810     2.4250    -1.7560 
  289.5000    42.2270     4.0700     3.6850     4.2040    24.6920     2.4320    -1.8490 
  289.6250    44.4340     4.2450     3.7400     4.3940    24.7140     2.4400    -1.9040 
  289.7500    47.2670     4.4300     3.8640     4.8350    24.7270     2.4450    -1.9840 
  289.8750    49.4440     4.6590     4.0510     5.4710    24.7420     2.4440    -2.0680 
  290.0000    51.8700     4.9300     4.2770     6.1580    24.7660     2.4390    -2.0810 
  290.1250    54.9160     5.1810     4.4830     5.7470    24.8040     2.4330    -2.0780 
  290.2500    56.2720     5.3250     4.6030     5.5290    24.8170     2.4300    -2.0840 
  290.3750    54.1150     5.3050     4.5890     5.1270    24.8050     2.4310    -2.0360 
  290.5000    49.5400     5.1110     4.4290     4.5180    24.7690     2.4350    -1.9530 
  290.6250    45.6600     4.7920     4.1590     4.0020    24.7510     2.4370    -1.9320 
  290.7500    42.5750     4.4860     3.8860     3.8740    24.7450     2.4370    -1.9010 
  290.8750    41.0630     4.3020     3.6940     4.1270    24.7450     2.4360    -1.8750 
  291.0000    42.5630     4.3190     3.6450     4.7910    24.7490     2.4370    -1.9160 
  291.1250    47.0890     4.5970     3.7920     5.9260    24.7660     2.4440    -1.9580 
  291.2500    51.6350     5.0460     4.0840     6.8140    24.7820     2.4540    -1.9990 
  291.3750    54.6540     5.5510     4.4480     7.3290    24.7710     2.4620    -2.1040 
  291.5000    56.0730     5.9620     4.7800     7.1580    24.7550     2.4620    -2.2030 
  291.6250    54.9610     6.1000     4.9420     5.8510    24.7480     2.4540    -2.2290 
  291.7500    51.8470     5.9750     4.9060     4.9370    24.7460     2.4430    -2.2860 
  291.8750    47.5910     5.6620     4.7070     4.5240    24.7450     2.4320    -2.3420 
  292.0000    43.8010     5.2850     4.4250     4.4010    24.7360     2.4270    -2.3380 
  292.1250    43.3890     4.9650     4.1630     4.2690    24.7090     2.4260    -2.3710 
  292.2500    46.1350     4.7450     3.9780     4.0580    24.6740     2.4250    -2.4380 
  292.3750    48.7310     4.6250     3.8800     4.0180    24.6580     2.4210    -2.4640 
  292.5000    48.1200     4.5780     3.8500     4.2620    24.6560     2.4140    -2.4960 
  292.6250    45.6440     4.5700     3.8550     4.4030    24.6450     2.4060    -2.5850 
  292.7500    44.1360     4.5570     3.8570     4.3890    24.6180     2.4030    -2.6460 
  292.8750    42.9150     4.5250     3.8410     4.1600    24.5900     2.4030    -2.7020 
  293.0000    41.3020     4.4730     3.8080     3.9740    24.5770     2.4020    -2.7950 
  293.1250    41.1580     4.4280     3.7760     4.0060    24.5640     2.3960    -2.8500 
  293.2500    43.6620     4.4270     3.7770     4.1580    24.5360     2.3890    -2.8900 
  293.3750    46.2110     4.4960     3.8350     4.3200    24.5070     2.3890    -2.9570 
  293.5000    47.2940     4.6440     3.9600     4.4910    24.4920     2.4000    -3.0090 
  293.6250    47.6290     4.8500     4.1380     4.9450    24.4430     2.4210    -3.0070 
  293.7500    47.9900     5.0440     4.3140     5.3100    24.2930     2.4390    -2.9940 
  293.8750    48.5650     5.1590     4.4360     5.2720    24.0850     2.4470    -2.9480 
  294.0000    49.6760     5.1510     4.4640     4.7660    24.0120     2.4410    -2.8810 
  294.1250    51.3030     5.0050     4.3720     4.5960    24.0040     2.4280    -2.8210 
  294.2500    51.5310     4.8040     4.2180     4.3640    23.8870     2.4170    -2.7220 
  294.3750    49.6430     4.6230     4.0590     4.0050    23.7260     2.4140    -2.6140 
  294.5000    47.4400     4.5290     3.9510     3.8890    23.4940     2.4210    -2.5270 
  294.6250    47.1630     4.5670     3.9410     4.0480    23.1070     2.4330    -2.4750 
  294.7500    48.5800     4.6920     4.0030     4.2350    23.0680     2.4420    -2.4630 
  294.8750    49.6390     4.8430     4.0910     4.3890    23.3020     2.4420    -2.4460 
  295.0000    49.1860     4.9470     4.1490     4.3820    23.5430     2.4320    -2.4350 
  295.1250    48.3350     4.9290     4.1190     4.2570    23.8100     2.4150    -2.4430 
  295.2500    48.9140     4.8000     4.0110     3.8520    24.0950     2.4010    -2.4510 
  295.3750    51.0050     4.6020     3.8590     3.5840    24.2260     2.3930    -2.4670 
  295.5000    52.8810     4.3990     3.7100     3.5790    24.2380     2.3950    -2.5150 
  295.6250    52.9840     4.2660     3.6120     3.7350    24.1950     2.3990    -2.5860 
  295.7500    51.1380     4.2230     3.5780     3.8340    24.1440     2.4000    -2.6340 
  295.8750    49.0190     4.2580     3.6030     3.9100    24.1100     2.3910    -2.7080 
  296.0000    48.3570     4.3360     3.6720     4.0190    24.1010     2.3750    -2.8080 
  296.1250    48.4540     4.4180     3.7590     4.2230    24.1050     2.3560    -2.9370 
  296.2500    47.7630     4.4790     3.8370     4.2320    24.1070     2.3460    -3.1370 
  296.3750    47.4470     4.5200     3.8920     4.3330    24.1160     2.3490    -3.3370 
  296.5000    48.2370     4.5540     3.9230     4.5620    24.1320     2.3660    -3.5340 
  296.6250    49.4280     4.6050     3.9470     4.8200    24.1610     2.3890    -3.6870 
  296.7500    50.1170     4.6980     3.9900     4.7620    24.1910     2.4100    -3.8330 
  296.8750    51.1900     4.8510     4.0740     4.7750    24.2260     2.4270    -4.0120 
  297.0000    51.9200     5.0780     4.2170     5.1150    24.2450     2.4390    -4.1750 
  297.1250    50.6350     5.3870     4.4360     5.7640    24.2480     2.4480    -4.3240 
  297.2500    49.1670     5.7330     4.6970     6.4960    24.2440     2.4530    -4.4130 
  297.3750    48.6530     6.0510     4.9490     6.9250    24.2390     2.4500    -4.4560 
  297.5000    48.3760     6.2490     5.1220     7.3480    24.2690     2.4390    -4.4310 
  297.6250    47.0480     6.2150     5.1290     6.9640    24.2550     2.4260    -4.3500 
  297.7500    46.2220     5.9980     5.0000     6.0900    24.2390     2.4190    -4.2600 
  297.8750    47.2940     5.7070     4.8070     5.2220    24.2190     2.4220    -4.1150 
  298.0000    47.6390     5.4910     4.6530     5.0890    24.2420     2.4330    -3.9670 
  298.1250    47.6390     5.5180     4.6560     5.8690    24.2660     2.4440    -3.7870 
  298.2500    47.6390     5.7860     4.8290     6.8850    24.2760     2.4530    -3.6410 
  298.3750    47.6390     6.2230     5.1390     7.4030    24.2640     2.4580    -3.5080 
  298.5000    47.6390     6.6910     5.5070     7.8160    24.2540     2.4630    -3.3510 
  298.6250    47.6390     6.9810     5.7980     8.0010    24.2490     2.4690    -3.2420 
  298.7500    47.6390     6.9970     5.9180     7.3030    24.2300     2.4780    -3.1160 
  298.8750    47.6390     6.7320     5.8260     6.3110    24.1820     2.4840    -2.9750 
  299.0000    47.6390     6.2550     5.5390     5.6790    24.1310     2.4780    -2.8080 
  299.1250    47.6390     5.6740     5.1120     5.0930    24.1820     2.4530    -2.5940 
  299.2500    47.6390     5.1100     4.6570     4.3910    24.3730     2.4110    -2.3770 
  299.3750    47.6390     4.6250     4.2500     3.9020    24.5600     2.3740    -2.1610 
  299.5000    47.6390     4.2620     3.9370     3.6640    24.6430     2.3580    -1.9900 
  299.6250    47.6390     4.0550     3.7500     3.6530    24.6500     2.3680    -1.8510 
  299.7500    47.6390     3.9580     3.6490     3.9830    24.6500     2.3890    -1.7640 
  299.8750    47.6390     3.9200     3.5980     4.3070    24.6500     2.4020    -1.6300 
  300.0000    47.6390     3.8870     3.5690     4.1470    24.6500     2.4010    -1.5720 
  300.1250    47.6390     3.8260     3.5470     3.6590    24.6480     2.3900    -1.5530 
