~V
VERS. 2.00: Ver 2.00
~W
STRT.M 56.0000:
STOP.M 312.0000:
STEP.M 0.1250:
NULL. -999.2500:
UWI. F10077:
~C
DEPT.M :
GR.API :
RML.OHMM :
RI. :
RXO.OHMM :
CALI.CM :
DEN.GM/CC :
SP.MV :
~A
# ...
  157.2500    91.5040     5.5430     4.8780     5.5310    24.8870     2.3190    -1.2130 
  157.3750    90.6460     5.6300     4.9650     5.7590    24.9140     2.3050    -0.7900 
  157.5000    87.7450     5.6570     5.0200     5.7790    24.9030     2.3040    -0.5240 
  157.6250    87.3870     5.6070     5.0160     5.8180    24.8930     2.3190    -0.4540 
  157.7500    90.0710     5.5290     4.9780     5.5750    24.8860     2.3440    -0.5350 
  157.8750    92.3640     5.4680     4.9350     5.4020    24.8690     2.3690    -0.7560 
  158.0000    92.1680     5.4600     4.9170     5.4590    24.8030     2.3860    -1.1340 
  158.1250    88.3400     5.5220     4.9500     5.8020    24.6210     2.3850    -1.7530 
  158.2500    81.3840     5.6260     5.0230     6.1130    24.3610     2.3690    -2.5590 
  158.3750    73.7820     5.7420     5.1220     6.2930    24.1950     2.3440    -3.4600 
  158.5000    67.9610     5.8400     5.2240     6.1080    24.2620     2.3160    -4.4350 
  158.6250    65.6420     5.9130     5.3200     6.5100    24.3020     2.2910    -5.4320 
  158.7500    67.0310     6.0100     5.4370     6.8240    24.2860     2.2680    -6.3330 
  158.8750    69.2090     6.1920     5.6210     6.9130    24.3130     2.2460    -7.0690 
  159.0000    68.4420     6.4900     5.9030     6.8910    24.3620     2.2330    -7.5940 
  159.1250    66.0670     6.8660     6.2660     7.5290    24.3890     2.2430    -7.8230 
  159.2500    65.4570     7.1740     6.5930     8.6040    24.4090     2.2740    -7.7890 
  159.3750    65.6620     7.2730     6.7550     9.6280    24.4460     2.3160    -7.5560 
  159.5000    64.0300     7.0890     6.6600     9.6280    24.4940     2.3490    -7.1980 
  159.6250    63.3100     6.6660     6.3150     7.7270    24.5340     2.3560    -6.7520 
  159.7500    67.2180     6.2190     5.9020     6.6750    24.5580     2.3410    -6.3190 
  159.8750    74.1080     5.8800     5.5430     6.1170    24.5280     2.3170    -5.9440 
  160.0000    77.8810     5.7030     5.3040     6.0880    24.4060     2.2990    -5.6210 
  160.1250    75.8230     5.6720     5.2090     6.4360    24.1750     2.2960    -5.3260 
  160.2500    74.5890     5.6830     5.1880     6.3150    24.0070     2.3050    -5.0910 
  160.3750    75.7720     5.6720     5.1890     6.0820    23.9290     2.3200    -4.9430 
  160.5000    75.6500     5.6210     5.1780     5.8200    23.9060     2.3350    -4.8250 
  160.6250    73.9510     5.5480     5.1520     5.7790    23.9550     2.3440    -4.7740 
  160.7500    74.4020     5.5100     5.1450     5.7690    24.0390     2.3400    -4.8850 
  160.8750    75.9920     5.5780     5.2110     6.0660    24.1200     2.3230    -5.1660 
  161.0000    76.2930     5.8270     5.4150     6.4650    24.1040     2.2940    -5.5830 
  161.1250    75.4080     6.3630     5.8480     6.8330    24.0260     2.2550    -6.1740 
  161.2500    72.8510     7.1440     6.4940     7.3810    23.9670     2.2160    -6.9040 
  161.3750    68.5380     8.0680     7.2950     8.3080    23.9380     2.1850    -7.6960 
  161.5000    65.5440     8.9230     8.0960     9.2810    23.9090     2.1700    -8.5220 
  161.6250    66.5550     9.3800     8.6120     9.6120    23.8480     2.1730    -9.2950 
  161.7500    68.2240     9.3920     8.7560     9.7750    23.7620     2.1890    -9.9010 
  161.8750    69.2990     9.1380     8.6450     9.7890    23.7010     2.2130   -10.2630 
  162.0000    71.7090     8.9620     8.5450     9.7340    23.6410     2.2470   -10.3730 
  162.1250    76.2360     9.3390     8.8200    10.1300    23.6240     2.2990   -10.2270 
  162.2500    80.3050    10.4400     9.6500    11.6730    23.6350     2.3730    -9.9280 
  162.3750    81.7530    12.3040    11.1420    14.7690    23.6450     2.4670    -9.5380 
  162.5000    79.9890    14.7260    13.2380    19.0200    23.6250     2.5690    -9.1100 
  162.6250    77.1830    16.9740    15.4470    23.7230    23.6230     2.6500    -8.7400 
  162.7500    77.2030    18.0250    16.7620    27.7000    23.6560     2.6840    -8.5330 
  162.8750    79.7140    17.2940    16.4680    32.1690    23.7200     2.6540    -8.6060 
  163.0000    80.9240    15.0720    14.6930    40.3450    23.8090     2.5630    -9.0550 
  163.1250    77.7400    12.3570    12.3020    35.8660    23.9970     2.4350    -9.9390 
  163.2500    73.0680    10.0940    10.2030    22.2710    24.1990     2.3130   -11.0680 
  163.3750    68.0720     8.5540     8.6720    12.5350    24.3230     2.2210   -12.3410 
  163.5000    62.8250     7.7070     7.7240     9.0270    24.3560     2.1680   -13.7240 
  163.6250    58.7140     7.4540     7.3280     8.6520    24.3670     2.1510   -15.1640 
  163.7500    57.2350     7.4940     7.2550     9.2560    24.3660     2.1520   -16.5120 
  163.8750    57.5630     7.6510     7.3620     9.7620    24.3440     2.1600   -17.6200 
  164.0000    58.1910     7.7930     7.5230     9.5490    24.3150     2.1650   -18.4310 
  164.1250    59.2310     7.8440     7.6430     9.1260    24.2700     2.1570   -18.9790 
  164.2500    60.7750     7.8240     7.6970     9.1350    24.1570     2.1400   -19.3740 
  164.3750    61.5860     7.7610     7.6910     9.0640    23.8930     2.1250   -19.6440 
  164.5000    60.8780     7.6730     7.6380     8.5910    23.4890     2.1240   -19.7500 
  164.6250    59.7840     7.5540     7.5330     8.0570    23.2190     2.1430   -19.6590 
  164.7500    59.8330     7.4000     7.3800     7.8640    23.1180     2.1680   -19.4200 
  164.8750    60.4590     7.2210     7.1900     8.0390    23.1380     2.1890   -19.0990 
  165.0000    61.4750     7.0520     6.9940     8.3250    23.2410     2.1980   -18.6900 
  165.1250    64.4380     6.9500     6.8420     8.1160    23.3820     2.1970   -18.1510 
  165.2500    67.4470     6.9310     6.7600     7.6190    23.4840     2.1890   -17.5800 
  165.3750    67.6300     6.9900     6.7520     7.3570    23.5370     2.1770   -17.0580 
  165.5000    64.5800     7.0930     6.7950     7.9530    23.5580     2.1640   -16.6190 
  165.6250    62.6710     7.1750     6.8410     8.7670    23.5250     2.1610   -16.1920 
  165.7500    63.6460     7.1910     6.8460     9.0970    23.4810     2.1690   -15.7620 
  165.8750    65.6480     7.1390     6.7970     8.9210    23.4380     2.1840   -15.3770 
  166.0000    66.4800     7.0510     6.7140     8.3000    23.4150     2.1980   -15.0970 
  166.1250    64.1680     6.9910     6.6440     8.2270    23.4120     2.2030   -14.9060 
  166.2500    60.4150     6.9960     6.6260     8.2860    23.4410     2.2000   -14.7590 
  166.3750    59.2190     7.0720     6.6760     8.5620    23.5250     2.1920   -14.6330 
  166.5000    62.1490     7.1970     6.7790     8.9850    23.6590     2.1790   -14.5200 
  166.6250    65.6810     7.3330     6.9100     9.3990    23.8020     2.1640   -14.5190 
  166.7500    65.6790     7.4510     7.0320     9.7680    23.8520     2.1500   -14.6490 
  166.8750    64.8190     7.5400     7.1280     9.9510    23.7350     2.1430   -14.8130 
  167.0000    66.2530     7.5940     7.1890    10.0200    23.4580     2.1450   -14.9430 
  167.1250    68.3020     7.6050     7.2030     9.8880    23.1610     2.1560   -15.0280 
  167.2500    67.2190     7.5860     7.1820     9.7940    23.0530     2.1690   -15.0370 
  167.3750    62.7620     7.5490     7.1360     9.7800    23.0910     2.1810   -14.9500 
  167.5000    59.1450     7.5160     7.0820     9.6160    23.1940     2.1910   -14.8120 
  167.6250    59.3110     7.5210     7.0450     9.4790    23.3000     2.1970   -14.6840 
  167.7500    60.3380     7.5720     7.0400     9.5480    23.3970     2.1980   -14.5860 
  167.8750    60.2000     7.6640     7.0720     9.7040    23.4600     2.1940   -14.5670 
  168.0000    59.1230     7.7680     7.1280     9.8310    23.4750     2.1900   -14.6250 
  168.1250    58.2870     7.8390     7.1760     9.7660    23.4280     2.1890   -14.7260 
  168.2500    57.8980     7.8500     7.1880     9.6170    23.3690     2.1910   -14.8440 
  168.3750    58.2040     7.8060     7.1580     9.3370    23.3860     2.1970   -14.9380 
