~V
VERS. 2.00: Ver 2.00
~W
STRT.M 57.0000:
STOP.M 255.0000:
STEP.M 0.1250:
NULL. -999.2500:
UWI. F10046:
~C
DEPT.M :
GR.API :
RML.OHMM :
RI. :
RXO.OHMM :
CALI.CM :
DEN.GM/CC :
SP.MV :
~A
# ...
   90.7500    70.9290     6.9220     5.7510     6.2540    23.4250     2.3020    -8.9140 
   90.8750    71.1720     7.2380     5.9270     6.5310    23.1230     2.2850    -9.7060 
   91.0000    68.5540     7.6690     6.2020     7.0470    22.7980     2.2650   -10.5650 
   91.1250    65.3510     8.1210     6.5360     7.6400    22.6560     2.2500   -11.4460 
   91.2500    63.4860     8.4920     6.8650     8.0190    22.5870     2.2440   -12.2920 
   91.3750    62.3190     8.7280     7.1460     8.2790    22.5190     2.2450   -13.0480 
   91.5000    60.5930     8.8230     7.3550     8.5460    22.4320     2.2480   -13.6350 
   91.6250    58.5190     8.8180     7.4790     8.8190    22.3020     2.2500   -14.0090 
   91.7500    57.4530     8.8030     7.5470     9.0250    22.2010     2.2480   -14.2030 
   91.8750    56.6350     8.8270     7.5830     9.1960    22.1590     2.2440   -14.2360 
   92.0000    55.7890     8.9050     7.6090     9.3380    22.2000     2.2370   -14.1420 
   92.1250    56.0120     9.0210     7.6530     9.4180    22.2860     2.2270   -13.9480 
   92.2500    56.0930     9.1460     7.7280     9.4350    22.3640     2.2170   -13.6720 
   92.3750    55.4290     9.2570     7.8250     9.3690    22.4160     2.2100   -13.2580 
   92.5000    55.0950     9.3190     7.9030     9.1900    22.4350     2.2080   -12.7070 
   92.6250    56.1680     9.2420     7.8660     9.0030    22.4340     2.2120   -12.0910 
   92.7500    58.6120     8.9490     7.6510     8.8260    22.4390     2.2230   -11.4990 
   92.8750    62.3190     8.3930     7.2280     8.5660    22.4690     2.2430   -10.9620 
   93.0000    65.8470     7.6100     6.6340     7.9900    22.5420     2.2710   -10.4800 
   93.1250    66.9170     6.7670     5.9890     7.1160    22.6220     2.3010   -10.0830 
   93.2500    68.7540     6.1140     5.4590     6.2690    22.7130     2.3230    -9.7960 
   93.3750    72.9820     5.8170     5.1540     5.7880    22.7880     2.3250    -9.6880 
   93.5000    74.7820     5.9410     5.1300     5.9890    22.7840     2.3070    -9.7840 
   93.6250    69.8940     6.4620     5.4090     6.8460    22.6780     2.2770   -10.0230 
   93.7500    65.6610     7.1170     5.8440     7.8270    22.5590     2.2500   -10.3150 
   93.8750    64.6940     7.6840     6.3020     8.5140    22.5040     2.2320   -10.6200 
   94.0000    63.6320     7.9770     6.6450     8.8820    22.4820     2.2250   -10.9070 
   94.1250    60.7890     7.8890     6.7580     9.0310    22.4500     2.2280   -11.1370 
   94.2500    59.4490     7.6140     6.7160     9.0670    22.4200     2.2370   -11.3340 
   94.3750    59.9690     7.3840     6.6490     9.0770    22.3720     2.2490   -11.4990 
   94.5000    60.0480     7.4200     6.7070     9.2580    22.3180     2.2590   -11.6270 
   94.6250    59.7500     7.9070     7.0360    10.4480    22.3130     2.2610   -11.7050 
   94.7500    61.0370     8.7120     7.5920    13.3920    22.3890     2.2520   -11.7610 
   94.8750    63.0310     9.6290     8.2690    17.4840    22.5770     2.2350   -11.8220 
   95.0000    63.4360    10.3910     8.8970    21.9140    22.8190     2.2170   -11.8840 
   95.1250    59.5970    10.6860     9.2390    24.0550    22.9490     2.2050   -11.9890 
   95.2500    54.2820    10.5120     9.2340    20.6860    22.9270     2.2020   -12.1120 
   95.3750    51.7770     9.9940     8.9290    14.4940    22.8370     2.2060   -12.1990 
   95.5000    53.4860     9.3480     8.4620    11.3230    22.7830     2.2130   -12.2190 
   95.6250    57.4240     8.7940     8.0060    10.5550    22.7830     2.2160   -12.2070 
   95.7500    60.1880     8.4150     7.6670    10.2460    22.8070     2.2140   -12.2040 
   95.8750    61.8330     8.2080     7.4680    10.0270    22.8270     2.2080   -12.2050 
   96.0000    63.6680     8.1450     7.3930     9.8570    22.8160     2.2030   -12.2500 
   96.1250    64.9740     8.2130     7.4230     9.7360    22.7550     2.2080   -12.2700 
   96.2500    64.2980     8.3760     7.5080     9.6010    22.6690     2.2250   -12.1830 
   96.3750    62.5210     8.6070     7.6250     9.4320    22.5740     2.2500   -12.0270 
   96.5000    61.5570     8.8610     7.7550     9.2430    22.4780     2.2720   -11.8650 
   96.6250    61.5120     9.0740     7.8780     9.1240    22.4080     2.2760   -11.6970 
   96.7500    61.8170     9.2090     7.9800     9.1510    22.3970     2.2630   -11.4780 
   96.8750    62.7830     9.2480     8.0480     9.2980    22.3820     2.2420   -11.1890 
   97.0000    64.0560     9.1860     8.0640     9.4170    22.3140     2.2240   -10.7970 
   97.1250    63.8310     8.9850     7.9820     9.3580    22.2340     2.2170   -10.2570 
   97.2500    63.9760     8.6380     7.7760     9.1430    22.2690     2.2190    -9.6620 
   97.3750    64.8100     8.1360     7.4240     8.8210    22.3930     2.2280    -9.0760 
   97.5000    66.3590     7.5040     6.9320     8.3670    22.5810     2.2450    -8.5200 
   97.6250    69.0250     6.7960     6.3440     7.7850    22.8730     2.2680    -8.0410 
   97.7500    71.4380     6.1560     5.7700     7.0320    23.2490     2.2910    -7.6750 
   97.8750    72.0490     5.6970     5.3080     6.3120    23.4780     2.3090    -7.4460 
   98.0000    70.6930     5.5800     5.0380     6.1440    23.4330     2.3190    -7.3550 
   98.1250    71.5140     5.9020     5.0730     6.7080    23.2400     2.3170    -7.4230 
   98.2500    73.9490     6.6970     5.4170     7.9000    23.0120     2.3090    -7.5620 
   98.3750    73.1290     7.8820     6.0920     9.6690    22.8250     2.2980    -7.7420 
   98.5000    69.1160     9.1230     7.0660    11.9450    22.7370     2.2910    -7.9350 
   98.6250    66.1230    10.3310     8.2180    14.1010    22.6990     2.2920    -8.0260 
   98.7500    66.1490    11.2580     9.2600    15.1400    22.6980     2.2960    -7.9680 
   98.8750    67.3440    11.6460     9.9180    16.0720    22.7250     2.3040    -7.7410 
   99.0000    67.4810    11.3330     9.9700    16.2580    22.7220     2.3130    -7.3730 
   99.1250    66.9840    10.2650     9.2630    12.8550    22.6360     2.3240    -6.9700 
   99.2500    66.3910     8.8360     8.1180     8.8280    22.5280     2.3370    -6.6160 
   99.3750    66.8630     7.3710     6.8400     6.8690    22.4890     2.3460    -6.2810 
   99.5000    69.2240     6.1400     5.6920     5.7960    22.5480     2.3500    -5.9690 
   99.6250    73.6430     5.0840     4.4930     4.9660    22.6360     2.3500    -5.7750 
   99.7500    75.4920     5.1380     4.3360     5.0870    22.6390     2.3530    -5.7620 
   99.8750    75.8120     5.5870     4.5160     5.5030    22.6470     2.3640    -5.9540 
  100.0000    73.8130     6.3320     4.9900     6.3630    22.6750     2.3830    -6.3660 
  100.1250    70.2180     7.1990     5.6810     7.6000    22.7320     2.3990    -6.9820 
  100.2500    66.4180     7.9360     6.3900     9.0000    22.7570     2.3990    -7.6720 
  100.3750    63.5440     8.3710     6.9520    10.1030    22.7690     2.3770    -8.3940 
  100.5000    62.9240     8.4380     7.2510     9.9300    22.7860     2.3390    -9.1250 
  100.6250    65.3440     8.1770     7.2390     8.8570    22.8210     2.2960    -9.8710 
  100.7500    66.7760     7.8590     7.1000     8.3100    22.8370     2.2620   -10.5960 
  100.8750    65.0170     7.7360     7.0360     8.4780    22.8400     2.2400   -11.2660 
  101.0000    60.7360     8.0610     7.2600     9.0040    22.8460     2.2310   -11.8410 
  101.1250    56.7560     9.1100     8.0110     9.8700    22.8800     2.2390   -12.2700 
  101.2500    55.0950    10.7030     9.2050    11.7610    22.9760     2.2630   -12.6280 
  101.3750    55.3850    12.4980    10.6300    15.3540    23.1540     2.3020   -12.9590 
  101.5000    56.0050    13.9850    11.9200    19.8780    23.3940     2.3460   -13.3000 
  101.6250    57.0190    14.4830    12.5210    23.8720    23.4640     2.3680   -13.6490 
  101.7500    58.1020    13.9500    12.2890    24.8100    23.2440     2.3560   -13.9890 
  101.8750    57.2390    12.6770    11.3730    19.7180    22.9620     2.3160   -14.3250 
