~V
VERS. 2.00: Ver 2.00
~W
STRT.M 50.0000:
STOP.M 250.0000:
STEP.M 0.1250:
NULL. -999.2500:
UWI. F10033:
~C
DEPT.M :
SP.MV :
GR.API :
RML.OHMM :
RI. :
RXO.OHMM :
CALI.CM :
DEN.GM/CC :
~A
# ...
  241.2500   -10.3880    30.6140     4.4770     4.1060     4.4560    25.2130     2.3550 
  241.3750   -10.1800    30.6140     4.4520     4.1100     4.5880    25.5190     2.3590 
  241.5000    -9.9660    30.6140     4.5410     4.1920     4.7100    25.8980     2.3580 
  241.6250    -9.7730    30.6140     4.7520     4.3630     4.7360    26.1660     2.3580 
  241.7500    -9.5960    30.6140     5.0100     4.5690     4.8520    26.2350     2.3640 
  241.8750    -9.4700    30.6140     5.2300     4.7400     5.1250    26.2190     2.3730 
  242.0000    -9.3440    30.6140     5.3200     4.8000     5.4380    26.1950     2.3790 
  242.1250    -9.1850    30.6140     5.2050     4.6960     4.8070    26.1830     2.3760 
  242.2500    -9.0520    30.6140     4.9620     4.5010     4.3930    26.1700     2.3660 
  242.3750    -8.9940    30.6140     4.6920     4.2930     4.2550    26.0960     2.3530 
  242.5000    -8.9830    30.6140     4.4930     4.1380     4.2630    25.8890     2.3390 
  242.6250    -8.9600    30.6140     4.4340     4.0880     4.3250    25.5620     2.3230 
  242.7500    -8.9350    30.6140     4.4910     4.1230     4.5430    25.2220     2.3080 
  242.8750    -8.9350    30.6140     4.6310     4.2110     4.8070    24.8190     2.2980 
  243.0000    -8.9940    30.6140     4.8070     4.3160     5.0770    24.1850     2.2970 
  243.1250    -9.1330    30.6140     4.9600     4.4040     4.9450    23.2680     2.3070 
  243.2500    -9.2960    30.6140     5.0610     4.4610     4.9190    22.2060     2.3210 
  243.3750    -9.4600    30.6140     5.0910     4.4800     5.3290    21.3420     2.3280 
  243.5000    -9.6380    30.6140     5.0380     4.4630     5.6980    20.8440     2.3270 
  243.6250    -9.8560    30.6140     4.9090     4.4010     5.7490    20.6870     2.3150 
  243.7500   -10.0660    30.6140     4.7570     4.2990     5.5340    20.6570     2.3010 
  243.8750   -10.2090    30.6140     4.6090     4.1670     5.5320    20.7080     2.2880 
  244.0000   -10.3270    30.6140     4.4880     4.0300     5.8100    20.8100     2.2790 
  244.1250   -10.3920    30.6140     4.4280     3.9220     5.8910    20.9420     2.2740 
  244.2500   -10.4430    30.6140     4.4130     3.8560     5.7440    20.9590     2.2730 
  244.3750   -10.4780    30.6140     4.4100     3.8300     5.5250    20.8260     2.2770 
  244.5000   -10.5270    30.6140     4.4000     3.8260     5.4870    20.6930     2.2860 
  244.6250   -10.5850    30.6140     4.3770     3.8290     5.5950    20.8430     2.3000 
  244.7500   -10.6570    30.6140     4.3480     3.8280     5.5270    21.1700     2.3130 
  244.8750   -10.7250    30.6140     4.3220     3.8230     5.1310    21.4710     2.3200 
  245.0000   -10.7930    30.6140     4.3080     3.8170     4.9110    21.6320     2.3200 
  245.1250   -10.8280    30.6140     4.3090     3.8110     5.1380    21.6270     2.3100 
  245.2500   -10.7820    30.6140     4.3110     3.8070     5.3950    21.5600     2.2970 
  245.3750   -10.6860    30.6140     4.3110     3.8070     5.3990    21.4530     2.2870 
  245.5000   -10.5490    30.6140     4.3110     3.8070     5.2280    21.3240     2.2840 
  245.6250   -10.3930    30.6140     4.3110     3.8070     4.9570    21.2750     2.2870 
  245.7500   -10.2550    30.6140     4.3110     3.8070     5.0830    21.3210     2.2920 
  245.8750   -10.1030    30.6140     4.3110     3.8070     5.3370    21.4010     2.2940 
  246.0000    -9.9050    30.6140     4.3110     3.8070     5.4140    21.4430     2.2980 
  246.1250    -9.7520    30.6140     4.3110     3.8070     5.1820    21.4180     2.3100 
  246.2500    -9.6630    30.6140     4.3110     3.8070     5.1370    21.3870     2.3320 
  246.3750    -9.5990    30.6140     4.3110     3.8070     5.4880    21.3380     2.3590 
  246.5000    -9.5660    30.6140     4.3110     3.8070     5.9070    21.2630     2.3790 
  246.6250    -9.5390    30.6140     4.3110     3.8070     5.6350    21.1750     2.3740 
  246.7500    -9.4820    30.6140     4.3110     3.8070     5.0600    21.1250     2.3510 
  246.8750    -9.4380    30.6140     4.3110     3.8070     4.8020    21.1620     2.3190 
  247.0000    -9.4660    30.6140     4.3110     3.8070     4.7490    21.2920     2.2920 
  247.1250    -9.4600    30.6140     4.3110     3.8070     4.5860    21.4420     2.2770 
  247.2500    -9.4520    30.6140     4.3110     3.8070     4.4550    21.5700     2.2680 
  247.3750    -9.4600    30.6140     4.3110     3.8070     4.5270    21.6720     2.2610 
  247.5000    -9.4600    30.6140     4.3110     3.8070     4.7650    21.7380     2.2560 
  247.6250    -9.4600    30.6140     4.3110     3.8070     5.0860    21.8180     2.2590 
  247.7500  -999.2500    30.6140     4.3110     3.8070     5.3170    21.8470     2.2710 
  247.8750  -999.2500    30.6140     4.3110     3.8070     5.5100    21.7350     2.2850 
  248.0000  -999.2500    30.6140     4.3110     3.8070     5.3180    21.5570     2.2960 
  248.1250  -999.2500    30.6140     4.3110     3.8070     5.1140    21.4440     2.2960 
  248.2500  -999.2500    30.6140     4.3110     3.8070     5.0770    21.2100     2.2890 
  248.3750  -999.2500    30.6140     4.3110     3.8070     5.2100    20.5050     2.2800 
  248.5000  -999.2500    30.6140     4.3110     3.8070     5.3030    19.6280     2.2780 
  248.6250  -999.2500    30.6140     4.3110     3.8070     5.3870    19.0400     2.2600 
  248.7500  -999.2500    30.6140     4.3110     3.8070     5.3900    18.7310     2.2410 
  248.8750  -999.2500    30.6140     4.3110     3.8070     5.4060    18.2590     2.2150 
  249.0000  -999.2500    30.6140     4.3110     3.8070     5.4230    17.4850     2.1860 
  249.1250  -999.2500    30.6140     4.3110     3.8070     5.1870    16.8510     2.1580 
  249.2500  -999.2500    30.6140     4.3110     3.8070     5.0530    16.5970     2.1350 
  249.3750  -999.2500    30.6140     4.3110     3.8070     5.0090    16.5480     2.1210 
  249.5000  -999.2500    30.6140     4.3110     3.8070     5.0060    16.5470     2.1140 
  249.6250  -999.2500    30.6140     4.3110     3.8070     5.0070    16.5470     2.1140 
  249.7500  -999.2500    30.6140     4.3110     3.8070     5.0070    16.5470     2.1200 
  249.8750  -999.2500    30.6140     4.3110     3.8070     5.0080    16.5470     2.1220 
  250.0000  -999.2500    30.6140     4.3110     3.8070     5.0080    16.5470     2.1270 
