~V
VERS. 2.00: Ver 2.00
~W
STRT.M 57.0000:
STOP.M 307.0000:
STEP.M 0.1250:
NULL. -999.2500:
UWI. F10042:
~C
DEPT.M :
GR.API :
RML.OHMM :
RI. :
RXO.OHMM :
CALI.CM :
DEN.GM/CC :
SP.MV :
~A
# ...
  259.5000    61.2980     8.1660     7.3430     7.2480    25.7480     2.3790   -11.3060 
  259.6250    61.5490     8.4240     7.6340     7.1120    25.7940     2.3720   -11.2920 
  259.7500    59.1290     8.6840     7.8950     7.5020    25.8340     2.3680   -11.3390 
  259.8750    54.5140     8.9330     8.0770     8.2030    25.8700     2.3680   -11.3410 
  260.0000    50.8130     9.1510     8.1510     8.2750    25.9150     2.3720   -11.4050 
  260.1250    50.1480     9.3050     8.1160     8.1450    25.9600     2.3760   -11.5170 
  260.2500    51.3040     9.3990     8.0290     8.0710    25.9810     2.3800   -11.6280 
  260.3750    52.9780     9.4360     7.9190     8.2150    25.9960     2.3840   -11.7900 
  260.5000    55.6590     9.4170     7.7960     8.1060    25.9440     2.3930   -11.9310 
  260.6250    59.1960     9.3170     7.6300     8.0140    25.8830     2.4060   -11.9560 
  260.7500    60.1460     9.1230     7.4070     8.4330    25.9000     2.4170   -11.9310 
  260.8750    58.2070     8.8300     7.1400     8.9750    25.9530     2.4200   -11.9710 
  261.0000    56.6720     8.4690     6.8720     8.2910    25.9460     2.4150   -11.9840 
  261.1250    57.1330     8.1280     6.6800     7.2980    25.8670     2.4070   -11.9530 
  261.2500    56.2710     7.9160     6.6120     6.8910    25.8050     2.4040   -11.9010 
  261.3750    53.6930     7.9070     6.6970     7.2580    25.8040     2.4060   -11.8200 
  261.5000    51.8180     8.1100     6.9230     7.5580    25.8690     2.4090   -11.8050 
  261.6250    52.1180     8.4460     7.2230     7.7920    25.9710     2.4080   -11.8200 
  261.7500    52.9960     8.7230     7.4730     8.0730    26.0870     2.4030   -11.8710 
  261.8750    53.4710     8.8030     7.5990     8.8350    26.1080     2.3990   -11.8980 
  262.0000    52.4340     8.6390     7.5820     9.6950    25.9830     2.3990   -11.8440 
  262.1250    49.8790     8.2870     7.4360     9.1710    25.8290     2.4090   -11.7500 
  262.2500    48.6150     7.9220     7.2240     7.5930    25.7440     2.4220   -11.6220 
  262.3750    48.7890     7.6370     6.9760     6.6950    25.7290     2.4330   -11.4390 
  262.5000    49.4350     7.4360     6.6990     6.8910    25.7410     2.4370   -11.2520 
  262.6250    49.9690     7.2410     6.3700     6.6650    25.7510     2.4290   -11.1080 
  262.7500    50.5320     6.9640     5.9940     5.8760    25.7340     2.4150   -10.9230 
  262.8750    51.6670     6.5930     5.6060     5.4100    25.6880     2.3980   -10.7380 
  263.0000    55.7720     6.1900     5.2710     5.3930    25.6270     2.3820   -10.6870 
  263.1250    65.9070     5.8860     5.1050     5.1910    25.6400     2.3670   -10.6840 
  263.2500    79.1430     5.7580     5.1580     5.0060    25.7260     2.3500   -10.7170 
  263.3750    91.0440     5.8450     5.4600     5.4390    25.8770     2.3330   -10.8850 
  263.5000    98.6780     6.2020     6.0010     6.8270    26.0580     2.3240   -11.0730 
  263.6250   101.6130     6.9100     6.7710     7.5080    26.1710     2.3330   -11.3090 
  263.7500   103.2390     7.8370     7.6730     7.8900    26.1770     2.3590   -11.6750 
  263.8750   103.2230     8.8480     8.6280     8.5430    26.1030     2.3930   -12.1360 
  264.0000    99.6930     9.8420     9.5340     9.9050    25.9960     2.4240   -12.5830 
  264.1250    93.6060    10.7210    10.2380    11.6940    25.9430     2.4370   -13.1170 
  264.2500    89.6200    11.4060    10.6850    12.5840    25.9490     2.4280   -13.6970 
  264.3750    88.9520    11.8570    10.9200    12.0940    25.9600     2.4020   -14.2430 
  264.5000    89.4650    12.1500    11.1290    12.9880    25.9480     2.3690   -14.8650 
  264.6250    89.8030    12.5160    11.6510    13.5830    25.8790     2.3490   -15.5280 
  264.7500    87.6720    13.2240    12.6940    13.9640    25.7980     2.3460   -16.2650 
  264.8750    82.5350    14.5010    14.4260    15.3490    25.7400     2.3550   -16.9870 
  265.0000    77.0650    16.5100    16.9500    22.3550    25.7410     2.3590   -17.7390 
  265.1250    72.9960    19.4780    20.3960    34.9650    25.8010     2.3400   -18.6140 
  265.2500    70.8770    23.2580    24.5410    35.5620    25.7380     2.3110   -19.4950 
  265.3750    70.4380    27.7670    29.2760    30.3700    25.4990     2.2970   -20.3620 
  265.5000    69.8380    32.8130    34.3160    35.7270    25.3350     2.3220   -21.1580 
  265.6250    67.2530    37.8660    38.7660    61.8600    25.4930     2.3900   -21.8170 
  265.7500    65.1860    42.0010    41.5340    84.3580    25.6790     2.4610   -22.3160 
  265.8750    66.5380    44.3350    41.9030    78.5170    25.7200     2.5010   -22.7700 
  266.0000    70.2480    44.4520    40.1620    53.2710    25.7220     2.4920   -23.1340 
  266.1250    72.4020    42.7660    37.9460    35.9300    25.7940     2.4340   -23.2740 
  266.2500    72.6620    41.2280    37.4470    31.7190    25.9110     2.3530   -23.3700 
  266.3750    71.9240    41.6550    40.2270    37.9170    26.0470     2.2700   -23.4120 
  266.5000    70.9850    45.7300    47.5980    54.3990    26.1120     2.2060   -23.4140 
  266.6250    68.2980    55.7900    61.5510    71.9000    26.0950     2.2030   -23.4440 
  266.7500    63.5190    71.4820    80.6780    85.1330    25.9860     2.2700   -23.4540 
  266.8750    58.7790    91.4520   101.9320    98.8220    25.7580     2.3930   -23.4590 
  267.0000    54.8000   112.2850   120.1390   167.4310    25.6030     2.5180   -23.5140 
  267.1250    52.8680   128.3440   129.4880   241.5280    25.4830     2.5620   -23.6950 
  267.2500    54.3890   137.4330   131.8360   230.2830    25.4070     2.5090   -23.8530 
  267.3750    57.0560   140.5380   131.1770   182.1340    25.4260     2.3960   -24.0410 
  267.5000    57.3990   140.7120   130.9580   152.0540    25.5850     2.2980   -24.2250 
  267.6250    55.6840   140.5840   131.5260   159.6180    25.6230     2.2970   -24.3730 
  267.7500    55.4900   139.8230   129.6620   210.4490    25.6120     2.3790   -24.6640 
  267.8750    55.7270   135.9940   122.2560   258.6580    25.6100     2.4850   -24.9410 
  268.0000    56.1380   126.9810   108.7720   229.6550    25.6440     2.5460   -25.2230 
  268.1250    60.4010   112.4730    92.4020   155.4500    25.6870     2.5140   -25.3950 
  268.2500    66.1310    96.6330    78.3290   107.7310    25.6580     2.4240   -25.4790 
  268.3750    68.7110    83.0300    68.9810    77.1210    25.5090     2.3240   -25.6240 
  268.5000    66.9900    74.0560    64.9710    55.2960    25.3180     2.2500   -25.7360 
  268.6250    64.0990    71.4550    66.7780    46.1130    25.3900     2.2150   -25.8320 
  268.7500    62.8660    73.9830    72.8850    54.9230    25.6950     2.1990   -25.9050 
  268.8750    63.2700    80.8870    82.3840    77.3160    26.0060     2.1880   -25.9630 
  269.0000    62.8110    91.0860    93.9420   104.5910    26.1560     2.1760   -26.0350 
  269.1250    59.6660   103.1090   105.5530   121.3790    26.1480     2.1650   -26.2590 
  269.2500    56.1930   114.6540   115.1800   125.0610    26.0890     2.1560   -26.5700 
  269.3750    55.7320   124.0950   121.6630   126.4530    26.0530     2.1470   -26.8720 
  269.5000    58.0400   130.3160   124.5730   133.7300    26.0660     2.1400   -27.2590 
  269.6250    60.3440   132.0950   123.1800   138.2380    26.1100     2.1370   -27.5870 
  269.7500    61.4910   129.9780   118.1900   138.8030    26.1530     2.1390   -27.8610 
  269.8750    62.1170   124.3670   110.4240   140.3420    26.1620     2.1470   -28.1160 
  270.0000    62.7700   116.3010   101.5770   138.9810    26.1250     2.1580   -28.3370 
  270.1250    63.4100   107.6180    94.0620   120.0110    26.0840     2.1680   -28.3970 
  270.2500    62.3690   100.4460    89.2780    97.2180    26.0490     2.1720   -28.3800 
  270.3750    60.0170    96.0350    87.7510    88.8960    26.0490     2.1700   -28.3430 
  270.5000    58.3380    94.8920    89.3100    99.1710    26.0700     2.1650   -28.2300 
  270.6250    59.1100    97.2240    93.5180   117.0630    26.0990     2.1630   -28.2100 
