~V
VERS. 2.00: Ver 2.00
~W
STRT.M 63.0000:
STOP.M 195.0000:
STEP.M 0.1250:
NULL. -999.2500:
UWI. F10020:
~C
DEPT.M :
GR.API :
CALI.CM :
RXO.OHMM :
RI. :
RML.OHMM :
DEN.GM/CC :
SP.MV :
~A
# ...
   74.2500    80.8810    24.2240    14.9050    14.4160    16.5990     2.1300   -24.6100 
   74.3750    87.5720    24.2340    12.0620    11.8340    13.4810     2.1550   -24.9570 
   74.5000    94.5110    24.1800     8.7820     9.4930    10.8820     2.1890   -25.3330 
   74.6250   103.5360    24.1480     6.5490     7.8440     9.1990     2.2250   -25.6860 
   74.7500   111.2690    24.1380     5.7670     6.8500     8.2820     2.2530   -25.9980 
   74.8750   114.9000    24.1350     5.8020     6.4910     8.0910     2.2680   -26.2420 
   75.0000   114.2600    24.1330     6.2750     6.7470     8.5980     2.2680   -26.3760 
   75.1250   109.6130    24.1050     7.2760     7.6420     9.8060     2.2530   -26.4500 
   75.2500   101.5680    24.0250     8.7290     8.8790    11.3280     2.2440   -26.4620 
   75.3750    95.3500    23.9130    10.4730    10.0890    12.6790     2.2530   -26.4240 
   75.5000    96.4790    23.7580    12.0370    10.8080    13.2970     2.2820   -26.3700 
   75.6250   100.0210    23.5840    12.6980    10.6350    12.7430     2.3210   -26.2930 
   75.7500    99.6880    23.4970    11.4270     9.9380    11.5950     2.3530   -26.2090 
   75.8750    97.7540    23.5040     9.3240     9.2010    10.5530     2.3510   -26.1250 
   76.0000    99.3860    23.5090     7.9710     8.8290    10.1790     2.2930   -26.0710 
   76.1250   104.2710    23.4930     8.1190     9.1320    10.8680     2.1900   -26.0450 
   76.2500   105.0170    23.5050     9.2640     9.9620    12.2630     2.1110   -26.0620 
   76.3750   100.0850    23.4470    10.7830    10.9930    13.7580     2.0990   -26.1020 
   76.5000    93.3520    23.2440    11.2770    11.6350    14.4840     2.1540   -26.1930 
   76.6250    91.4580    23.0360     9.1790    11.1480    13.5840     2.2440   -26.3600 
   76.7500    96.1990    23.0450     6.7070     9.8020    11.6990     2.3230   -26.5960 
   76.8750   104.8690    23.2790     5.6510     8.1750     9.6670     2.3650   -26.8460 
   77.0000   114.2080    23.6150     5.5710     6.7630     8.0460     2.3660   -27.0780 
   77.1250   121.3880    23.8690     5.3310     5.8590     7.0790     2.3360   -27.2470 
   77.2500   124.5520    24.0320     5.0730     5.3910     6.5970     2.3010   -27.3490 
   77.3750   124.2730    24.1120     5.2060     5.2760     6.5080     2.2670   -27.3780 
   77.5000   120.7520    24.1150     5.8190     5.3980     6.7060     2.2380   -27.3280 
   77.6250   114.9130    24.0500     6.3470     5.6060     7.0590     2.2250   -27.2260 
   77.7500   112.8380    23.9590     6.1820     5.7470     7.3730     2.2300   -27.0660 
   77.8750   116.8710    23.9210     5.6580     5.7780     7.5340     2.2500   -26.8780 
   78.0000   122.9160    23.9370     5.3090     5.7490     7.5420     2.2760   -26.6450 
   78.1250   124.0250    23.9830     5.3310     5.7850     7.5280     2.2940   -26.4130 
   78.2500   122.2590    24.0430     5.7530     5.9850     7.6700     2.2940   -26.1780 
   78.3750   120.6770    24.0610     6.4970     6.3910     8.0570     2.2780   -25.9890 
   78.5000   116.3010    23.9810     7.3600     6.9840     8.6780     2.2510   -25.8520 
   78.6250   107.7450    23.7360     8.1130     7.6570     9.4120     2.2190   -25.7220 
   78.7500   101.2940    23.4320     8.5950     8.2120    10.0100     2.1860   -25.6540 
   78.8750   100.0300    23.1690     8.8570     8.4810    10.2910     2.1580   -25.6720 
   79.0000   100.6690    23.0860     8.8430     8.3790    10.1980     2.1450   -25.8030 
   79.1250   100.6790    23.3000     8.2760     7.9320     9.7970     2.1560   -26.0450 
   79.2500   101.7770    23.7070     7.6890     7.4070     9.3560     2.1860   -26.3860 
   79.3750   103.6720    24.0800     7.2300     7.0200     9.0710     2.2250   -26.7710 
   79.5000   104.6710    24.2470     6.9660     6.9110     9.0770     2.2580   -27.1630 
   79.6250   103.7130    24.2600     7.4300     7.1620     9.4440     2.2830   -27.5610 
   79.7500   101.8830    24.2380     9.5260     7.6380    10.0130     2.3130   -27.9110 
   79.8750    98.1450    24.2190    13.6310     8.1610    10.5700     2.3570   -28.2000 
   80.0000    93.8510    24.2130    16.1810     8.4990    10.8220     2.3990   -28.4080 
   80.1250    94.5460    24.2230    13.6430     8.4550    10.5810     2.4050   -28.4610 
   80.2500    99.8510    24.2480     9.8020     8.2110    10.1780     2.3680   -28.3590 
   80.3750   105.4980    24.2720     8.2770     8.0170     9.9500     2.3080   -28.1380 
   80.5000   107.3950    24.2840     8.5520     8.0730    10.0850     2.2540   -27.8220 
   80.6250   104.8550    24.3090     9.6480     8.4920    10.5780     2.2140   -27.5160 
   80.7500   100.5960    24.4400    11.0060     9.0680    11.1010     2.1860   -27.2490 
   80.8750    96.4580    24.7330    11.7300     9.5180    11.3560     2.1720   -27.0370 
   81.0000    95.0670    24.9910    10.9090     9.6080    11.2010     2.1740   -26.8770 
   81.1250    97.8980    24.8080     8.9820     9.3040    10.7460     2.1830   -26.7450 
   81.2500   100.7370    24.2910     7.4520     8.9030    10.2840     2.1960   -26.6540 
   81.3750   101.5540    23.8190     7.0260     8.6070     9.9460     2.2150   -26.6040 
   81.5000   101.6330    23.5950     7.5600     8.5230     9.7750     2.2350   -26.6390 
   81.6250   101.0100    23.5870     8.2100     8.6600     9.7750     2.2390   -26.6940 
   81.7500    99.5600    23.7480     8.2790     8.8240     9.8430     2.2300   -26.7580 
   81.8750    98.5480    23.9990     7.9030     8.8310     9.8550     2.2220   -26.8080 
   82.0000    98.2890    24.1450     7.6190     8.5780     9.7020     2.2230   -26.8520 
   82.1250    96.8180    24.1460     7.4840     8.1070     9.3370     2.2300   -26.9540 
   82.2500    97.6600    24.1390     7.2230     7.6220     8.8900     2.2410   -27.1240 
   82.3750   102.9660    24.1720     6.9390     7.2420     8.4930     2.2570   -27.2880 
   82.5000   108.7750    24.2550     6.9560     7.0210     8.2560     2.2730   -27.4130 
   82.6250   109.0320    24.3190     7.4720     7.0110     8.2830     2.2740   -27.4410 
   82.7500   106.4020    24.3410     8.0040     7.2300     8.5950     2.2600   -27.3590 
   82.8750   104.2640    24.3400     8.3590     7.7760     9.2850     2.2360   -27.1760 
   83.0000   102.0080    24.3270     8.8660     8.7980    10.5430     2.2080   -26.9070 
   83.1250    96.9820    24.3090    10.6840    10.6240    12.8410     2.1810   -26.5430 
   83.2500    90.9340    24.2860    15.1430    13.3350    16.2790     2.1580   -26.1170 
   83.3750    86.1980    24.2780    23.7390    16.8620    20.6110     2.1380   -25.6830 
   83.5000    83.6690    24.2780    33.4910    20.5070    24.6940     2.1230   -25.2780 
   83.6250    81.0030    24.2770    35.7870    22.4180    26.0380     2.1190   -24.9080 
   83.7500    77.9110    24.2670    29.2170    21.9900    24.4540     2.1230   -24.6290 
   83.8750    77.3710    24.2500    20.3220    20.1540    21.6420     2.1310   -24.3910 
   84.0000    79.0810    24.2440    15.0040    18.3310    19.5140     2.1380   -24.1800 
   84.1250    80.9670    24.2650    15.2110    17.6930    19.3830     2.1400   -23.9850 
   84.2500    81.4070    24.2890    19.7300    18.5120    21.2020     2.1390   -23.7440 
   84.3750    79.7590    24.2930    26.4720    20.9890    24.9870     2.1350   -23.4480 
   84.5000    76.4880    24.2850    32.2100    25.1900    30.6350     2.1270   -23.1010 
   84.6250    73.3800    24.2810    37.8540    31.0070    37.7480     2.1140   -22.7650 
   84.7500    72.4980    24.2850    43.9190    37.3290    44.9390     2.1010   -22.4390 
   84.8750    72.9180    24.3000    48.4590    43.2790    51.1960     2.0950   -22.1770 
   85.0000    71.9520    24.3250    50.6730    48.5300    56.1990     2.0960   -21.9600 
   85.1250    70.3250    24.3220    55.5360    53.4280    60.3290     2.0940   -21.8140 
   85.2500    68.9940    24.2730    64.6590    58.5620    64.4180     2.0890   -21.7770 
   85.3750    67.9050    24.1930    72.4490    64.1500    68.9930     2.0890   -21.8910 
