~V
VERS. 2.00: Ver 2.00
~W
STRT.M 50.0000:
STOP.M 280.0000:
STEP.M 0.1250:
NULL. -999.2500:
UWI. F10023:
~C
DEPT.M :
SP.MV :
DEN.GM/CC :
GR.API :
CALI.CM :
RXO.OHMM :
RI. :
RML.OHMM :
~A
# ...
  252.5000   -23.8940     2.5740    58.2980    22.8950   199.7360   197.9260   203.9640 
  252.6250   -23.2640     2.5580    58.0640    23.1550   170.4570   165.2350   170.2920 
  252.7500   -22.6490     2.5210    61.3190    23.2410   113.5950   133.0830   137.1750 
  252.8750   -22.0390     2.4850    68.4250    23.3220    78.0320   108.4340   111.7870 
  253.0000   -21.4540     2.4640    74.1200    23.4140    73.1840    92.4900    95.3650 
  253.1250   -20.8250     2.4620    75.0300    23.4570    78.6240    83.0230    85.6130 
  253.2500   -20.1700     2.4700    75.4590    23.3360    78.1830    74.8280    77.1730 
  253.3750   -19.5410     2.4770    77.6820    23.2090    68.9100    65.5370    67.6030 
  253.5000   -18.9410     2.4780    81.1080    23.0950    54.6760    54.9120    56.6590 
  253.6250   -18.4370     2.4700    82.4010    22.9990    39.3970    44.6890    46.1290 
  253.7500   -18.0260     2.4620    80.7570    23.0040    30.1250    36.5080    37.7030 
  253.8750   -17.6690     2.4610    77.6830    23.1160    26.6850    30.7290    31.7510 
  254.0000   -17.2940     2.4750    74.5330    23.1850    24.5150    26.8820    27.7880 
  254.1250   -16.9050     2.5010    72.7040    23.1330    21.6990    24.4080    25.2400 
  254.2500   -16.5650     2.5210    72.9460    23.0350    18.9260    22.5710    23.3490 
  254.3750   -16.2930     2.5270    74.9640    22.8960    16.9000    21.1460    21.8810 
  254.5000   -16.1280     2.5210    76.8150    22.8020    15.6800    20.1220    20.8250 
  254.6250   -16.0130     2.5070    77.1150    22.7710    15.1710    19.7870    20.4810 
  254.7500   -15.8570     2.4940    75.5990    22.7680    15.1430    20.1760    20.8810 
  254.8750   -15.7010     2.4880    74.0830    22.7720    15.9860    21.0010    21.7310 
  255.0000   -15.5370     2.4880    75.4470    22.7970    18.0350    21.3570    22.0980 
  255.1250   -15.3960     2.4690    79.0320    22.8870    19.6590    19.5980    20.2860 
  255.2500   -15.3170     2.4170    79.3710    22.9800    18.5250    15.9910    16.5700 
  255.3750   -15.2610     2.3400    72.8000    23.0540    13.6560    11.9810    12.4400 
  255.5000   -15.1890     2.2660    61.5100    23.0700     7.9000     8.8500     9.2150 
  255.6250   -15.0550     2.2420    49.3020    23.0130     4.7190     7.1990     7.4150 
  255.7500   -14.8930     2.2830    38.2720    23.0000     4.8700     6.6770     7.3720 
  255.8750   -14.7270     2.3630    29.2790    23.1190     8.8340     7.0940     8.2520 
  256.0000   -14.6100     2.4220    22.4720    23.3270    17.5830     8.1570     9.6360 
  256.1250   -14.5320     2.3980    19.3520    23.4980    23.3120     9.0590    10.4440 
  256.2500   -14.4540     2.3250    19.7380    23.5570    19.4690     8.9020     9.8500 
  256.3750   -14.3900     2.2560    21.6060    23.6150    10.9960     7.7060     8.2080 
  256.5000   -14.2860     2.2180    22.4820    23.6630     5.5910     6.1770     6.4860 
  256.6250   -14.1950     2.2090    22.8820    23.6780     3.9550     4.9750     5.3670 
  256.7500   -14.1640     2.2100    25.2620    23.6540     3.5500     4.2210     4.8030 
  256.8750   -14.1430     2.2150    30.2660    23.5590     3.5840     3.8650     4.6540 
  257.0000   -14.1520     2.2170    34.6560    23.3460     3.7740     3.7980     4.7600 
  257.1250   -14.1520     2.2150    36.2830    23.1720     4.0430     3.9080     4.9810 
  257.2500   -14.1030     2.2160    37.2870    23.0640     4.3520     4.0490     5.1880 
  257.3750   -14.0040     2.2310    39.2780    22.9620     4.5740     4.1490     5.3240 
  257.5000   -13.8840     2.2580    40.9840    22.8470     4.6400     4.1730     5.3630 
  257.6250   -13.7970     2.2800    39.1680    22.8260     4.5230     4.1110     5.2900 
  257.7500   -13.7520     2.2860    35.5590    22.9030     4.2650     3.9970     5.1590 
  257.8750   -13.7450     2.2830    32.3040    23.0940     3.9760     3.8630     5.0190 
  258.0000   -13.6880     2.2880    29.9050    23.4010     3.8400     3.7460     4.9200 
  258.1250   -13.5980     2.3080    27.7820    23.5970     3.8310     3.6820     4.9000 
  258.2500   -13.5150     2.3270    26.7750    23.6640     3.8830     3.6700     4.9430 
  258.3750   -13.4630     2.3380    27.4610    23.6640     3.9880     3.6940     5.0200 
  258.5000   -13.5300     2.3420    28.8410    23.6320     4.1030     3.7300     5.0980 
  258.6250   -13.6580     2.3450    29.6870    23.5930     4.1570     3.7520     5.1540 
  258.7500   -13.6980     2.3450    29.6850    23.5990     4.1740     3.7580     5.1930 
  258.8750   -13.6960     2.3420    28.8850    23.6480     4.2750     3.7560     5.2270 
  259.0000   -13.6880     2.3420    29.0290    23.6680     4.4550     3.7560     5.2620 
  259.1250   -13.7130     2.3460    31.8810    23.6260     4.5180     3.7680     5.3030 
  259.2500   -13.7490     2.3500    34.7870    23.5340     4.4530     3.7880     5.3410 
  259.3750   -13.8000     2.3490    35.8930    23.4350     4.3320     3.8120     5.3720 
  259.5000   -13.8290     2.3500    36.3470    23.4130     4.2270     3.8320     5.3950 
  259.6250   -13.7910     2.3570    36.8480    23.4920     4.2150     3.8360     5.3970 
  259.7500   -13.7490     2.3610    36.7730    23.5870     4.2410     3.8180     5.3780 
  259.8750   -13.7170     2.3510    35.7690    23.6400     4.1910     3.7780     5.3380 
  260.0000   -13.7550     2.3330    33.8290    23.6530     4.0710     3.7240     5.2900 
  260.1250   -13.8390     2.3190    30.9680    23.6530     4.0740     3.6810     5.2620 
  260.2500   -13.9200     2.3150    28.7030    23.6560     4.1820     3.6780     5.2820 
  260.3750   -13.9510     2.3150    29.0940    23.6700     4.3990     3.7380     5.3740 
  260.5000   -13.8780     2.3170    32.2870    23.7040     4.7050     3.8700     5.5500 
  260.6250   -13.8210     2.3220    37.2270    23.7540     5.0110     4.0730     5.8100 
  260.7500   -13.8650     2.3250    43.0570    23.7580     5.3120     4.2850     6.0830 
  260.8750   -13.9370     2.3160    50.2120    23.7290     5.5300     4.4410     6.2800 
  261.0000   -13.9930     2.2970    57.1480    23.7300     5.5180     4.4900     6.3270 
  261.1250   -13.9950     2.2770    58.1730    23.7600     5.1890     4.4100     6.1960 
  261.2500   -13.9600     2.2660    53.5850    23.7640     4.7500     4.2720     5.9930 
  261.3750   -13.9250     2.2710    48.1660    23.7120     4.4220     4.1420     5.8140 
  261.5000   -13.9690     2.2890    45.1100    23.6600     4.3540     4.0670     5.7190 
  261.6250   -14.0480     2.3090    45.4230    23.6470     4.5180     4.0680     5.7330 
  261.7500   -14.0570     2.3180    46.9310    23.6690     4.6490     4.1200     5.8110 
  261.8750   -14.0210     2.3120    48.2490    23.7170     4.6620     4.2010     5.9180 
  262.0000   -13.9390     2.2960    48.6300    23.7400     4.6660     4.2870     6.0220 
  262.1250   -13.8680     2.2830    47.8860    23.7140     4.8250     4.3520     6.0880 
  262.2500   -13.8740     2.2810    46.1450    23.6790     5.2150     4.3760     6.1030 
  262.3750   -13.9260     2.2890    42.8930    23.6540     5.5760     4.3550     6.0700 
  262.5000   -13.9810     2.3040    40.6850    23.6450     5.4670     4.3000     6.0030 
  262.6250   -13.9840     2.3190    40.3380    23.6460     4.9540     4.2340     5.9280 
  262.7500   -13.9690     2.3340    40.4080    23.6460     4.5730     4.1820     5.8820 
  262.8750   -13.9450     2.3460    40.6210    23.6450     4.5080     4.1560     5.8840 
  263.0000   -13.9080     2.3560    41.8750    23.6440     4.6100     4.1530     5.9210 
  263.1250   -13.9020     2.3660    45.4610    23.6450     4.7630     4.1510     5.9370 
  263.2500   -13.8990     2.3740    48.9130    23.6460     4.8960     4.1160     5.8640 
  263.3750   -13.8730     2.3740    50.2960    23.6460     4.9690     4.0350     5.6890 
  263.5000   -13.7740     2.3660    48.6490    23.6450     4.8680     3.9320     5.4790 
  263.6250   -13.6400     2.3570    46.2430    23.6470     4.5870     3.8790     5.3730 
