~V
VERS. 2.00: Ver 2.00
~W
STRT.M 57.0000:
STOP.M 307.0000:
STEP.M 0.1250:
NULL. -999.2500:
UWI. F10042:
~C
DEPT.M :
GR.API :
RML.OHMM :
RI. :
RXO.OHMM :
CALI.CM :
DEN.GM/CC :
SP.MV :
~A
# ...
  282.0000    69.9550    47.7940    40.0210    28.7340    25.7870     2.4270   -15.5770 
  282.1250    70.9750    43.4590    37.9090    24.7810    25.7640     2.3690   -15.3140 
  282.2500    74.6970    41.4200    37.8710    28.4340    25.6810     2.3420   -14.9710 
  282.3750    74.5730    40.8570    37.9640    42.9790    25.6130     2.3640   -14.5840 
  282.5000    67.5700    39.8130    35.4880    66.1320    25.5850     2.4300   -14.0800 
  282.6250    56.3910    35.7550    28.6520    86.1430    25.5880     2.5110   -13.4780 
  282.7500    46.2480    28.9770    20.4720    82.8670    25.5760     2.5630   -12.7860 
  282.8750    39.4710    21.2030    13.5870    42.0620    25.5800     2.5620   -12.1340 
  283.0000    36.9580    14.2050     8.9320    13.3550    25.6090     2.5080   -11.5580 
  283.1250    37.2120     9.1810     6.3830     6.0330    25.6100     2.4280   -11.0630 
  283.2500    37.0120     5.9780     4.9350     4.1840    25.5590     2.3640   -10.6470 
  283.3750    35.5560     4.3740     4.1630     3.9830    25.4690     2.3350   -10.3060 
  283.5000    33.2860     3.8230     3.7990     4.1150    25.3980     2.3360   -10.0950 
  283.6250    31.3160     3.6730     3.7000     4.0480    25.3570     2.3490   -10.0430 
  283.7500    30.0460     3.5900     3.7290     3.5530    25.2560     2.3600   -10.1010 
  283.8750    29.8750     3.5610     3.8310     3.5080    25.1860     2.3680   -10.2000 
  284.0000    30.8760     3.5670     3.9610     3.7450    25.2360     2.3720   -10.2540 
  284.1250    32.1750     3.6070     4.0550     3.9580    25.4140     2.3720   -10.3140 
  284.2500    32.7980     3.6550     4.0750     3.9360    25.5320     2.3660   -10.3610 
  284.3750    32.7390     3.6860     4.0150     3.7070    25.6090     2.3560   -10.4320 
  284.5000    32.2800     3.6870     3.9020     3.4770    25.6560     2.3460   -10.4670 
  284.6250    32.0540     3.6620     3.7770     3.4420    25.6290     2.3450   -10.4910 
  284.7500    31.9430     3.6310     3.6680     3.4680    25.5900     2.3520   -10.4710 
  284.8750    32.3190     3.5990     3.5770     3.6300    25.5330     2.3630   -10.4360 
  285.0000    33.0640     3.5580     3.5000     3.8070    25.4760     2.3700   -10.4210 
  285.1250    32.4600     3.4980     3.4370     3.8250    25.5050     2.3650   -10.4410 
  285.2500    31.4100     3.4330     3.3970     3.5070    25.4810     2.3510   -10.4370 
  285.3750    31.3360     3.4040     3.3980     3.3670    25.2640     2.3350   -10.4240 
  285.5000    32.5690     3.4540     3.4510     3.5000    24.8630     2.3270   -10.4540 
  285.6250    35.0610     3.6190     3.5630     3.8590    24.7150     2.3330   -10.4810 
  285.7500    38.6430     3.8510     3.6980     3.9970    24.9600     2.3450   -10.5140 
  285.8750    41.9130     4.0940     3.8240     4.2560    25.3240     2.3500   -10.5470 
  286.0000    42.8960     4.2890     3.9110     4.3630    25.5090     2.3430   -10.5870 
  286.1250    41.2250     4.3960     3.9440     3.8340    25.2870     2.3250   -10.6000 
  286.2500    40.0400     4.4420     3.9440     3.5720    24.6670     2.3040   -10.6700 
  286.3750    39.6810     4.4530     3.9220     3.5790    23.9550     2.2870   -10.7250 
  286.5000    39.1190     4.4470     3.8810     3.8350    23.6230     2.2750   -10.7600 
  286.6250    38.4690     4.4170     3.8130     4.0180    23.9590     2.2710   -10.8030 
  286.7500    38.6020     4.3580     3.7190     3.8450    24.4900     2.2780   -10.8570 
  286.8750    38.4860     4.2650     3.6060     3.6180    24.9120     2.2990   -10.9050 
  287.0000    37.0370     4.1450     3.4890     3.4390    25.0670     2.3310   -10.9600 
  287.1250    35.4090     4.0180     3.3890     3.4880    25.0300     2.3560   -11.0000 
  287.2500    34.8060     3.9170     3.3190     3.5440    24.9670     2.3620   -10.9830 
  287.3750    34.7530     3.8690     3.2880     3.5700    24.9430     2.3480   -10.9610 
  287.5000    34.3130     3.8960     3.2950     3.6220    24.9860     2.3220   -10.9530 
  287.6250    34.2140     4.0020     3.3280     4.0130    25.0950     2.3000   -10.9250 
  287.7500    35.7590     4.1320     3.3510     4.2060    25.2320     2.2910   -10.8760 
  287.8750    38.2950     4.2280     3.3370     3.9450    25.3920     2.2940   -10.8080 
  288.0000    39.3230     4.2410     3.2710     3.6770    25.5670     2.3030   -10.7130 
  288.1250    37.2320     4.1430     3.1630     3.5480    25.7080     2.3160   -10.6300 
  288.2500    35.2010     3.9920     3.0590     3.4400    25.7630     2.3260   -10.6140 
  288.3750    35.7900     3.8660     3.0090     3.4530    25.6590     2.3280   -10.6620 
  288.5000    38.5340     3.8600     3.0680     3.5690    25.4290     2.3160   -10.7330 
  288.6250    41.1670     4.0600     3.3170     3.7400    25.2800     2.3000   -10.7830 
  288.7500    42.5090     4.4280     3.7560     4.3110    25.3120     2.2960   -10.8600 
  288.8750    43.0250     4.9400     4.3590     5.6500    25.5020     2.3140   -10.9310 
  289.0000    42.8680     5.5630     5.0180     7.7330    25.5990     2.3510   -11.0130 
  289.1250    41.7570     6.1700     5.4940     9.9840    25.4610     2.3830   -11.1060 
  289.2500    40.3570     6.5670     5.6160    10.9390    25.3120     2.3950   -11.2260 
  289.3750    39.7400     6.6280     5.3630     9.2250    25.2890     2.3870   -11.3010 
  289.5000    40.1420     6.3490     4.8630     5.7820    25.3670     2.3670   -11.4190 
  289.6250    39.7470     5.8340     4.3140     4.2990    25.2320     2.3480   -11.6880 
  289.7500    37.8080     5.2950     3.8600     3.8450    25.0880     2.3360   -11.9610 
  289.8750    35.3190     4.8430     3.5430     3.6920    25.1210     2.3290   -12.3180 
  290.0000    33.4300     4.5220     3.3530     3.4840    25.3450     2.3300   -12.7160 
  290.1250    32.5910     4.3460     3.2700     3.4590    25.6180     2.3380   -13.1530 
  290.2500    31.6000     4.2590     3.2430     3.5430    25.7660     2.3480   -13.5810 
  290.3750    30.8900     4.2310     3.2510     3.6380    25.8270     2.3580   -14.0180 
  290.5000    31.1800     4.2420     3.2830     3.7620    25.8640     2.3640   -14.3660 
  290.6250    31.3370     4.2810     3.3330     3.9190    25.8470     2.3680   -14.5470 
  290.7500    30.3430     4.3330     3.3880     3.9790    25.8190     2.3720   -14.6590 
  290.8750    29.3710     4.3850     3.4300     3.8680    25.8020     2.3750   -14.6850 
  291.0000    30.9600     4.4230     3.4480     3.7200    25.7500     2.3720   -14.7120 
  291.1250    34.4460     4.4290     3.4280     3.6650    25.5790     2.3600   -14.7250 
  291.2500    36.1270     4.4050     3.3810     3.4680    25.4560     2.3450   -14.6850 
  291.3750    34.7450     4.3540     3.3160     3.2230    25.4950     2.3330   -14.6150 
  291.5000    31.3140     4.2870     3.2470     3.1890    25.5720     2.3260   -14.5190 
  291.6250    28.2310     4.2190     3.1910     3.4000    25.5270     2.3220   -14.4920 
  291.7500    27.5030     4.1640     3.1530     3.5930    25.6760     2.3150   -14.5520 
  291.8750    29.1080     4.1270     3.1350     3.6590    25.9000     2.3060   -14.6670 
  292.0000    30.4320     4.1110     3.1350     3.6120    25.9670     2.2980   -14.7520 
  292.1250    29.5890     4.1150     3.1510     3.5400    25.9360     2.2970   -14.7880 
  292.2500    28.8520     4.1320     3.1750     3.4930    26.0990     2.3040   -14.8320 
  292.3750    29.5760     4.1570     3.2020     3.3930    26.4240     2.3150   -14.8750 
  292.5000    30.2350     4.1860     3.2310     3.2540    26.5970     2.3280   -14.9710 
  292.6250    29.1630     4.2150     3.2570     3.2560    26.2470     2.3380   -15.0810 
  292.7500    28.0080     4.2420     3.2780     3.5150    25.7230     2.3400   -15.1440 
  292.8750    28.3980     4.2660     3.3010     3.7980    25.6300     2.3330   -15.1480 
  293.0000    29.7780     4.2930     3.3300     3.8940    25.9470     2.3180   -15.1180 
  293.1250    31.1630     4.3290     3.3730     3.8890    26.1860     2.3030   -15.1010 
