~V
VERS. 2.00: Ver 2.00
~W
STRT.M 60.0000:
STOP.M 262.0000:
STEP.M 0.1250:
NULL. -999.2500:
UWI. F10018:
~C
DEPT.M :
GR.API :
RML.OHMM :
RI. :
RXO.OHMM :
CALI.CM :
DEN.GM/CC :
SP.MV :
~A
# ...
  251.2500    43.5250     5.2440     4.5610     4.7990    24.1880     2.3340    -7.4130 
  251.3750    43.6480     4.9210     4.2400     4.4380    24.0070     2.2870    -7.3620 
  251.5000    43.4640     4.7680     4.0360     4.4200    23.8310     2.2520    -7.2870 
  251.6250    43.2490     4.7780     3.9710     4.4400    23.9740     2.2440    -7.2100 
  251.7500    43.2490     4.8530     3.9830     4.4580    24.3550     2.2630    -7.2000 
  251.8750    43.2490     4.9250     4.0260     4.5130    24.5450     2.3010    -7.2650 
  252.0000    43.2490     4.9570     4.0680     4.6660    24.7690     2.3430    -7.3610 
  252.1250    43.2490     4.9720     4.1140     4.8830    24.8920     2.3740    -7.4050 
  252.2500    43.2490     5.0450     4.2050     5.0160    24.9850     2.3920    -7.4100 
  252.3750    43.2490     5.2420     4.3860     4.9120    24.7450     2.4020    -7.4410 
  252.5000    43.2490     5.5870     4.6780     5.0380    24.5750     2.4100    -7.4890 
  252.6250    43.2490     6.0220     5.0520     5.7980    24.4490     2.4140    -7.5270 
  252.7500    43.2490     6.3740     5.3760     6.8820    24.3050     2.4030    -7.4600 
  252.8750    43.2490     6.4850     5.5240     7.3550    24.2650     2.3750    -7.3630 
  253.0000    43.2490     6.2920     5.4200     7.1470    24.3290     2.3370    -7.3110 
  253.1250    43.2490     5.8640     5.0870     5.7410    24.3540     2.3040    -7.3200 
  253.2500    43.2490     5.4230     4.6990     4.9120    24.1670     2.2850    -7.3140 
  253.3750    43.2490     5.0940     4.3670     4.6020    23.6860     2.2770    -7.2370 
  253.5000    43.2490     4.9210     4.1480     4.5620    23.2350     2.2730    -7.1430 
  253.6250    43.2490     4.8950     4.0620     4.5060    23.3780     2.2670    -7.0630 
  253.7500    43.2490     4.9280     4.0520     4.4470    23.8560     2.2600    -7.0540 
  253.8750    43.2490     4.9710     4.0780     4.3820    24.3760     2.2520    -7.0720 
  254.0000    43.2490     4.9990     4.1100     4.3320    24.5870     2.2450    -7.0590 
  254.1250    43.2490     5.0130     4.1390     4.3200    24.6760     2.2430    -6.9980 
  254.2500    43.2490     5.0290     4.1750     4.3450    24.6760     2.2490    -6.9600 
  254.3750    43.2490     5.0590     4.2240     4.4100    24.6440     2.2650    -7.0090 
  254.5000    43.2490     5.1110     4.2870     4.4950    24.5320     2.2880    -7.1090 
  254.6250    43.2490     5.1770     4.3570     4.5900    24.4870     2.3100    -7.2200 
  254.7500    43.2490     5.2350     4.4170     4.6850    24.4690     2.3280    -7.3210 
  254.8750    43.2490     5.2720     4.4590     4.7410    24.4610     2.3420    -7.3970 
  255.0000    43.2490     5.2870     4.4810     4.7110    24.0820     2.3560    -7.4750 
  255.1250    43.2490     5.2920     4.4860     4.7440    23.8960     2.3700    -7.5830 
  255.2500    43.2490     5.3020     4.4850     4.8460    23.9710     2.3810    -7.7050 
  255.3750    43.2490     5.3170     4.4790     4.9040    24.2040     2.3860    -7.7920 
  255.5000    43.2490     5.3280     4.4660     4.9150    24.3300     2.3850    -7.8310 
  255.6250    43.2490     5.3180     4.4440     4.9120    24.3120     2.3840    -7.8420 
  255.7500    43.2490     5.2770     4.4070     4.8680    24.2740     2.3870    -7.8530 
  255.8750    43.2490     5.2080     4.3550     4.8570    24.2420     2.3930    -7.8710 
  256.0000    43.2490     5.1310     4.3000     4.8980    24.2380     2.3990    -7.8900 
  256.1250    43.2490     5.1040     4.2830     4.9170    24.2620     2.4010    -7.9250 
  256.2500    43.2490     5.1620     4.3310     5.0060    24.2810     2.3990    -7.9370 
  256.3750    43.2490     5.3080     4.4530     5.1180    24.2790     2.3940    -7.9380 
  256.5000    43.2490     5.5070     4.6330     5.3880    24.3100     2.3860    -7.9640 
  256.6250    43.2490     5.6930     4.8250     5.9290    24.3630     2.3720    -8.0310 
  256.7500    43.2490     5.8240     4.9800     6.6470    24.3940     2.3530    -8.1120 
  256.8750    43.2490     5.8960     5.0830     6.3060    24.3410     2.3300    -8.1640 
  257.0000    43.2490     5.9310     5.1390     5.4940    24.3220     2.3100    -8.1670 
  257.1250    43.2490     5.9490     5.1620     4.8990    24.3620     2.3000    -8.1410 
  257.2500    43.2490     5.9600     5.1700     4.6610    24.3630     2.2990    -8.1350 
  257.3750    43.2490     5.9680     5.1720     4.4050    24.3250     2.3040    -8.0990 
  257.5000    43.2490     5.9720     5.1710     4.1250    24.2950     2.3110    -8.0280 
  257.6250    43.2490     5.9720     5.1710     4.0380    24.2790     2.3160    -7.9280 
  257.7500    43.2490     5.9720     5.1710     4.1370    24.2620     2.3190    -7.7980 
  257.8750    43.2490     5.9720     5.1710     4.3460    24.2620     2.3210    -7.6980 
  258.0000    43.2490     5.9720     5.1710     4.3930    24.2930     2.3220    -7.6630 
  258.1250    43.2490     5.9720     5.1710     4.2030    24.3190     2.3190    -7.6500 
  258.2500    43.2490     5.9720     5.1710     4.0080    24.3180     2.3140    -7.5710 
  258.3750    43.2490     5.9720     5.1710     4.0820    24.3370     2.3140    -7.4730 
  258.5000    43.2490     5.9720     5.1710     4.3410    24.3170     2.3300    -7.3960 
  258.6250    43.2490     5.9720     5.1710     4.8430    24.2410     2.3660    -7.3300 
  258.7500    43.2490     5.9720     5.1710     6.0330    24.1970     2.4080    -7.2450 
  258.8750    43.2490     5.9720     5.1710     8.2740    24.2040     2.4410    -7.1670 
  259.0000    43.2490     5.9720     5.1710     9.5360    24.2570     2.4510    -7.0840 
  259.1250    43.2490     5.9720     5.1710     8.0430    24.3130     2.4340    -6.9590 
  259.2500    43.2490     5.9720     5.1710     5.9920    24.3320     2.4060    -6.8670 
  259.3750    43.2490     5.9720     5.1710     4.6030    24.2770     2.3800    -6.8260 
  259.5000    43.2490     5.9720     5.1710     4.0790    24.2480     2.3600    -6.8120 
  259.6250    43.2490     5.9720     5.1710     4.3250    24.2870     2.3480    -6.8120 
  259.7500    43.2490     5.9720     5.1710     4.8410    24.2880     2.3430    -6.8840 
  259.8750    43.2490     5.9720     5.1710     5.2350    24.1770     2.3450    -6.9700 
  260.0000    43.2490     5.9720     5.1710     5.4480    24.0650     2.3500    -7.0450 
  260.1250    43.2490     5.9720     5.1710     5.5980    23.6840     2.3460    -7.1620 
  260.2500    43.2490     5.9720     5.1710     6.0090    23.0970     2.3260    -7.2990 
  260.3750    43.2490     5.9720     5.1710     6.6910    22.5090     2.2920    -7.4360 
  260.5000    43.2490     5.9720     5.1710     7.8600    21.9090     2.2520    -7.5240 
  260.6250    43.2490     5.9720     5.1710     7.9360    20.7820     2.2250    -7.5930 
  260.7500    43.2490     5.9720     5.1710     7.6720    18.9170     2.2140    -7.5930 
  260.8750    43.2490     5.9720     5.1710     7.4300    16.9330     2.2130    -7.5930 
  261.0000    43.2490     5.9720     5.1710     7.1360    15.5220     2.2120  -999.2500 
  261.1250    43.2490     5.9720     5.1710     6.7600    14.8350     2.2060  -999.2500 
  261.2500    43.2490     5.9720     5.1710     6.4690    14.5500     2.1980  -999.2500 
  261.3750    43.2490     5.9720     5.1710     6.2370    14.4410     2.1930  -999.2500 
  261.5000    43.2490     5.9720     5.1710     6.1550    14.2910     2.1890  -999.2500 
  261.6250    43.2490     5.9720     5.1710     6.2610    13.8420     2.1820  -999.2500 
  261.7500    43.2490     5.9720     5.1710     6.6690    13.2290     2.1740  -999.2500 
  261.8750    43.2490     5.9720     5.1710     7.1240    12.7740     2.1540  -999.2500 
  262.0000    43.2490     5.9720     5.1710     7.3530    12.5960     2.1470  -999.2500 
