~V
VERS. 2.00: Ver 2.00
~W
STRT.M 50.0000:
STOP.M 274.0000:
STEP.M 0.1250:
NULL. -999.2500:
UWI. F10029:
~C
DEPT.M :
DEN.GM/CC :
SP.MV :
GR.API :
CALI.CM :
RXO.OHMM :
RI. :
RML.OHMM :
~A
# ...
   83.7500     2.0870   -25.4340    99.4020    21.4020     6.3380     6.3100     7.5870 
   83.8750     2.0980   -25.4340    96.1250    21.5300     6.1300     6.0790     7.3400 
   84.0000     2.1130   -25.4490    99.9260    21.9160     6.1150     5.9010     7.1490 
   84.1250     2.1340   -25.5040   111.4210    22.4460     6.3080     5.8380     7.0810 
   84.2500     2.1580   -25.6080   117.9800    22.8220     6.4610     5.8800     7.1270 
   84.3750     2.1720   -25.7020   114.4590    23.1800     6.6570     6.0090     7.2650 
   84.5000     2.1660   -25.7600   106.4700    23.5120     6.9660     6.1860     7.4540 
   84.6250     2.1440   -25.7970   101.1860    23.6180     7.0900     6.3560     7.6370 
   84.7500     2.1290   -25.8090    97.6930    23.2740     6.9200     6.4760     7.7650 
   84.8750     2.1270   -25.7390    92.2080    22.7890     6.8050     6.5200     7.8130 
   85.0000     2.1290   -25.6140    86.7140    22.3100     6.9420     6.4640     7.7530 
   85.1250     2.1220   -25.3790    82.1220    21.7680     7.2310     6.2660     7.5400 
   85.2500     2.1090   -25.0440    80.6860    21.4380     7.4090     5.9670     7.2190 
   85.3750     2.1010   -24.6710    83.5030    21.3090     7.5240     5.6610     6.8930 
   85.5000     2.1030   -24.2840    86.2360    21.2910     7.6010     5.5150     6.7360 
   85.6250     2.1200   -23.9090    84.9690    21.4190     7.7810     5.8030     7.0440 
   85.7500     2.1590   -23.4910    84.5600    21.6430     8.7940     6.6500     7.9520 
   85.8750     2.2330   -23.1050    88.8760    21.8340    12.5650     8.1440     9.5520 
   86.0000     2.3430   -22.7840    94.1630    22.0490    20.1410    10.1760    11.7290 
   86.1250     2.4560   -22.4980    92.5340    22.4350    27.5490    12.0300    13.7140 
   86.2500     2.5160   -22.2620    87.0000    22.7670    27.8070    12.6400    14.3680 
   86.3750     2.4950   -22.1220    86.1940    22.8750    21.2580    11.6940    13.3550 
   86.5000     2.4050   -21.9900    93.4240    22.8170    13.3960     9.8780    11.4090 
   86.6250     2.2960   -21.7470   102.8550    22.6540     8.9680     8.1420     9.5500 
   86.7500     2.2220   -21.4660   109.9960    22.4640     7.5290     6.8620     8.1790 
   86.8750     2.1960   -21.1170   115.3940    22.2900     7.4210     6.0210     7.2780 
   87.0000     2.2060   -20.6670   118.3020    22.2710     7.2720     5.5060     6.7260 
   87.1250     2.2280   -20.2200   116.6330    22.4370     6.4830     5.2320     6.4330 
   87.2500     2.2490   -19.7910   112.9980    22.6760     5.5700     5.1010     6.2930 
   87.3750     2.2590   -19.3770   109.9890    22.8920     5.1660     5.1010     6.2920 
   87.5000     2.2520   -19.0320   105.7240    23.0330     5.3150     5.2290     6.4290 
   87.6250     2.2290   -18.8440    99.9270    23.0080     5.7010     5.4710     6.6880 
   87.7500     2.2070   -18.7580    96.9350    22.8580     5.9480     5.7330     6.9690 
   87.8750     2.1960   -18.7440    98.1440    22.6300     6.1020     5.9280     7.1780 
   88.0000     2.1970   -18.7940    99.6850    22.3420     6.2170     5.9970     7.2520 
   88.1250     2.2130   -18.9080    98.0320    22.1380     6.1740     5.9370     7.1880 
   88.2500     2.2330   -19.0290    95.8820    22.0730     5.9550     5.8400     7.0830 
   88.3750     2.2460   -19.0950    96.6980    22.1290     5.7150     5.7660     7.0040 
   88.5000     2.2460   -19.1780   102.6970    22.3210     5.5750     5.7480     6.9850 
   88.6250     2.2340   -19.2760   112.3630    22.6260     5.6150     5.7880     7.0280 
   88.7500     2.2210   -19.4070   117.0330    22.8460     5.7570     5.8290     7.0720 
   88.8750     2.2110   -19.5700   113.8630    22.9500     5.9060     5.8190     7.0610 
   89.0000     2.2050   -19.7700   107.3660    22.9880     5.9210     5.7380     6.9750 
   89.1250     2.2040   -20.0310   102.8560    22.9760     5.7580     5.6150     6.8420 
   89.2500     2.2120   -20.3560   101.0580    22.9360     5.6330     5.5210     6.7420 
   89.3750     2.2340   -20.7810    99.9380    22.7860     5.9720     5.5230     6.7440 
   89.5000     2.2610   -21.2650    99.1160    22.5430     7.0990     5.6820     6.9150 
   89.6250     2.2650   -21.7250    95.7150    22.2890     8.1230     6.0770     7.3380 
   89.7500     2.2410   -22.1550    90.5100    22.2630     8.2540     6.6810     7.9850 
   89.8750     2.2030   -22.5390    84.2460    22.1530     7.9190     7.4530     8.8120 
   90.0000     2.1680   -22.8870    78.5940    22.0000     7.8710     8.2710     9.6880 
   90.1250     2.1440   -23.0950    76.0880    21.9640     8.0690     8.8360    10.2930 
   90.2500     2.1290   -23.1980    77.0800    22.0530     8.0760     8.8990    10.3600 
   90.3750     2.1200   -23.2200    78.2710    22.1850     7.9350     8.3640     9.7880 
   90.5000     2.1230   -23.1430    82.2810    22.4050     7.6050     7.3790     8.7330 
   90.6250     2.1490   -23.0690    89.6550    22.5880     6.8880     6.2980     7.5740 
   90.7500     2.1870   -23.0580    94.7940    22.6840     5.9390     5.4960     6.7150 
   90.8750     2.2180   -23.1530    95.0190    22.7490     5.1850     5.1680     6.3640 
   91.0000     2.2250   -23.3330    94.3670    22.8040     5.0730     5.4030     6.6160 
   91.1250     2.2150   -23.6420    95.0760    22.7820     6.1900     6.3140     7.5920 
   91.2500     2.2130   -24.0740    91.9670    22.5930     8.5560     7.6830     9.0580 
   91.3750     2.2200   -24.5280    86.5620    22.2330    11.3710     9.1380    10.6170 
   91.5000     2.2190   -25.0340    82.7130    21.9090    12.2480    10.0820    11.6270 
   91.6250     2.1970   -25.5850    81.2140    21.7350    10.4870     9.9630    11.5010 
   91.7500     2.1630   -26.0350    79.6370    21.7530     8.7510     9.2350    10.7210 
   91.8750     2.1350   -26.3700    79.3600    21.8640     8.2040     8.3940     9.8190 
   92.0000     2.1230   -26.5960    80.0530    21.8950     8.2500     7.7470     9.1270 
   92.1250     2.1270   -26.6880    81.8170    21.8490     8.3700     7.4240     8.7810 
   92.2500     2.1290   -26.6630    87.4880    21.8780     8.3950     7.3040     8.6520 
   92.3750     2.1180   -26.6070    94.5610    21.9290     8.2600     7.2780     8.6250 
   92.5000     2.1030   -26.5530    95.9710    21.9700     8.0230     7.2740     8.6200 
   92.6250     2.1020   -26.4270    90.1850    22.0110     7.8740     7.2780     8.6240 
   92.7500     2.1130   -26.3310    85.3580    21.9930     7.8760     7.3110     8.6590 
   92.8750     2.1240   -26.2210    84.3880    21.8610     8.0710     7.3910     8.7450 
   93.0000     2.1300   -26.1080    84.7370    21.6080     8.3020     7.5170     8.8800 
   93.1250     2.1320   -26.0650    85.9220    21.4590     8.5750     7.6650     9.0390 
   93.2500     2.1360   -26.0290    85.0890    21.4820     8.8810     7.7910     9.1740 
   93.3750     2.1400   -25.9600    81.5170    21.5350     9.1240     7.8590     9.2470 
   93.5000     2.1370   -25.8580    78.5600    21.5780     9.1960     7.8490     9.2360 
   93.6250     2.1210   -25.7630    79.4210    21.7280     9.1770     7.7570     9.1370 
   93.7500     2.1000   -25.6510    82.8120    21.9190     9.1280     7.6270     8.9980 
   93.8750     2.0820   -25.5240    87.0670    21.8790     9.0100     7.5020     8.8650 
   94.0000     2.0750   -25.3880    89.5760    21.6550     8.9690     7.4240     8.7810 
   94.1250     2.0830   -25.2690    89.2300    21.4320     9.1140     7.4360     8.7930 
   94.2500     2.1090   -25.1380    87.9800    21.3120     9.3550     7.5260     8.8900 
   94.3750     2.1450   -25.0340    87.2870    21.2970    10.1950     7.6680     9.0420 
   94.5000     2.1760   -24.9060    86.8050    21.3480    10.9260     7.8110     9.1950 
   94.6250     2.1800   -24.7750    86.4160    21.4640    11.0020     7.8870     9.2760 
   94.7500     2.1670   -24.6230    86.0340    21.5940    10.3120     7.8670     9.2560 
   94.8750     2.1520   -24.4880    83.5990    21.7220     9.9740     7.7610     9.1410 
