~V
VERS. 2.00: Ver 2.00
~W
STRT.M 60.0000:
STOP.M 245.0000:
STEP.M 0.1250:
NULL. -999.2500:
UWI. F10050:
~C
DEPT.M :
SP.MV :
GR.API :
RML.OHMM :
RI. :
RXO.OHMM :
CALI.CM :
DEN.GM/CC :
~A
# ...
  217.5000   -14.4190    55.2510    25.6660    25.3680    26.1050    24.2310     2.3140 
  217.6250   -14.4660    57.2610    25.5780    25.1830    25.9800    24.2310     2.3090 
  217.7500   -14.5350    58.7800    25.8000    25.2850    26.5270    24.2300     2.3020 
  217.8750   -14.6450    57.4050    26.1630    25.5340    27.3590    24.2220     2.2910 
  218.0000   -14.7180    55.4220    26.4600    25.7550    28.2410    24.1800     2.2810 
  218.1250   -14.7920    55.3870    26.5190    25.7970    29.1930    24.0340     2.2770 
  218.2500   -14.9190    56.2080    26.4020    25.6960    29.3440    23.8140     2.2830 
  218.3750   -15.0410    57.4100    26.2610    25.5740    28.1730    23.6290     2.2950 
  218.5000   -15.1630    59.0880    26.3390    25.6200    27.0070    23.5420     2.3070 
  218.6250   -15.2690    58.9500    27.0220    26.1360    27.4710    23.4580     2.3120 
  218.7500   -15.3730    55.9340    28.3800    27.1950    28.5960    23.3340     2.3080 
  218.8750   -15.4810    53.6280    30.3080    28.7430    28.7720    23.2840     2.2950 
  219.0000   -15.5830    53.1650    32.4400    30.5210    30.5950    23.3750     2.2750 
  219.1250   -15.6920    54.8410    34.0470    31.9580    36.8260    23.5720     2.2520 
  219.2500   -15.7810    58.2560    34.6040    32.5660    41.9740    23.7200     2.2350 
  219.3750   -15.8300    60.2790    33.9930    32.1660    40.6960    23.7860     2.2250 
  219.5000   -15.9060    60.3440    32.5780    30.9900    35.4890    23.8000     2.2230 
  219.6250   -16.0240    60.8520    31.1090    29.6120    31.4300    23.8070     2.2230 
  219.7500   -16.0980    61.6990    30.2910    28.6970    30.6340    23.8540     2.2170 
  219.8750   -16.1640    60.0140    30.4290    28.5830    31.1800    23.9580     2.2070 
  220.0000   -16.2960    56.0080    31.5020    29.3270    31.6060    24.0150     2.2080 
  220.1250   -16.4180    54.5800    33.2280    30.7560    31.9560    23.8860     2.2460 
  220.2500   -16.5220    53.5230    34.9170    32.2750    32.5210    23.6150     2.3120 
  220.3750   -16.6670    51.2330    36.0200    33.3880    32.8000    23.5010     2.3730 
  220.5000   -16.7780    49.2650    36.1930    33.7430    33.1640    23.6080     2.3910 
  220.6250   -16.8970    49.3420    35.3980    33.2150    33.9850    23.7300     2.3530 
  220.7500   -17.0640    51.6670    34.2750    32.2960    35.0190    23.7100     2.2940 
  220.8750   -17.2090    53.7150    33.2980    31.3920    35.8610    23.5550     2.2420 
  221.0000   -17.3020    54.7090    32.7580    30.8080    36.5820    23.4190     2.2170 
  221.1250   -17.4390    55.9100    32.7310    30.7180    36.5570    23.3120     2.2150 
  221.2500   -17.5830    58.5470    32.9300    30.9410    36.3790    23.1920     2.2200 
  221.3750   -17.6890    60.1750    33.1530    31.3040    36.1460    23.0900     2.2250 
  221.5000   -17.8270    59.0550    33.2910    31.6720    36.2250    23.1070     2.2290 
  221.6250   -17.9700    58.0040    33.2780    31.9280    37.1150    22.9730     2.2300 
  221.7500   -18.1130    58.5690    33.0720    32.0040    37.2860    23.0920     2.2310 
  221.8750   -18.2880    58.0700    32.6070    31.8340    35.7500    23.4290     2.2320 
  222.0000   -18.4550    55.8000    31.8140    31.3530    33.1950    23.6950     2.2330 
  222.1250   -18.5900    55.7440    30.5180    30.3550    31.4060    23.7550     2.2320 
  222.2500   -18.7530    58.6370    28.7130    28.7760    30.1930    23.7330     2.2310 
  222.3750   -18.9300    59.9830    26.4320    26.5960    29.1010    23.6990     2.2340 
  222.5000   -19.1130    58.2220    23.8130    23.9370    26.0020    23.6660     2.2450 
  222.6250   -19.3130    58.0180    21.1260    21.0900    21.0250    23.6450     2.2650 
  222.7500   -19.5010    62.1670    18.7270    18.4960    16.8580    23.6150     2.2870 
  222.8750   -19.6790    68.1660    16.9190    16.4790    14.7880    23.5610     2.3100 
  223.0000   -19.9180    71.6750    15.9630    15.2710    14.4210    23.4860     2.3390 
  223.1250   -20.1680    71.7810    16.3040    15.2190    14.2310    23.3410     2.3770 
  223.2500   -20.3850    69.9220    17.9800    16.3340    16.2390    23.1290     2.4060 
  223.3750   -20.6290    67.0270    21.1420    18.7900    21.1400    22.9420     2.4050 
  223.5000   -20.8390    64.3480    25.8450    22.7230    29.2720    23.0270     2.3680 
  223.6250   -21.0280    62.7630    32.0540    28.2090    38.5750    23.4560     2.3050 
  223.7500   -21.2480    61.2070    38.6930    34.2490    43.3880    23.8180     2.2450 
  223.8750   -21.4860    59.3430    44.4220    39.6010    45.6200    23.9520     2.2050 
  224.0000   -21.6870    57.7380    47.9920    43.1150    46.0640    23.9660     2.1860 
  224.1250   -21.9220    58.1520    48.7850    44.1330    46.3490    23.9660     2.1790 
  224.2500   -22.1970    58.5220    48.0220    43.6210    47.1030    23.9660     2.1750 
  224.3750   -22.4660    58.0950    46.5040    42.2470    46.5670    23.9660     2.1830 
  224.5000   -22.8100    58.6230    44.7360    40.4680    41.8380    23.9660     2.2170 
  224.6250   -23.1560    60.9580    43.0890    38.6230    34.1030    23.9660     2.2740 
  224.7500   -23.4290    62.7690    41.8740    37.0660    28.4480    23.9760     2.3230 
  224.8750   -23.6790    62.6250    41.3280    36.0650    25.4240    24.0130     2.3500 
  225.0000   -23.9440    60.6730    41.5580    35.7700    26.9710    24.0720     2.3580 
  225.1250   -24.1240    61.2500    42.4250    36.1710    28.9920    24.0630     2.3570 
  225.2500   -24.2490    66.3410    43.0680    36.6420    28.8130    24.0460     2.3620 
  225.3750   -24.3470    72.4240    42.5390    36.4420    28.0270    24.1500     2.3630 
  225.5000   -24.3770    73.9680    40.3200    35.0180    25.8990    24.3830     2.3300 
  225.6250   -24.3510    71.0530    36.7660    32.3620    18.8710    24.7900     2.2410 
  225.7500   -24.3310    69.1530    33.2780    29.4840    13.7890    25.1650     2.1300 
  225.8750   -24.2700    68.7900    30.7330    27.1750    12.7480    25.4450     2.0280 
  226.0000   -24.1630    68.0680    29.5830    25.9470    14.3740    25.2470     1.9690 
  226.1250   -24.0560    69.4370    30.2780    26.2880    20.7380    24.7490     1.9880 
  226.2500   -23.9310    72.4840    32.5930    28.0870    28.2620    24.2020     2.0700 
  226.3750   -23.7690    75.2160    36.3090    31.2500    29.2010    23.9520     2.1850 
  226.5000   -23.5890    76.6840    40.4880    35.1010    31.4130    23.9030     2.3040 
  226.6250   -23.4130    73.4380    42.1370    37.3030    42.7610    23.9120     2.4300 
  226.7500   -23.2370    64.4530    38.8160    35.4940    61.6340    23.9020     2.5630 
  226.8750   -23.0850    53.2150    31.0870    29.4510    62.2470    23.9430     2.6540 
  227.0000   -22.9290    45.8230    22.2520    21.6280    36.0290    24.1030     2.6620 
  227.1250   -22.7990    48.1370    15.5210    15.1530    17.3580    24.3580     2.5850 
  227.2500   -22.6600    54.4730    10.5050    10.7610    10.0370    24.6760     2.4820 
  227.3750   -22.5350    59.5440     7.4850     8.0940     7.9210    25.3000     2.3850 
  227.5000   -22.4400    62.0750     6.3670     6.6220     7.5130    26.6460     2.3130 
  227.6250   -22.3760    62.5360     5.9950     6.0110     7.1290    27.9110     2.2740 
  227.7500   -22.3180    62.2160     5.9370     5.8240     6.9910    27.9020     2.2700 
  227.8750   -22.2370    61.1110     6.0040     5.8520     6.6430    26.7990     2.2910 
  228.0000   -22.1590    59.9790     6.0890     5.9550     6.5990    26.1590     2.3230 
  228.1250   -22.1100    58.9340     6.1680     6.0560     6.9110    26.6200     2.3470 
  228.2500   -22.1220    56.5140     6.2620     6.1380     7.1820    27.4020     2.3590 
  228.3750   -22.1610    54.4220     6.3690     6.2010     7.0770    27.7270     2.3730 
  228.5000   -22.1890    55.4790     6.4600     6.2400     6.9750    27.4020     2.3990 
  228.6250   -22.1670    59.9240     6.4840     6.2380     7.3200    26.6290     2.4370 
