~V
VERS. 2.00: Ver 2.00
~W
STRT.M 55.0000:
STOP.M 293.0000:
STEP.M 0.1250:
NULL. -999.2500:
UWI. F10038:
~C
DEPT.M :
SP.MV :
DEN.GM/CC :
GR.API :
RML.OHMM :
RI. :
RXO.OHMM :
CALI.CM :
~A
# ...
  190.0000    -7.3410     2.5920    58.2730    24.4730    24.2130    32.7570    24.6120 
  190.1250    -7.3130     2.6180    57.9340    22.4820    22.2910    26.2360    24.5570 
  190.2500    -7.3040     2.6410    54.1990    20.9200    20.6000    23.4480    24.5430 
  190.3750    -7.2950     2.6580    49.3990    20.0230    19.4780    21.1860    24.5690 
  190.5000    -7.2620     2.6630    46.5660    19.7840    19.0230    20.4530    24.6260 
  190.6250    -7.1960     2.6540    47.0690    20.0750    19.1880    21.6270    24.6790 
  190.7500    -7.1060     2.6380    49.1670    20.5260    19.6090    23.4300    24.7080 
  190.8750    -7.0020     2.6200    51.2870    20.8930    20.0260    24.6370    24.7490 
  191.0000    -6.8890     2.6030    51.5050    21.0290    20.2580    24.6480    24.7780 
  191.1250    -6.7900     2.5890    50.0950    20.9050    20.2130    24.3740    24.7900 
  191.2500    -6.6820     2.5770    49.6630    20.6930    20.0160    24.3820    24.8030 
  191.3750    -6.5510     2.5680    50.7290    20.5270    19.7870    23.9220    24.8220 
  191.5000    -6.4190     2.5620    52.1760    20.4720    19.6040    23.2250    24.8240 
  191.6250    -6.3050     2.5620    51.3680    20.4750    19.4600    23.0870    24.8550 
  191.7500    -6.1970     2.5700    50.2600    20.3720    19.2530    23.5960    24.8670 
  191.8750    -6.1070     2.5820    51.3730    20.0330    18.8890    23.9930    24.8590 
  192.0000    -6.0290     2.5950    54.1680    19.4210    18.3370    23.4120    24.8530 
  192.1250    -5.9740     2.6050    55.3040    18.6680    17.6770    21.9850    24.8710 
  192.2500    -5.9620     2.6090    54.5300    18.0960    17.1460    20.2660    24.8960 
  192.3750    -6.0050     2.6090    53.5800    17.9640    16.9570    19.2970    24.8900 
  192.5000    -6.0900     2.6050    53.6660    18.3920    17.2400    19.9380    24.9030 
  192.6250    -6.1680     2.6010    56.6040    19.3310    18.0010    21.8640    24.8880 
  192.7500    -6.2060     2.5980    60.6590    20.3400    18.8840    24.3020    24.8630 
  192.8750    -6.2080     2.5990    61.6150    20.9320    19.5030    26.2880    24.8050 
  193.0000    -6.2000     2.6020    58.2480    20.7250    19.4910    26.2830    24.7910 
  193.1250    -6.1940     2.6010    55.1500    19.3770    18.5500    23.8300    24.7890 
  193.2500    -6.1970     2.5900    56.3810    17.4380    17.0060    20.9670    24.8130 
  193.3750    -6.2000     2.5680    60.4960    15.3480    15.2380    17.7440    24.8300 
  193.5000    -6.1690     2.5380    63.3070    13.5070    13.6180    14.9720    24.8550 
  193.6250    -6.1120     2.5080    63.3600    12.5730    12.4560    13.4260    24.8960 
  193.7500    -6.0720     2.4900    62.5620    12.0740    11.7420    13.0840    24.9250 
  193.8750    -6.0370     2.4840    59.7590    11.9260    11.4210    13.3530    24.9370 
  194.0000    -6.0050     2.4890    54.6950    12.0360    11.4060    13.8280    24.9190 
  194.1250    -5.9740     2.4990    50.6800    12.3280    11.6250    14.2920    24.9380 
  194.2500    -5.9040     2.5100    50.1820    12.6940    11.9510    14.6870    24.9850 
  194.3750    -5.8250     2.5190    50.1060    13.0690    12.3090    15.0030    25.0030 
  194.5000    -5.7790     2.5280    48.9880    13.3890    12.6240    15.5460    24.9660 
  194.6250    -5.7810     2.5360    49.5000    13.5470    12.7890    16.1070    24.8770 
  194.7500    -5.7820     2.5430    50.9650    13.5090    12.7660    16.3540    24.8040 
  194.8750    -5.7700     2.5460    51.2880    13.2840    12.5560    15.9440    24.7440 
  195.0000    -5.7420     2.5460    50.8380    12.9500    12.2200    14.6340    24.6910 
  195.1250    -5.7100     2.5440    50.5050    12.6660    11.8930    13.8000    24.6730 
  195.2500    -5.7120     2.5450    49.4650    12.5630    11.7110    13.5280    24.6540 
  195.3750    -5.7320     2.5470    49.4770    12.7000    11.7530    13.9390    24.6380 
  195.5000    -5.7670     2.5530    51.8800    13.0700    12.0390    14.8490    24.6060 
  195.6250    -5.8620     2.5600    54.5980    13.6340    12.5490    15.9810    24.5530 
  195.7500    -6.0170     2.5660    54.9030    14.2480    13.1470    17.0660    24.4980 
  195.8750    -6.2280     2.5720    53.6420    14.7810    13.6990    17.7540    24.4810 
  196.0000    -6.4870     2.5760    51.7620    15.0730    14.0540    17.7490    24.5650 
  196.1250    -6.7880     2.5780    48.5650    14.8890    13.9870    17.4670    24.6160 
  196.2500    -7.1070     2.5780    46.6960    14.2130    13.4630    17.0140    24.6360 
  196.3750    -7.4490     2.5720    48.1750    13.1120    12.5190    16.0320    24.6390 
  196.5000    -7.8300     2.5570    52.1050    11.7940    11.3130    13.9610    24.6320 
  196.6250    -8.2830     2.5340    55.3950    10.5930    10.1180    11.4500    24.5950 
  196.7500    -8.8070     2.5090    57.2930     9.7570     9.1950     9.9120    24.5580 
  196.8750    -9.4170     2.4890    59.6670     9.4080     8.6870     9.3840    24.5420 
  197.0000   -10.1250     2.4740    65.3120     9.5700     8.6450     9.9420    24.5410 
  197.1250   -10.9230     2.4640    73.0970    10.2350     9.0910    11.3240    24.5340 
  197.2500   -11.7910     2.4530    79.9720    11.1560     9.8170    13.0670    24.5210 
  197.3750   -12.7140     2.4410    84.3190    12.1280    10.6520    14.7390    24.4860 
  197.5000   -13.6890     2.4300    87.0560    12.9600    11.4280    15.7900    24.4390 
  197.6250   -14.6810     2.4230    88.4720    13.5010    11.9950    16.2340    24.3630 
  197.7500   -15.6700     2.4220    86.9650    13.8230    12.3740    16.6290    24.2500 
  197.8750   -16.6500     2.4240    83.3370    14.0290    12.6330    17.1940    24.0820 
  198.0000   -17.6200     2.4290    80.9430    14.2130    12.8510    17.9280    23.9110 
  198.1250   -18.5820     2.4350    82.0070    14.4260    13.0760    18.7510    23.7820 
  198.2500   -19.5430     2.4390    83.0350    14.6550    13.2960    19.3250    23.7090 
  198.3750   -20.5040     2.4440    81.7130    14.8620    13.4750    19.5920    23.6750 
  198.5000   -21.4470     2.4470    79.7170    15.0050    13.5750    19.6370    23.6640 
  198.6250   -22.3600     2.4480    79.3210    15.0380    13.5640    19.4780    23.6630 
  198.7500   -23.2630     2.4430    78.4470    14.9710    13.4670    19.1060    23.6630 
  198.8750   -24.1800     2.4300    75.5200    14.8230    13.3080    18.5900    23.6650 
  199.0000   -25.1090     2.4120    72.9800    14.6230    13.1160    18.1900    23.6640 
  199.1250   -26.0420     2.3900    74.5470    14.4010    12.9170    18.0280    23.6640 
  199.2500   -26.9770     2.3690    77.4640    14.1840    12.7320    17.9040    23.6600 
  199.3750   -27.8760     2.3530    76.9660    13.9810    12.5670    17.7690    23.6550 
  199.5000   -28.6920     2.3400    70.8900    13.7900    12.4180    17.6970    23.6460 
  199.6250   -29.3910     2.3300    63.9770    13.6100    12.2780    17.6750    23.6260 
  199.7500   -29.9740     2.3210    60.4780    13.4410    12.1360    17.5980    23.5960 
  199.8750   -30.4200     2.3140    60.5700    13.2900    11.9910    17.4180    23.5670 
  200.0000   -30.7190     2.3080    62.1020    13.1690    11.8500    17.0960    23.5520 
  200.1250   -30.8820     2.3060    62.2620    13.0940    11.7340    16.7990    23.5260 
  200.2500   -30.9320     2.3110    62.7230    13.0590    11.6540    16.6260    23.5040 
  200.3750   -30.9140     2.3190    64.0600    13.0580    11.6160    16.6170    23.4500 
  200.5000   -30.8830     2.3300    65.8560    13.0820    11.6140    16.8360    23.3960 
  200.6250   -30.8530     2.3380    65.7600    13.1210    11.6360    17.2040    23.3880 
  200.7500   -30.8220     2.3420    64.3840    13.1650    11.6600    17.4780    23.4750 
  200.8750   -30.7870     2.3400    64.6430    13.2070    11.6760    17.4580    23.5060 
  201.0000   -30.7310     2.3370    66.4400    13.2450    11.6790    17.2410    23.4890 
  201.1250   -30.6620     2.3330    67.4640    13.2750    11.6670    16.9890    23.4610 
