~V
VERS. 2.00: Ver 2.00
~W
STRT.M 50.0000:
STOP.M 325.0000:
STEP.M 0.1250:
NULL. -999.2500:
UWI. F10039:
~C
DEPT.M :
GR.API :
RML.OHMM :
RI. :
RXO.OHMM :
CALI.CM :
DEN.GM/CC :
SP.MV :
~A
# ...
  286.2500    56.4210     7.7010     6.9870     7.7670    23.8220     2.4140   -19.4430 
  286.3750    57.6670     7.8400     7.1430     7.7180    23.6860     2.4120   -19.6810 
  286.5000    58.1240     7.9540     7.1920     7.4710    23.6490     2.4110   -19.9530 
  286.6250    55.6660     8.0210     7.1320     7.7460    23.7550     2.4120   -20.2580 
  286.7500    53.1500     8.0500     7.0130     8.0120    23.8820     2.4100   -20.6090 
  286.8750    54.1200     8.0420     6.8680     8.1830    23.9710     2.3990   -21.0380 
  287.0000    57.4500     7.9950     6.7270     8.1000    24.0110     2.3780   -21.5340 
  287.1250    59.4860     7.9140     6.6360     7.7850    24.0500     2.3540   -22.1040 
  287.2500    61.1280     7.8560     6.6310     7.4460    24.0490     2.3360   -22.7280 
  287.3750    65.4750     7.9030     6.7570     7.4950    23.9860     2.3250   -23.3980 
  287.5000    72.3790     8.1360     7.0480     8.1020    23.9120     2.3190   -24.0920 
  287.6250    77.5040     8.6530     7.5700     9.6050    23.8820     2.3100   -24.7930 
  287.7500    79.7640     9.4250     8.3030    11.9900    23.8710     2.2980   -25.4440 
  287.8750    81.3480    10.4380     9.2380    14.8390    23.8680     2.2870   -25.9950 
  288.0000    84.1290    11.6510    10.3310    17.5140    23.8810     2.2820   -26.4240 
  288.1250    88.0440    12.9660    11.5020    19.6790    23.8910     2.2930   -26.6760 
  288.2500    91.0600    14.1570    12.5930    21.3340    23.8880     2.3170   -26.7630 
  288.3750    93.3470    14.9840    13.4310    20.8620    23.8630     2.3480   -26.6760 
  288.5000    94.3100    15.2320    13.8260    20.9180    23.8060     2.3740   -26.4310 
  288.6250    91.3930    14.7000    13.5440    21.2280    23.7400     2.3870   -26.0080 
  288.7500    83.8000    13.6180    12.7260    20.2400    23.7150     2.3890   -25.4730 
  288.8750    73.0260    12.2340    11.5730    16.1430    23.8040     2.3880   -24.8780 
  289.0000    63.4490    10.8400    10.3350    11.1730    23.8740     2.3930   -24.2640 
  289.1250    59.3860     9.7360     9.2540     9.3990    23.9420     2.4070   -23.6910 
  289.2500    60.3130     8.9850     8.4090     8.6930    23.9850     2.4230   -23.1930 
  289.3750    64.2600     8.5520     7.8050     8.2740    23.9840     2.4330   -22.7920 
  289.5000    68.2080     8.3420     7.4190     7.9030    23.8920     2.4300   -22.4950 
  289.6250    69.4020     8.2590     7.2430     7.6890    23.7530     2.4130   -22.3440 
  289.7500    69.9950     8.2120     7.2050     7.5050    23.6310     2.3900   -22.3240 
  289.8750    72.9260     8.1750     7.2490     7.4140    23.5980     2.3630   -22.4190 
  290.0000    77.3400     8.1290     7.3160     7.4510    23.6080     2.3380   -22.6110 
  290.1250    79.9310     8.0570     7.3340     7.4940    23.6880     2.3180   -22.9200 
  290.2500    80.7920     7.9760     7.2730     7.5020    23.8070     2.3070   -23.3160 
  290.3750    82.2050     7.9200     7.1460     7.4830    23.8740     2.3070   -23.7960 
  290.5000    85.4940     7.9280     7.0060     7.6990    23.8770     2.3150   -24.3330 
  290.6250    90.1130     8.0600     6.9610     8.4720    23.8500     2.3260   -24.8760 
  290.7500    96.0730     8.3570     7.1000     9.9430    23.7530     2.3330   -25.3950 
  290.8750   100.9700     8.8780     7.4970    11.4890    23.5850     2.3350   -25.8500 
  291.0000   102.1340     9.6280     8.1740    12.4380    23.5320     2.3330   -26.2130 
  291.1250    99.9270    10.4840     9.0610    12.8220    23.5590     2.3310   -26.4030 
  291.2500    97.9740    11.1420     9.8800    14.5410    23.6480     2.3320   -26.3840 
  291.3750    97.5210    11.3360    10.3460    16.5240    23.7230     2.3380   -26.1970 
  291.5000    96.7550    10.9410    10.2570    15.3180    23.8430     2.3470   -25.8780 
  291.6250    92.7740    10.0100     9.5530    12.1970    23.8870     2.3590   -25.4710 
  291.7500    87.0910     8.9360     8.5800     8.6290    23.8960     2.3690   -25.0330 
  291.8750    83.4430     7.9950     7.6090     6.6420    23.8540     2.3750   -24.6000 
  292.0000    83.5550     7.3630     6.8300     6.0010    23.7740     2.3780   -24.1880 
  292.1250    84.4380     7.1340     6.3600     5.9700    23.6910     2.3790   -23.8260 
  292.2500    83.8230     7.1530     6.1170     6.0480    23.6870     2.3840   -23.5590 
  292.3750    82.7430     7.2770     6.0340     6.2990    23.7530     2.3910   -23.3520 
  292.5000    82.2890     7.3850     6.0510     6.5880    23.8390     2.4000   -23.1930 
  292.6250    81.3770     7.4130     6.1400     6.7760    23.9190     2.4080   -23.0580 
  292.7500    80.1600     7.3940     6.2690     6.7990    23.9510     2.4130   -22.9160 
  292.8750    79.3990     7.3550     6.4180     6.6940    23.9410     2.4150   -22.7650 
  293.0000    79.0770     7.3000     6.5510     6.5620    23.8850     2.4130   -22.6140 
  293.1250    79.3910     7.2290     6.6190     6.5600    23.8500     2.4120   -22.4630 
  293.2500    80.8200     7.1640     6.6070     6.6790    23.8750     2.4160   -22.3180 
  293.3750    81.6880     7.1250     6.5140     6.8510    23.9790     2.4290   -22.1960 
  293.5000    80.2930     7.1270     6.3570     6.9790    24.0920     2.4480   -22.0710 
  293.6250    77.8680     7.1740     6.1730     7.1160    24.1500     2.4660   -21.9460 
  293.7500    76.7850     7.2540     6.0180     7.1510    24.1470     2.4750   -21.8390 
  293.8750    75.1860     7.3580     5.9360     7.0790    24.1080     2.4740   -21.7560 
  294.0000    70.5640     7.4680     5.9510     7.0100    24.0750     2.4670   -21.6870 
  294.1250    65.5860     7.5470     6.0750     7.1560    24.0260     2.4600   -21.6730 
  294.2500    63.2080     7.5800     6.2620     7.4220    23.9900     2.4570   -21.6900 
  294.3750    62.8640     7.5800     6.4710     7.7020    23.9760     2.4560   -21.7300 
  294.5000    62.9500     7.5770     6.6630     7.8900    23.9650     2.4530   -21.8030 
  294.6250    62.5850     7.5830     6.7950     7.6700    23.9590     2.4450   -21.9200 
  294.7500    61.9040     7.5660     6.8470     7.3630    23.9520     2.4330   -22.0690 
  294.8750    61.7910     7.4980     6.8070     7.2100    23.9490     2.4190   -22.2510 
  295.0000    62.2190     7.3850     6.6820     7.1110    23.9540     2.4070   -22.4630 
  295.1250    63.8520     7.2770     6.4880     6.9560    23.9620     2.3980   -22.7010 
  295.2500    68.5420     7.2170     6.2770     6.8230    23.9670     2.3910   -22.9700 
  295.3750    76.1150     7.2190     6.0930     6.9140    23.9570     2.3860   -23.2610 
  295.5000    84.5110     7.2870     5.9890     7.2100    23.9480     2.3830   -23.5800 
  295.6250    90.8450     7.4570     6.0410     7.4740    23.9450     2.3810   -23.9220 
  295.7500    94.1870     7.7380     6.2510     7.5700    23.9200     2.3790   -24.2730 
  295.8750    96.6050     8.1180     6.6020     8.0650    23.8500     2.3780   -24.6110 
  296.0000   100.1150     8.5200     7.0340     9.3020    23.7120     2.3770   -24.9050 
  296.1250   103.9790     8.7950     7.4340    10.9320    23.5690     2.3740   -25.1100 
  296.2500   103.3570     8.8540     7.6910     9.9490    23.5480     2.3720   -25.2470 
  296.3750    97.6480     8.6940     7.7410     8.4690    23.6070     2.3710   -25.3390 
  296.5000    90.7530     8.3940     7.5800     7.8170    23.6610     2.3700   -25.4000 
  296.6250    86.4310     8.0890     7.2590     7.8410    23.6890     2.3690   -25.4400 
  296.7500    84.1140     7.8910     6.9200     7.4230    23.7400     2.3640   -25.4830 
  296.8750    83.0270     7.8460     6.6600     7.3040    23.8000     2.3550   -25.5620 
  297.0000    84.0860     7.9450     6.5410     7.4770    23.8120     2.3450   -25.7060 
  297.1250    87.0530     8.1440     6.5980     7.9810    23.7490     2.3360   -25.9420 
  297.2500    89.6620     8.3640     6.7730     8.4760    23.6520     2.3290   -26.2460 
  297.3750    93.0430     8.5810     7.0210     8.6290    23.5930     2.3230   -26.5820 
