~V
VERS. 2.00: Ver 2.00
~W
STRT.M 55.0000:
STOP.M 279.0000:
STEP.M 0.1250:
NULL. -999.2500:
UWI. F10072:
~C
DEPT.M :
GR.API :
RML.OHMM :
RI. :
RXO.OHMM :
CALI.CM :
DEN.GM/CC :
SP.MV :
~A
# ...
  167.5000    57.4490    22.4530    21.5070    23.6830    24.1080     2.5410    -8.4630 
  167.6250    56.2730    22.5410    21.3890    23.8600    24.2920     2.5390    -8.4510 
  167.7500    57.9340    22.7650    21.4210    23.8300    24.5570     2.5350    -8.4730 
  167.8750    61.7620    23.0230    21.5400    23.9110    24.7300     2.5330    -8.5250 
  168.0000    64.8110    23.1750    21.6550    24.9390    24.7920     2.5350    -8.6040 
  168.1250    62.9550    23.0160    21.6330    28.0200    24.7040     2.5390    -8.6860 
  168.2500    59.4220    22.5190    21.4120    28.8920    24.5160     2.5420    -8.7680 
  168.3750    58.9850    21.7430    20.9910    27.4010    24.2460     2.5390    -8.8050 
  168.5000    61.4030    20.8160    20.4110    25.3450    24.0880     2.5330    -8.8180 
  168.6250    62.2290    19.8470    19.7030    23.6340    24.1350     2.5240    -8.7920 
  168.7500    61.4580    18.8570    18.8810    23.2670    24.3520     2.5180    -8.7210 
  168.8750    62.6940    17.7860    17.9070    21.6470    24.5820     2.5140    -8.6400 
  169.0000    65.1010    16.5940    16.7620    19.9550    24.6540     2.5100    -8.5700 
  169.1250    64.9160    15.3490    15.5090    16.6770    24.5230     2.5040    -8.5380 
  169.2500    64.5480    14.2590    14.3400    14.3150    24.2870     2.4970    -8.4990 
  169.3750    65.0660    13.5060    13.4220    13.5340    24.1400     2.4950    -8.5110 
  169.5000    63.4920    13.1760    12.8500    12.4530    24.0420     2.5000    -8.5230 
  169.6250    57.8060    13.2790    12.6900    12.2320    24.0120     2.5100    -8.5450 
  169.7500    52.0240    13.6130    12.8050    13.3260    24.0120     2.5150    -8.6340 
  169.8750    49.3130    14.0450    13.0790    14.4420    24.0270     2.5130    -8.7630 
  170.0000    49.0600    14.4770    13.3960    13.8320    24.0200     2.5030    -8.8920 
  170.1250    50.6480    14.8180    13.6850    13.4000    24.0270     2.4930    -9.0050 
  170.2500    52.2390    15.0250    13.9170    14.3840    24.0230     2.4870    -9.1510 
  170.3750    52.7860    15.0680    14.0530    15.4660    24.0270     2.4840    -9.2610 
  170.5000    53.5310    14.9530    14.0560    15.5150    24.1030     2.4820    -9.3620 
  170.6250    54.9190    14.7320    13.9020    14.9710    24.3180     2.4800    -9.5230 
  170.7500    54.8310    14.5220    13.6640    15.2280    24.6020     2.4770    -9.6780 
  170.8750    52.8710    14.4060    13.4310    14.9920    25.0020     2.4750    -9.7820 
  171.0000    53.3880    14.4390    13.2950    13.9960    25.4540     2.4710    -9.8660 
  171.1250    57.7850    14.6660    13.3470    13.9900    25.2510     2.4660    -9.9710 
  171.2500    58.9220    15.0390    13.5590    13.9960    24.4360     2.4600   -10.0600 
  171.3750    55.9340    15.5110    13.9130    14.4600    23.9910     2.4560   -10.2050 
  171.5000    53.5120    16.0110    14.3700    14.9690    23.8550     2.4570   -10.3760 
  171.6250    55.4260    16.4100    14.8380    16.1290    23.7810     2.4640   -10.5240 
  171.7500    57.5270    16.6090    15.1910    17.3930    23.7760     2.4750   -10.6210 
  171.8750    57.4190    16.5740    15.3430    18.1030    23.9440     2.4850   -10.7390 
  172.0000    56.8320    16.3650    15.2810    17.9630    24.2580     2.4930   -10.8800 
  172.1250    58.7440    16.1420    15.0750    16.6500    24.5670     2.4980   -10.9740 
  172.2500    61.3320    16.0690    14.8960    16.0620    24.7100     2.5030   -11.0540 
  172.3750    60.5810    16.1980    14.8510    16.0490    24.7080     2.5070   -11.0890 
  172.5000    56.9970    16.4660    14.9550    16.0610    24.5620     2.5120   -11.1080 
  172.6250    53.6960    16.6960    15.1070    16.1140    24.4820     2.5180   -11.1260 
  172.7500    52.5940    16.7410    15.1430    15.8090    24.3930     2.5270   -11.1550 
  172.8750    52.2060    16.5700    15.0010    15.3960    24.2430     2.5390   -11.1680 
  173.0000    52.4820    16.2710    14.7440    14.9420    24.0320     2.5480   -11.1750 
  173.1250    54.0850    16.0360    14.5420    13.9660    23.8820     2.5510   -11.1580 
  173.2500    55.5560    16.0060    14.5210    13.7080    23.8190     2.5450   -11.1110 
  173.3750    56.6340    16.2050    14.7060    14.2860    23.8170     2.5350   -11.0590 
  173.5000    58.4080    16.5600    15.0380    15.6970    23.8550     2.5260   -10.9740 
  173.6250    61.0460    16.9370    15.3980    16.5610    23.8790     2.5230   -10.8410 
  173.7500    62.4700    17.2180    15.6760    16.4030    23.8880     2.5250   -10.7050 
  173.8750    61.8010    17.3470    15.8400    15.5330    23.9170     2.5300   -10.6140 
  174.0000    61.7180    17.3110    15.9040    15.2170    23.9870     2.5340   -10.5100 
  174.1250    63.7710    17.1200    15.9070    15.5070    24.0120     2.5380   -10.4180 
  174.2500    66.5060    16.8630    15.8940    16.5530    24.0140     2.5400   -10.3630 
  174.3750    67.8490    16.6150    15.8800    16.7270    24.0220     2.5420   -10.3320 
  174.5000    68.3200    16.4470    15.8820    15.3960    24.0120     2.5430   -10.3890 
  174.6250    70.2230    16.4250    15.9630    14.2670    23.8040     2.5440   -10.5040 
  174.7500    71.1600    16.5220    16.1720    14.1950    23.7020     2.5440   -10.6480 
  174.8750    68.7510    16.6970    16.5250    14.9350    23.7950     2.5430   -10.7470 
  175.0000    64.2660    16.8980    16.9770    15.7810    24.0010     2.5390   -10.8190 
  175.1250    63.2100    17.0600    17.4090    16.5030    24.4580     2.5300   -10.8900 
  175.2500    65.4360    17.1320    17.6750    17.0740    25.1160     2.5170   -10.9740 
  175.3750    67.5520    17.0760    17.6850    16.3130    25.4660     2.5010   -11.0620 
  175.5000    68.3360    16.8800    17.4460    15.6310    24.9190     2.4840   -11.1410 
  175.6250    69.4230    16.5540    17.0430    15.1930    24.5100     2.4680   -11.2640 
  175.7500    70.7870    16.1590    16.6030    15.1690    24.5170     2.4530   -11.3760 
  175.8750    71.9130    15.7220    16.1550    14.4370    24.7290     2.4410   -11.5190 
  176.0000    72.3760    15.2820    15.6700    14.5660    24.8810     2.4320   -11.7320 
  176.1250    71.6970    14.8700    15.1450    14.7840    24.8910     2.4260   -12.0430 
  176.2500    70.9400    14.5600    14.7620    14.7450    24.8880     2.4150   -12.3930 
  176.3750    69.9520    14.8810    14.8440    14.4790    24.8950     2.3950   -12.7800 
  176.5000    67.9660    16.5080    15.8330    14.4980    24.8990     2.3610   -13.2160 
  176.6250    65.0460    22.1410    18.7910    16.7350    24.8390     2.3150   -13.7090 
  176.7500    63.3790    32.6170    24.7140    26.3010    24.7710     2.2700   -14.2630 
  176.8750    64.2550    48.7700    35.0960    48.8490    24.7640     2.2370   -14.8780 
  177.0000    64.7650    69.0920    50.9950    79.6710    24.8150     2.2200   -15.5050 
  177.1250    61.8970    85.8720    70.8410    94.9640    24.8940     2.2160   -16.1010 
  177.2500    59.1980    95.2040    86.1880   118.9880    24.9960     2.2160   -16.7070 
  177.3750    60.5870    93.6130    89.3120   131.3100    25.0530     2.2180   -17.3030 
  177.5000    65.2180    82.7180    80.2550   113.5910    25.0540     2.2230   -17.8550 
  177.6250    69.1000    69.4290    66.7060    70.6680    25.0260     2.2350   -18.2970 
  177.7500    72.1970    60.3280    56.2250    42.2340    25.0280     2.2470   -18.6880 
  177.8750    75.0010    57.2880    50.9920    31.4150    24.9930     2.2560   -19.0030 
  178.0000    76.3110    60.1310    51.3210    38.8620    24.9060     2.2560   -19.3050 
  178.1250    75.5080    67.9830    57.4070    64.3300    24.8490     2.2500   -19.5820 
  178.2500    74.4590    77.5470    66.8170    93.4990    24.7830     2.2420   -19.7890 
  178.3750    72.6630    86.1710    76.8600   106.9480    24.7220     2.2350   -19.9250 
  178.5000    69.0800    91.7300    84.2990   108.7000    24.6950     2.2290   -20.0040 
  178.6250    66.6300    93.1940    86.7250    99.5270    24.7470     2.2260   -20.0490 
