~V
VERS. 2.00: Ver 2.00
~W
STRT.M 55.0000:
STOP.M 314.0000:
STEP.M 0.1250:
NULL. -999.2500:
UWI. F10048:
~C
DEPT.M :
DEN.GM/CC :
GR.API :
RML.OHMM :
RI. :
RXO.OHMM :
CALI.CM :
SP.MV :
~A
# ...
  268.7500     2.3840    77.7660     4.3230     3.9340     4.0540    23.5830    -4.1360 
  268.8750     2.3900    82.5370     4.3400     3.9530     4.0500    23.6240    -4.1900 
  269.0000     2.3950    90.9010     4.4300     4.0150     4.1390    23.6350    -4.2450 
  269.1250     2.3930    95.6840     4.6110     4.1380     4.2910    23.6370    -4.3290 
  269.2500     2.3840    95.1060     4.8420     4.3020     4.5120    23.6450    -4.4680 
  269.3750     2.3710    94.1690     5.0740     4.4770     4.7800    23.6660    -4.6760 
  269.5000     2.3580    95.4430     5.2500     4.6210     4.9960    23.7030    -4.9290 
  269.6250     2.3510    96.4720     5.3000     4.6770     5.0130    23.7580    -5.1350 
  269.7500     2.3500    96.6170     5.2200     4.6360     4.8190    23.8120    -5.2590 
  269.8750     2.3540    97.7590     5.0280     4.5090     4.5570    23.8420    -5.3550 
  270.0000     2.3590    98.0450     4.7760     4.3290     4.2840    23.8480    -5.4900 
  270.1250     2.3620    93.9300     4.5480     4.1480     4.1150    23.8420    -5.6890 
  270.2500     2.3610    87.9760     4.3980     4.0050     4.0230    23.8400    -5.9180 
  270.3750     2.3600    82.7060     4.3370     3.9180     3.9700    23.8480    -6.1150 
  270.5000     2.3590    80.2760     4.3420     3.8840     3.9270    23.8680    -6.2600 
  270.6250     2.3600    82.0650     4.3670     3.8900     3.8900    23.8970    -6.4180 
  270.7500     2.3620    85.4440     4.3680     3.9050     3.8540    23.9270    -6.6040 
  270.8750     2.3670    87.7240     4.3370     3.9090     3.8360    23.9480    -6.7950 
  271.0000     2.3730    86.3320     4.2920     3.8980     3.8230    23.9640    -6.9740 
  271.1250     2.3800    83.4730     4.2620     3.8880     3.8110    23.9790    -7.1020 
  271.2500     2.3860    83.6890     4.2710     3.9090     3.8230    23.9860    -7.1750 
  271.3750     2.3890    85.3110     4.3320     3.9840     3.8730    23.9880    -7.2070 
  271.5000     2.3880    85.2560     4.4510     4.1260     3.9820    23.9900    -7.2360 
  271.6250     2.3820    82.4560     4.6330     4.3340     4.1810    23.9920    -7.2890 
  271.7500     2.3750    81.5510     4.8410     4.5670     4.4810    23.9940    -7.3430 
  271.8750     2.3690    85.1350     5.0350     4.7910     4.8180    23.9930    -7.4150 
  272.0000     2.3680    92.3290     5.1740     4.9700     5.1030    23.9910    -7.5050 
  272.1250     2.3730    97.1850     5.2220     5.0680     5.2420    23.9890    -7.5580 
  272.2500     2.3820    96.0500     5.2050     5.0940     5.1390    23.9880    -7.5750 
  272.3750     2.3930    90.6330     5.1520     5.0670     4.8670    23.9870    -7.6100 
  272.5000     2.4040    84.5260     5.0810     5.0130     4.6420    23.9860    -7.6820 
  272.6250     2.4130    81.1970     5.0060     4.9500     4.6260    23.9860    -7.7880 
  272.7500     2.4190    80.8970     4.9090     4.8710     4.6650    23.9860    -7.9320 
  272.8750     2.4200    82.0980     4.8200     4.7520     4.6960    23.9860    -8.0710 
  273.0000     2.4120    82.6490     4.7080     4.5710     4.7370    23.9860    -8.1820 
  273.1250     2.3910    82.0650     4.5830     4.3300     4.7930    23.9860    -8.3550 
  273.2500     2.3680    83.1110     4.5080     4.1000     4.8640    23.9860    -8.6400 
  273.3750     2.3600    85.0060     4.6220     3.9740     5.0470    23.9820    -8.9890 
  273.5000     2.3850    84.4930     5.3490     4.0510     5.7330    23.9680    -9.3780 
  273.6250     2.4540    80.2100     7.1040     4.6610     8.7630    23.9300    -9.8000 
  273.7500     2.5400    74.4690    11.1070     6.6340    17.4320    23.8650   -10.2450 
  273.8750     2.6060    66.8500    19.2360    11.9440    35.4860    23.7750   -10.7550 
  274.0000     2.6140    58.0090    34.1230    23.7240    65.0690    23.6820   -11.3250 
  274.1250     2.5480    52.9230    60.8120    47.1550   101.5920    23.6380   -11.9400 
  274.2500     2.4500    51.9980    97.1900    80.8590   134.7430    23.6390   -12.5830 
  274.3750     2.3550    51.8880   137.0190   119.5210   152.0200    23.6820   -13.2340 
  274.5000     2.2840    51.3750   168.9360   152.6340   147.5130    23.7680   -13.8460 
  274.6250     2.2530    51.0720   175.6230   164.3550   143.1730    23.8540   -14.3770 
  274.7500     2.2550    50.7340   156.7270   153.0130   134.8680    23.8770   -14.8380 
  274.8750     2.2820    50.7200   122.5320   125.0480   119.6810    23.8260   -15.2120 
  275.0000     2.3240    52.1560    88.1000    92.4420    93.3230    23.7150   -15.5370 
  275.1250     2.3720    54.3710    64.1670    67.0240    61.6950    23.5900   -15.8130 
  275.2500     2.4150    56.4920    49.5960    50.8540    41.0870    23.5150   -16.0070 
  275.3750     2.4440    58.5730    42.0860    42.3280    32.9640    23.5080   -16.1320 
  275.5000     2.4540    59.1650    39.5150    39.1670    31.9170    23.5040   -16.2080 
  275.6250     2.4450    59.3540    40.4400    39.8200    32.0720    23.4620   -16.2660 
  275.7500     2.4300    61.1330    42.5570    41.9810    32.9990    23.3830   -16.3460 
  275.8750     2.4170    64.2070    44.2980    44.1150    35.6710    23.2510   -16.4160 
  276.0000     2.4100    65.5330    44.3910    44.8360    38.1260    23.0680   -16.4220 
  276.1250     2.4040    63.0400    42.0130    43.0460    37.2870    22.9380   -16.2770 
  276.2500     2.3960    61.1200    38.1780    39.5330    33.3590    22.9210   -16.0100 
  276.3750     2.3870    61.9070    33.8720    35.2340    28.8870    23.0540   -15.6920 
  276.5000     2.3800    64.8750    29.8090    30.9320    27.0500    23.2550   -15.3780 
  276.6250     2.3810    68.4760    26.4120    27.1670    27.8530    23.4130   -15.0380 
  276.7500     2.3900    69.8560    23.7300    24.1000    26.6450    23.4900   -14.6270 
  276.8750     2.4070    69.2430    21.9690    21.9410    23.4470    23.4870   -14.1760 
  277.0000     2.4370    69.1070    21.4560    20.9600    20.1900    23.4290   -13.7180 
  277.1250     2.4910    70.9750    22.8480    21.7260    20.8860    23.3300   -13.3610 
  277.2500     2.5670    71.1650    25.9960    24.1630    25.9540    23.2260   -13.1350 
  277.3750     2.6500    67.8980    30.5660    28.1000    34.1800    23.1260   -12.9870 
  277.5000     2.7110    61.8450    35.7630    32.9550    43.5970    23.0160   -12.8940 
  277.6250     2.7180    54.3740    40.2210    37.5770    48.2630    22.8690   -12.8450 
  277.7500     2.6830    50.3140    42.9900    40.8530    46.2960    22.6270   -12.8240 
  277.8750     2.6330    51.6190    43.8400    42.3090    40.5350    22.2720   -12.8160 
  278.0000     2.5930    54.5110    43.2050    42.1440    30.9300    21.8710   -12.7900 
  278.1250     2.5790    54.6360    41.6460    40.7750    26.0310    21.6380   -12.7160 
  278.2500     2.5800    55.5640    39.6080    38.7400    24.1610    21.6280   -12.6100 
  278.3750     2.5830    58.7880    37.0730    36.1200    23.9600    21.7650   -12.4680 
  278.5000     2.5780    61.6160    34.0480    33.0020    24.0490    21.9850   -12.2780 
  278.6250     2.5650    62.5420    30.7500    29.6590    23.5000    22.2090   -12.0560 
  278.7500     2.5530    63.0010    27.6760    26.5810    22.1040    22.3360   -11.8350 
  278.8750     2.5470    62.2170    25.2230    24.1450    20.5260    22.3440   -11.6280 
  279.0000     2.5500    59.9650    23.6820    22.6120    19.8700    22.3140   -11.4840 
  279.1250     2.5600    59.3210    23.6090    22.4460    21.5560    22.3930   -11.3570 
  279.2500     2.5720    62.0190    25.4040    23.9470    24.4820    22.6180   -11.1610 
  279.3750     2.5890    64.4640    29.7150    27.7050    29.9810    22.8850   -10.9320 
  279.5000     2.6170    63.0470    36.7130    33.9590    40.7400    23.1030   -10.6970 
  279.6250     2.6630    58.9130    45.3020    41.9180    58.3990    23.2120   -10.4970 
  279.7500     2.7130    53.0620    52.1060    48.5690    81.0350    23.2350   -10.3280 
  279.8750     2.7400    42.6530    53.6430    50.6200    99.3620    23.2010   -10.1580 
