~V
VERS. 2.00: Ver 2.00
~W
STRT.M 59.0000:
STOP.M 275.0000:
STEP.M 0.1250:
NULL. -999.2500:
UWI. F10021:
~C
DEPT.M :
GR.API :
RML.OHMM :
RI. :
RXO.OHMM :
CALI.CM :
DEN.GM/CC :
SP.MV :
~A
# ...
  126.5000    55.9010     9.4430     8.5920     9.3500    23.1250     2.2630   -16.7370 
  126.6250    54.2650     9.2520     8.4500     9.7140    23.5270     2.2380   -17.3420 
  126.7500    56.0130     9.1490     8.3430    10.0260    23.9220     2.2200   -17.8460 
  126.8750    59.4570     9.1580     8.3160    10.2500    24.2190     2.2090   -18.2510 
  127.0000    60.7600     9.2350     8.3560    10.3420    24.3600     2.2040   -18.5340 
  127.1250    58.6310     9.3170     8.4240    10.2990    24.4000     2.2060   -18.7090 
  127.2500    56.2090     9.3760     8.4890    10.1680    24.4370     2.2130   -18.8300 
  127.3750    54.7910     9.4270     8.5510    10.0260    24.4720     2.2210   -18.9130 
  127.5000    55.0640     9.4980     8.6240     9.9890    24.4940     2.2280   -18.9460 
  127.6250    56.3490     9.6100     8.7240    10.1240    24.4990     2.2310   -18.9610 
  127.7500    57.6690     9.7440     8.8450    10.2990    24.5080     2.2310   -18.9820 
  127.8750    59.7230     9.8650     8.9650    10.5180    24.5350     2.2320   -19.0010 
  128.0000    62.3080     9.9330     9.0530    10.6930    24.5800     2.2370   -19.0380 
  128.1250    62.2540     9.8990     9.0630    10.5520    24.6180     2.2450   -19.0420 
  128.2500    58.4780     9.7690     8.9930    10.1910    24.6490     2.2540   -19.0430 
  128.3750    54.1610     9.5640     8.8560     9.8220    24.6960     2.2590   -19.0160 
  128.5000    51.8960     9.3230     8.6830     9.5570    24.7490     2.2560   -19.0020 
  128.6250    51.7640     9.0980     8.5110     9.5800    24.8060     2.2430   -18.9510 
  128.7500    52.9830     8.9180     8.3700     9.6760    24.8610     2.2260   -18.8500 
  128.8750    56.1820     8.7910     8.2750     9.6870    24.8900     2.2100   -18.6910 
  129.0000    59.6490     8.7120     8.2300     9.6600    24.9000     2.2010   -18.4690 
  129.1250    61.0130     8.6960     8.2510     9.7030    24.9260     2.2030   -18.1780 
  129.2500    60.8080     8.7590     8.3460     9.7930    24.9690     2.2160   -17.8130 
  129.3750    59.6990     8.9410     8.5360     9.9000    25.0440     2.2340   -17.3800 
  129.5000    57.3070     9.2610     8.8400     9.9880    25.1590     2.2500   -16.8540 
  129.6250    55.2500     9.6830     9.2360    10.0610    25.2500     2.2520   -16.2390 
  129.7500    54.8210    10.0220     9.5900    10.2630    25.2420     2.2410   -15.4920 
  129.8750    54.7680    10.0760     9.7290    10.7020    25.0730     2.2290   -14.6290 
  130.0000    54.3380     9.6970     9.4950    10.9840    24.7000     2.2310   -13.6690 
  130.1250    57.9390     8.8140     8.7710    10.9530    24.2270     2.2630   -12.6590 
  130.2500    67.6600     7.7180     7.7640     9.9390    23.8750     2.3180   -11.6600 
  130.3750    78.2190     6.6540     6.6850     7.6120    23.6910     2.3790   -10.7090 
  130.5000    84.6570     5.8010     5.7190     5.6670    23.6560     2.4300    -9.8060 
  130.6250    85.5200     5.2470     4.9990     4.9900    23.7170     2.4580    -9.0250 
  130.7500    84.1970     4.7790     4.4830     4.7970    23.8000     2.4690    -8.4010 
  130.8750    83.0330     4.4670     4.1360     4.6730    23.8940     2.4720    -7.9390 
  131.0000    82.4580     4.2990     3.9440     4.5840    24.0030     2.4690    -7.5970 
  131.1250    81.6470     4.4010     3.9850     4.7130    24.1290     2.4600    -7.3770 
  131.2500    79.8900     4.8920     4.3360     5.3610    24.2440     2.4550    -7.2360 
  131.3750    77.4310     5.8830     5.1020     7.0180    24.2830     2.4610    -7.1440 
  131.5000    75.4310     7.3650     6.3260     9.8540    24.1960     2.4810    -7.1130 
  131.6250    72.8760     9.1560     7.9410    13.6850    24.0150     2.5030    -7.0920 
  131.7500    67.7880    10.8070     9.5810    17.0830    23.8440     2.5080    -7.1090 
  131.8750    61.8300    11.9640    10.8900    17.9680    23.6930     2.4800    -7.1250 
  132.0000    57.9360    12.4590    11.6090    16.0260    23.6050     2.4200    -7.1560 
  132.1250    58.0000    12.3800    11.6700    13.6640    23.7220     2.3490    -7.1720 
  132.2500    58.5840    12.1950    11.4770    12.2870    23.9380     2.2910    -7.1710 
  132.3750    58.2000    12.1930    11.3270    11.7960    24.1460     2.2570    -7.1450 
  132.5000    58.5560    12.4780    11.3770    11.8500    24.3150     2.2450    -7.0950 
  132.6250    59.9140    13.0060    11.6610    12.2280    24.4540     2.2460    -7.0400 
  132.7500    61.2910    13.5850    12.0460    12.6880    24.5530     2.2480    -6.9610 
  132.8750    62.6400    14.0920    12.4260    13.0710    24.5950     2.2440    -6.8790 
  133.0000    62.4040    14.4500    12.7190    13.2280    24.5850     2.2350    -6.8190 
  133.1250    60.5410    14.6030    12.8610    13.0550    24.5420     2.2260    -6.7730 
  133.2500    59.2030    14.6050    12.8820    12.8920    24.5000     2.2230    -6.7110 
  133.3750    58.9810    14.5080    12.8220    12.7620    24.4760     2.2260    -6.6630 
  133.5000    58.1180    14.3820    12.7340    12.5930    24.4530     2.2340    -6.6230 
  133.6250    55.0240    14.3150    12.6830    12.3350    24.4300     2.2450    -6.5740 
  133.7500    54.4460    14.3460    12.7010    12.2330    24.4100     2.2530    -6.5090 
  133.8750    57.4750    14.4740    12.7960    12.4980    24.3920     2.2550    -6.4590 
  134.0000    60.6430    14.6590    12.9480    13.0750    24.3690     2.2510    -6.3750 
  134.1250    60.9100    14.8390    13.1190    13.7350    24.3450     2.2430    -6.2850 
  134.2500    59.4540    14.9680    13.2700    14.1460    24.3260     2.2370    -6.1990 
  134.3750    58.0850    15.0340    13.3810    14.3550    24.3470     2.2350    -6.1160 
  134.5000    57.7230    15.0400    13.4450    14.5260    24.4350     2.2360    -6.0370 
  134.6250    57.3050    14.9540    13.4330    14.6000    24.5440     2.2360    -5.9530 
  134.7500    56.0080    14.7350    13.3210    14.7480    24.6580     2.2320    -5.8790 
  134.8750    55.1780    14.3540    13.0860    15.0480    24.7390     2.2210    -5.7800 
  135.0000    56.2200    13.8400    12.7460    15.4600    24.7690     2.2080    -5.7070 
  135.1250    58.1230    13.2810    12.3530    15.7960    24.6950     2.2030    -5.6230 
  135.2500    61.4010    12.7530    11.9560    16.1130    24.5560     2.2200    -5.5600 
  135.3750    65.6900    12.2450    11.5390    15.9420    24.4480     2.2650    -5.4930 
  135.5000    68.6070    11.6870    11.0530    15.1760    24.4160     2.3310    -5.4140 
  135.6250    67.0680    10.9680    10.4140    14.7050    24.4290     2.3900    -5.3580 
  135.7500    64.8910    10.0990     9.6350    12.4900    24.4430     2.4170    -5.3200 
  135.8750    66.1390     9.1560     8.7770    10.0320    24.4670     2.4090    -5.2990 
  136.0000    69.3540     8.2550     7.9390     8.2550    24.4850     2.3800    -5.2890 
  136.1250    71.1760     7.5400     7.2490     7.4450    24.4960     2.3570    -5.3300 
  136.2500    71.8470     7.0380     6.7450     6.8730    24.5120     2.3510    -5.3690 
  136.3750    73.5640     6.7330     6.4280     6.4340    24.5270     2.3620    -5.4050 
  136.5000    76.3750     6.5810     6.2640     6.1630    24.5340     2.3840    -5.4640 
  136.6250    77.5380     6.5350     6.2120     6.1340    24.5310     2.4050    -5.5120 
  136.7500    78.3470     6.5270     6.2030     6.1730    24.5220     2.4200    -5.5400 
  136.8750    79.4060     6.5140     6.2010     6.2000    24.5180     2.4260    -5.5610 
  137.0000    80.2890     6.4620     6.1740     6.2810    24.5170     2.4240    -5.5610 
  137.1250    81.2790     6.3520     6.1070     6.3340    24.5170     2.4190    -5.5210 
  137.2500    81.7500     6.2260     6.0170     6.2050    24.5180     2.4160    -5.4700 
  137.3750    80.4700     6.1290     5.9330     6.0150    24.5190     2.4160    -5.4440 
  137.5000    77.9590     6.0910     5.8780     6.0400    24.5190     2.4150    -5.4020 
  137.6250    77.1410     6.1240     5.8730     6.2770    24.5170     2.4100    -5.3640 
