~V
VERS. 2.00: Ver 2.00
~W
STRT.M 55.0000:
STOP.M 293.0000:
STEP.M 0.1250:
NULL. -999.2500:
UWI. F10038:
~C
DEPT.M :
SP.MV :
DEN.GM/CC :
GR.API :
RML.OHMM :
RI. :
RXO.OHMM :
CALI.CM :
~A
# ...
   88.7500   -19.4370     2.1750    66.9340     8.4390     6.8750     8.3960    24.4610 
   88.8750   -17.9990     2.1970    70.6580     7.8590     6.4450     7.7930    24.5180 
   89.0000   -16.3970     2.2350    80.2510     7.1640     5.9190     7.1160    24.5760 
   89.1250   -14.7710     2.2820    91.9260     6.4620     5.3600     6.1920    24.6040 
   89.2500   -13.2480     2.3210    99.3440     5.8620     4.8510     5.2590    24.5760 
   89.3750   -11.9040     2.3460   101.9920     5.4220     4.4420     4.7700    24.4810 
   89.5000   -10.7880     2.3570   102.8430     5.1640     4.1710     4.6900    24.3110 
   89.6250    -9.9930     2.3660   103.3030     5.1300     4.0830     4.8160    24.0070 
   89.7500    -9.5160     2.3840   105.6970     5.3000     4.1680     5.0260    23.5740 
   89.8750    -9.3580     2.4090   108.9400     5.6780     4.4250     5.3530    23.1330 
   90.0000    -9.4700     2.4310   108.6100     6.2370     4.8350     5.8110    22.8750 
   90.1250    -9.7610     2.4300    99.0200     6.8670     5.3330     6.3530    22.8580 
   90.2500   -10.1320     2.4040    86.7900     7.3650     5.7820     6.8280    22.9460 
   90.3750   -10.4940     2.3620    78.9090     7.5570     6.0680     7.2300    23.0720 
   90.5000   -10.8070     2.3210    76.6960     7.3820     6.1230     7.5470    23.2190 
   90.6250   -11.0870     2.2990    80.0050     6.9570     5.9630     7.2100    23.3720 
   90.7500   -11.3710     2.2960    85.6200     6.6070     5.7690     6.6220    23.3880 
   90.8750   -11.6820     2.3060    88.2630     6.5280     5.6850     6.2580    23.2970 
   91.0000   -12.0090     2.3160    85.9820     6.7800     5.7960     6.4550    23.1900 
   91.1250   -12.2820     2.3140    82.0380     7.3170     6.1160     7.2320    23.1390 
   91.2500   -12.4490     2.3000    76.6650     7.8880     6.5000     8.0850    23.1640 
   91.3750   -12.4870     2.2800    70.3320     8.2730     6.8000     8.5850    23.3260 
   91.5000   -12.3810     2.2640    67.5240     8.3070     6.8890     8.5790    23.5900 
   91.6250   -12.1270     2.2620    72.2010     7.9380     6.6850     7.9980    23.9700 
   91.7500   -11.7620     2.2750    77.9660     7.4040     6.3060     7.0830    24.3250 
   91.8750   -11.3010     2.2980    81.0160     6.8710     5.8630     6.1970    24.5590 
   92.0000   -10.7950     2.3200    85.3830     6.4190     5.4450     5.7440    24.6470 
   92.1250   -10.3110     2.3320    91.3340     6.0720     5.1210     5.7320    24.6610 
   92.2500    -9.9250     2.3330    91.8320     5.8390     4.9250     5.8020    24.6840 
   92.3750    -9.7260     2.3320    86.6050     5.8230     4.9340     5.9470    24.7200 
   92.5000    -9.7690     2.3430    81.5230     6.1990     5.2630     6.4230    24.7540 
   92.6250   -10.0900     2.3810    80.4990     7.2410     6.1000     8.2310    24.7520 
   92.7500   -10.6270     2.4370    78.8610     8.8420     7.3640    11.6470    24.7210 
   92.8750   -11.3520     2.4920    75.2630    10.7140     8.8670    16.1420    24.6650 
   93.0000   -12.2350     2.5160    70.9520    12.3280    10.2580    20.6720    24.5780 
   93.1250   -13.2240     2.4860    65.8880    12.8700    10.9880    21.6880    24.4180 
   93.2500   -14.2190     2.4230    62.3400    12.3060    10.9310    18.2760    24.1730 
   93.3750   -15.1500     2.3560    63.8090    11.1630    10.2800    13.5370    23.8990 
   93.5000   -15.9640     2.3060    69.7050    10.1800     9.4720    10.6410    23.7180 
   93.6250   -16.6210     2.2880    76.8080     9.8810     8.9680     9.8700    23.6560 
   93.7500   -17.1420     2.2940    85.4700    10.1630     8.8760     9.8110    23.6260 
   93.8750   -17.5220     2.3130    95.5660    10.8240     9.1320     9.9010    23.5920 
   94.0000   -17.7590     2.3380   102.2920    11.5870     9.5790     9.8590    23.5490 
   94.1250   -17.9370     2.3620   101.1420    12.0960    10.0000     9.6360    23.4610 
   94.2500   -18.1430     2.3850    93.3040    12.1990    10.2310     9.3690    23.2910 
   94.3750   -18.4140     2.4030    80.5970    11.9090    10.2090     9.1940    23.0270 
   94.5000   -18.7900     2.4110    67.6130    11.3580     9.9540     9.1680    22.7210 
   94.6250   -19.2800     2.3960    62.9390    10.7130     9.5300     9.3120    22.5340 
   94.7500   -19.8130     2.3590    64.9150    10.1200     9.0680     9.5240    22.4920 
   94.8750   -20.3680     2.3110    66.9500     9.6470     8.6430     9.6840    22.5420 
   95.0000   -20.9570     2.2630    67.0290     9.3220     8.3080     9.7510    22.6410 
   95.1250   -21.5220     2.2310    68.4110     9.1530     8.0970     9.9280    22.6620 
   95.2500   -22.0440     2.2110    68.8150     9.0750     7.9800    10.2250    22.7090 
   95.3750   -22.5110     2.2000    64.8820     9.0430     7.9270    10.4610    22.8300 
   95.5000   -22.8980     2.1950    60.3360     9.0230     7.9030    10.5190    23.0940 
   95.6250   -23.1900     2.1940    62.3450     8.9980     7.8770    10.2570    23.4750 
   95.7500   -23.4080     2.1970    65.6050     8.9720     7.8370     9.9430    23.7260 
   95.8750   -23.5670     2.2040    63.8350     8.9500     7.7840     9.7830    23.8220 
   96.0000   -23.6310     2.2110    59.1380     8.9230     7.7200     9.7800    23.8280 
   96.1250   -23.5880     2.2140    59.2450     8.8690     7.6360     9.8410    23.8360 
   96.2500   -23.4750     2.2130    62.3250     8.7770     7.5270     9.8440    23.9140 
   96.3750   -23.3210     2.2090    63.7770     8.6520     7.3940     9.7620    24.0350 
   96.5000   -23.1670     2.2060    62.6700     8.5180     7.2500     9.5570    24.1320 
   96.6250   -23.0450     2.2070    60.7710     8.4160     7.1250     9.3480    24.1320 
   96.7500   -22.9690     2.2110    59.0740     8.3780     7.0420     9.2730    24.0730 
   96.8750   -22.9380     2.2170    58.1620     8.4140     7.0190     9.3230    23.9680 
   97.0000   -23.0020     2.2230    59.3140     8.5170     7.0600     9.4730    23.8290 
   97.1250   -23.2140     2.2290    62.4630     8.6740     7.1640     9.7980    23.8020 
   97.2500   -23.5090     2.2350    66.8650     8.8550     7.3040    10.1710    23.9390 
   97.3750   -23.8770     2.2410    69.2410     9.0400     7.4630    10.4290    24.1000 
   97.5000   -24.2780     2.2460    67.5940     9.2150     7.6240    10.6360    24.1860 
   97.6250   -24.6980     2.2460    64.5200     9.3580     7.7640    10.8150    24.2070 
   97.7500   -25.1020     2.2430    62.7650     9.4540     7.8700    10.8900    24.1980 
   97.8750   -25.4510     2.2360    61.1220     9.4980     7.9350    10.8440    24.1610 
   98.0000   -25.6880     2.2280    59.2340     9.4960     7.9570    10.6690    24.0810 
   98.1250   -25.7520     2.2250    60.6580     9.4800     7.9440    10.4260    23.9350 
   98.2500   -25.6970     2.2260    63.3820     9.4870     7.9260    10.1630    23.7110 
   98.3750   -25.5370     2.2300    63.3890     9.5290     7.9170    10.0340    23.4440 
   98.5000   -25.3160     2.2340    62.0470     9.5890     7.9210    10.2050    23.1670 
   98.6250   -25.0520     2.2320    62.6050     9.6280     7.9280    10.5000    22.9670 
   98.7500   -24.7720     2.2230    63.3980     9.6160     7.9190    10.8600    22.9070 
   98.8750   -24.5070     2.2100    62.3740     9.5480     7.8810    10.9510    22.9720 
   99.0000   -24.2720     2.1970    60.1780     9.4390     7.8120    10.3910    23.0810 
   99.1250   -24.0750     2.1890    58.4020     9.3140     7.7220    10.0640    23.2140 
   99.2500   -23.8750     2.1860    57.8000     9.1950     7.6290     9.9520    23.3320 
   99.3750   -23.6340     2.1880    57.4390     9.0850     7.5440     9.9300    23.3850 
   99.5000   -23.3380     2.1910    56.5590     8.9860     7.4740     9.9480    23.4090 
   99.6250   -22.9800     2.1950    57.5270     8.8970     7.4230    10.0490    23.4770 
   99.7500   -22.5780     2.1980    60.4200     8.8190     7.3820    10.1460    23.5680 
   99.8750   -22.1500     2.2020    62.6620     8.7470     7.3470    10.1580    23.5940 
