~V
VERS. 2.00: Ver 2.00
~W
STRT.M 55.0000:
STOP.M 181.0000:
STEP.M 0.1250:
NULL. -999.2500:
UWI. F10008:
~C
DEPT.M :
SP.MV :
GR.API :
RML.OHMM :
RI. :
RXO.OHMM :
CALI.CM :
DEN.GM/CC :
~A
   55.0000   127.4930    34.9820    19.7030     2.0750     2.0550    25.8620     1.9160 
   55.1250   126.9340    32.8320    20.0530     2.0580     3.7490    25.8580     1.8970 
   55.2500   126.9630    32.8720    20.2560     2.0260     1.1410    25.8550     1.8800 
   55.3750   127.3440    34.6880    19.6080     1.9330     0.6630    25.8430     1.8600 
   55.5000   128.0970    34.9890    16.7370     1.6820     0.5790    25.8210     1.8420 
   55.6250   129.5690    32.3840    11.2510     1.2190     0.8370    25.8120     1.8450 
   55.7500   132.0480    31.2710     6.0930     0.7510     1.1780    25.7790     1.8860 
   55.8750   135.4590    32.7250     2.7240     0.4250     2.1690    25.6320     1.9800 
   56.0000   138.6450    34.8090     1.0050     0.2570     4.4900    25.3180     2.1330 
   56.1250   139.1060    37.2180     0.5300     0.2230     2.5880    25.0360     2.3270 
   56.2500   135.5900    42.7030     0.8290     0.2960     4.5430    25.2060     2.4970 
   56.3750   128.2310    50.1650     1.9510     0.5300     7.0280    25.7580     2.5880 
   56.5000   118.1070    54.9280     4.1600     1.0640    10.4640    26.3870     2.5680 
   56.6250   105.3310    55.2020     7.9360     2.2340    12.6500    26.7990     2.4450 
   56.7500    90.1640    54.4350    12.2010     4.0630    12.9320    26.6480     2.3010 
   56.8750    72.9630    55.0990    14.6420     6.1610    12.0950    26.2530     2.1880 
   57.0000    55.1850    57.8000    14.2020     7.8540    12.0320    26.0850     2.1270 
   57.1250    39.7510    60.4320    12.6950     8.7860    11.8360    26.0800     2.1150 
   57.2500    28.5480    62.5630    11.8260     9.3290    11.3590    25.9760     2.1220 
   57.3750    21.5130    63.8040    11.6440     9.6940    10.7230    25.7760     2.1380 
   57.5000    17.0230    64.0050    11.7900     9.9500    10.1150    25.5340     2.1570 
   57.6250    13.9530    64.6020    11.9240    10.0820    10.1280    25.4200     2.1760 
   57.7500    11.5750    66.7280    11.9080    10.1060    10.3360    25.3290     2.1890 
   57.8750     9.7100    69.9910    11.7350    10.0360    10.4630    25.1910     2.1940 
   58.0000     8.2820    71.3530    11.4630     9.8950    10.0630    25.0130     2.1940 
   58.1250     7.1450    69.9000    11.1930     9.7230     9.1120    25.0030     2.1900 
   58.2500     6.1230    69.2120    10.9720     9.5510     9.1870    25.0410     2.1880 
   58.3750     5.2220    70.7360    10.7810     9.3780     9.0840    24.9910     2.1880 
   58.5000     4.5020    74.5640    10.5690     9.1860     8.7070    24.8690     2.1930 
   58.6250     3.9330    76.9920    10.2430     8.9510     8.5960    24.7450     2.2040 
   58.7500     3.4710    76.8340     9.8250     8.6790     8.5400    24.6080     2.2190 
   58.8750     3.0950    76.1610     9.4460     8.4150     8.2390    24.3520     2.2320 
   59.0000     2.7700    76.1250     9.2590     8.2240     8.1400    24.0260     2.2390 
   59.1250     2.4760    74.7490     9.3280     8.1600     7.8100    23.9320     2.2400 
   59.2500     2.1990    72.2150     9.5180     8.1910     7.4610    24.1320     2.2380 
   59.3750     1.9930    72.1910     9.7310     8.2750     7.5160    24.4990     2.2370 
   59.5000     1.8300    76.3300     9.8690     8.3640     8.0630    24.7110     2.2410 
   59.6250     1.6220    80.0450     9.8630     8.3910     7.8320    24.9060     2.2490 
   59.7500     1.3870    80.3170     9.7500     8.3270     7.2380    25.1300     2.2580 
   59.8750     1.1620    78.5910     9.5420     8.1520     7.2770    25.2900     2.2650 
   60.0000     0.9840    76.3370     9.1900     7.8430     7.9020    24.7020     2.2660 
   60.1250     0.8810    76.9860     8.5660     7.3530     8.0060    24.3870     2.2650 
   60.2500     0.8090    79.3100     7.7210     6.7630     7.7670    24.3790     2.2640 
   60.3750     0.7420    79.9420     6.8680     6.2110     7.4070    24.5470     2.2660 
   60.5000     0.6750    79.8230     6.3630     5.8830     7.2110    24.6210     2.2710 
   60.6250     0.6400    79.8980     6.7350     6.0510     7.8140    24.6940     2.2850 
   60.7500     0.6350    77.2060     8.1540     6.8230    10.4380    24.7900     2.3170 
   60.8750     0.6150    69.1680    10.7420     8.3520    18.1050    24.8220     2.3690 
   61.0000     0.5340    60.0840    14.4090    10.7280    27.0640    24.8350     2.4250 
   61.1250     0.4400    56.2220    18.6040    13.8430    29.1320    25.0900     2.4450 
   61.2500     0.3700    55.8560    22.0680    16.8680    28.1150    25.4930     2.4090 
   61.3750     0.2390    57.4100    23.8740    18.9960    26.6740    25.7310     2.3240 
   61.5000     0.0100    59.4090    23.9470    19.8580    25.3390    25.7710     2.2180 
   61.6250    -0.2210    60.4270    22.9700    19.6280    25.1790    25.8450     2.1290 
   61.7500    -0.4330    59.5670    21.8970    19.0140    25.1450    25.9140     2.0720 
   61.8750    -0.6140    57.3860    21.0230    18.3500    23.7690    25.9140     2.0440 
   62.0000    -0.7890    56.3720    20.4520    17.8380    21.4870    25.8010     2.0410 
   62.1250    -0.9930    59.6060    20.3960    17.7190    21.1330    25.6170     2.0630 
   62.2500    -1.1550    62.8550    21.0290    18.1170    21.9680    25.4880     2.1000 
   62.3750    -1.2650    61.9710    22.5540    19.1710    23.6160    25.3900     2.1340 
   62.5000    -1.3590    58.8870    24.8760    20.8730    29.3010    25.3250     2.1410 
   62.6250    -1.4250    56.9130    27.1170    22.7190    30.4400    25.2580     2.1020 
   62.7500    -1.4360    56.3370    27.7350    23.5460    31.5120    25.1380     2.0400 
   62.8750    -1.4680    57.2800    25.7180    22.4030    34.1520    24.9840     1.9960 
   63.0000    -1.5740    60.6370    21.4160    19.3150    33.7260    24.7560     2.0030 
   63.1250    -1.6930    65.6940    16.4930    15.4390    20.2540    24.6990     2.0730 
   63.2500    -1.8190    70.2480    12.5360    12.1410    11.6540    24.7120     2.1620 
   63.3750    -1.9300    73.7020     9.9550     9.8220     8.7120    24.7580     2.2340 
   63.5000    -2.0310    76.3540     8.6400     8.4530     8.3400    24.8680     2.2700 
   63.6250    -2.1820    78.7060     8.4520     7.9760     8.1030    24.9520     2.2730 
   63.7500    -2.3660    79.9740     8.8870     8.0570     8.5740    24.9310     2.2660 
   63.8750    -2.5160    78.5320     9.6050     8.4670     8.4620    24.9130     2.2590 
   64.0000    -2.5950    74.5920    10.2520     8.9170     8.8420    25.0440     2.2510 
   64.1250    -2.6770    72.2780    10.4390     9.0770     9.5000    25.2680     2.2410 
   64.2500    -2.8030    72.0000    10.1000     8.8740     9.6280    25.3700     2.2330 
   64.3750    -2.9490    72.4720     9.3270     8.3810     8.6940    25.3120     2.2310 
   64.5000    -3.0240    74.7740     8.3890     7.7830     7.8870    25.1950     2.2370 
   64.6250    -3.0410    79.5240     7.7410     7.3560     7.5540    25.0780     2.2520 
   64.7500    -3.1250    82.2250     7.6990     7.2870     8.3830    24.9440     2.2670 
   64.8750    -3.2740    79.6630     8.4700     7.7260     9.3660    24.7890     2.2710 
   65.0000    -3.4270    75.3080    10.1460     8.7890    10.9820    24.7250     2.2600 
   65.1250    -3.5350    73.4800    12.6810    10.5980    14.4310    24.7750     2.2390 
   65.2500    -3.5880    71.3450    15.3050    12.7130    20.1050    24.7830     2.2290 
   65.3750    -3.6270    67.9120    17.0360    14.3990    23.7590    24.6800     2.2470 
   65.5000    -3.7020    66.1400    17.0240    14.8480    24.2570    24.4650     2.2940 
   65.6250    -3.7950    69.1130    15.1010    13.7050    20.4810    24.3390     2.3510 
   65.7500    -3.8840    73.1850    12.6180    11.9510    16.1410    24.0780     2.3870 
   65.8750    -3.9370    77.2950    10.5150    10.3130    12.2290    23.9320     2.3900 
   66.0000    -3.9640    80.7150     9.2560     9.1750     9.9390    23.9140     2.3620 
   66.1250    -4.0700    82.0330     9.0040     8.7240     9.5270    23.9380     2.3260 
