~V
VERS. 2.00: Ver 2.00
~W
STRT.M 50.0000:
STOP.M 278.0000:
STEP.M 0.1250:
NULL. -999.2500:
UWI. F10031:
~C
DEPT.M :
GR.API :
RML.OHMM :
RI. :
RXO.OHMM :
CALI.CM :
DEN.GM/CC :
SP.MV :
~A
# ...
  151.2500    67.5390    31.0890    27.3370    24.1970    22.8430     2.2210    -7.7340 
  151.3750    66.0850    31.1570    27.4940    25.1760    22.8260     2.2300    -7.7450 
  151.5000    67.1840    30.0530    26.7070    24.0500    22.8680     2.2320    -7.7610 
  151.6250    69.5040    27.7130    24.8370    21.1730    22.9460     2.2240    -7.7630 
  151.7500    69.9830    24.8710    22.4630    18.3370    23.0160     2.2100    -7.7460 
  151.8750    68.4400    22.1280    20.0900    15.8980    23.0660     2.1950    -7.6920 
  152.0000    67.3720    19.9410    18.1290    14.9930    23.0980     2.1790    -7.5770 
  152.1250    69.0040    18.7070    16.9460    15.5390    23.1280     2.1680    -7.3920 
  152.2500    70.7160    18.3690    16.5250    16.7910    23.1450     2.1610    -7.1570 
  152.3750    69.9130    18.9030    16.8720    18.2840    23.1680     2.1600    -6.8590 
  152.5000    66.7010    20.1900    17.9260    20.0230    23.2050     2.1640    -6.5280 
  152.6250    63.2350    22.0000    19.5610    22.0400    23.2700     2.1730    -6.1890 
  152.7500    60.7830    23.7970    21.3310    23.9890    23.3460     2.1810    -5.8640 
  152.8750    58.8120    25.1560    22.8410    24.9690    23.4110     2.1860    -5.5820 
  153.0000    56.8880    25.7860    23.7600    25.2260    23.4130     2.1850    -5.3630 
  153.1250    56.8770    25.5710    23.8520    24.8900    23.3720     2.1760    -5.2390 
  153.2500    58.4730    24.9730    23.4460    24.3220    23.3680     2.1670    -5.1850 
  153.3750    59.7140    24.3930    22.8850    23.8450    23.4020     2.1610    -5.2010 
  153.5000    60.2490    24.1010    22.4500    23.7220    23.4200     2.1620    -5.2750 
  153.6250    60.7240    24.1810    22.2840    23.8870    23.4060     2.1680    -5.3960 
  153.7500    61.7520    24.4030    22.2710    24.2930    23.3750     2.1760    -5.5550 
  153.8750    62.7610    24.5720    22.2790    24.3660    23.3110     2.1820    -5.7420 
  154.0000    63.8260    24.5680    22.2090    23.1340    23.2080     2.1870    -5.9420 
  154.1250    65.7800    24.3800    22.0260    21.5650    23.1110     2.1920    -6.1350 
  154.2500    67.1810    24.1640    21.8230    20.5560    23.0880     2.1950    -6.3200 
  154.3750    67.0830    24.0460    21.6940    20.2120    23.1110     2.1960    -6.4730 
  154.5000    67.6350    24.0830    21.6930    20.3530    23.1140     2.1950    -6.5900 
  154.6250    70.7160    24.2280    21.8040    20.7190    23.0030     2.1940    -6.6670 
  154.7500    72.9060    24.3220    21.8940    20.6640    22.7790     2.1950    -6.6840 
  154.8750    71.7490    24.2400    21.8500    20.3060    22.5270     2.2000    -6.6420 
  155.0000    68.9830    23.9290    21.6050    19.7690    22.3830     2.2060    -6.5590 
  155.1250    67.4570    23.4150    21.1550    19.1060    22.3890     2.2130    -6.4390 
  155.2500    66.7480    22.8730    20.6470    18.4550    22.4680     2.2190    -6.2950 
  155.3750    66.6850    22.4440    20.2060    17.9820    22.5660     2.2220    -6.1450 
  155.5000    67.3330    22.2280    19.9360    18.0280    22.6210     2.2230    -5.9850 
  155.6250    67.9170    22.3190    19.9330    18.8670    22.5750     2.2220    -5.8170 
  155.7500    68.0400    22.6630    20.1710    20.0500    22.4820     2.2230    -5.6500 
  155.8750    67.7060    23.2180    20.6260    20.9930    22.4370     2.2250    -5.4730 
  156.0000    66.4600    23.9240    21.2540    21.4220    22.4780     2.2290    -5.2680 
  156.1250    64.2010    24.7150    22.0130    21.5120    22.5200     2.2330    -5.0260 
  156.2500    61.5270    25.4990    22.8150    21.6210    22.4970     2.2340    -4.7690 
  156.3750    59.3670    26.2230    23.5990    21.8640    22.5180     2.2310    -4.5050 
  156.5000    57.6130    26.8610    24.3200    22.1460    22.5850     2.2260    -4.2540 
  156.6250    56.4720    27.4190    24.9380    22.6820    22.5930     2.2200    -4.0150 
  156.7500    56.0860    27.9500    25.4790    23.3760    22.4750     2.2160    -3.8000 
  156.8750    56.5680    28.4670    25.9510    24.2130    22.2760     2.2110    -3.6200 
  157.0000    57.9190    28.9140    26.3260    25.7930    22.1020     2.2060    -3.4910 
  157.1250    59.5380    29.1000    26.4740    28.6270    22.0330     2.1980    -3.4340 
  157.2500    60.4780    28.9000    26.3140    31.4980    21.9790     2.1900    -3.4270 
  157.3750    60.0590    28.2630    25.8080    32.8200    21.9200     2.1830    -3.4650 
  157.5000    59.3550    27.2800    25.0310    31.6030    21.8930     2.1790    -3.5470 
  157.6250    60.2280    26.2160    24.2090    27.2300    21.9240     2.1760    -3.6780 
  157.7500    60.7650    25.4460    23.6540    25.2490    22.0020     2.1740    -3.8440 
  157.8750    59.0000    25.2890    23.6430    25.5460    22.1270     2.1800    -4.0480 
  158.0000    57.0500    26.0360    24.4450    28.7600    22.3200     2.2050    -4.2980 
  158.1250    57.8310    28.0770    26.4680    35.8880    22.5680     2.2630    -4.5990 
  158.2500    60.4690    31.0890    29.4850    45.8560    22.7810     2.3510    -4.9380 
  158.3750    63.0100    34.4410    32.9570    57.5170    23.0200     2.4580    -5.2950 
  158.5000    65.0940    37.0210    35.8270    66.9880    23.2750     2.5590    -5.6500 
  158.6250    66.8460    36.9960    36.2270    68.9470    23.4340     2.6230    -6.0030 
  158.7500    66.7400    33.9050    33.5060    64.2290    23.4320     2.6430    -6.3260 
  158.8750    65.8980    28.2260    28.0650    54.1940    23.3440     2.6250    -6.6020 
  159.0000    67.6250    21.4460    21.4860    38.8310    23.2440     2.5840    -6.8310 
  159.1250    75.2330    15.5240    15.7880    22.1370    23.1500     2.5350    -6.9850 
  159.2500    84.5770    11.2780    11.6680    11.8080    23.0910     2.4920    -7.0860 
  159.3750    91.0670     8.6880     9.0390     7.8020    23.0730     2.4580    -7.1690 
  159.5000    93.2010     7.3910     7.5810     6.6950    23.0750     2.4310    -7.2410 
  159.6250    91.8040     7.1150     7.1130     6.4930    23.0740     2.4040    -7.3060 
  159.7500    88.3370     7.4580     7.2950     6.5770    23.0570     2.3730    -7.4010 
  159.8750    85.0670     8.3130     8.0430     7.2090    22.9960     2.3420    -7.5190 
  160.0000    83.5930     9.5840     9.2740     8.5270    22.8770     2.3240    -7.6310 
  160.1250    81.1260    11.0780    10.8350    10.8410    22.7640     2.3390    -7.7360 
  160.2500    77.0290    12.3890    12.3120    13.6970    22.7310     2.3870    -7.8380 
  160.3750    73.5910    13.1420    13.2980    16.7690    22.7670     2.4550    -7.9300 
  160.5000    72.6670    13.1100    13.4780    19.4090    22.8120     2.5170    -8.0260 
  160.6250    72.1180    12.3480    12.7700    18.3630    22.8450     2.5430    -8.1240 
  160.7500    70.9390    11.5560    11.8240    15.1290    22.8510     2.5300    -8.2270 
  160.8750    70.7800    11.4000    11.2580    12.5980    22.8410     2.4970    -8.3580 
  161.0000    71.4240    12.3850    11.5590    13.3300    22.8100     2.4690    -8.5260 
  161.1250    70.4890    14.8690    13.1650    17.7320    22.7520     2.4640    -8.7320 
  161.2500    66.5940    18.2650    15.7810    23.7670    22.6790     2.4800    -8.9400 
  161.3750    60.8790    21.8510    18.9470    29.0650    22.6170     2.5030    -9.1320 
  161.5000    55.8300    24.7740    21.9460    30.2820    22.5640     2.5220    -9.3030 
  161.6250    53.0290    26.1610    23.8190    27.8470    22.4970     2.5280    -9.4480 
  161.7500    50.7900    26.2830    24.4690    25.0720    22.4270     2.5250    -9.5560 
  161.8750    49.5930    25.7600    24.3060    23.7960    22.3620     2.5220    -9.6210 
  162.0000    50.5910    25.3230    23.9780    22.9330    22.3230     2.5220    -9.6550 
  162.1250    52.5350    25.5690    24.0610    22.3070    22.3430     2.5300    -9.6720 
  162.2500    53.0780    26.4460    24.6260    22.7030    22.4160     2.5460    -9.6940 
  162.3750    53.1040    27.7020    25.5200    23.7690    22.5490     2.5660    -9.7350 
