~V
VERS. 2.00: Ver 2.00
~W
STRT.M 60.0000:
STOP.M 245.0000:
STEP.M 0.1250:
NULL. -999.2500:
UWI. F10050:
~C
DEPT.M :
SP.MV :
GR.API :
RML.OHMM :
RI. :
RXO.OHMM :
CALI.CM :
DEN.GM/CC :
~A
# ...
   82.5000   -25.6280    71.8340    12.8380     9.6830    12.5810    22.9100     2.3170 
   82.6250   -25.9920    67.1940    12.7390     9.8100    10.6010    22.9110     2.2470 
   82.7500   -26.3260    60.9780    11.8110     9.3820     9.1220    22.9040     2.2020 
   82.8750   -26.6050    57.2960    10.6690     8.7440     8.5040    22.8680     2.1830 
   83.0000   -26.8360    57.6800     9.7620     8.2050     8.3370    22.7660     2.1860 
   83.1250   -27.0370    62.2130     9.3000     7.9430     8.3290    22.6150     2.2070 
   83.2500   -27.1990    67.0540     9.1700     7.8890     8.3750    22.5190     2.2310 
   83.3750   -27.3240    70.4470     9.2990     7.9540     8.5250    22.4860     2.2470 
   83.5000   -27.4150    71.7190     9.5950     8.0500     8.8220    22.4840     2.2500 
   83.6250   -27.5110    71.9480     9.9150     8.0950     8.9970    22.4890     2.2400 
   83.7500   -27.6560    71.1720    10.1160     8.0540     9.0000    22.5340     2.2260 
   83.8750   -27.7870    67.8520    10.1540     7.9240     8.7640    22.6990     2.2160 
   84.0000   -27.8900    64.0400    10.0600     7.7230     8.5120    23.0120     2.2100 
   84.1250   -27.9800    62.6430     9.8790     7.4790     8.4130    23.2480     2.2110 
   84.2500   -28.0580    63.2500     9.6340     7.2250     8.4660    23.3360     2.2150 
   84.3750   -28.1310    65.8360     9.3270     6.9790     8.3630    23.3490     2.2200 
   84.5000   -28.2010    69.7660     8.9950     6.7600     8.1000    23.3490     2.2230 
   84.6250   -28.2240    71.7860     8.7340     6.6110     7.8130    23.3490     2.2220 
   84.7500   -28.1670    69.5100     8.5970     6.5550     7.6500    23.3490     2.2220 
   84.8750   -28.1200    66.5910     8.5850     6.6030     7.6760    23.3490     2.2230 
   85.0000   -28.0970    65.3060     8.6560     6.7410     7.9410    23.3490     2.2250 
   85.1250   -28.0330    63.6610     8.7530     6.9370     8.4980    23.3710     2.2250 
   85.2500   -27.9440    60.2420     8.8380     7.1280     9.0450    23.4980     2.2180 
   85.3750   -27.8370    57.2820     8.9140     7.2740     9.0660    23.8090     2.2030 
   85.5000   -27.7120    56.9610     8.9950     7.3570     8.7090    24.2370     2.1820 
   85.6250   -27.5670    57.6350     9.0930     7.3850     8.4020    24.4300     2.1630 
   85.7500   -27.4060    57.4810     9.2130     7.4030     8.3570    24.3350     2.1540 
   85.8750   -27.2180    57.6040     9.3610     7.4340     8.5900    23.9890     2.1540 
   86.0000   -27.0280    58.6430     9.5230     7.4760     8.8410    23.5430     2.1600 
   86.1250   -26.8230    60.0240     9.6220     7.4710     8.9880    23.2280     2.1690 
   86.2500   -26.5880    61.3630     9.5660     7.3570     8.9250    23.0400     2.1830 
   86.3750   -26.3760    63.9040     9.2800     7.1040     8.6840    22.9480     2.2080 
   86.5000   -26.1600    67.3580     8.7730     6.7330     8.0640    22.9170     2.2420 
   86.6250   -25.9660    70.7640     8.1630     6.3130     7.4330    22.9100     2.2730 
   86.7500   -25.8610    74.3660     7.6470     5.9310     6.8990    22.9090     2.2900 
   86.8750   -25.7600    79.4470     7.3330     5.6330     6.5910    22.9100     2.2890 
   87.0000   -25.6530    82.7580     7.2190     5.4330     6.6480    22.9150     2.2760 
   87.1250   -25.6350    80.1300     7.2250     5.3330     6.6030    22.9170     2.2590 
   87.2500   -25.6470    75.3420     7.2460     5.3000     6.4610    22.9170     2.2450 
   87.3750   -25.6220    74.9800     7.2710     5.3250     6.4140    22.9160     2.2340 
   87.5000   -25.6280    80.3130     7.3600     5.4140     6.5090    22.9160     2.2270 
   87.6250   -25.6370    83.8540     7.6120     5.5980     6.6450    22.9330     2.2240 
   87.7500   -25.5760    82.7790     8.0040     5.8740     7.0920    22.9620     2.2220 
   87.8750   -25.5240    78.5200     8.4570     6.2220     7.6760    22.9950     2.2220 
   88.0000   -25.4810    73.6250     8.8660     6.5900     7.9540    23.0590     2.2240 
   88.1250   -25.3890    70.2790     9.1210     6.8950     7.5530    23.2130     2.2270 
   88.2500   -25.2950    68.7780     9.1970     7.0810     7.3650    23.3910     2.2250 
   88.3750   -25.1860    68.9040     9.0860     7.1230     7.4120    23.4890     2.2150 
   88.5000   -25.0230    69.0910     8.8110     7.0240     7.6950    23.5160     2.1960 
   88.6250   -24.8140    67.6010     8.4100     6.7920     7.7760    23.5580     2.1770 
   88.7500   -24.5800    66.2520     7.9620     6.4800     7.6850    23.6470     2.1660 
   88.8750   -24.3190    67.7250     7.4980     6.1240     7.3260    23.7210     2.1720 
   89.0000   -24.0150    72.3280     7.0300     5.7610     6.8030    23.7220     2.1940 
   89.1250   -23.7050    76.2270     6.5730     5.4350     6.2160    23.7210     2.2250 
   89.2500   -23.4010    77.7370     6.1820     5.1750     5.8580    23.7790     2.2520 
   89.3750   -23.1300    80.3800     5.9170     4.9990     5.6690    23.8740     2.2700 
   89.5000   -22.9340    84.4570     5.8170     4.9150     5.4890    23.9330     2.2750 
   89.6250   -22.7850    85.8270     5.8910     4.9240     5.4810    23.9470     2.2680 
   89.7500   -22.6870    85.2000     6.0580     4.9840     5.7000    23.9470     2.2580 
   89.8750   -22.6390    84.8370     6.2690     5.0640     6.0740    23.9470     2.2500 
   90.0000   -22.6770    83.9790     6.4770     5.1340     6.2120    23.9430     2.2460 
   90.1250   -22.7490    84.3100     6.6100     5.1520     6.0610    23.9220     2.2490 
   90.2500   -22.8140    88.5240     6.6190     5.1010     5.9310    23.8620     2.2580 
   90.3750   -22.9530    93.0420     6.4660     4.9740     5.8910    23.7550     2.2720 
   90.5000   -23.1220    92.8160     6.1480     4.7700     5.7340    23.6070     2.2880 
   90.6250   -23.3020    89.3600     5.7440     4.5140     5.4620    23.3870     2.2990 
   90.7500   -23.5550    88.3320     5.4470     4.3010     5.3470    23.1170     2.3100 
   90.8750   -23.8680    91.5730     5.4210     4.2310     5.4800    22.9140     2.3320 
   91.0000   -24.1780    96.5300     5.7690     4.3940     5.6600    22.8340     2.3760 
   91.1250   -24.5630    96.7910     6.5950     4.8910     6.5010    22.8290     2.4320 
   91.2500   -25.0230    91.2050     7.7610     5.6550     9.3240    22.8280     2.4620 
   91.3750   -25.4680    86.1950     9.0230     6.5580    14.5560    22.8110     2.4430 
   91.5000   -25.9160    85.5540     9.9610     7.3500    15.0820    22.7660     2.3850 
   91.6250   -26.3650    80.6710    10.0820     7.6880    10.1860    22.7600     2.3150 
   91.7500   -26.7860    70.1540     9.6200     7.6010     8.4610    22.9690     2.2550 
   91.8750   -27.1430    62.7230     8.9990     7.2850     8.1610    23.3660     2.2150 
   92.0000   -27.4300    63.1850     8.5720     6.9780     8.1590    23.6230     2.1950 
   92.1250   -27.6400    65.9140     8.5000     6.8430     8.2880    23.6560     2.1890 
   92.2500   -27.7800    63.5480     8.6070     6.8410     8.3470    23.5920     2.1900 
   92.3750   -27.8520    58.2590     8.7250     6.8890     8.3120    23.5870     2.1930 
   92.5000   -27.8680    55.2450     8.7590     6.9260     8.1530    23.6860     2.1960 
   92.6250   -27.8470    56.6910     8.6870     6.9230     8.0730    23.8380     2.1990 
   92.7500   -27.7860    58.7060     8.5710     6.8850     8.0730    23.9740     2.2020 
   92.8750   -27.7110    58.7580     8.4680     6.8260     8.0820    24.0880     2.2070 
   93.0000   -27.6240    57.8070     8.4240     6.7660     8.0650    24.1630     2.2130 
   93.1250   -27.5110    59.3860     8.4530     6.7260     8.1120    24.2260     2.2160 
   93.2500   -27.4070    62.4040     8.5270     6.7110     8.1380    24.3130     2.2150 
   93.3750   -27.3030    64.3270     8.6180     6.7090     8.1230    24.4200     2.2100 
   93.5000   -27.1470    64.4330     8.6770     6.6940     8.0700    24.5290     2.2000 
   93.6250   -26.9880    63.6830     8.6160     6.6290     7.9690    24.6970     2.1840 
