~V
VERS. 2.00: Ver 2.00
~W
STRT.M 57.0000:
STOP.M 307.0000:
STEP.M 0.1250:
NULL. -999.2500:
UWI. F10042:
~C
DEPT.M :
GR.API :
RML.OHMM :
RI. :
RXO.OHMM :
CALI.CM :
DEN.GM/CC :
SP.MV :
~A
# ...
  169.5000    66.3560    10.0370     7.9390     9.0270    25.0780     2.1280   -16.5350 
  169.6250    66.3290    10.2220     7.9820     9.1000    25.3180     2.1290   -16.8510 
  169.7500    65.3990    10.3320     7.9970     8.9900    25.4040     2.1250   -17.1800 
  169.8750    62.3380    10.3330     7.9790     9.1830    25.4310     2.1200   -17.5040 
  170.0000    61.3260    10.2270     7.9270     9.4400    25.4450     2.1100   -17.7060 
  170.1250    65.6900    10.0800     7.8710     9.2150    25.3390     2.0880   -17.7310 
  170.2500    70.0080    10.0080     7.8550     8.7620    25.1280     2.0550   -17.6290 
  170.3750    70.6860    10.0700     7.9090     8.4090    24.9830     2.0220   -17.5230 
  170.5000    67.9500    10.2680     8.0470     8.9390    25.0660     2.0020   -17.4860 
  170.6250    63.6500    10.5370     8.2620     9.1160    25.2230     2.0070   -17.4210 
  170.7500    60.8230    10.7590     8.4780     9.2320    25.2930     2.0280   -17.1830 
  170.8750    61.8490    10.8280     8.6040     9.4150    25.1950     2.0520   -16.7410 
  171.0000    65.0820    10.6580     8.5520     9.5850    25.1180     2.0680   -16.2090 
  171.1250    65.7470    10.1760     8.2530     9.6150    25.1580     2.0780   -15.5770 
  171.2500    65.6100     9.5000     7.7910     9.5520    25.2600     2.0990   -14.7650 
  171.3750    69.3390     8.7520     7.2510     9.0380    25.3560     2.1410   -13.6890 
  171.5000    78.3630     8.0540     6.7230     7.1550    25.4500     2.2000   -12.4230 
  171.6250    87.6540     7.5050     6.2800     6.9300    25.5540     2.2540   -11.1140 
  171.7500    90.8980     7.0950     5.9280     6.7550    25.6130     2.2840    -9.8820 
  171.8750    88.7340     6.7960     5.6640     6.5960    25.7360     2.2840    -8.8290 
  172.0000    85.4330     6.5750     5.4860     5.9450    26.0080     2.2620    -7.9590 
  172.1250    86.1310     6.4160     5.3870     5.6630    26.1830     2.2330    -7.3270 
  172.2500    88.2670     6.2960     5.3370     5.5180    26.2260     2.2050    -6.9050 
  172.3750    89.5230     6.1990     5.3120     5.5770    26.2230     2.1810    -6.7070 
  172.5000    89.6130     6.1050     5.2950     5.6670    26.2260     2.1630    -6.6950 
  172.6250    88.4230     5.9960     5.2700     5.7250    26.2020     2.1560    -6.8370 
  172.7500    87.3990     5.8830     5.2510     5.6250    26.1730     2.1630    -6.9850 
  172.8750    88.0580     5.7920     5.2580     5.4500    26.1290     2.1850    -7.0430 
  173.0000    89.3040     5.7450     5.3020     5.5620    26.0700     2.2180    -7.0280 
  173.1250    89.1640     5.7410     5.3710     5.7230    25.9750     2.2560    -7.0160 
  173.2500    89.3690     5.7430     5.4310     5.8740    25.8480     2.2860    -7.0810 
  173.3750    93.5310     5.7180     5.4500     6.0960    25.6380     2.3000    -7.1910 
  173.5000    97.3990     5.6520     5.4070     5.9210    25.3450     2.2950    -7.2470 
  173.6250    97.1610     5.5370     5.3030     5.4970    25.0170     2.2760    -7.1810 
  173.7500    96.1270     5.4010     5.1850     5.2440    24.7630     2.2570    -7.1510 
  173.8750    96.3940     5.2760     5.0840     5.0660    24.5760     2.2420    -7.2010 
  174.0000    96.8480     5.1940     5.0210     4.9430    24.3050     2.2320    -7.2140 
  174.1250    95.3170     5.1850     4.9910     4.8670    23.8310     2.2220    -7.0380 
  174.2500    95.0990     5.2250     4.9510     4.9700    23.4110     2.2120    -6.6890 
  174.3750    96.7080     5.2630     4.8570     4.9860    23.4650     2.2080    -6.3040 
  174.5000    99.2560     5.2300     4.6880     4.9170    24.0810     2.2170    -5.9970 
  174.6250   103.0000     5.0570     4.4540     4.4930    25.0770     2.2410    -5.7700 
  174.7500   104.3660     4.7660     4.2160     4.1940    25.7670     2.2680    -5.5140 
  174.8750   102.6260     4.4230     4.0310     4.0900    26.0310     2.2820    -5.2280 
  175.0000   100.2310     4.1390     3.9560     4.1710    26.0710     2.2750    -5.0450 
  175.1250    99.7790     4.1200     4.1070     4.4510    26.0220     2.2470    -5.0140 
  175.2500   100.4690     4.4950     4.5480     4.9880    25.9760     2.2230    -5.0920 
  175.3750    99.1060     5.3800     5.3640     5.9230    25.9570     2.2230    -5.2350 
  175.5000    92.9780     6.8440     6.6330     7.9120    25.9780     2.2560    -5.3710 
  175.6250    82.1240     8.9530     8.4570    13.2970    25.9900     2.3040    -5.4840 
  175.7500    73.8170    11.4120    10.5950    18.7640    25.9230     2.3350    -5.5140 
  175.8750    72.4570    13.8660    12.6900    17.6220    25.7550     2.3300    -5.4290 
  176.0000    74.5480    15.8920    14.3310    13.5290    25.5500     2.2870    -5.2380 
  176.1250    72.7330    17.0610    15.1990    12.0550    25.3780     2.2220    -5.0570 
  176.2500    67.6550    17.5220    15.5450    12.1260    25.2650     2.1580    -4.8960 
  176.3750    64.1770    17.5390    15.6320    12.4300    25.2360     2.1020    -4.6590 
  176.5000    65.0840    17.4110    15.6590    12.5670    25.4260     2.0570    -4.3870 
  176.6250    67.5050    17.3390    15.6920    12.3970    25.6450     2.0280    -4.1570 
  176.7500    67.4030    17.3490    15.7140    12.0500    25.6990     2.0170    -4.0240 
  176.8750    65.8840    17.4070    15.7190    11.6320    25.5320     2.0270    -4.0610 
  177.0000    65.4380    17.4700    15.6970    11.5740    25.2920     2.0570    -4.1940 
  177.1250    66.3180    17.4760    15.6120    11.5520    25.1380     2.0960    -4.3080 
  177.2500    66.9780    17.3850    15.4670    11.2280    25.0530     2.1290    -4.4470 
  177.3750    67.9370    17.1970    15.3080    11.1230    24.9770     2.1450    -4.6990 
  177.5000    69.8950    16.9600    15.1960    12.0560    24.9210     2.1360    -5.0190 
  177.6250    72.8730    16.7010    15.0860    13.4940    25.0090     2.1050    -5.2900 
  177.7500    74.9260    16.3230    14.7700    13.2180    25.1650     2.0700    -5.4810 
  177.8750    75.4100    15.6380    14.0410    11.8220    25.2430     2.0510    -5.5580 
  178.0000    75.8240    14.4990    12.8610    11.2910    25.1630     2.0620    -5.5640 
  178.1250    78.5530    12.9410    11.4820    10.7660    25.0950     2.1100    -5.5870 
  178.2500    82.9110    11.4210    10.3520     8.8780    25.0870     2.1690    -5.6270 
  178.3750    86.3990    10.3930     9.7640     8.0020    25.1440     2.2160    -5.5920 
  178.5000    86.3760    10.2100     9.8730     8.9210    25.2270     2.2310    -5.4510 
  178.6250    80.9850    11.1810    10.8540    11.1210    25.3030     2.2030    -5.2420 
  178.7500    74.0990    13.0090    12.5040    13.1530    25.3210     2.1540    -5.0190 
  178.8750    69.0500    15.3520    14.5530    14.5070    25.2450     2.1060    -4.7960 
  179.0000    66.9690    17.6990    16.5060    13.6780    25.0650     2.0730    -4.6730 
  179.1250    66.2250    19.3570    17.7030    12.2450    24.9770     2.0640    -4.6860 
  179.2500    65.1340    20.1300    18.1210    11.5250    24.9780     2.0730    -4.6530 
  179.3750    64.4270    20.1520    18.0180    11.5890    25.0070     2.0900    -4.5650 
  179.5000    64.9750    19.7790    17.7050    11.7620    25.0720     2.1050    -4.5260 
  179.6250    65.4100    19.3620    17.3880    11.8020    25.1830     2.1010    -4.6230 
  179.7500    65.1140    19.0400    17.1060    11.6570    25.3110     2.0740    -4.8320 
  179.8750    66.0690    18.7820    16.8500    11.5530    25.4100     2.0320    -5.0820 
  180.0000    69.8300    18.5670    16.6570    11.3990    25.3770     1.9960    -5.2320 
  180.1250    74.2950    18.4970    16.6620    11.1340    25.1450     1.9920    -5.1770 
  180.2500    76.6680    18.7160    16.9390    10.9790    24.9160     2.0190    -5.1150 
  180.3750    75.5000    19.3260    17.5170    11.0600    24.8820     2.0620    -5.0540 
  180.5000    70.8780    20.3040    18.3450    11.5700    24.9160     2.1040    -4.9520 
  180.6250    66.7610    21.4570    19.2590    12.4760    24.8800     2.1270    -4.7910 
