~V
VERS. 2.00: Ver 2.00
~W
STRT.M 50.0000:
STOP.M 244.0000:
STEP.M 0.1250:
NULL. -999.2500:
UWI. F10003:
~C
DEPT.M :
GR.API :
RML.OHMM :
RI. :
RXO.OHMM :
CALI.CM :
DEN.GM/CC :
SP.MV :
~A
# ...
  151.2500    55.9330    44.7120    43.3810    50.5480    24.3830     2.4980   -15.9480 
  151.3750    54.8490    45.0710    44.3080    50.6840    24.4280     2.5020   -15.9420 
  151.5000    57.0650    43.8530    43.6600    48.9020    24.4420     2.5020   -15.9560 
  151.6250    58.9220    41.3120    41.5190    44.3960    24.3870     2.4990   -15.9920 
  151.7500    57.7030    38.3810    38.7890    40.0850    24.3160     2.4960   -16.0370 
  151.8750    54.2630    35.6000    36.0440    36.9170    24.2790     2.4930   -16.0690 
  152.0000    51.2630    33.2620    33.6380    35.3990    24.2260     2.4890   -16.0940 
  152.1250    51.9380    31.5730    31.8380    33.8950    24.1860     2.4820   -16.1650 
  152.2500    54.4860    30.4730    30.6300    32.1930    24.1590     2.4740   -16.2730 
  152.3750    55.6830    29.9610    30.0300    31.0390    24.2150     2.4680   -16.3990 
  152.5000    54.1200    30.0080    30.0110    31.0970    24.2140     2.4660   -16.5560 
  152.6250    52.0820    30.5880    30.5440    32.6260    24.1580     2.4680   -16.7720 
  152.7500    50.5440    31.4350    31.3440    35.0050    24.1780     2.4730   -17.0300 
  152.8750    49.8810    32.3270    32.1560    36.2450    24.2850     2.4790   -17.3170 
  153.0000    51.5920    33.0230    32.7000    35.0660    24.3560     2.4900   -17.6270 
  153.1250    54.7340    33.1930    32.6130    32.5720    24.3120     2.5090   -17.9170 
  153.2500    53.6480    32.7190    31.8290    29.7140    24.2660     2.5360   -18.1570 
  153.3750    48.2540    31.5750    30.3800    26.9300    24.2130     2.5610   -18.3880 
  153.5000    44.0490    29.9330    28.4830    24.2550    24.1060     2.5740   -18.6010 
  153.6250    44.0370    28.2230    26.5650    22.1660    23.9790     2.5660   -18.7330 
  153.7500    44.6900    26.9820    25.0860    20.0120    23.8040     2.5460   -18.7590 
  153.8750    45.0860    26.5560    24.3350    18.8090    23.6360     2.5260   -18.6560 
  154.0000    45.9420    27.0510    24.4340    20.1680    23.6110     2.5180   -18.4650 
  154.1250    47.8070    28.3540    25.3940    24.2980    23.7370     2.5300   -18.2900 
  154.2500    50.0500    29.8490    26.7530    27.9270    23.8680     2.5510   -18.1800 
  154.3750    51.5320    31.0090    28.0700    29.9110    23.9310     2.5710   -18.0780 
  154.5000    50.5360    31.3850    28.8860    30.5030    23.9450     2.5810   -17.9620 
  154.6250    49.1640    30.6010    28.7200    29.8870    23.9560     2.5770   -17.8370 
  154.7500    50.6310    29.0210    27.7380    29.2180    23.8940     2.5640   -17.7530 
  154.8750    53.2340    27.1010    26.2820    27.7520    23.7520     2.5480   -17.7510 
  155.0000    54.9180    25.3580    24.8070    25.6860    23.5950     2.5330   -17.8190 
  155.1250    55.0280    24.3190    23.8020    23.6830    23.5720     2.5220   -17.8760 
  155.2500    54.4020    24.0300    23.3940    23.4310    23.7150     2.5160   -17.8600 
  155.3750    53.0970    24.3410    23.5220    25.4240    23.8990     2.5170   -17.7990 
  155.5000    51.3160    24.8820    23.9240    28.3200    24.0540     2.5250   -17.7060 
  155.6250    49.6490    25.0760    24.1250    29.3110    24.1320     2.5350   -17.5990 
  155.7500    48.5210    24.5830    23.7620    28.4150    24.1780     2.5430   -17.4610 
  155.8750    47.8440    23.3500    22.7160    26.7430    24.2150     2.5480   -17.2680 
  156.0000    46.6700    21.5890    21.1260    25.1640    24.2290     2.5520   -17.0450 
  156.1250    46.3130    19.6800    19.3200    21.6670    24.2160     2.5560   -16.8470 
  156.2500    48.4340    17.9980    17.6760    18.6910    24.1720     2.5590   -16.6680 
  156.3750    51.8460    16.7310    16.3900    17.4370    24.1360     2.5570   -16.4750 
  156.5000    53.6810    15.9980    15.5820    16.9410    24.1370     2.5470   -16.3040 
  156.6250    52.5560    16.0000    15.4370    16.6850    24.2090     2.5290   -16.2190 
  156.7500    51.3010    16.6400    15.8820    16.8960    24.2540     2.5100   -16.1930 
  156.8750    49.4730    17.7570    16.8150    18.0790    24.1840     2.4980   -16.1800 
  157.0000    46.7510    19.0070    17.9680    20.5450    24.0560     2.4990   -16.1300 
  157.1250    44.0870    19.7900    18.8300    23.0530    23.9090     2.5180   -16.0520 
  157.2500    43.5050    19.7220    18.9760    24.3050    23.9270     2.5440   -16.0100 
  157.3750    46.1130    18.7100    18.2290    23.5320    23.9100     2.5650   -16.0420 
  157.5000    49.9690    17.0150    16.7610    19.2570    23.8190     2.5710   -16.0970 
  157.6250    51.4550    15.1870    15.0450    14.8210    23.6380     2.5550   -16.0830 
  157.7500    49.8020    13.7400    13.5910    12.2400    23.5840     2.5320   -16.0260 
  157.8750    46.9490    12.8440    12.5850    11.4490    23.5890     2.5130   -15.9600 
  158.0000    45.6270    12.4470    12.0210    11.3230    23.4570     2.5060   -15.9360 
  158.1250    46.1600    12.3980    11.8200    11.3280    23.2040     2.5110   -15.9630 
  158.2500    47.3060    12.4440    11.7700    11.3880    23.2010     2.5170   -15.9900 
  158.3750    48.3520    12.4890    11.7790    11.5230    23.5240     2.5200   -16.0080 
  158.5000    48.1930    12.5250    11.8170    11.9300    23.9270     2.5150   -16.0440 
  158.6250    46.9500    12.6190    11.9300    12.5200    24.2170     2.5040   -16.0750 
  158.7500    46.7790    12.8260    12.1580    13.1960    24.4230     2.4890   -16.1220 
  158.8750    48.9580    13.1600    12.5220    14.0980    24.5040     2.4760   -16.2460 
  159.0000    52.7790    13.5980    13.0060    15.0810    24.5190     2.4650   -16.4200 
  159.1250    55.4850    14.1070    13.5700    15.7680    24.5190     2.4560   -16.6080 
  159.2500    55.9480    14.6390    14.1470    16.0470    24.5210     2.4480   -16.8150 
  159.3750    55.3340    15.1450    14.6730    16.0140    24.5150     2.4410   -17.0490 
  159.5000    54.9850    15.5270    15.0520    15.7800    24.4900     2.4400   -17.3080 
  159.6250    54.9020    15.5530    15.0730    15.7060    24.4180     2.4540   -17.6010 
  159.7500    53.5580    15.0930    14.6340    15.7920    24.4170     2.4790   -17.9260 
  159.8750    51.6260    14.0880    13.6820    15.3260    24.4830     2.5040   -18.2520 
  160.0000    50.6720    12.6430    12.3140    13.3970    24.5250     2.5130   -18.6000 
  160.1250    52.1190    11.0430    10.7880    10.4880    24.4980     2.4990   -18.9710 
  160.2500    53.3580     9.6680     9.4500     8.2630    24.4320     2.4730   -19.3640 
  160.3750    53.1840     8.7500     8.5030     7.2310    24.4540     2.4470   -19.7800 
  160.5000    53.3480     8.3980     8.0430     7.0540    24.5570     2.4260   -20.2630 
  160.6250    56.8710     8.6800     8.1500     7.6050    24.7060     2.4070   -20.9510 
  160.7500    61.8820     9.3840     8.6650     8.5340    24.8310     2.3830   -21.7760 
  160.8750    66.6250    10.3340     9.4560     9.8100    24.8880     2.3560   -22.6460 
  161.0000    70.6580    11.3150    10.3440    11.1900    24.8750     2.3350   -23.5260 
  161.1250    72.9000    12.0430    11.0690    12.1700    24.8470     2.3300   -24.3690 
  161.2500    71.5400    12.3750    11.4560    12.7990    24.8190     2.3410   -25.1270 
  161.3750    67.1100    12.2870    11.4400    13.1810    24.8520     2.3640   -25.7710 
  161.5000    63.8390    11.8990    11.0920    13.1530    24.9450     2.3920   -26.2220 
  161.6250    66.5820    11.5090    10.6300    12.6220    24.9720     2.4190   -26.4060 
  161.7500    72.2270    11.4820    10.3740    12.5170    24.8960     2.4410   -26.4280 
  161.8750    76.1560    12.1020    10.5680    13.8790    24.8540     2.4580   -26.3590 
  162.0000    78.3610    13.5680    11.4120    16.5790    24.8770     2.4660   -26.2070 
  162.1250    79.2890    16.0920    13.1790    21.1470    24.8450     2.4670   -26.0400 
  162.2500    75.4950    19.3860    15.7490    27.1900    24.7860     2.4630   -25.9580 
  162.3750    69.2740    23.1730    18.9840    33.0170    24.7530     2.4550   -25.9640 
