~V
VERS. 2.00: Ver 2.00
~W
STRT.M 50.0000:
STOP.M 244.0000:
STEP.M 0.1250:
NULL. -999.2500:
UWI. F10003:
~C
DEPT.M :
GR.API :
RML.OHMM :
RI. :
RXO.OHMM :
CALI.CM :
DEN.GM/CC :
SP.MV :
~A
# ...
   61.2500    78.4900     7.0140     7.9190     7.5470    24.5450     2.2720   -21.1520 
   61.3750    79.6630     6.2530     7.0570     7.0100    24.4610     2.2920   -21.2110 
   61.5000    80.4570     5.8410     6.4970     6.8470    24.3640     2.3060   -21.2550 
   61.6250    83.0600     5.8620     6.3540     6.8840    24.3020     2.3150   -21.3020 
   61.7500    86.0970     6.1850     6.5250     7.3770    24.3580     2.3190   -21.3420 
   61.8750    86.3840     6.6820     6.9020     7.7710    24.5230     2.3170   -21.4060 
   62.0000    83.3090     7.1780     7.3380     8.0540    24.6210     2.3090   -21.5150 
   62.1250    78.6550     7.4510     7.6400     8.5020    24.6160     2.2960   -21.5980 
   62.2500    74.8340     7.4610     7.7340     8.4040    24.5890     2.2860   -21.6210 
   62.3750    73.2480     7.3320     7.6890     7.9630    24.5300     2.2870   -21.5880 
   62.5000    75.1880     7.3220     7.6920     7.4660    24.3900     2.3010   -21.5190 
   62.6250    78.8950     7.7400     8.0110     7.4390    24.2940     2.3250   -21.4550 
   62.7500    78.7760     8.5390     8.6560     8.3860    24.2270     2.3490   -21.4110 
   62.8750    73.5300     9.4910     9.4810     9.9810    24.1850     2.3620   -21.3840 
   63.0000    67.6000    10.2620    10.2210    11.9520    24.2050     2.3580   -21.3510 
   63.1250    64.7260    10.5000    10.5500    13.3610    24.4340     2.3400   -21.3320 
   63.2500    64.1810    10.3400    10.5010    12.5240    24.5650     2.3190   -21.3780 
   63.3750    66.4540    10.1170    10.3080    10.3220    24.5510     2.2990   -21.4910 
   63.5000    70.9640    10.1640    10.2660     9.0190    24.5610     2.2800   -21.6480 
   63.6250    72.8330    10.6220    10.5770     9.8670    24.8900     2.2560   -21.8400 
   63.7500    70.9250    11.2120    11.0830    11.1910    25.3920     2.2270   -22.0740 
   63.8750    67.9620    11.6390    11.5580    12.0540    25.6800     2.2010   -22.3540 
   64.0000    66.6140    11.7130    11.7940    11.8940    25.5520     2.1870   -22.6530 
   64.1250    67.0080    11.4610    11.7120    10.8220    25.3380     2.1890   -22.9950 
   64.2500    67.1080    11.2530    11.5710     9.8980    25.2720     2.1980   -23.3410 
   64.3750    66.2150    11.3580    11.6170     9.7820    25.2330     2.2040   -23.6230 
   64.5000    66.3900    11.8310    11.9590    10.2050    25.0680     2.2030   -23.8160 
   64.6250    69.3260    12.4630    12.4900    10.9600    24.8480     2.2000   -23.9160 
   64.7500    71.1340    12.8520    12.8680    11.7090    24.8510     2.2040   -23.9240 
   64.8750    70.3680    12.7240    12.8080    12.0120    24.9870     2.2180   -23.8830 
   65.0000    68.7550    11.9930    12.1710    11.7950    25.0620     2.2450   -23.8380 
   65.1250    68.1630    10.7580    10.9930    10.9580    24.8810     2.2830   -23.7640 
   65.2500    70.5180     9.4050     9.6460     9.7180    24.7010     2.3260   -23.6590 
   65.3750    77.7060     8.2040     8.3960     8.3150    24.6230     2.3630   -23.5730 
   65.5000    88.2600     7.3710     7.4550     7.1800    24.6040     2.3820   -23.5300 
   65.6250    94.7890     7.1780     7.0630     6.8580    24.5950     2.3770   -23.5570 
   65.7500    94.4250     7.6310     7.2410     7.2600    24.6030     2.3570   -23.6140 
   65.8750    90.0470     8.7030     7.9980     8.6110    24.6120     2.3350   -23.6530 
   66.0000    84.5060    10.2260     9.2440    11.0060    24.5580     2.3190   -23.6560 
   66.1250    79.5430    11.8280    10.7380    14.1340    24.4800     2.3230   -23.5860 
   66.2500    76.2610    13.0170    12.0250    17.0310    24.4210     2.3460   -23.5110 
   66.3750    74.8630    13.4660    12.7460    17.8430    24.3540     2.3830   -23.4400 
   66.5000    74.7260    13.1160    12.7350    16.1830    24.2180     2.4210   -23.3540 
   66.6250    74.0700    12.1920    12.0760    14.4480    24.0370     2.4380   -23.2090 
   66.7500    72.8810    11.2250    11.2490    13.1910    24.0180     2.4300   -23.0260 
   66.8750    71.7170    10.4950    10.5350    11.0640    24.1150     2.4010   -22.8490 
   67.0000    70.1230    10.0810    10.0530    10.0640    24.1850     2.3670   -22.6380 
   67.1250    70.5830     9.9220     9.8110    10.2960    24.1650     2.3410   -22.4160 
   67.2500    75.0030     9.8460     9.6860    10.4690    24.0670     2.3230   -22.1760 
   67.3750    78.8450     9.7930     9.6190     9.9360    23.9540     2.3090   -21.9490 
   67.5000    78.2760     9.7630     9.5910     9.2600    23.8870     2.2930   -21.7560 
   67.6250    75.4960     9.7870     9.6040     8.8570    23.8170     2.2750   -21.5540 
   67.7500    75.0480     9.8650     9.6510     8.4200    23.7010     2.2590   -21.3580 
   67.8750    76.3280     9.9750     9.7190     8.0870    23.5830     2.2490   -21.1720 
   68.0000    77.9330    10.0690     9.7700     8.0650    23.5240     2.2460   -21.0270 
   68.1250    80.6290    10.0500     9.7230     7.9830    23.5240     2.2510   -20.9110 
   68.2500    82.3480     9.8600     9.5280     7.9370    23.5640     2.2590   -20.8100 
   68.3750    81.6360     9.4710     9.1620     8.2050    23.5660     2.2700   -20.6990 
   68.5000    80.5930     8.9340     8.6630     8.6930    23.5010     2.2790   -20.5730 
   68.6250    81.3960     8.4430     8.1780     8.9620    23.5440     2.2850   -20.5150 
   68.7500    82.8850     8.2770     7.9170     8.5990    23.7920     2.2870   -20.4810 
   68.8750    83.2970     8.6800     8.0700     8.3680    24.1720     2.2830   -20.4100 
   69.0000    81.7680     9.7970     8.7800     9.2160    24.5750     2.2690   -20.2600 
   69.1250    76.1030    11.6830    10.1720    11.7000    24.9070     2.2420   -20.0380 
   69.2500    69.0240    13.9040    11.9810    14.8210    25.2100     2.2100   -19.8100 
   69.3750    63.1080    15.9950    13.8720    17.3820    25.4240     2.1800   -19.5950 
   69.5000    60.0910    17.4630    15.4170    18.5940    25.4580     2.1620   -19.3900 
   69.6250    58.0290    17.8380    16.1210    18.8210    25.4160     2.1570   -19.1940 
   69.7500    56.7210    17.4520    16.1090    18.6220    25.4700     2.1580   -19.0530 
   69.8750    58.6830    16.8950    15.7860    18.0470    25.7460     2.1570   -18.9990 
   70.0000    61.5320    16.9450    15.7610    17.4830    26.1970     2.1510   -19.0770 
   70.1250    60.5840    18.6070    16.8960    17.4330    26.3000     2.1490   -19.2900 
   70.2500    57.1320    21.9460    19.4580    21.2860    25.7490     2.1700   -19.5640 
   70.3750    55.4940    26.5320    23.3370    30.1920    24.8790     2.2290   -19.8610 
   70.5000    57.3730    31.2410    27.7840    42.9540    24.3320     2.3320   -20.1610 
   70.6250    59.4730    34.0190    31.0900    54.3570    24.1940     2.4580   -20.4380 
   70.7500    60.0370    33.7540    31.8410    55.4070    24.1640     2.5560   -20.6780 
   70.8750    60.3920    30.4650    29.6020    46.6320    24.1310     2.5820   -20.9050 
   71.0000    61.9810    25.4550    25.3200    31.1910    24.0880     2.5230   -21.1040 
   71.1250    62.0290    20.6580    20.7970    18.3190    24.1720     2.4060   -21.2640 
   71.2500    60.1770    17.0430    17.1830    12.2640    24.4230     2.2850   -21.3930 
   71.3750    59.6650    14.5980    14.5960    10.7630    24.7470     2.1880   -21.4850 
   71.5000    61.1450    12.9770    12.8150    10.5670    24.9760     2.1310   -21.5840 
   71.6250    62.4480    11.8530    11.6110    10.3370    25.0150     2.1250   -21.7220 
   71.7500    65.5380    10.9080    10.6700     9.8510    24.9390     2.1510   -21.8790 
   71.8750    73.4210    10.0790     9.8880     9.2490    24.8820     2.1930   -21.9990 
   72.0000    81.9890     9.3840     9.2390     8.7720    24.9630     2.2340   -22.0700 
   72.1250    83.9890     8.8700     8.7370     8.3910    25.1050     2.2610   -22.0930 
   72.2500    83.3320     8.4590     8.3180     8.0970    25.1870     2.2750   -22.0780 
   72.3750    83.4740     8.0590     7.9140     7.8350    25.2050     2.2830   -22.0620 
