~V
VERS. 2.00: Ver 2.00
~W
STRT.M 64.0000:
STOP.M 308.0000:
STEP.M 0.1250:
NULL. -999.2500:
UWI. F10040:
~C
DEPT.M :
GR.API :
RML.OHMM :
RI. :
RXO.OHMM :
CALI.CM :
DEN.GM/CC :
SP.MV :
~A
# ...
  154.0000    90.9560     5.0540     4.1920     4.8350    24.9550     2.3680     1.6300 
  154.1250    85.0470     5.3520     4.4140     5.2810    24.7150     2.3560     1.0910 
  154.2500    83.5450     5.6620     4.7050     6.1200    24.3010     2.3350     0.5430 
  154.3750    84.1810     5.9860     5.0230     6.5750    23.9130     2.3120     0.0230 
  154.5000    84.3300     6.2670     5.3190     6.5450    23.7600     2.2900    -0.4880 
  154.6250    85.3120     6.4590     5.5420     6.3660    23.8560     2.2720    -1.0450 
  154.7500    85.9080     6.5950     5.7030     6.3240    24.0330     2.2580    -1.6270 
  154.8750    84.8090     6.7130     5.8240     6.5700    24.3070     2.2460    -2.1530 
  155.0000    84.4140     6.8390     5.9340     7.1270    24.4620     2.2370    -2.5570 
  155.1250    84.3700     6.9630     6.0590     7.7560    24.4660     2.2340    -2.8210 
  155.2500    81.5910     7.0610     6.1950     7.7690    24.4000     2.2370    -3.0330 
  155.3750    77.4780     7.1170     6.3230     7.4980    24.2710     2.2440    -3.2130 
  155.5000    75.6650     7.1360     6.4170     7.2740    24.1040     2.2530    -3.3510 
  155.6250    76.4130     7.1240     6.4430     7.2210    23.9990     2.2580    -3.4060 
  155.7500    77.2860     7.0880     6.4050     7.2310    23.9860     2.2630    -3.3840 
  155.8750    78.2870     7.0340     6.3170     7.3780    24.0930     2.2670    -3.3130 
  156.0000    80.0660     6.9770     6.2030     7.3590    24.2380     2.2700    -3.2410 
  156.1250    81.8100     6.9400     6.0890     7.3720    24.1720     2.2690    -3.2320 
  156.2500    81.9750     6.9240     5.9810     7.3220    24.2740     2.2620    -3.2410 
  156.3750    80.6840     6.9050     5.8660     7.4350    24.3980     2.2500    -3.2090 
  156.5000    78.8310     6.8480     5.7200     7.6780    24.4910     2.2360    -3.1190 
  156.6250    78.1080     6.7320     5.5380     7.6660    24.5270     2.2260    -3.0330 
  156.7500    77.0820     6.6230     5.3880     7.6230    24.5220     2.2280    -2.9790 
  156.8750    74.8910     6.6680     5.3960     7.8360    24.5090     2.2540    -2.9280 
  157.0000    73.0520     7.1120     5.7530     8.4020    24.4970     2.3120    -2.8630 
  157.1250    71.6020     8.4810     6.8550    10.9040    24.5250     2.4050    -2.8080 
  157.2500    69.3280    11.0540     8.9380    18.6200    24.6360     2.5100    -2.8500 
  157.3750    65.9570    14.9480    12.1820    32.5150    24.7440     2.6010    -3.0210 
  157.5000    62.7900    19.6290    16.2950    49.8400    24.7710     2.6590    -3.3260 
  157.6250    60.9690    23.1800    19.8410    72.3120    24.7900     2.6670    -3.7900 
  157.7500    61.7040    23.7850    21.1030    68.2620    24.8090     2.6330    -4.3790 
  157.8750    64.7840    21.1770    19.5390    39.3360    24.7930     2.5680    -5.0870 
  158.0000    67.7270    16.7990    16.1140    16.8680    24.7250     2.4830    -5.8840 
  158.1250    67.8110    12.7180    12.4970    10.6660    24.6260     2.3940    -6.6510 
  158.2500    67.2530     9.8620     9.7040     9.2700    24.6160     2.3150    -7.3210 
  158.3750    68.2090     8.2120     7.8710     9.4830    24.6380     2.2560    -7.9450 
  158.5000    69.6120     7.4730     6.8540     9.5950    24.6850     2.2150    -8.5330 
  158.6250    69.6720     7.3870     6.5170     9.1100    24.7140     2.1940    -8.9770 
  158.7500    69.1870     7.5770     6.5360     9.0530    24.6890     2.1860    -9.2560 
  158.8750    68.9140     7.8570     6.7300     9.4770    24.6270     2.1870    -9.3980 
  159.0000    69.3320     8.1030     6.9580     9.5020    24.5760     2.1950    -9.4420 
  159.1250    69.5250     8.2290     7.1290     9.2890    24.5440     2.2060    -9.4710 
  159.2500    69.4470     8.2520     7.2340     9.1670    24.5550     2.2160    -9.4600 
  159.3750    69.6100     8.2050     7.2880     9.3090    24.5790     2.2240    -9.3350 
  159.5000    70.3820     8.1200     7.3080     9.7240    24.5930     2.2320    -9.1130 
  159.6250    71.0420     8.0070     7.2940     9.8240    24.5950     2.2360    -8.8610 
  159.7500    70.2090     7.8670     7.2490     9.6760    24.5950     2.2370    -8.5940 
  159.8750    69.4600     7.7000     7.1690     9.4010    24.5910     2.2320    -8.2900 
  160.0000    69.5640     7.5260     7.0590     9.0500    24.5890     2.2260    -7.9830 
  160.1250    69.7180     7.3860     6.9310     8.9090    24.5750     2.2250    -7.6550 
  160.2500    70.1920     7.2930     6.8030     8.7950    24.5690     2.2340    -7.2910 
  160.3750    72.6710     7.2290     6.6810     8.8000    24.6080     2.2520    -6.9400 
  160.5000    77.0640     7.1610     6.5640     8.7540    24.6910     2.2720    -6.6470 
  160.6250    78.6350     7.0550     6.4390     8.3100    24.7430     2.2830    -6.3800 
  160.7500    76.7910     6.9030     6.2980     7.7830    24.8010     2.2820    -6.1280 
  160.8750    75.2700     6.7160     6.1470     7.4870    24.8280     2.2760    -5.9270 
  161.0000    76.3830     6.5270     6.0070     7.3360    24.8260     2.2710    -5.7680 
  161.1250    78.7160     6.4070     5.9340     7.0020    24.8020     2.2730    -5.6750 
  161.2500    78.4790     6.4150     5.9710     6.6900    24.7800     2.2720    -5.6580 
  161.3750    76.6330     6.5840     6.1490     6.8590    24.8140     2.2600    -5.6640 
  161.5000    74.5720     6.8930     6.4590     7.6400    24.9280     2.2370    -5.5910 
  161.6250    71.4080     7.2260     6.8180     8.1380    25.0460     2.2150    -5.3910 
  161.7500    67.5250     7.4070     7.0630     8.2900    25.0920     2.2120    -5.0810 
  161.8750    66.5910     7.3160     7.0610     8.0030    25.0720     2.2310    -4.6390 
  162.0000    71.8320     6.9300     6.7540     7.2130    25.0890     2.2670    -4.0590 
  162.1250    80.7290     6.3130     6.1660     5.7680    25.1340     2.3040    -3.3480 
  162.2500    86.8710     5.6540     5.4760     4.6770    25.1670     2.3320    -2.6120 
  162.3750    90.6130     5.0590     4.7980     4.3160    25.1930     2.3490    -1.9550 
  162.5000    95.5400     4.5860     4.2050     4.2640    25.2130     2.3610    -1.4590 
  162.6250   100.3400     4.3090     3.7930     4.2710    25.1990     2.3770    -1.2190 
  162.7500   100.3180     4.2850     3.6160     4.2090    25.1810     2.4090    -1.2390 
  162.8750    95.3620     4.6620     3.7590     4.3120    25.1980     2.4580    -1.5330 
  163.0000    87.8720     5.6840     4.2960     5.4660    25.2030     2.5150    -2.1420 
  163.1250    77.8670     7.1570     5.3170    10.9660    25.1960     2.5510    -3.0810 
  163.2500    66.2760     8.8000     6.6220    21.1960    25.2180     2.5440    -4.1720 
  163.3750    58.5520    10.2030     7.8980    22.9560    25.2200     2.4890    -5.3220 
  163.5000    57.5440    10.9320     8.7430    13.8550    25.1220     2.4020    -6.4760 
  163.6250    59.9160    10.6450     8.7990    10.0730    24.9670     2.3160    -7.5550 
  163.7500    59.7790     9.8060     8.3340     9.1820    24.9680     2.2550    -8.5110 
  163.8750    58.5190     8.8980     7.6950     9.4530    25.0380     2.2220    -9.3220 
  164.0000    60.8560     8.2660     7.1750     9.7520    25.0750     2.2040    -9.9240 
  164.1250    65.7300     8.0650     6.9400     9.5530    25.0200     2.1920   -10.2900 
  164.2500    66.4420     8.1190     6.9050     9.0020    24.9090     2.1810   -10.5290 
  164.3750    62.4450     8.2840     6.9780     8.6200    24.9230     2.1740   -10.6380 
  164.5000    59.9570     8.4540     7.0810     8.4490    25.0830     2.1750   -10.6020 
  164.6250    63.0730     8.5730     7.1690     8.5880    25.2140     2.1840   -10.4690 
  164.7500    65.3850     8.6540     7.2360     8.9850    25.2720     2.1960   -10.3330 
  164.8750    62.6760     8.7240     7.2880     9.4960    25.2470     2.2070   -10.2200 
  165.0000    58.7830     8.8120     7.3290     9.7880    25.0970     2.2140   -10.0890 
  165.1250    59.7300     8.9300     7.3590     9.8060    24.8650     2.2170    -9.8570 
