~V
VERS. 2.00: Ver 2.00
~W
STRT.M 50.0000:
STOP.M 325.0000:
STEP.M 0.1250:
NULL. -999.2500:
UWI. F10039:
~C
DEPT.M :
GR.API :
RML.OHMM :
RI. :
RXO.OHMM :
CALI.CM :
DEN.GM/CC :
SP.MV :
~A
   50.0000    48.8330     0.6310     0.4390    16.7010    24.9470     2.7790    53.1030 
   50.1250    47.9830     0.6440     0.4410     7.9900    24.8990     1.9150    52.8150 
   50.2500    47.4650     0.6620     0.4130     3.1800    24.7780     1.9210    52.5720 
   50.3750    49.5980     0.6780     0.3750     1.5960    24.5190     1.9340    52.4300 
   50.5000    51.8110     0.6860     0.3580     1.2080    24.0990     1.9540    52.3640 
   50.6250    50.4690     0.6850     0.3810     1.2910    23.6970     1.9770    52.2730 
   50.7500    48.1730     0.6770     0.4260     1.4450    23.4370     1.9970    52.1600 
   50.8750    47.9720     0.6680     0.4610     1.5270    23.3290     2.0130    52.0060 
   51.0000    49.6320     0.6620     0.4620     1.5210    23.3030     2.0270    51.7660 
   51.1250    50.8420     0.6650     0.4180     1.5260    23.2830     2.0430    51.4000 
   51.2500    52.2150     0.6740     0.3590     1.5630    23.2680     2.0600    50.8530 
   51.3750    54.5030     0.6850     0.3160     1.6170    23.2480     2.0760    50.0960 
   51.5000    57.7650     0.6940     0.3120     1.6160    23.2700     2.0870    49.1650 
   51.6250    59.0820     0.6920     0.3560     1.4830    23.4610     2.0880    48.1440 
   51.7500    57.3620     0.6800     0.4130     1.3610    23.8410     2.0830    47.1080 
   51.8750    54.3460     0.6590     0.4500     1.5790    24.3090     2.0770    46.0770 
   52.0000    53.7330     0.6360     0.4440     3.0650    24.7180     2.0750    45.0820 
   52.1250    56.9700     0.6240     0.3950     6.9720    24.8760     2.0840    44.1950 
   52.2500    59.3220     0.6310     0.3440     7.5080    24.9000     2.0980    43.4640 
   52.3750    58.4120     0.6590     0.3240     4.7440    24.8720     2.1090    42.9300 
   52.5000    55.9120     0.7010     0.3520     3.7810    24.8630     2.1130    42.6580 
   52.6250    55.3930     0.7470     0.4140     4.5030    24.8860     2.1080    42.6730 
   52.7500    55.8060     0.7850     0.4640     7.3150    24.9320     2.1020    42.8780 
   52.8750    55.0630     0.8140     0.4770    12.3040    24.9560     2.1010    43.2010 
   53.0000    53.0110     0.8380     0.4540    16.6790    24.9640     2.1080    43.5300 
   53.1250    50.8100     0.8600     0.4270    17.7700    24.9630     2.1140    43.6590 
   53.2500    47.8820     0.8760     0.4300    16.2980    24.9490     2.1150    43.4330 
   53.3750    45.2590     0.8650     0.4690    12.7570    24.9140     2.1120    42.6940 
   53.5000    45.3450     0.8080     0.5210     6.5670    24.8680     2.1140    41.2530 
   53.6250    47.0010     0.6940     0.5460     3.2860    24.8140     2.1350    38.9750 
   53.7500    46.5130     0.6220     0.5280     2.1380    24.7660     2.1700    36.1900 
   53.8750    44.3550     0.5920     0.4810     2.0800    24.7590     2.2030    33.0670 
   54.0000    42.8980     0.5910     0.4370     2.5990    24.7890     2.2150    29.7480 
   54.1250    44.2390     0.6060     0.4330     3.0190    24.8070     2.1930    26.4080 
   54.2500    46.9610     0.6090     0.4650     2.0220    24.6970     2.1530    23.1830 
   54.3750    49.4430     0.5990     0.5050     1.2910    24.4330     2.1100    20.2520 
   54.5000    48.9960     0.5760     0.5160     1.1220    24.1900     2.0780    17.7970 
   54.6250    46.0410     0.5180     0.4590     1.0930    24.1300     2.0690    15.9210 
   54.7500    45.7050     0.4190     0.3480     1.0750    24.1590     2.0900    14.4920 
   54.8750    49.1370     0.3030     0.2180     1.1040    24.1450     2.1600    13.5420 
   55.0000    53.4070     0.2010     0.1130     1.2070    24.0230     2.2820    13.1030 
   55.1250    54.9730     0.1360     0.0620     1.2880    23.8520     2.4290    13.1550 
   55.2500    54.5900     0.1000     0.0480     1.3550    23.7640     2.5350    13.3590 
   55.3750    55.0000     0.0860     0.0540     1.5850    23.7420     2.5530    13.2020 
   55.5000    57.3510     0.0890     0.0730     2.3740    23.6760     2.4760    12.1870 
   55.6250    63.2410     0.1080     0.1300     5.0910    23.4380     2.3460    10.1020 
   55.7500    70.9540     0.4150     0.3790     8.4420    23.0650     2.2350     7.3160 
   55.8750    76.6420     1.7010     1.2070    10.4520    22.8110     2.1770     3.8800 
   56.0000    77.9720     4.8050     3.1160    10.5820    22.7020     2.1670    -0.1980 
   56.1250    75.8780     7.5630     5.4590    11.2350    22.7150     2.1800    -4.9110 
   56.2500    73.5710     9.4040     7.6530    12.4830    22.8290     2.1880    -9.8110 
   56.3750    71.3950    10.3460     9.3700    13.8160    23.0100     2.1850   -14.3670 
   56.5000    69.6610    10.9350    10.6630    14.3290    23.1250     2.1740   -18.1180 
   56.6250    69.6980    11.5400    11.7200    14.1260    23.1590     2.1580   -20.8920 
   56.7500    70.0550    12.3030    12.7690    14.0540    23.1720     2.1420   -23.1380 
   56.8750    68.4380    13.2020    13.8300    15.1470    23.2070     2.1270   -25.0550 
   57.0000    66.2830    14.1540    14.7920    16.8910    23.2650     2.1160   -26.7370 
   57.1250    68.0680    14.9790    15.4240    16.8400    23.2980     2.1130   -28.1880 
   57.2500    72.1560    15.5230    15.6750    15.5490    23.3080     2.1140   -29.4990 
   57.3750    74.0690    15.7130    15.6080    14.3460    23.3440     2.1170   -30.7040 
   57.5000    71.7710    15.6070    15.3870    13.7570    23.4010     2.1190   -31.8270 
   57.6250    69.4850    15.3810    15.2010    14.0650    23.4200     2.1180   -32.7960 
   57.7500    71.0170    15.2440    15.1210    14.6370    23.3790     2.1150   -33.6710 
   57.8750    74.2720    15.2830    15.1080    14.7950    23.3190     2.1110   -34.4630 
   58.0000    76.1960    15.4940    15.0970    14.5290    23.2520     2.1070   -35.1910 
   58.1250    75.3920    15.8420    15.0690    14.2310    23.2190     2.1050   -35.8560 
   58.2500    72.9280    16.2720    15.1110    13.9260    23.2100     2.1030   -36.4510 
   58.3750    69.6320    16.8080    15.3430    14.4340    23.2160     2.0990   -37.0280 
   58.5000    67.5170    17.5020    15.8480    15.7430    23.2320     2.0920   -37.5350 
   58.6250    68.8550    18.3750    16.6110    16.4700    23.2570     2.0800   -37.9760 
   58.7500    70.8300    19.2390    17.3600    17.1080    23.2680     2.0670   -38.3620 
   58.8750    71.9220    19.8190    17.7990    17.6760    23.2640     2.0610   -38.6340 
   59.0000    72.6360    19.8290    17.6980    18.3870    23.2410     2.0650   -38.8050 
   59.1250    74.6900    19.0590    16.9600    17.8730    23.1930     2.0820   -38.8480 
   59.2500    78.7250    17.8580    15.9430    16.3550    23.1310     2.1080   -38.8140 
   59.3750    82.9870    16.6140    14.9670    14.6600    23.0510     2.1350   -38.7080 
   59.5000    84.0060    15.6630    14.2540    13.4550    22.9990     2.1590   -38.5250 
   59.6250    79.3800    15.2170    13.8820    12.9720    23.0320     2.1770   -38.3220 
   59.7500    75.0120    15.0780    13.6570    12.9910    23.0950     2.1910   -38.1190 
   59.8750    73.9480    14.9960    13.4130    13.1080    23.0810     2.2000   -37.9340 
   60.0000    74.6610    14.7350    13.0520    12.6010    22.9890     2.2020   -37.7930 
   60.1250    76.1880    14.1830    12.5870    11.7640    22.9270     2.1970   -37.6970 
   60.2500    79.2580    13.5400    12.1550    11.2390    23.0300     2.1870   -37.6490 
   60.3750    81.1820    13.0430    11.8550    11.3500    23.1450     2.1790   -37.6660 
   60.5000    79.8430    12.8740    11.7340    11.6960    23.1850     2.1770   -37.7500 
   60.6250    78.6750    13.1380    11.8050    12.0410    23.1760     2.1830   -37.8510 
   60.7500    78.9490    13.6340    11.9960    12.4260    23.1730     2.1910   -38.0130 
   60.8750    79.7100    14.1460    12.2570    12.9080    23.1690     2.1960   -38.2390 
   61.0000    81.1660    14.4830    12.5290    13.2400    23.1570     2.1920   -38.4470 
   61.1250    82.8460    14.5120    12.7210    13.2370    23.1470     2.1820   -38.7120 
