~V
VERS. 2.00: Ver 2.00
~W
STRT.M 55.0000:
STOP.M 314.0000:
STEP.M 0.1250:
NULL. -999.2500:
UWI. F10048:
~C
DEPT.M :
DEN.GM/CC :
GR.API :
RML.OHMM :
RI. :
RXO.OHMM :
CALI.CM :
SP.MV :
~A
# ...
  302.5000     2.4160    35.4420     8.7800     7.7590    10.6390    23.4590   -12.1130 
  302.6250     2.4150    35.4510     9.0680     8.0260    11.8870    23.5140   -12.3550 
  302.7500     2.4220    36.1090     9.2340     8.1790    12.9390    23.5150   -12.5770 
  302.8750     2.4300    36.8990     9.3670     8.3020    12.3600    23.5040   -12.7430 
  303.0000     2.4320    36.9740     9.5270     8.4510    10.9780    23.5070   -12.8640 
  303.1250     2.4240    36.2680     9.6980     8.6090     9.5270    23.5460   -13.0070 
  303.2500     2.4100    36.0380     9.7790     8.6840     8.7030    23.6260   -13.1560 
  303.3750     2.3960    36.1060     9.6610     8.5750     8.2540    23.7090   -13.2330 
  303.5000     2.3860    36.1060     9.2700     8.2130     8.1800    23.7320   -13.2480 
  303.6250     2.3780    36.1060     8.5760     7.5700     7.9510    23.6600   -13.2070 
  303.7500     2.3710    36.1060     7.7260     6.7840     7.4340    23.5660   -13.1050 
  303.8750     2.3650    36.1060     6.8560     5.9780     6.6610    23.5100   -12.9520 
  304.0000     2.3650    36.1060     6.0870     5.2660     5.7530    23.4960   -12.7660 
  304.1250     2.3730    36.1060     5.5420     4.7610     4.9530    23.4860   -12.5460 
  304.2500     2.3870    36.1060     5.2270     4.4690     4.5150    23.4710   -12.2990 
  304.3750     2.4000    36.1060     5.1350     4.3840     4.5810    23.4700   -12.0840 
  304.5000     2.4090    36.1060     5.2250     4.4690     4.9220    23.4900   -11.9720 
  304.6250     2.4120    36.1060     5.4400     4.6680     5.3250    23.5300   -12.0170 
  304.7500     2.4100    36.1060     5.6820     4.8870     5.7330    23.5730   -12.1650 
  304.8750     2.4090    36.1060     5.8970     5.0800     6.1390    23.6010   -12.3400 
  305.0000     2.4080    36.1060     6.0610     5.2280     6.5150    23.5920   -12.5160 
  305.1250     2.4100    36.1060     6.1350     5.3250     6.5470    23.5630   -12.7020 
  305.2500     2.4130    36.1060     6.1320     5.3820     6.5290    23.5460   -12.8910 
  305.3750     2.4170    36.1060     6.0370     5.3940     6.3800    23.5440   -13.0070 
  305.5000     2.4220    36.1060     5.8680     5.3560     6.0340    23.5430   -13.0040 
  305.6250     2.4280    36.1060     5.7560     5.2750     5.6440    23.5240   -12.9080 
  305.7500     2.4330    36.1060     5.7240     5.1890     5.4590    23.4850   -12.8020 
  305.8750     2.4370    36.1060     5.7600     5.1270     5.4280    23.4270   -12.7200 
  306.0000     2.4350    36.1060     5.8400     5.1060     5.3890    23.3540   -12.6190 
  306.1250     2.4220    36.1060     5.9430     5.1330     5.2150    23.2630   -12.4900 
  306.2500     2.4030    36.1060     6.0000     5.1850     4.9450    23.1690   -12.3720 
  306.3750     2.3840    36.1060     6.0620     5.2430     4.8200    23.0240   -12.3370 
  306.5000     2.3750    36.1060     6.1090     5.2860     4.8470    22.7810   -12.4240 
  306.6250     2.3830    36.1060     6.1290     5.3050     5.2950    22.3910   -12.5420 
  306.7500     2.3990    36.1060     6.1360     5.3120     5.9150    21.8760   -12.6220 
  306.8750     2.4130    36.1060     6.1470     5.3210     6.5030    21.1880   -12.6530 
  307.0000     2.4120    36.1060     6.1700     5.3430     6.9010    20.3700   -12.6870 
  307.1250     2.3940    36.1060     6.1990     5.3700     6.7860    19.5230   -12.7380 
  307.2500     2.3700    36.1060     6.2140     5.3830     6.4520    18.6940   -12.7780 
  307.3750     2.3520    36.1060     6.2000     5.3710     6.2080    17.9140   -12.7990 
  307.5000     2.3440    36.1060     6.1590     5.3330     6.1350    17.2030   -12.7960 
  307.6250     2.3460    36.1060     6.1040     5.2810     6.2090    16.4900   -12.7410 
  307.7500     2.3530    36.1060     6.0570     5.2380     6.2430    15.7300   -12.7080 
  307.8750     2.3630    36.1060     6.0370     5.2190     6.1640    14.9710   -12.7290 
  308.0000     2.3770    36.1060     6.0490     5.2310     6.1380    14.2960   -12.7480 
  308.1250     2.3900    36.1060     6.0880     5.2670     6.1910    13.8310   -12.7840 
  308.2500     2.3990    36.1060     6.1270     5.3030     6.2530    13.5830   -12.8150 
  308.3750     2.3990    36.1060     6.1410     5.3160     6.1950    13.4730   -12.8650 
  308.5000     2.3860    36.1060     6.1210     5.2970     6.0320    13.4510   -12.9150 
  308.6250     2.3600    36.1060     6.0760     5.2550     5.7980    13.4740   -12.9470 
  308.7500     2.3320    36.1060     6.0330     5.2160     5.5600    13.5110   -13.0040 
  308.8750     2.3120    36.1060     6.0080     5.1930     5.3960    13.5360   -13.0040 
  309.0000     2.3080    36.1060     6.0020     5.1870     5.3130    13.5420  -999.2500 
  309.1250     2.3210    36.1060     6.0070     5.1920     5.3050    13.4990  -999.2500 
  309.2500     2.3420    36.1060     6.0100     5.1950     5.3470    13.3790  -999.2500 
  309.3750     2.3590    36.1060     6.0110     5.1960     5.3900    13.1620  -999.2500 
  309.5000     2.3680    36.1060     6.0110     5.1960     5.4130    12.8450  -999.2500 
  309.6250     2.3700    36.1060     6.0110     5.1960     5.4320    12.4880  -999.2500 
  309.7500     2.3680    36.1060     6.0110     5.1960     5.4300    12.2110  -999.2500 
  309.8750     2.3680    36.1060     6.0110     5.1960     5.4210    12.1000  -999.2500 
  310.0000     2.3690    36.1060     6.0110     5.1960     5.4160    12.0810  -999.2500 
  310.1250     2.3710    36.1060     6.0110     5.1960     5.4170    12.0810  -999.2500 
  310.2500     2.3740    36.1060     6.0110     5.1960     5.4170    12.0810  -999.2500 
  310.3750     2.3760    36.1060     6.0110     5.1960     5.4160    12.0810  -999.2500 
  310.5000     2.3790    36.1060     6.0110     5.1960     5.4150    12.0810  -999.2500 
  310.6250     2.3810    36.1060     6.0110     5.1960     5.4140    12.0810  -999.2500 
  310.7500     2.3830    36.1060     6.0110     5.1960     5.4140    12.0810  -999.2500 
  310.8750     2.3830    36.1060     6.0110     5.1960     5.4140    12.0810  -999.2500 
  311.0000     2.3810    36.1060     6.0110     5.1960     5.4140    12.0810  -999.2500 
  311.1250     2.3770    36.1060     6.0110     5.1960     5.4140    12.0810  -999.2500 
  311.2500     2.3720    36.1060     6.0110     5.1960     5.4140    12.0810  -999.2500 
  311.3750     2.3680    36.1060     6.0110     5.1960     5.4140    12.0810  -999.2500 
  311.5000     2.3660    36.1060     6.0110     5.1960     5.4150    12.0810  -999.2500 
  311.6250     2.3670    36.1060     6.0110     5.1960     5.4140    12.0810  -999.2500 
  311.7500     2.3690    36.1060     6.0110     5.1960     5.4140    12.0810  -999.2500 
  311.8750     2.3710    36.1060     6.0110     5.1960     5.4140    12.0810  -999.2500 
  312.0000     2.3710    36.1060     6.0110     5.1960     5.4150    12.0810  -999.2500 
  312.1250     2.3700    36.1060     6.0110     5.1960     5.4150    12.0810  -999.2500 
  312.2500     2.3680    36.1060     6.0110     5.1960     5.4150    12.0810  -999.2500 
  312.3750     2.3670    36.1060     6.0110     5.1960     5.4150    12.0810  -999.2500 
  312.5000     2.3670    36.1060     6.0110     5.1960     5.4150    12.0810  -999.2500 
  312.6250     2.3680    36.1060     6.0110     5.1960     5.4150    12.0810  -999.2500 
  312.7500     2.3690    36.1060     6.0110     5.1960     5.4150    12.0810  -999.2500 
  312.8750     2.3700    36.1060     6.0110     5.1960     5.4150    12.0810  -999.2500 
  313.0000     2.3700    36.1060     6.0110     5.1960     5.4150    12.0810  -999.2500 
  313.1250     2.3700    36.1060     6.0110     5.1960     5.4140    12.0810  -999.2500 
  313.2500     2.3700    36.1060     6.0110     5.1960     5.4140    12.0810  -999.2500 
  313.3750     2.3690    36.1060     6.0110     5.1960     5.4140    12.0800  -999.2500 
  313.5000     2.3680    36.1060     6.0110     5.1960     5.4140    12.0790  -999.2500 
  313.6250     2.3660    36.1060     6.0110     5.1960     5.4130    12.0770  -999.2500 
