~V
VERS. 2.00: Ver 2.00
~W
STRT.M 50.0000:
STOP.M 325.0000:
STEP.M 0.1250:
NULL. -999.2500:
UWI. F10039:
~C
DEPT.M :
GR.API :
RML.OHMM :
RI. :
RXO.OHMM :
CALI.CM :
DEN.GM/CC :
SP.MV :
~A
# ...
   83.7500    73.5220     8.9350     6.9330     9.7650    23.0000     2.2040   -31.8230 
   83.8750    73.0920     8.7410     6.8350     9.5700    22.9080     2.2190   -31.7690 
   84.0000    75.8080     8.5870     6.8330     9.1570    22.7600     2.2450   -31.7410 
   84.1250    80.8420     8.6760     6.9730     8.9300    22.6980     2.2900   -31.8020 
   84.2500    81.2260     9.0440     7.2200     9.6710    22.8170     2.3420   -31.9340 
   84.3750    75.3760     9.6070     7.5190    12.6790    23.0830     2.3830   -32.1200 
   84.5000    67.5700    10.1620     7.7800    19.1900    23.3060     2.3940   -32.3340 
   84.6250    63.5220    10.3950     7.8740    18.3320    23.2580     2.3630   -32.5580 
   84.7500    62.3750    10.2270     7.7810    12.8810    23.0540     2.3110   -32.7760 
   84.8750    62.3050     9.7530     7.5490    10.5780    22.8830     2.2580   -32.9670 
   85.0000    63.8650     9.1970     7.2720    10.3070    22.8300     2.2200   -33.0970 
   85.1250    65.4130     8.8160     7.0450    10.5110    22.8820     2.2020   -33.0930 
   85.2500    64.8910     8.6740     6.8860    10.5470    22.9600     2.1960   -32.9510 
   85.3750    63.4500     8.7130     6.7720    10.4810    22.9510     2.1970   -32.6720 
   85.5000    63.5590     8.8170     6.6790    10.3960    22.8100     2.2020   -32.2800 
   85.6250    65.8410     8.8850     6.6240    10.3360    22.6450     2.2080   -31.7790 
   85.7500    66.5530     8.9110     6.6450    10.4000    22.5920     2.2130   -31.1960 
   85.8750    66.2120     8.9420     6.7700    10.7980    22.6670     2.2170   -30.5540 
   86.0000    66.2770     9.0220     6.9870    11.1930    22.8500     2.2200   -29.8510 
   86.1250    66.8960     9.1680     7.2370    11.2960    23.0100     2.2240   -29.0850 
   86.2500    67.2050     9.3220     7.4300    11.0290    22.9600     2.2300   -28.2760 
   86.3750    68.7320     9.4150     7.5070    10.7240    22.7700     2.2400   -27.4400 
   86.5000    72.2220     9.3830     7.4390    10.3790    22.6110     2.2520   -26.5980 
   86.6250    74.9520     9.1790     7.2270     9.7630    22.6060     2.2670   -25.7240 
   86.7500    77.3960     8.8580     6.9560     8.8280    22.8130     2.2830   -24.8500 
   86.8750    81.5120     8.4820     6.6900     7.8000    23.2450     2.2970   -23.9980 
   87.0000    87.3860     8.1190     6.4840     7.0900    23.7430     2.3070   -23.2290 
   87.1250    90.7880     7.8330     6.3760     6.8250    24.0470     2.3140   -22.6070 
   87.2500    91.0760     7.6280     6.3360     6.6700    24.1230     2.3190   -22.1370 
   87.3750    90.2740     7.4880     6.3200     6.7680    24.0570     2.3280   -21.8410 
   87.5000    90.6030     7.3870     6.2740     6.9610    23.9580     2.3400   -21.7100 
   87.6250    93.9920     7.3090     6.1510     6.7510    23.9180     2.3520   -21.8020 
   87.7500    97.3190     7.2580     5.9730     6.4950    23.9250     2.3600   -22.0920 
   87.8750    97.9380     7.2520     5.7980     6.2320    23.9110     2.3600   -22.5280 
   88.0000    95.3890     7.3120     5.6970     6.3020    23.8190     2.3490   -23.0780 
   88.1250    91.1630     7.4600     5.7580     6.9400    23.5960     2.3310   -23.7070 
   88.2500    88.6040     7.6830     5.9750     7.5230    23.2950     2.3110   -24.3630 
   88.3750    86.9590     7.9740     6.3070     7.9190    22.9940     2.2930   -25.0050 
   88.5000    84.5990     8.3140     6.6770     8.1680    22.7260     2.2790   -25.6230 
   88.6250    81.1670     8.6570     6.9610     8.4880    22.4900     2.2690   -26.1830 
   88.7500    77.4760     8.9230     7.0860     8.9970    22.2780     2.2610   -26.6550 
   88.8750    74.9680     9.0350     7.0370     9.2610    22.1760     2.2560   -27.0530 
   89.0000    73.9780     8.9510     6.8590     9.1750    22.2040     2.2550   -27.3570 
   89.1250    74.3900     8.7120     6.6650     9.1050    22.3460     2.2610   -27.5130 
   89.2500    74.0100     8.5300     6.6000     9.5550    22.4910     2.2750   -27.5530 
   89.3750    71.0980     8.6380     6.7790    11.1470    22.6140     2.2960   -27.5420 
   89.5000    67.0830     9.2390     7.2840    15.0320    22.7680     2.3250   -27.4860 
   89.6250    62.5090    10.4830     8.1750    23.4370    23.0100     2.3590   -27.3840 
   89.7500    59.3050    12.0510     9.2590    36.3010    23.2320     2.3870   -27.2880 
   89.8750    60.6700    13.4750    10.2710    44.5140    23.3760     2.3950   -27.1920 
   90.0000    67.1310    14.2080    10.8910    35.9110    23.2450     2.3770   -27.1020 
   90.1250    71.9790    13.7760    10.8100    20.9390    22.9120     2.3320   -27.0190 
   90.2500    70.5180    12.6010    10.2230    12.6610    22.6920     2.2810   -26.9160 
   90.3750    66.6250    11.2180     9.3900     9.8330    22.6890     2.2410   -26.7480 
   90.5000    65.5840    10.0880     8.5560     9.2760    22.8380     2.2230   -26.4980 
   90.6250    68.8030     9.4690     7.8980     9.5590    22.9890     2.2290   -26.1940 
   90.7500    72.8630     9.1780     7.4350    10.0940    22.9370     2.2450   -25.8300 
   90.8750    76.3230     9.0220     7.1550    10.5230    22.7770     2.2600   -25.3970 
   91.0000    80.8710     8.8570     7.0180     9.2470    22.7330     2.2650   -24.9050 
   91.1250    88.1180     8.6370     6.9700     8.1890    22.9020     2.2610   -24.3840 
   91.2500    93.5790     8.4190     6.9200     7.5010    23.0470     2.2530   -23.8770 
   91.3750    94.7960     8.2440     6.8160     7.4670    23.0930     2.2510   -23.3980 
   91.5000    95.3870     8.1050     6.6430     7.7870    23.1170     2.2590   -22.9650 
   91.6250    99.9390     7.9520     6.4270     7.3340    23.3010     2.2780   -22.6080 
   91.7500   104.0680     7.7580     6.2410     6.8080    23.5290     2.3020   -22.3460 
   91.8750   103.3810     7.5590     6.1490     6.5720    23.7210     2.3220   -22.2070 
   92.0000    99.2950     7.4320     6.1870     6.5940    23.8010     2.3320   -22.1780 
   92.1250    95.0100     7.4940     6.3660     7.0910    23.6820     2.3250   -22.2640 
   92.2500    91.8070     7.7420     6.6190     7.6250    23.4870     2.3050   -22.4130 
   92.3750    88.6710     8.1210     6.8870     7.9610    23.3280     2.2810   -22.5670 
   92.5000    85.6280     8.5250     7.1200     8.5480    23.2220     2.2610   -22.7030 
   92.6250    85.7150     8.8080     7.2710     8.9740    23.1760     2.2530   -22.7830 
   92.7500    88.5480     8.9160     7.3460     9.1020    23.1740     2.2550   -22.7770 
   92.8750    91.7600     8.8620     7.3600     8.9710    23.2340     2.2640   -22.6980 
   93.0000    94.5100     8.7090     7.3360     8.6620    23.3430     2.2740   -22.5510 
   93.1250    97.3550     8.5240     7.2900     8.2550    23.4280     2.2840   -22.3330 
   93.2500    98.0110     8.3450     7.2310     7.8410    23.4520     2.2920   -22.0780 
   93.3750    96.3660     8.1790     7.1550     7.4910    23.3920     2.2980   -21.8150 
   93.5000    95.0840     8.0340     7.0610     7.1130    23.1840     2.2990   -21.5690 
   93.6250    96.1250     7.9560     6.9600     7.1700    22.8980     2.2940   -21.3480 
   93.7500    97.9750     7.9800     6.8750     7.2200    22.6850     2.2840   -21.1510 
   93.8750    99.3210     8.1170     6.8310     7.5280    22.5950     2.2730   -20.9640 
   94.0000    98.9710     8.3400     6.8450     8.3260    22.6060     2.2630   -20.7700 
   94.1250    95.0730     8.5700     6.9310     8.7520    22.7720     2.2600   -20.5640 
   94.2500    91.7600     8.7200     7.0640     8.8390    23.0380     2.2640   -20.3430 
   94.3750    92.7620     8.7410     7.2130     8.2630    23.2590     2.2760   -20.1260 
   94.5000    96.0210     8.6290     7.3340     7.4570    23.3550     2.2910   -19.9220 
   94.6250    97.2180     8.4280     7.3630     7.2660    23.3000     2.3070   -19.7190 
   94.7500    96.8420     8.2180     7.2730     7.7550    23.2350     2.3230   -19.5130 
   94.8750    98.3420     8.0200     7.0450     7.7800    23.2820     2.3360   -19.2890 
