~V
VERS. 2.00: Ver 2.00
~W
STRT.M 50.0000:
STOP.M 313.0000:
STEP.M 0.1250:
NULL. -999.2500:
UWI. F10034:
~C
DEPT.M :
GR.API :
RML.OHMM :
RI. :
RXO.OHMM :
CALI.CM :
DEN.GM/CC :
SP.MV :
~A
# ...
  185.0000    89.4980     6.6750     6.1440     6.7690    22.5430     2.4020   -12.0970 
  185.1250    83.6830     7.2290     6.5980     7.3990    22.6400     2.3900   -12.4290 
  185.2500    78.5100     7.8080     7.0860     8.1960    22.6970     2.3760   -12.8180 
  185.3750    76.1420     8.3160     7.5190     8.9240    22.7400     2.3620   -13.2580 
  185.5000    75.3500     8.6750     7.8150     9.1970    22.8260     2.3480   -13.7220 
  185.6250    74.9960     8.8100     7.9000     8.9680    23.0170     2.3340   -14.2280 
  185.7500    73.7350     8.7860     7.8290     8.9080    23.2040     2.3220   -14.7700 
  185.8750    73.0320     8.7010     7.6890     9.0590    23.3470     2.3120   -15.3210 
  186.0000    72.4670     8.7140     7.6030     9.1610    23.4530     2.3060   -15.8540 
  186.1250    70.8680     9.1080     7.7810     9.2770    23.4880     2.3020   -16.3820 
  186.2500    69.7650    10.0710     8.3660    10.0270    23.4660     2.2970   -16.9140 
  186.3750    69.3740    11.7990     9.5280    11.8800    23.3810     2.2900   -17.4590 
  186.5000    68.9330    14.4550    11.4500    14.9660    23.2840     2.2800   -17.9920 
  186.6250    65.9040    18.2780    14.4540    19.1300    23.2760     2.2690   -18.4620 
  186.7500    60.0620    22.9600    18.3970    24.1020    23.3320     2.2560   -18.8620 
  186.8750    53.1370    28.1140    23.0250    29.4080    23.4000     2.2410   -19.2120 
  187.0000    47.1450    33.1130    27.8130    35.0350    23.4420     2.2250   -19.5190 
  187.1250    44.1770    36.9450    31.8230    40.1370    23.4490     2.2090   -19.7620 
  187.2500    45.5660    39.1090    34.4250    42.8620    23.4280     2.1980   -19.9320 
  187.3750    50.3570    39.4360    35.3370    42.0870    23.3910     2.1950   -20.0290 
  187.5000    54.3660    38.1920    34.7140    38.6410    23.3570     2.1990   -20.0950 
  187.6250    56.5280    35.9350    32.9910    34.6940    23.3290     2.2060   -20.1470 
  187.7500    59.6450    33.6560    31.0840    31.6920    23.3010     2.2130   -20.1840 
  187.8750    62.6060    32.0090    29.5900    29.8040    23.2890     2.2180   -20.2260 
  188.0000    63.1480    31.4190    28.9240    28.4940    23.2870     2.2220   -20.2790 
  188.1250    63.4600    32.1520    29.3950    28.3110    23.2870     2.2240   -20.3380 
  188.2500    64.6780    33.6060    30.5980    30.1050    23.2870     2.2260   -20.4140 
  188.3750    63.9430    35.0390    31.9740    33.1450    23.2870     2.2270   -20.4820 
  188.5000    58.8000    35.6110    32.7900    34.9670    23.2870     2.2260   -20.5190 
  188.6250    52.9330    34.5310    32.2220    33.4230    23.2870     2.2230   -20.5610 
  188.7500    50.6130    32.2420    30.4670    29.0960    23.2870     2.2210   -20.6050 
  188.8750    52.6600    29.4770    28.0790    22.8940    23.2870     2.2200   -20.6310 
  189.0000    56.9590    27.0230    25.7590    19.2130    23.2870     2.2200   -20.6550 
  189.1250    59.4500    25.5300    24.1480    20.0250    23.2870     2.2210   -20.6780 
  189.2500    60.6470    24.8790    23.2820    22.3920    23.2870     2.2210   -20.6980 
  189.3750    60.3510    24.8180    23.0300    23.9540    23.2870     2.2200   -20.7370 
  189.5000    59.2500    25.0810    23.1970    22.5950    23.2870     2.2170   -20.8030 
  189.6250    58.5820    25.5750    23.6890    21.5940    23.2860     2.2150   -20.8950 
  189.7500    59.1480    26.4100    24.4990    23.5080    23.2740     2.2140   -21.0260 
  189.8750    59.8070    27.9270    25.8650    25.2750    23.2460     2.2150   -21.1950 
  190.0000    59.5630    30.5480    28.1440    26.6930    23.2260     2.2170   -21.3840 
  190.1250    58.2300    34.8130    31.8930    30.7940    23.2310     2.2190   -21.5910 
  190.2500    55.0230    40.3610    36.9290    38.2650    23.2710     2.2160   -21.7880 
  190.3750    49.0930    46.5860    42.8080    47.2080    23.3380     2.2100   -21.9710 
  190.5000    43.5360    52.4660    48.6340    55.0910    23.3950     2.2040   -22.1180 
  190.6250    44.2130    56.3220    52.8030    59.1210    23.3850     2.2000   -22.2040 
  190.7500    49.4390    57.4360    54.4340    58.5310    23.3230     2.1990   -22.2440 
  190.8750    54.3350    55.7950    53.3640    56.7240    23.2590     2.2010   -22.2340 
  191.0000    57.0540    52.2430    50.3100    54.4400    23.2260     2.2030   -22.1500 
  191.1250    58.4780    48.1510    46.5290    50.3240    23.2290     2.2030   -22.0000 
  191.2500    59.1140    44.7710    43.2660    46.5700    23.2530     2.2000   -21.8490 
  191.3750    58.1570    42.5880    41.0270    45.5990    23.2770     2.1950   -21.6890 
  191.5000    56.0960    41.6970    39.9550    46.0360    23.2870     2.1900   -21.5110 
  191.6250    54.5130    42.0660    40.1030    46.4390    23.2870     2.1870   -21.3130 
  191.7500    54.2670    43.0720    40.9470    45.6070    23.2850     2.1880   -21.1030 
  191.8750    55.6740    44.1630    41.9940    43.4040    23.2740     2.1900   -20.8790 
  192.0000    56.9530    44.7150    42.6520    40.6780    23.2480     2.1920   -20.6520 
  192.1250    55.9220    43.9700    42.1760    39.0740    23.2400     2.1930   -20.4020 
  192.2500    54.2510    41.9310    40.5220    38.3050    23.2570     2.1950   -20.1100 
  192.3750    53.7310    38.9740    37.9980    35.9940    23.2710     2.1990   -19.7940 
  192.5000    53.7960    35.9270    35.2800    31.3110    23.2440     2.2060   -19.4570 
  192.6250    51.8090    34.0670    33.4490    27.4540    23.1630     2.2170   -19.0980 
  192.7500    48.9780    34.2940    33.2340    27.4060    23.1260     2.2320   -18.7100 
  192.8750    47.8720    37.0270    35.1340    32.3220    23.2370     2.2600   -18.2820 
  193.0000    48.8570    42.0700    39.2530    41.5610    23.4590     2.3090   -17.8410 
  193.1250    48.9840    48.5260    45.2060    55.1790    23.6980     2.3880   -17.4020 
  193.2500    47.7050    53.9120    51.2330    69.4430    23.8780     2.4800   -16.9720 
  193.3750    46.2450    57.1460    55.5840    78.3490    23.9590     2.5640   -16.5520 
  193.5000    45.0260    57.1450    56.7870    76.5680    23.9780     2.6180   -16.1890 
  193.6250    43.2910    53.3380    53.7840    64.8290    23.9750     2.6290   -15.9190 
  193.7500    42.6490    47.2520    48.0120    51.7420    23.9500     2.6180   -15.7320 
  193.8750    44.5540    40.0190    40.7290    40.7170    23.8930     2.6000   -15.6680 
  194.0000    47.4660    32.5950    33.1010    33.4040    23.8320     2.5790   -15.7020 
  194.1250    48.7330    25.8880    26.2260    27.6260    23.6990     2.5480   -15.8030 
  194.2500    49.1670    20.3880    20.6410    20.9360    23.4720     2.5070   -15.9500 
  194.3750    51.0930    16.4150    16.5970    15.2260    23.2660     2.4630   -16.1290 
  194.5000    55.5970    14.0790    14.1090    12.7590    23.1900     2.4280   -16.2960 
  194.6250    60.1320    13.5350    13.2800    12.3950    23.2260     2.4190   -16.4300 
  194.7500    60.8460    14.2610    13.6850    13.6380    23.2640     2.4320   -16.5280 
  194.8750    57.6150    15.8960    15.0940    16.0150    23.2890     2.4590   -16.5670 
  195.0000    52.4370    17.9850    17.1610    18.2310    23.3260     2.4900   -16.5480 
  195.1250    47.5450    19.9570    19.3730    20.3400    23.3930     2.5130   -16.5020 
  195.2500    44.8120    21.3940    21.1620    21.3590    23.4250     2.5250   -16.4420 
  195.3750    44.8980    22.1500    22.2350    21.8030    23.4020     2.5270   -16.3720 
  195.5000    46.5520    22.3250    22.5900    21.6110    23.3440     2.5200   -16.3290 
  195.6250    46.6750    22.1730    22.4360    21.1050    23.2680     2.5080   -16.3100 
  195.7500    46.1230    22.0430    22.1730    20.8070    23.1970     2.4980   -16.2970 
  195.8750    47.3440    22.1000    21.9930    20.9880    23.1490     2.4950   -16.2790 
  196.0000    48.3270    22.3940    21.9820    21.7430    23.1100     2.5020   -16.2520 
  196.1250    46.1330    22.9040    22.1550    22.1770    23.0840     2.5190   -16.1970 
