~V
VERS. 2.00: Ver 2.00
~W
STRT.M 50.0000:
STOP.M 221.0000:
STEP.M 0.1250:
NULL. -999.2500:
UWI. F10024:
~C
DEPT.M :
GR.API :
RML.OHMM :
RI. :
RXO.OHMM :
CALI.CM :
DEN.GM/CC :
SP.MV :
~A
# ...
  151.2500    49.4180    20.7470    18.8590    20.5460    24.1680     2.4290    -3.9580 
  151.3750    46.7800    20.5200    18.8700    19.7990    24.0920     2.4270    -4.0220 
  151.5000    47.6900    20.0830    18.6500    19.2190    24.0210     2.4320    -4.0830 
  151.6250    49.9170    19.5720    18.2660    18.5010    23.9910     2.4430    -4.1720 
  151.7500    50.8140    19.1500    17.8680    17.8700    23.9890     2.4540    -4.2360 
  151.8750    51.6310    18.9250    17.5590    17.7390    24.0160     2.4590    -4.2910 
  152.0000    53.4050    18.9620    17.4170    17.6850    24.0630     2.4590    -4.3270 
  152.1250    54.2910    19.3100    17.5140    18.6730    24.1240     2.4570    -4.3370 
  152.2500    53.8680    19.8710    17.8250    19.2230    24.1580     2.4600    -4.3760 
  152.3750    53.3130    20.5680    18.3300    19.5260    24.1680     2.4690    -4.3750 
  152.5000    53.0120    21.3000    18.9560    19.6600    24.1680     2.4820    -4.3880 
  152.6250    52.5700    21.8970    19.5240    20.0900    24.1660     2.4900    -4.4330 
  152.7500    52.6550    22.2320    19.8540    20.4360    24.1790     2.4850    -4.4430 
  152.8750    53.2520    22.2360    19.8580    21.0030    24.1870     2.4610    -4.4770 
  153.0000    53.4240    21.9060    19.5540    20.9190    24.1580     2.4230    -4.5170 
  153.1250    54.7350    21.3080    19.0640    20.0290    24.1160     2.3820    -4.5560 
  153.2500    58.4980    20.6630    18.6160    19.2970    24.0810     2.3560    -4.6050 
  153.3750    61.1680    20.1110    18.3150    18.7350    24.0430     2.3510    -4.6630 
  153.5000    58.9100    19.7110    18.1580    17.8500    23.9980     2.3650    -4.7060 
  153.6250    54.8060    19.4550    18.0660    17.2090    24.0290     2.3880    -4.7210 
  153.7500    55.8230    19.2470    17.9170    17.1570    24.0640     2.4040    -4.7360 
  153.8750    60.5900    19.0260    17.6540    17.0790    24.0250     2.4100    -4.7420 
  154.0000    63.0760    18.7730    17.2820    17.0670    24.0080     2.4070    -4.7180 
  154.1250    60.4040    18.5310    16.8840    16.8790    23.9270     2.4030    -4.6810 
  154.2500    57.7840    18.3610    16.5720    16.6110    23.8510     2.4050    -4.5990 
  154.3750    58.5240    18.2900    16.4150    16.9370    23.8690     2.4110    -4.4940 
  154.5000    60.4350    18.3100    16.4360    18.0460    23.9400     2.4170    -4.3950 
  154.6250    59.0860    18.3820    16.6120    17.8980    23.9980     2.4180    -4.2470 
  154.7500    56.2010    18.4430    16.8360    17.8760    24.0460     2.4160    -4.1290 
  154.8750    55.1860    18.4670    17.0330    17.8960    24.1130     2.4160    -4.0120 
  155.0000    56.8570    18.4510    17.1600    17.5540    24.1590     2.4200    -3.9250 
  155.1250    59.8510    18.4150    17.2240    17.5940    24.1800     2.4260    -3.8670 
  155.2500    62.4850    18.4080    17.3020    17.7680    24.1910     2.4290    -3.8150 
  155.3750    62.1660    18.4700    17.4620    17.9780    24.1610     2.4220    -3.8180 
  155.5000    59.8150    18.6210    17.7100    18.5650    24.0810     2.4060    -3.8020 
  155.6250    59.2040    18.8430    17.9680    19.1790    23.9750     2.3920    -3.7960 
  155.7500    60.0650    19.0570    18.1130    19.4100    23.9290     2.3880    -3.7870 
  155.8750    59.4680    19.1810    18.0580    20.4110    23.9530     2.4000    -3.7780 
  156.0000    58.2580    19.1430    17.7850    21.4530    24.0120     2.4230    -3.7780 
  156.1250    59.3840    18.8910    17.3460    18.7420    24.0990     2.4460    -3.7770 
  156.2500    59.7850    18.5190    16.9010    17.6170    24.1520     2.4620    -3.7930 
  156.3750    58.1920    18.1440    16.5790    17.6250    24.1800     2.4690    -3.7730 
  156.5000    56.8210    17.8950    16.4830    18.3680    24.1960     2.4700    -3.7720 
  156.6250    57.0240    17.9190    16.7080    17.9320    24.2090     2.4660    -3.8210 
  156.7500    56.7800    18.1920    17.1550    17.7730    24.2040     2.4580    -3.8540 
  156.8750    54.9860    18.6330    17.6980    18.2300    24.1980     2.4440    -3.9110 
  157.0000    53.9370    19.0870    18.1790    18.7130    24.2090     2.4280    -3.9610 
  157.1250    54.4430    19.3210    18.4000    17.8500    24.2110     2.4140    -4.0040 
  157.2500    53.9320    19.2230    18.3110    17.3770    24.1910     2.4080    -4.0590 
  157.3750    52.0230    18.7930    17.9310    17.3210    24.1420     2.4100    -4.1000 
  157.5000    51.1290    18.1680    17.3660    17.3080    24.0920     2.4170    -4.1500 
  157.6250    53.4770    17.6410    16.8130    17.5980    24.0860     2.4240    -4.2020 
  157.7500    56.8170    17.4650    16.4750    17.3930    24.0590     2.4270    -4.2510 
  157.8750    59.5830    17.7270    16.4580    17.2060    24.0320     2.4280    -4.3000 
  158.0000    61.8870    18.3410    16.7550    17.3960    24.0240     2.4230    -4.3270 
  158.1250    62.6860    19.0290    17.2280    17.7340    23.9810     2.4080    -4.3700 
  158.2500    62.1330    19.4070    17.5780    19.2550    23.9310     2.3840    -4.3850 
  158.3750    60.4040    19.2690    17.6100    19.6920    23.9800     2.3580    -4.3960 
  158.5000    57.4750    18.6490    17.2860    18.3580    24.0890     2.3400    -4.3950 
  158.6250    53.7770    17.8170    16.7400    16.4250    24.1280     2.3400    -4.3350 
  158.7500    52.1320    17.1610    16.2520    15.5260    24.1040     2.3540    -4.3210 
  158.8750    53.1410    16.8920    15.9970    15.1400    24.0850     2.3750    -4.2890 
  159.0000    54.8820    17.0790    16.0590    15.4060    24.1140     2.3960    -4.2600 
  159.1250    55.1670    17.6890    16.4620    16.2430    24.1130     2.4140    -4.2600 
  159.2500    53.8800    18.4850    17.0560    16.9600    24.0580     2.4290    -4.2690 
  159.3750    53.3420    19.3140    17.7260    18.3690    24.0100     2.4410    -4.2920 
  159.5000    55.3680    20.0610    18.3690    20.1090    23.9900     2.4500    -4.3330 
  159.6250    59.7750    20.6570    18.9240    19.9570    24.0160     2.4540    -4.4010 
  159.7500    63.5570    21.1600    19.4080    20.2260    24.0730     2.4530    -4.4680 
  159.8750    65.0120    21.6200    19.8500    20.9140    24.1200     2.4440    -4.5580 
  160.0000    67.1280    22.0550    20.2530    21.8220    24.1430     2.4290    -4.6330 
  160.1250    71.2850    22.3910    20.5550    23.4820    24.1590     2.4100    -4.6920 
  160.2500    74.5420    22.5310    20.6860    23.7490    24.1670     2.3920    -4.7450 
  160.3750    73.7760    22.3920    20.5870    22.8590    24.1600     2.3790    -4.8130 
  160.5000    69.6710    21.9790    20.2780    21.3380    24.1490     2.3740    -4.8770 
  160.6250    66.1690    21.4230    19.8800    19.9410    24.1250     2.3810    -4.9180 
  160.7500    64.5880    20.9670    19.5730    19.3220    24.0940     2.3990    -4.9620 
  160.8750    64.0240    20.7560    19.4600    19.4730    24.0650     2.4230    -4.9840 
  161.0000    62.5010    20.8190    19.5460    19.9250    24.0060     2.4410    -5.0480 
  161.1250    60.2100    21.0550    19.7430    20.7930    23.9540     2.4430    -5.1210 
  161.2500    60.1960    21.2540    19.8940    22.4900    23.9910     2.4240    -5.2030 
  161.3750    62.2370    21.3230    19.9440    24.4080    24.0940     2.3910    -5.3090 
  161.5000    64.2120    21.3360    19.9680    23.4370    24.1610     2.3560    -5.4020 
  161.6250    65.5790    21.5820    20.2240    22.0870    24.1600     2.3400    -5.5530 
  161.7500    67.2070    22.2400    20.8800    21.1090    24.1040     2.3480    -5.6550 
  161.8750    67.0300    23.2370    21.9080    21.8130    24.0460     2.3760    -5.7750 
  162.0000    64.2150    24.1480    22.9600    24.0700    23.9950     2.4100    -5.8900 
  162.1250    62.7790    24.0110    23.1180    28.1360    24.0310     2.4370    -5.9720 
  162.2500    64.1840    22.3800    21.8080    29.1370    24.0610     2.4510    -6.0550 
  162.3750    66.2780    19.4570    19.1440    24.4620    24.0750     2.4540    -6.0820 
