~V
VERS. 2.00: Ver 2.00
~W
STRT.M 64.0000:
STOP.M 308.0000:
STEP.M 0.1250:
NULL. -999.2500:
UWI. F10040:
~C
DEPT.M :
GR.API :
RML.OHMM :
RI. :
RXO.OHMM :
CALI.CM :
DEN.GM/CC :
SP.MV :
~A
# ...
  176.5000    62.1530    20.5230    17.7030    13.7490    24.0150     2.1940     6.8300 
  176.6250    60.6660    20.3110    17.5270    13.8010    23.9710     2.1930     6.8330 
  176.7500    60.7090    20.0850    17.3960    14.2430    23.9190     2.1880     6.8850 
  176.8750    60.9960    19.8550    17.3140    14.3480    23.9400     2.1840     6.9500 
  177.0000    59.9190    19.6610    17.2770    14.0290    24.0070     2.1850     6.9950 
  177.1250    58.8200    19.5540    17.2890    13.8400    24.0440     2.1910     6.9870 
  177.2500    60.1870    19.5280    17.3360    14.1990    24.1640     2.1960     6.9790 
  177.3750    63.9640    19.5490    17.4060    15.0340    24.3680     2.1970     6.9630 
  177.5000    66.5760    19.5630    17.4740    15.9050    24.3640     2.1950     6.9210 
  177.6250    65.0580    19.5080    17.5010    16.2550    24.3350     2.1970     6.7930 
  177.7500    62.8920    19.3850    17.4740    15.8340    24.4490     2.2060     6.6100 
  177.8750    63.2090    19.2280    17.4070    15.2510    24.7120     2.2190     6.4360 
  178.0000    65.4190    19.1020    17.3360    14.7010    24.7630     2.2290     6.2870 
  178.1250    65.8310    19.0910    17.3160    14.2720    24.7100     2.2310     6.1340 
  178.2500    65.3670    19.1980    17.3590    14.3600    24.5690     2.2210     5.9480 
  178.3750    63.3860    19.3610    17.4340    14.9210    24.5310     2.2030     5.7750 
  178.5000    59.8220    19.4670    17.4820    15.5490    24.6510     2.1840     5.6520 
  178.6250    58.4940    19.3730    17.4160    15.9330    24.9520     2.1720     5.5970 
  178.7500    61.1560    19.0980    17.2350    15.6810    25.2490     2.1720     5.5540 
  178.8750    65.3230    18.7360    16.9850    14.7550    25.3390     2.1790     5.4660 
  179.0000    67.7180    18.4270    16.7420    14.0750    25.0950     2.1880     5.3530 
  179.1250    68.2840    18.3100    16.6080    14.2700    24.7570     2.1920     5.2810 
  179.2500    68.3620    18.3790    16.6110    14.1790    24.6410     2.1930     5.2120 
  179.3750    67.7050    18.6020    16.7590    13.8670    24.6930     2.1980     5.1030 
  179.5000    66.5570    18.9410    17.0470    14.2270    24.8840     2.2130     4.9740 
  179.6250    67.0320    19.3700    17.4740    14.7740    24.9120     2.2440     4.8480 
  179.7500    69.3300    19.8230    17.9760    15.5530    24.9740     2.2820     4.7360 
  179.8750    71.0470    20.2160    18.4820    17.0250    24.9660     2.3160     4.6430 
  180.0000    69.0180    20.4580    18.9000    18.8970    24.8060     2.3330     4.5530 
  180.1250    66.4040    20.4520    19.1140    19.0540    24.6950     2.3250     4.4340 
  180.2500    68.0760    20.2640    19.1310    18.4210    24.7380     2.3040     4.3460 
  180.3750    70.6370    19.9460    18.9640    17.1900    24.7670     2.2860     4.2800 
  180.5000    69.8880    19.4660    18.5810    16.0370    24.7820     2.2880     4.1750 
  180.6250    69.6410    18.5690    17.7670    16.0630    24.8500     2.3180     4.0250 
  180.7500    73.5700    17.1130    16.4230    17.1170    24.9420     2.3620     3.8570 
  180.8750    77.7090    15.1320    14.5900    17.0250    24.9320     2.4010     3.6710 
  181.0000    78.1110    12.9410    12.5530    13.9840    24.7320     2.4190     3.4610 
  181.1250    77.1330    11.1510    10.8240    10.2770    24.6910     2.4080     3.2500 
  181.2500    76.8420    10.2090     9.7640     8.5680    24.6970     2.3830     3.0120 
  181.3750    74.7320    10.4150     9.6190    10.4320    24.6600     2.3630     2.7600 
  181.5000    71.0310    11.9420    10.5740    14.6620    24.4620     2.3580     2.5150 
  181.6250    67.3800    14.9790    12.9400    23.5990    24.2260     2.3790     2.2780 
  181.7500    63.8920    18.8370    16.2980    36.4090    24.0830     2.4140     2.0320 
  181.8750    60.1450    22.5730    19.9150    39.8570    24.0860     2.4510     1.7730 
  182.0000    57.5120    25.0400    22.6850    28.7280    24.1240     2.4770     1.5080 
  182.1250    58.8540    25.2140    23.4330    24.4860    24.1650     2.4840     1.2120 
  182.2500    60.5450    23.8350    22.6000    23.5750    24.5390     2.4800     0.9280 
  182.3750    59.5150    21.8350    20.9670    22.7370    24.7360     2.4750     0.6620 
  182.5000    56.3680    20.0150    19.2700    20.4820    24.5770     2.4740     0.4330 
  182.6250    55.2200    18.8640    17.9990    19.0760    24.4310     2.4780     0.2840 
  182.7500    58.0030    18.2770    17.1840    16.7130    24.2780     2.4820     0.1980 
  182.8750    61.8300    18.1370    16.8000    16.8470    24.0070     2.4800     0.1820 
  183.0000    63.2060    18.3780    16.8270    17.6210    23.4290     2.4720     0.2440 
  183.1250    60.5080    19.0920    17.3510    17.4520    22.7700     2.4640     0.3940 
  183.2500    56.9900    20.2530    18.3160    16.3240    22.3860     2.4610     0.5550 
  183.3750    55.7770    21.7870    19.6510    13.6500    22.0880     2.4640     0.7030 
  183.5000    57.1070    23.4320    21.1370    10.5350    21.6180     2.4700     0.8420 
  183.6250    58.5340    24.6330    22.2960     9.8840    20.6860     2.4690     0.9250 
  183.7500    59.0400    24.9990    22.7390     9.7980    20.0540     2.4560     0.9580 
  183.8750    59.4600    24.4040    22.3100     9.6980    19.7960     2.4350     0.9460 
  184.0000    60.2130    23.0530    21.1580     9.6980    19.7380     2.4160     0.8610 
  184.1250    60.8360    21.3930    19.6600     9.8710    19.7740     2.4110     0.7160 
  184.2500    60.4530    19.9310    18.2880    10.6460    20.0060     2.4220     0.5980 
  184.3750    58.9510    18.8880    17.2660    11.3900    20.4820     2.4410     0.5630 
  184.5000    57.4750    18.3250    16.6850    12.1940    21.0640     2.4610     0.5620 
  184.6250    57.7550    18.2960    16.6220    12.5600    21.5070     2.4770     0.5570 
  184.7500    58.9390    18.6770    16.9620    12.1880    21.6740     2.4900     0.5920 
  184.8750    58.5900    19.4190    17.6330    12.0380    21.6510     2.5030     0.7050 
  185.0000    56.7390    20.4140    18.5190    12.4970    21.5420     2.5130     0.8730 
  185.1250    56.2760    21.4200    19.4070    12.1370    21.3700     2.5150     1.0350 
  185.2500    56.8480    22.1060    20.0280    11.6020    21.0220     2.5080     1.1050 
  185.3750    57.2020    22.2320    20.1800    11.8900    20.5980     2.4930     1.0970 
  185.5000    56.8150    21.7390    19.7930    12.2850    20.3450     2.4780     1.0930 
  185.6250    55.6030    20.7820    18.9670    12.2010    20.3310     2.4720     1.1230 
  185.7500    54.1470    19.8190    18.0870    12.1340    20.5040     2.4810     1.1350 
  185.8750    52.4890    19.1710    17.4300    12.9580    20.9290     2.5080     1.1110 
  186.0000    51.9590    19.0230    17.1780    15.5910    21.7230     2.5490     1.1050 
  186.1250    53.1610    19.4690    17.4450    18.9120    22.7920     2.5930     1.1760 
  186.2500    53.0750    20.2720    18.0590    21.0380    23.7760     2.6260     1.3490 
  186.3750    52.1180    21.2350    18.8590    22.4430    24.3960     2.6410     1.5580 
  186.5000    52.6100    22.1640    19.6830    22.9450    24.6830     2.6390     1.7390 
  186.6250    56.4280    22.8410    20.3670    24.5490    24.8750     2.6240     1.9090 
  186.7500    57.5570    23.1110    20.8530    24.5940    25.0400     2.6030     2.0900 
  186.8750    53.2090    23.0340    21.1200    25.2030    25.0400     2.5800     2.2770 
  187.0000    47.9980    23.3720    21.1770    24.8390    24.8260     2.5610     2.4110 
  187.1250    48.2330    23.4190    21.0420    24.4450    24.7630     2.5500     2.4580 
  187.2500    51.5890    23.2720    20.8160    25.3250    24.8010     2.5500     2.4840 
  187.3750    53.1690    22.9970    20.5810    27.6220    24.8600     2.5590     2.5330 
  187.5000    51.5780    22.7880    20.3910    28.4560    24.9310     2.5720     2.6000 
  187.6250    50.5880    22.6200    20.2430    26.2480    24.9140     2.5850     2.6120 
