~V
VERS. 2.00: Ver 2.00
~W
STRT.M 50.0000:
STOP.M 274.0000:
STEP.M 0.1250:
NULL. -999.2500:
UWI. F10029:
~C
DEPT.M :
DEN.GM/CC :
SP.MV :
GR.API :
CALI.CM :
RXO.OHMM :
RI. :
RML.OHMM :
~A
# ...
  162.5000     2.5760   -18.8490    69.2440    21.3210    40.0020    41.6170    44.9920 
  162.6250     2.5610   -18.8340    68.7370    21.2720    41.0150    41.2770    44.6280 
  162.7500     2.5340   -18.8060    67.2520    21.1820    38.5430    39.4270    42.6470 
  162.8750     2.5080   -18.7830    66.6290    21.0570    33.3760    36.9360    39.9780 
  163.0000     2.4920   -18.7760    68.0150    20.9500    29.1830    34.6790    37.5600 
  163.1250     2.4850   -18.6420    69.2630    20.9090    29.0130    33.3350    36.1210 
  163.2500     2.4760   -18.4430    65.7530    20.8860    29.9420    32.9000    35.6540 
  163.3750     2.4660   -18.3000    60.8010    20.8460    30.4470    33.3000    36.0830 
  163.5000     2.4650   -18.1600    60.2650    20.7830    31.7500    34.4460    37.3100 
  163.6250     2.4860   -17.9740    64.8030    20.8940    35.8840    36.3510    39.3510 
  163.7500     2.5150   -17.8240    68.3610    21.0620    40.3800    38.7160    41.8840 
  163.8750     2.5320   -17.6880    67.1560    21.2810    43.2490    41.1730    44.5170 
  164.0000     2.5300   -17.5740    63.3010    21.4830    45.8880    43.1560    46.6410 
  164.1250     2.5160   -17.5740    62.7540    21.6930    50.5940    43.8220    47.3540 
  164.2500     2.4950   -17.5740    64.4330    21.9730    50.4350    43.1230    46.6050 
  164.3750     2.4670   -17.4920    64.4620    22.2110    44.9340    41.4400    44.8020 
  164.5000     2.4420   -17.4400    63.0990    22.2850    39.8540    39.4990    42.7230 
  164.6250     2.4380   -17.4200    63.7970    22.2110    39.4700    38.0990    41.2240 
  164.7500     2.4530   -17.3910    65.4890    22.1420    40.8300    37.4810    40.5620 
  164.8750     2.4700   -17.3900    65.1680    22.1900    40.8600    37.6000    40.6890 
  165.0000     2.4810   -17.3420    62.8850    22.2850    40.4430    38.2340    41.3680 
  165.1250     2.4810   -17.1990    62.6240    22.3980    40.5790    39.1110    42.3080 
  165.2500     2.4810   -17.0800    66.2620    22.4900    40.7000    39.9910    43.2500 
  165.3750     2.4850   -16.9980    72.6580    22.5340    40.3080    40.8390    44.1580 
  165.5000     2.4960   -16.9210    77.3610    22.5610    40.7840    41.6780    45.0580 
  165.6250     2.5070   -16.9050    74.9760    22.6130    43.3580    42.5020    45.9400 
  165.7500     2.5160   -16.8940    68.7180    22.6790    46.0910    43.3090    46.8040 
  165.8750     2.5220   -16.8100    63.8150    22.7950    47.2990    44.1840    47.7420 
  166.0000     2.5260   -16.7020    63.1150    22.9420    47.6650    45.2540    48.8880 
  166.1250     2.5300   -16.7030    64.4700    23.0220    49.9450    46.5630    50.2900 
  166.2500     2.5380   -16.7290    64.5810    22.9940    55.5240    47.8610    51.6800 
  166.3750     2.5520   -16.7190    63.9570    22.9510    62.1530    48.8220    52.7110 
  166.5000     2.5630   -16.6840    65.3680    22.9310    65.2810    49.1640    53.0770 
  166.6250     2.5560   -16.6240    68.8160    22.9090    61.0780    48.7450    52.6280 
  166.7500     2.5350   -16.5310    70.4620    22.8730    54.4010    47.9610    51.7880 
  166.8750     2.5150   -16.4610    67.6830    22.8920    49.9110    47.1080    50.8740 
  167.0000     2.5150   -16.4330    63.8690    22.9830    49.5860    46.2730    49.9800 
  167.1250     2.5360   -16.3340    63.1320    23.0840    52.0480    45.2590    48.8940 
  167.2500     2.5550   -16.2320    64.3770    23.0830    51.9740    43.8750    47.4110 
  167.3750     2.5610   -16.1990    65.8450    23.0070    47.6330    42.1330    45.5450 
  167.5000     2.5540   -16.1410    65.7150    22.9320    41.2160    40.3040    43.5860 
  167.6250     2.5390   -16.1190    64.1220    22.8910    36.6370    38.8620    42.0410 
  167.7500     2.5260   -16.1740    62.3760    22.9070    35.5650    38.0260    41.1460 
  167.8750     2.5240   -16.2240    61.0780    22.9360    37.3210    37.8130    40.9170 
  168.0000     2.5290   -16.2930    61.1990    22.9290    40.6290    38.0440    41.1650 
  168.1250     2.5300   -16.4010    60.8080    22.7920    43.1010    38.4010    41.5470 
  168.2500     2.5250   -16.4670    59.1250    22.5510    43.6240    38.5830    41.7420 
  168.3750     2.5230   -16.5000    57.3450    22.3780    42.4200    38.5290    41.6840 
  168.5000     2.5280   -16.5490    58.7580    22.2950    40.5650    38.3250    41.4660 
  168.6250     2.5400   -16.5800    64.2940    22.2050    39.3590    38.1670    41.2970 
  168.7500     2.5520   -16.5860    67.6040    22.0860    39.6120    38.1840    41.3150 
  168.8750     2.5600   -16.6150    66.8890    22.0670    40.0510    38.3650    41.5080 
  169.0000     2.5590   -16.5920    65.4900    22.1710    39.6830    38.6200    41.7820 
  169.1250     2.5490   -16.5780    68.8960    22.3950    38.8130    38.8220    41.9980 
  169.2500     2.5360   -16.6380    72.4460    22.4720    39.2840    38.8890    42.0700 
  169.3750     2.5280   -16.6740    70.0980    22.3420    39.0020    38.8150    41.9900 
  169.5000     2.5280   -16.6470    64.0170    22.1140    37.7170    38.6730    41.8390 
  169.6250     2.5350   -16.6100    61.1000    21.9650    37.7810    38.5320    41.6880 
  169.7500     2.5440   -16.5580    62.5110    21.8560    38.4650    38.2920    41.4300 
  169.8750     2.5530   -16.4790    63.7510    21.8090    39.2550    37.7380    40.8370 
  170.0000     2.5610   -16.4330    63.4420    21.7870    39.5850    36.6820    39.7050 
  170.1250     2.5590   -16.3540    62.4710    21.7560    37.0540    35.0770    37.9870 
  170.2500     2.5490   -16.2570    62.7100    21.7100    32.5880    33.3420    36.1280 
  170.3750     2.5420   -16.1680    64.0290    21.6780    28.4380    31.8680    34.5490 
  170.5000     2.5460   -16.1280    65.0690    21.6660    26.6400    30.9360    33.5510 
  170.6250     2.5620   -16.0980    64.6150    21.6740    27.8890    30.6650    33.2610 
  170.7500     2.5780   -16.0890    63.1410    21.6930    30.4880    30.6640    33.2590 
  170.8750     2.5810   -16.1070    62.3100    21.7100    32.1160    30.4600    33.0410 
  171.0000     2.5720   -16.1160    62.2820    21.7180    31.8710    29.6190    32.1390 
  171.1250     2.5620   -16.1860    64.7630    21.7400    29.5830    27.9340    30.3350 
  171.2500     2.5520   -16.2660    70.0200    21.7960    26.2270    25.9280    28.1860 
  171.3750     2.5350   -16.3590    73.6920    21.8520    22.5610    24.1080    26.2360 
  171.5000     2.5140   -16.4700    71.8310    21.8230    20.1070    22.8540    24.8930 
  171.6250     2.5030   -16.5110    66.8510    21.8080    19.9970    22.4550    24.4660 
  171.7500     2.5030   -16.5340    64.9810    21.8480    21.1540    22.7310    24.7610 
  171.8750     2.5090   -16.5520    65.6560    21.9300    22.7020    23.4800    25.5640 
  172.0000     2.5230   -16.5800    63.7960    21.9680    24.0050    24.3920    26.5410 
  172.1250     2.5460   -16.5230    60.7170    21.9410    24.8470    24.9950    27.1870 
  172.2500     2.5680   -16.4300    60.1970    21.9050    24.8890    24.9840    27.1740 
  172.3750     2.5780   -16.3780    62.5940    21.8590    24.0670    24.2900    26.4310 
  172.5000     2.5710   -16.3600    65.6490    21.8270    22.6530    23.0970    25.1530 
  172.6250     2.5520   -16.4000    66.1370    21.8170    20.6880    21.7230    23.6820 
  172.7500     2.5380   -16.4790    64.3470    21.8170    18.5580    20.4830    22.3530 
  172.8750     2.5350   -16.5720    61.8060    21.8170    17.2370    19.5270    21.3300 
  173.0000     2.5390   -16.6650    60.2670    21.8210    17.4330    18.9220    20.6810 
  173.1250     2.5370   -16.8070    62.5800    21.8440    18.2600    18.7210    20.4660 
  173.2500     2.5300   -16.9850    65.2850    21.8860    18.3880    18.8230    20.5760 
  173.3750     2.5250   -17.1040    65.7330    21.9270    18.2580    19.1740    20.9510 
  173.5000     2.5290   -17.2390    65.6950    21.9920    18.7440    19.6890    21.5030 
  173.6250     2.5360   -17.3830    68.5820    22.1140    19.5680    20.2310    22.0830 
