~V
VERS. 2.00: Ver 2.00
~W
STRT.M 51.0000:
STOP.M 242.0000:
STEP.M 0.1250:
NULL. -999.2500:
UWI. F10056:
~C
DEPT.M :
GR.API :
RML.OHMM :
RI. :
RXO.OHMM :
CALI.CM :
SP.MV :
DEN.GM/CC :
~A
# ...
  208.5000    87.9750     8.8970    10.2990     8.9110    25.0920    -8.3660     2.3660 
  208.6250    90.7300     8.9130    10.1010     8.7980    25.1050    -8.9690     2.3680 
  208.7500    95.4130     8.7820     9.6400     8.7310    25.1160    -9.3750     2.3740 
  208.8750   100.0820     8.6080     9.0870     8.7390    25.1160    -9.6040     2.3850 
  209.0000   102.9810     8.4890     8.5940     8.6770    25.1110    -9.7280     2.3990 
  209.1250   103.8080     8.5920     8.3350     8.6360    25.1120    -9.8020     2.4100 
  209.2500   102.9260     9.0680     8.4050     8.6140    25.1300    -9.9340     2.4140 
  209.3750    99.9330    10.1360     8.9320     8.8240    25.1520   -10.1480     2.4100 
  209.5000    94.4400    12.0410    10.0760     9.7300    25.1560   -10.4050     2.4000 
  209.6250    86.7890    13.6680    12.1850    13.1240    25.1430   -10.6850     2.3810 
  209.7500    81.1250    17.6140    15.2900    19.3180    25.1520   -11.0450     2.3570 
  209.8750    77.8780    22.3890    19.3540    26.9400    25.1880   -11.4570     2.3310 
  210.0000    75.6750    27.5200    24.0440    34.4540    25.2380   -11.8750     2.3090 
  210.1250    73.8770    32.3270    28.6990    39.1210    25.2780   -12.3550     2.2960 
  210.2500    72.3740    36.5350    32.8350    42.8190    25.3170   -12.8140     2.2910 
  210.3750    71.8130    40.3030    36.4630    44.0480    25.3480   -13.1660     2.2890 
  210.5000    71.4630    43.9630    39.8430    43.5930    25.3320   -13.4130     2.2900 
  210.6250    70.4070    47.6460    43.1410    51.7640    25.2660   -13.6350     2.2890 
  210.7500    68.7530    50.9640    46.1450    61.4860    25.1850   -13.8030     2.2880 
  210.8750    66.0180    53.2170    48.3070    63.6650    25.1410   -13.9450     2.2870 
  211.0000    63.6530    53.7870    49.0750    58.4530    25.1280   -14.1380     2.2870 
  211.1250    63.0240    52.3860    48.1140    53.4480    25.1260   -14.2630     2.2870 
  211.2500    65.2730    50.0230    46.2350    53.2170    25.1240   -14.3510     2.2860 
  211.3750    69.5430    47.5290    44.1650    51.0210    25.1260   -14.4400     2.2830 
  211.5000    72.2510    45.5370    42.4910    45.9710    25.1280   -14.5920     2.2790 
  211.6250    71.0470    44.5780    41.7290    41.8060    25.1290   -14.7070     2.2770 
  211.7500    70.2690    44.6030    41.8720    43.2490    25.1290   -14.7750     2.2830 
  211.8750    71.1340    45.5020    42.8450    45.7000    25.1230   -14.8120     2.2970 
  212.0000    71.5940    47.0330    44.4530    48.1470    25.0880   -14.8770     2.3140 
  212.1250    70.8130    48.7940    46.3710    50.4260    25.0120   -14.9820     2.3240 
  212.2500    70.9210    50.1380    48.0100    52.5890    24.9670   -15.0150     2.3220 
  212.3750    72.2640    50.4520    48.7940    52.3380    25.0090   -15.0340     2.3110 
  212.5000    72.1180    49.2730    48.2320    52.9290    25.0880   -15.0390     2.2980 
  212.6250    69.9270    46.4250    46.0240    50.7230    25.1190   -15.0510     2.2900 
  212.7500    68.5550    42.9530    43.0480    48.9730    25.1220   -15.0630     2.2890 
  212.8750    69.5060    39.9170    40.2760    42.0800    25.1090   -15.1000     2.2910 
  213.0000    72.8060    38.2060    38.5860    32.6260    25.0950   -15.0800     2.2960 
  213.1250    75.9230    38.4950    38.7130    31.2480    25.0800   -15.0660     2.3090 
  213.2500    75.2430    40.1600    40.2030    34.9950    25.0770   -15.1920     2.3330 
  213.3750    71.3120    42.3250    42.3150    45.6510    25.0290   -15.4130     2.3620 
  213.5000    67.2390    43.7730    43.9310    55.9950    24.8560   -15.7030     2.3850 
  213.6250    68.3160    43.1080    43.6460    52.8390    24.6260   -16.1030     2.3860 
  213.7500    73.0550    40.7470    41.6390    41.4410    24.4240   -16.6210     2.3690 
  213.8750    76.5290    37.8490    38.8910    34.2950    24.3480   -17.2210     2.3480 
  214.0000    75.2120    35.6890    36.6100    32.2710    24.3880   -17.8100     2.3320 
  214.1250    69.8510    35.2870    35.8380    31.3280    24.6430   -18.3300     2.3270 
  214.2500    66.4150    36.3770    36.4670    31.4240    24.9200   -18.7310     2.3240 
  214.3750    66.9410    38.3860    38.0490    37.3300    25.0620   -19.0520     2.3180 
  214.5000    70.3560    40.4130    39.7860    46.4720    25.0280   -19.2120     2.3100 
  214.6250    72.6670    41.3530    40.6580    50.2290    24.8570   -19.1160     2.3090 
  214.7500    72.0840    41.0450    40.4290    46.8260    24.6230   -18.8160     2.3240 
  214.8750    71.4140    39.8640    39.3740    41.1690    24.4980   -18.3180     2.3540 
  215.0000    71.9170    38.4480    38.0310    36.6700    24.5260   -17.7150     2.3870 
  215.1250    71.3900    37.3640    36.9200    38.2570    24.6410   -17.0430     2.4020 
  215.2500    70.7570    36.6110    36.1110    43.1590    24.7140   -16.3470     2.3930 
  215.3750    71.7790    35.9620    35.4340    40.5530    24.7690   -15.5290     2.3680 
  215.5000    72.8010    35.2220    34.7200    36.9040    24.7880   -14.7000     2.3470 
  215.6250    69.3240    34.3880    33.9340    34.5050    24.7750   -13.9840     2.3500 
  215.7500    63.3320    33.5970    33.1590    32.9240    24.7490   -13.2950     2.3780 
  215.8750    58.5500    32.8340    32.3690    33.9650    24.7270   -12.6410     2.4240 
  216.0000    57.0800    31.8610    31.3540    38.8330    24.6910   -12.0380     2.4730 
  216.1250    59.4720    30.2000    29.6890    41.7540    24.6240   -11.4670     2.5040 
  216.2500    62.7430    27.8470    27.3860    41.4050    24.5970   -10.9440     2.5080 
  216.3750    64.8260    25.1040    24.7280    36.5260    24.6010   -10.5170     2.4820 
  216.5000    65.4100    22.4450    22.1460    26.9720    24.6020   -10.1540     2.4340 
  216.6250    64.1200    20.4040    20.1090    21.2490    24.5600    -9.7650     2.3800 
  216.7500    61.7030    19.1070    18.7240    19.2800    24.4230    -9.4500     2.3370 
  216.8750    60.5730    18.5740    18.0180    18.6910    24.1920    -9.1400     2.3100 
  217.0000    60.2690    18.7450    17.9520    18.1780    24.0310    -8.8600     2.2980 
  217.1250    60.4320    19.5730    18.5100    17.6130    23.9710    -8.6400     2.2940 
  217.2500    61.5990    20.7360    19.4140    18.1080    23.9230    -8.4740     2.2910 
  217.3750    63.2320    21.9350    20.4070    20.3320    23.9110    -8.3080     2.2870 
  217.5000    64.5550    22.7810    21.1480    23.3450    23.9990    -8.0950     2.2840 
  217.6250    67.0550    22.6810    21.0950    23.3690    24.0770    -7.9390     2.2860 
  217.7500    70.9970    21.5420    20.1110    21.7090    24.0700    -7.8100     2.3000 
  217.8750    72.7110    19.5680    18.3470    18.9600    24.0130    -7.7430     2.3240 
  218.0000    71.0300    17.2600    16.2440    17.1750    23.9970    -7.7490     2.3530 
  218.1250    69.1210    15.2490    14.3530    16.7080    24.0870    -7.8220     2.3740 
  218.2500    69.2890    13.8210    12.9290    14.8460    24.2550    -7.8650     2.3830 
  218.3750    70.8410    12.9960    12.0040    11.2380    24.3760    -7.9470     2.3850 
  218.5000    72.5060    12.6230    11.4750     9.4740    24.4280    -8.1490     2.3910 
  218.6250    71.9030    12.4450    11.1590    10.5500    24.4790    -8.4340     2.4000 
  218.7500    68.7750    12.1570    10.8060    11.0920    24.5570    -8.7620     2.4040 
  218.8750    66.4490    11.6440    10.3150     9.8150    24.6240    -9.1010     2.3920 
  219.0000    68.0320    10.9640     9.7220     8.1480    24.6610    -9.3550     2.3650 
  219.1250    69.3390    10.3350     9.1780     7.0710    24.6760    -9.5580     2.3380 
  219.2500    67.3890     9.9410     8.8110     6.9510    24.7260    -9.8020     2.3250 
  219.3750    65.2410     9.8230     8.6570     7.4230    24.8580   -10.0510     2.3300 
  219.5000    65.4820     9.9040     8.6760     7.7010    25.0320   -10.2560     2.3430 
  219.6250    65.1450    10.0430     8.7790     8.5750    25.1150   -10.3850     2.3460 
