~V
VERS. 2.00: Ver 2.00
~W
STRT.M 55.0000:
STOP.M 181.0000:
STEP.M 0.1250:
NULL. -999.2500:
UWI. F10008:
~C
DEPT.M :
SP.MV :
GR.API :
RML.OHMM :
RI. :
RXO.OHMM :
CALI.CM :
DEN.GM/CC :
~A
# ...
   77.5000    -1.1910    64.2030    25.7570    21.3640    25.6600    24.7110     2.2300 
   77.6250    -1.1130    62.1460    24.2690    20.0520    22.3870    24.7050     2.2440 
   77.7500    -1.0400    61.0440    23.6830    19.4750    21.3150    24.8080     2.2330 
   77.8750    -0.9380    61.5310    24.2720    19.8500    22.6600    24.8180     2.2090 
   78.0000    -0.8560    62.1230    26.1800    21.3460    26.7030    24.6980     2.1850 
   78.1250    -0.8050    61.2310    29.4960    24.2170    34.1870    24.6390     2.1750 
   78.2500    -0.7520    57.9920    33.5310    28.0380    43.2570    24.4600     2.1720 
   78.3750    -0.7080    53.9250    37.6330    32.3240    51.5590    24.4880     2.1680 
   78.5000    -0.7010    50.8930    41.3160    36.5260    54.5050    24.5770     2.1580 
   78.6250    -0.7130    51.3920    44.5070    40.2750    52.2920    24.6990     2.1430 
   78.7500    -0.7620    53.5090    47.2920    43.4640    52.7930    25.1040     2.1310 
   78.8750    -0.8760    54.5320    48.7470    45.3150    51.5310    25.9320     2.1250 
   79.0000    -1.0030    54.0340    46.9610    44.1940    53.8450    25.8720     2.1270 
   79.1250    -1.0770    54.7000    39.8750    38.0190    53.8710    26.0200     2.1330 
   79.2500    -1.2120    57.9750    30.0970    29.0160    44.5710    25.4630     2.1400 
   79.3750    -1.4260    63.7820    21.3060    20.2520    27.2550    24.9830     2.1500 
   79.5000    -1.6820    71.5310    14.4230    13.7350    12.7470    24.9210     2.1660 
   79.6250    -1.8960    78.2560    10.5130    10.0910     8.6990    25.3970     2.1930 
   79.7500    -2.0580    81.4010     8.8020     8.2850     7.7490    25.4580     2.2250 
   79.8750    -2.2090    81.6540     8.7960     7.8650     8.8270    25.0090     2.2630 
   80.0000    -2.3390    80.7200    10.1120     8.6490    11.2550    24.6870     2.3080 
   80.1250    -2.3980    76.7700    12.4340    10.7520    14.1780    24.6680     2.3730 
   80.2500    -2.3060    69.2290    14.9760    13.6890    18.8510    24.4670     2.4470 
   80.3750    -2.1130    61.3720    17.1090    16.7760    23.1430    24.3600     2.5050 
   80.5000    -1.8900    56.6940    18.5450    19.2610    24.9960    24.5590     2.5170 
   80.6250    -1.6830    57.0780    19.6310    20.8800    23.7740    25.1180     2.4550 
   80.7500    -1.5340    59.6860    21.1850    22.3600    23.9220    25.6810     2.3510 
   80.8750    -1.3590    60.2450    23.5540    24.2210    24.6100    25.9620     2.2460 
   81.0000    -1.1240    56.5310    26.3410    26.3510    26.9100    26.0180     2.1700 
   81.1250    -0.9550    53.4280    27.7430    27.1940    32.9270    26.1310     2.1330 
   81.2500    -0.8730    55.0850    26.1180    25.1370    40.1330    26.3250     2.1100 
   81.3750    -0.8860    60.1940    21.5110    20.3370    36.9810    26.2450     2.0910 
   81.5000    -0.9900    66.0220    15.8080    14.8290    21.7210    25.6610     2.0830 
   81.6250    -1.1330    73.3690    11.3520    10.7620    10.9940    25.1070     2.1040 
   81.7500    -1.2620    80.3530     8.8050     8.3610     8.2680    24.7980     2.1530 
   81.8750    -1.3460    82.1000     8.1840     7.4120     8.5240    25.1490     2.2140 
   82.0000    -1.3730    78.6120     9.4540     7.8010    10.3970    26.0590     2.2610 
   82.1250    -1.3370    73.3290    13.0420    10.0140    15.1190    25.3160     2.2700 
   82.2500    -1.2850    68.5370    18.6360    14.1820    25.4550    25.0280     2.2440 
   82.3750    -1.1530    63.8530    25.7230    20.2290    37.6090    25.0310     2.1970 
   82.5000    -0.9030    61.0430    32.9480    27.0600    46.1560    25.1060     2.1480 
   82.6250    -0.5890    59.6170    37.9530    32.3440    51.7190    25.0520     2.1130 
   82.7500    -0.2880    57.5560    40.0210    35.0470    54.5930    25.1010     2.0980 
   82.8750    -0.0990    56.1730    39.7700    35.5030    50.1190    25.2760     2.0970 
   83.0000    -0.0030    56.7650    38.4010    34.6400    46.2110    25.4380     2.1030 
   83.1250     0.0670    58.1830    36.8690    33.2280    43.1070    25.4960     2.1100 
   83.2500     0.1140    58.1730    35.5550    31.7300    42.0450    25.5350     2.1160 
   83.3750     0.1210    57.3880    34.4830    30.2700    39.7710    25.5570     2.1170 
   83.5000     0.0240    56.9180    33.6350    28.9340    36.3410    25.5610     2.1140 
   83.6250    -0.1460    56.8310    33.0500    27.8530    34.3060    25.5430     2.1070 
   83.7500    -0.2510    56.6280    32.7260    27.0600    33.2470    25.5350     2.0980 
   83.8750    -0.2720    55.9980    32.6850    26.5720    33.2230    25.5550     2.0920 
   84.0000    -0.2780    54.8630    32.8810    26.3730    34.0720    25.5600     2.0940 
   84.1250    -0.2900    53.4760    33.2100    26.4500    34.6920    25.4700     2.1040 
   84.2500    -0.2820    52.4680    33.5060    26.6860    35.1400    25.3790     2.1150 
   84.3750    -0.2630    52.8990    33.6600    26.9990    35.3100    25.3950     2.1220 
   84.5000    -0.2040    55.2740    33.6340    27.3200    34.9850    25.5070     2.1210 
   84.6250    -0.1000    56.2470    33.4620    27.5740    34.5740    25.5920     2.1110 
   84.7500     0.0140    53.9820    33.2300    27.7470    33.9140    25.6420     2.0980 
   84.8750     0.0980    50.8360    32.9510    27.8560    35.0430    25.6790     2.0900 
   85.0000     0.1040    49.8030    32.6200    27.9560    36.1720    25.7460     2.0900 
   85.1250     0.0460    51.1470    32.3680    28.1720    38.4240    25.7720     2.0990 
   85.2500    -0.0130    51.7900    32.5360    28.6890    38.4910    25.6820     2.1100 
   85.3750    -0.0520    51.5860    33.5210    29.7410    38.3790    25.5740     2.1210 
   85.5000    -0.0640    51.6670    35.4170    31.4110    39.2970    25.6080     2.1300 
   85.6250    -0.2160    51.0660    37.4370    33.1940    40.6870    25.7980     2.1340 
   85.7500    -0.4860    49.6500    37.7850    33.7150    41.6220    25.9100     2.1360 
   85.8750    -0.7370    49.7540    34.9660    31.6150    42.1440    25.6630     2.1410 
   86.0000    -0.9090    52.4090    28.9560    26.6490    39.0630    25.0450     2.1570 
   86.1250    -1.0920    56.7070    21.6330    20.3330    27.9360    24.5930     2.1900 
   86.2500    -1.3590    62.6210    15.3980    14.8610    17.6230    24.4480     2.2340 
   86.3750    -1.6870    69.8160    11.0640    10.9490    11.3590    24.3460     2.2760 
   86.5000    -2.0040    76.3280     8.6130     8.5480     8.7870    24.4380     2.3040 
   86.6250    -2.1450    80.7220     7.9000     7.5430     8.0960    24.8300     2.3070 
   86.7500    -2.2190    83.9230     8.2570     7.4880     7.8750    25.0810     2.2950 
   86.8750    -2.3330    84.8600     9.3710     8.2450     8.8620    24.7820     2.2780 
   87.0000    -2.5010    82.6350    10.9160     9.6510    11.3450    24.4650     2.2670 
   87.1250    -2.6300    78.5530    12.3820    11.3420    15.6010    24.2880     2.2700 
   87.2500    -2.6250    75.2830    13.2160    12.6440    15.5220    24.1810     2.2860 
   87.3750    -2.5090    75.2580    13.1220    13.0790    14.0980    24.1000     2.3130 
   87.5000    -2.3660    77.8180    12.1640    12.5480    13.0800    24.0800     2.3420 
   87.6250    -2.2740    80.0220    10.7120    11.3250    11.3760    24.0790     2.3610 
   87.7500    -2.1680    81.6270     9.3120    10.0140     9.3990    24.0530     2.3620 
   87.8750    -2.0320    84.6140     8.1840     8.8950     8.1100    24.0400     2.3440 
   88.0000    -1.8700    87.7670     7.4010     8.0740     7.7500    24.0510     2.3170 
   88.1250    -1.6950    88.8350     7.0790     7.6300     7.5220    24.0000     2.2930 
   88.2500    -1.5300    88.6640     7.1710     7.4910     7.8490    24.0770     2.2810 
   88.3750    -1.3710    87.0210     7.5630     7.5780     8.7160    24.4450     2.2830 
   88.5000    -1.2650    83.7150     8.0190     7.7490     8.8410    25.1310     2.3010 
   88.6250    -1.2800    80.2300     8.3000     7.8690    10.4100    24.8580     2.3390 
