~V
VERS. 2.00: Ver 2.00
~W
STRT.M 50.0000:
STOP.M 274.0000:
STEP.M 0.1250:
NULL. -999.2500:
UWI. F10029:
~C
DEPT.M :
DEN.GM/CC :
SP.MV :
GR.API :
CALI.CM :
RXO.OHMM :
RI. :
RML.OHMM :
~A
# ...
  106.2500     2.2430   -19.4560    99.7460    21.3540     6.4300     6.1320     7.3960 
  106.3750     2.2330   -19.6070   107.4870    21.3470     6.9530     6.2930     7.5690 
  106.5000     2.2340   -19.8190   110.2690    21.3300     7.2160     6.3700     7.6520 
  106.6250     2.2410   -20.0740   103.3640    21.3450     7.5310     6.3390     7.6180 
  106.7500     2.2410   -20.3890    96.4530    21.4330     7.7450     6.2510     7.5240 
  106.8750     2.2300   -20.7320    93.5480    21.5870     7.4250     6.1600     7.4270 
  107.0000     2.2170   -21.1490    91.2080    21.7270     6.7990     6.1230     7.3870 
  107.1250     2.2090   -21.6920    88.7010    21.7350     6.8460     6.2050     7.4750 
  107.2500     2.2000   -22.2920    88.2960    21.6550     7.1690     6.4110     7.6960 
  107.3750     2.1820   -22.9250    88.6830    21.5200     7.7490     6.7300     8.0370 
  107.5000     2.1570   -23.5580    88.1160    21.4150     8.5140     7.1270     8.4620 
  107.6250     2.1340   -24.1270    86.4360    21.6070     9.3960     7.5420     8.9070 
  107.7500     2.1180   -24.6070    84.8810    21.8870    10.3010     7.9040     9.2950 
  107.8750     2.1030   -24.9550    81.4250    22.0820    10.8680     8.1670     9.5760 
  108.0000     2.0910   -25.1560    74.9360    22.3220    10.8460     8.3130     9.7320 
  108.1250     2.0880   -25.1240    70.2140    22.7030    10.3240     8.3410     9.7630 
  108.2500     2.0970   -24.9950    70.0330    22.8710     9.7390     8.3090     9.7290 
  108.3750     2.1120   -24.7460    72.3070    22.7460     9.2810     8.2520     9.6670 
  108.5000     2.1240   -24.4180    74.4530    22.4800     8.9730     8.1880     9.6000 
  108.6250     2.1290   -24.1390    77.0640    22.3620     8.6470     8.1120     9.5170 
  108.7500     2.1340   -23.8140    80.8020    22.3660     8.3100     8.0010     9.3980 
  108.8750     2.1440   -23.5220    84.4520    22.4480     8.0510     7.8420     9.2280 
  109.0000     2.1590   -23.2650    86.2400    22.4520     7.9100     7.6390     9.0110 
  109.1250     2.1680   -23.0840    84.3210    22.2530     7.8400     7.4200     8.7760 
  109.2500     2.1640   -22.9570    79.9430    21.9560     7.7610     7.2250     8.5670 
  109.3750     2.1560   -22.8770    77.3680    21.7040     7.7080     7.0730     8.4040 
  109.5000     2.1550   -22.8140    80.4500    21.4950     7.7030     6.9660     8.2900 
  109.6250     2.1570   -22.7130    85.2660    21.3520     7.8010     6.8840     8.2020 
  109.7500     2.1480   -22.6010    85.2530    21.3100     8.0010     6.7820     8.0930 
  109.8750     2.1280   -22.4690    82.6240    21.3530     8.2900     6.6590     7.9610 
  110.0000     2.1120   -22.2890    82.2160    21.4560     8.5980     6.5980     7.8960 
  110.1250     2.1130   -22.0970    83.8660    21.5760     8.7490     6.8440     8.1590 
  110.2500     2.1260   -21.8560    83.0970    21.6980     8.8420     7.5530     8.9190 
  110.3750     2.1530   -21.5420    83.0830    21.7320     9.5140     8.8050    10.2600 
  110.5000     2.2050   -21.1910    84.8140    21.6750    12.2550    10.4650    12.0380 
  110.6250     2.2830   -20.7740    83.2200    21.8360    19.2590    11.8360    13.5070 
  110.7500     2.3400   -20.3770    77.8060    22.1900    22.2160    12.0140    13.6980 
  110.8750     2.3410   -19.9120    74.6490    22.3900    17.6000    10.8030    12.4000 
  111.0000     2.2950   -19.4410    78.4850    22.2620    10.4990     8.8860    10.3470 
  111.1250     2.2500   -18.9830    85.9370    22.1630     7.3670     7.1600     8.4980 
  111.2500     2.2350   -18.5710    91.8110    22.2680     6.0600     5.9570     7.2090 
  111.3750     2.2390   -18.2510    97.2830    22.5080     5.5610     5.2790     6.4830 
  111.5000     2.2430   -17.9710   103.3550    22.6600     5.4940     5.0200     6.2050 
  111.6250     2.2410   -17.8060   106.8110    22.6710     5.6880     5.0530     6.2410 
  111.7500     2.2380   -17.6720   104.7170    22.7150     5.6530     5.1840     6.3810 
  111.8750     2.2330   -17.6150   101.2630    22.8840     5.4540     5.3200     6.5270 
  112.0000     2.2210   -17.6110   108.2760    23.1320     5.4170     5.4090     6.6220 
  112.1250     2.2090   -17.5710   124.9560    23.0480     5.7080     5.4190     6.6320 
  112.2500     2.2100   -17.5220   131.4840    22.8340     5.8190     5.3670     6.5770 
  112.3750     2.2250   -17.4510   122.2650    22.7350     5.5300     5.2770     6.4810 
  112.5000     2.2470   -17.3670   109.1700    22.7900     5.1330     5.1820     6.3790 
  112.6250     2.2600   -17.2830   104.6660    22.7990     5.1160     5.1230     6.3150 
  112.7500     2.2610   -17.1650   103.2080    22.7400     5.2800     5.1010     6.2920 
  112.8750     2.2570   -17.0480   102.7520    22.6770     5.4160     5.0990     6.2900 
  113.0000     2.2600   -16.9580   108.7530    22.6740     5.4770     5.0940     6.2850 
  113.1250     2.2730   -16.9870   116.3260    22.7410     5.4860     5.0800     6.2700 
  113.2500     2.2900   -17.0370   115.9970    22.8170     5.3970     5.0830     6.2730 
  113.3750     2.2980   -17.0970   109.4510    22.8410     5.2890     5.1310     6.3240 
  113.5000     2.2890   -17.1650   104.1030    22.8060     6.5470     5.2310     6.4320 
  113.6250     2.2630   -17.2040   101.6630    22.6570     7.7140     5.3420     6.5500 
  113.7500     2.2420   -17.2720    96.9750    22.4340     7.8910     5.3860     6.5980 
  113.8750     2.2370   -17.4050    92.7730    22.2240     6.9360     5.3210     6.5280 
  114.0000     2.2450   -17.5310    92.4320    22.0390     6.1670     5.1600     6.3550 
  114.1250     2.2580   -17.6820    97.3000    21.9030     5.5610     4.9770     6.1590 
  114.2500     2.2700   -17.8910   104.1600    21.7920     5.4400     4.8560     6.0300 
  114.3750     2.2760   -18.1190   108.1920    21.6600     5.4310     4.8370     6.0100 
  114.5000     2.2650   -18.3850   105.4580    21.5280     5.5530     4.9190     6.0970 
  114.6250     2.2380   -18.7300    99.4880    21.5640     5.8570     5.0720     6.2610 
  114.7500     2.2150   -19.1660    97.0230    21.8960     6.2110     5.2410     6.4420 
  114.8750     2.2070   -19.5930    96.7150    22.3650     6.5250     5.4020     6.6150 
  115.0000     2.1990   -20.0630    96.3780    22.6560     6.8160     5.5670     6.7910 
  115.1250     2.1710   -20.4300    97.1630    22.6650     7.0700     5.8010     7.0420 
  115.2500     2.1250   -20.6760    98.1900    22.5540     7.3950     6.1670     7.4340 
  115.3750     2.0870   -20.8890    96.4010    22.4480     7.7560     6.6910     7.9960 
  115.5000     2.0870   -20.9960    92.2730    22.4460     8.1250     7.3340     8.6850 
  115.6250     2.1350   -20.9610    86.3760    22.5220     8.5500     7.9500     9.3440 
  115.7500     2.1850   -20.8250    78.8070    22.4690     9.1500     8.3380     9.7600 
  115.8750     2.2000   -20.5940    72.7620    22.2970    10.0340     8.3530     9.7760 
  116.0000     2.1680   -20.2460    76.4140    22.1130    11.4940     7.9810     9.3780 
  116.1250     2.1160   -19.8600    87.1990    22.0440    10.6300     7.3510     8.7020 
  116.2500     2.0880   -19.4930    92.0920    22.0390     8.5220     6.7240     8.0300 
  116.3750     2.0970   -19.1390    91.6070    22.0660     6.9330     6.2490     7.5220 
  116.5000     2.1330   -18.8250    94.1400    22.0900     6.4340     5.9970     7.2520 
  116.6250     2.1650   -18.5820   102.6670    22.1470     6.2970     5.9890     7.2440 
  116.7500     2.1760   -18.3400   107.3390    22.2120     6.2980     6.1110     7.3740 
  116.8750     2.1670   -18.1250   104.9450    22.2050     6.5230     6.2560     7.5300 
  117.0000     2.1530   -17.9650    99.8810    22.1360     6.8980     6.3060     7.5830 
  117.1250     2.1550   -17.8810    97.4270    22.0630     7.0150     6.1280     7.3920 
  117.2500     2.1820   -17.8460    98.5280    22.0780     6.4130     5.7660     7.0050 
  117.3750     2.2200   -17.8200   101.1490    22.2230     5.4370     5.3300     6.5370 
