~V
VERS. 2.00: Ver 2.00
~W
STRT.M 55.0000:
STOP.M 310.0000:
STEP.M 0.1250:
NULL. -999.2500:
UWI. F10049:
~C
DEPT.M :
GR.API :
RML.OHMM :
RI. :
RXO.OHMM :
CALI.CM :
DEN.GM/CC :
SP.MV :
~A
# ...
   66.2500    66.5660    12.3890    10.0810    11.1430    24.6190     2.2380   -14.6330 
   66.3750    69.6560    11.5550     9.4110    10.0700    24.5700     2.1860   -15.3160 
   66.5000    72.4980    11.0480     8.9120     9.8420    24.5430     2.1470   -15.7480 
   66.6250    74.4440    10.9180     8.6700     9.6430    24.5040     2.1230   -15.8970 
   66.7500    77.4240    10.8450     8.5010     9.3500    24.4670     2.1110   -15.7540 
   66.8750    80.5090    10.5920     8.2360     9.0870    24.4510     2.1120   -15.2290 
   67.0000    81.9710    10.0830     7.8210     8.4170    24.4890     2.1290   -14.2840 
   67.1250    84.5560     9.4360     7.3640     7.5620    24.6150     2.1580   -13.0500 
   67.2500    87.8610     8.9050     7.0300     7.1400    24.7620     2.1840   -11.8640 
   67.3750    88.5720     8.6430     6.8960     7.4890    24.8970     2.1990   -10.8530 
   67.5000    88.2820     8.7030     6.9680     8.2120    24.9900     2.2010   -10.0480 
   67.6250    89.7830     9.0400     7.1990     8.3530    25.0250     2.1980    -9.4050 
   67.7500    92.0660     9.4400     7.4520     8.0400    25.0400     2.1980    -9.0140 
   67.8750    92.0660     9.7420     7.6370     7.5610    25.0590     2.2000    -8.9450 
   68.0000    89.7330     9.8540     7.7110     7.8750    25.0780     2.2030    -9.2150 
   68.1250    87.8600     9.7630     7.6890     7.9090    24.8850     2.2050    -9.5460 
   68.2500    87.6250     9.6030     7.6610     7.3140    24.8580     2.2060    -9.6210 
   68.3750    88.7790     9.4710     7.6950     6.5750    24.8860     2.2070    -9.6060 
   68.5000    89.4250     9.4190     7.8250     6.5590    24.8370     2.2070    -9.5910 
   68.6250    89.2100     9.4340     8.0130     7.3160    24.6520     2.2080    -9.4890 
   68.7500    90.5340     9.4210     8.1300     7.8460    24.5870     2.2100    -9.2550 
   68.8750    94.6030     9.2920     8.0590     7.6670    24.5260     2.2110    -8.7910 
   69.0000   101.3700     9.0000     7.7500     7.0600    24.5120     2.2130    -8.0600 
   69.1250   109.0890     8.5540     7.2590     6.5580    24.5870     2.2160    -7.2870 
   69.2500   113.9470     8.0780     6.7640     6.0390    24.8420     2.2220    -6.6400 
   69.3750   115.6750     7.6650     6.3540     5.6590    25.1570     2.2320    -6.0090 
   69.5000   115.8530     7.3510     6.0580     5.6310    25.4150     2.2440    -5.3550 
   69.6250   116.0490     7.1120     5.8510     5.7160    25.6030     2.2560    -4.7920 
   69.7500   117.2500     6.8880     5.6650     5.7070    25.6710     2.2660    -4.3340 
   69.8750   117.9570     6.7040     5.5080     5.6740    25.6360     2.2710    -4.0320 
   70.0000   117.5080     6.6840     5.4660     5.6120    25.5660     2.2720    -3.9520 
   70.1250   114.3180     7.1000     5.7300     5.7970    25.5140     2.2750    -3.9970 
   70.2500   105.4670     8.0310     6.3720     6.2520    25.4840     2.2920    -4.1190 
   70.3750    91.5530     9.4110     7.4070     8.1140    25.4520     2.3310    -4.3530 
   70.5000    79.2280    10.9290     8.6880    13.0730    25.3840     2.3880    -4.7300 
   70.6250    76.4390    11.9620     9.7240    21.3010    25.2860     2.4370    -5.2660 
   70.7500    79.6430    12.1520    10.0700    20.0580    25.2040     2.4510    -5.8480 
   70.8750    83.3350    11.5180     9.6910    13.7660    25.1840     2.4190    -6.3600 
   71.0000    84.6300    10.4240     8.9170     8.8610    25.2380     2.3510    -6.8590 
   71.1250    82.6240     9.4010     8.1770     7.7950    25.2950     2.2760    -7.5380 
   71.2500    80.1710     8.7410     7.6850     8.1120    25.2470     2.2210    -8.1980 
   71.3750    81.8730     8.4530     7.4490     8.2100    25.1320     2.1950    -8.6920 
   71.5000    85.8040     8.4220     7.3930     7.7400    25.0880     2.1890    -8.9800 
   71.6250    85.7470     8.5370     7.4320     7.2890    25.1340     2.1910    -9.1160 
   71.7500    82.9260     8.7010     7.5070     7.3370    25.1180     2.1870    -9.2720 
   71.8750    81.6500     8.8820     7.6210     7.7740    25.0440     2.1800    -9.4230 
   72.0000    83.7980     9.0480     7.7750     8.1640    24.9720     2.1790    -9.3700 
   72.1250    85.4200     9.1510     7.9410     8.3360    24.9720     2.2010    -9.0100 
   72.2500    85.7080     9.1850     8.0660     8.8490    25.0410     2.2430    -8.6140 
   72.3750    87.0020     9.1740     8.1140    10.0720    25.1400     2.2910    -8.3540 
   72.5000    88.1200     9.1680     8.0770    12.1420    25.1920     2.3220    -8.3360 
   72.6250    86.9400     9.2400     8.0040     9.1860    25.1820     2.3180    -8.4530 
   72.7500    86.3130     9.4140     7.9880     7.9780    25.1420     2.2860    -8.6580 
   72.8750    85.8660     9.6800     8.0660     7.8380    25.1070     2.2430    -9.0090 
   73.0000    81.5570     9.9850     8.2270     8.2850    25.0880     2.2030    -9.4840 
   73.1250    74.7450    10.2270     8.4110     8.8330    25.0300     2.1770   -10.1130 
   73.2500    73.5720    10.3450     8.5220     9.1800    24.8780     2.1600   -10.8370 
   73.3750    78.4560    10.3410     8.5060     9.0230    24.6780     2.1510   -11.5400 
   73.5000    82.8880    10.2840     8.3860     8.7040    24.5980     2.1450   -12.0420 
   73.6250    83.9450    10.2820     8.2620     8.6680    24.6710     2.1400   -12.4380 
   73.7500    83.0780    10.3840     8.2270     8.8630    24.7880     2.1330   -12.6530 
   73.8750    81.1110    10.5980     8.3230     9.0690    24.8150     2.1260   -12.7110 
   74.0000    78.6880    10.9000     8.5560     9.2790    24.6660     2.1190   -12.7870 
   74.1250    77.7160    11.2450     8.9100     9.6680    24.5100     2.1150   -12.8780 
   74.2500    78.4510    11.5580     9.2970    10.2990    24.4500     2.1150   -12.9480 
   74.3750    79.0100    11.7920     9.6390    10.7540    24.4230     2.1180   -13.0290 
   74.5000    79.0690    11.9220     9.8680    10.5930    24.3580     2.1240   -13.1290 
   74.6250    79.4350    11.9360     9.9160    10.3840    24.2450     2.1340   -13.1500 
   74.7500    79.2210    11.8690     9.8290    10.3090    24.1700     2.1460   -13.2670 
   74.8750    77.1750    11.7480     9.6660    10.3470    24.1140     2.1590   -13.4750 
   75.0000    74.4030    11.5990     9.4950    10.2010    24.1340     2.1670   -13.7340 
   75.1250    73.0510    11.4600     9.3680     9.9270    24.2440     2.1680   -13.9920 
   75.2500    71.6360    11.3600     9.2880     9.7470    24.4190     2.1610   -14.2370 
   75.3750    69.8790    11.2880     9.2480    10.0040    24.5220     2.1470   -14.5480 
   75.5000    70.0960    11.2020     9.2300    10.3730    24.5560     2.1300   -14.9620 
   75.6250    71.1820    11.0480     9.2040    10.6400    24.5640     2.1120   -15.5670 
   75.7500    71.0250    10.8730     9.1530    10.8660    24.5820     2.0960   -16.1880 
   75.8750    70.1000    10.7970     9.1010    10.7660    24.6350     2.0820   -16.7630 
   76.0000    69.6180    10.9650     9.1330    10.5630    24.7110     2.0710   -17.3390 
   76.1250    67.8260    11.5190     9.4050    10.5840    24.7150     2.0760   -17.8830 
   76.2500    63.9700    12.3270     9.9400    10.9560    24.6580     2.1110   -18.3460 
   76.3750    61.5860    13.1720    10.6730    12.2960    24.5930     2.1790   -18.6430 
   76.5000    62.4630    13.7630    11.3890    18.1610    24.5570     2.2640   -18.7820 
   76.6250    64.9510    13.7580    11.6700    28.4520    24.5350     2.3270   -18.7840 
   76.7500    66.0970    13.2120    11.3860    24.8820    24.5070     2.3410   -18.7220 
   76.8750    65.5150    12.3310    10.6900    14.6510    24.4930     2.3080   -18.7860 
   77.0000    63.5140    11.4240     9.8880    10.8150    24.4890     2.2490   -18.9170 
   77.1250    61.3170    10.8180     9.2800    10.6420    24.5060     2.1950   -19.2020 
   77.2500    60.8390    10.5730     8.9550    10.9550    24.5620     2.1610   -19.6120 
   77.3750    62.5520    10.6220     8.8930    11.4640    24.6250     2.1430   -20.1170 
