~V
VERS. 2.00: Ver 2.00
~W
STRT.M 50.0000:
STOP.M 207.0000:
STEP.M 0.1250:
NULL. -999.2500:
UWI. F10009:
~C
DEPT.M :
GR.API :
RML.OHMM :
RI. :
RXO.OHMM :
CALI.CM :
DEN.GM/CC :
SP.MV :
~A
# ...
  185.0000    82.6850     7.2350     6.2000     7.5770    23.0720     2.3560    -7.3650 
  185.1250    88.7080     8.0390     6.8470     8.9780    23.0360     2.3730    -7.7080 
  185.2500    95.8490     8.8250     7.5500    10.4520    22.9970     2.3920    -8.0530 
  185.3750   102.4400     9.3630     8.1190    11.2100    22.9730     2.4030    -8.3890 
  185.5000   105.3910     9.4960     8.3930    10.9430    22.9860     2.4030    -8.7140 
  185.6250   103.4830     9.1740     8.2680     9.7640    23.0350     2.3880    -9.0070 
  185.7500    99.8200     8.6610     7.9230     8.7320    23.0990     2.3690    -9.2910 
  185.8750    96.0200     8.1800     7.5300     8.2520    23.1510     2.3510    -9.5530 
  186.0000    91.8300     7.8740     7.2250     8.1220    23.1730     2.3380    -9.7970 
  186.1250    88.3220     7.7810     7.0730     8.3010    23.1740     2.3310   -10.0290 
  186.2500    88.6920     7.7690     7.0070     8.4870    23.1720     2.3270   -10.2630 
  186.3750    92.3990     7.7480     6.9700     8.4420    23.1690     2.3240   -10.5250 
  186.5000    94.4450     7.6900     6.9360     8.0730    23.1700     2.3220   -10.8210 
  186.6250    91.2960     7.6440     6.9350     7.7570    23.1830     2.3230   -11.2030 
  186.7500    86.2300     7.6910     7.0160     7.7950    23.2150     2.3240   -11.6460 
  186.8750    81.7230     7.8730     7.2090     8.4330    23.2700     2.3250   -12.1380 
  187.0000    78.6520     8.1720     7.5000     9.4820    23.3410     2.3300   -12.6690 
  187.1250    78.8390     8.5030     7.8190    10.3390    23.4100     2.3390   -13.2040 
  187.2500    82.1050     8.7460     8.0620    10.3530    23.4410     2.3510   -13.7430 
  187.3750    85.2660     8.8300     8.1590     9.8710    23.4490     2.3630   -14.2690 
  187.5000    84.7370     8.7430     8.0920     9.2690    23.4470     2.3700   -14.7490 
  187.6250    80.7130     8.5250     7.8870     8.8340    23.4350     2.3650   -15.1350 
  187.7500    77.8160     8.2840     7.6450     8.4310    23.4000     2.3520   -15.4410 
  187.8750    78.1340     8.0730     7.4290     8.1790    23.3320     2.3340   -15.6650 
  188.0000    79.3950     7.9130     7.2710     8.1400    23.2340     2.3180   -15.8120 
  188.1250    79.2850     7.7990     7.1810     8.1840    23.1260     2.3060   -15.8830 
  188.2500    77.2780     7.7130     7.1310     8.2000    23.0710     2.3030   -15.8810 
  188.3750    73.6830     7.6460     7.0950     8.1420    23.0940     2.3090   -15.8120 
  188.5000    70.2120     7.5820     7.0460     7.9910    23.1910     2.3220   -15.6850 
  188.6250    68.5110     7.4880     6.9530     7.9240    23.3260     2.3400   -15.5250 
  188.7500    67.8680     7.3370     6.8140     7.7900    23.4240     2.3540   -15.3350 
  188.8750    66.6730     7.1260     6.6340     7.6540    23.4480     2.3600   -15.1540 
  189.0000    65.9650     6.8760     6.4270     7.5020    23.4000     2.3560   -15.0140 
  189.1250    65.3840     6.6320     6.2200     7.2640    23.2960     2.3460   -14.9400 
  189.2500    63.8340     6.4430     6.0460     7.0650    23.1640     2.3380   -14.9330 
  189.3750    62.6920     6.3450     5.9380     6.9510    23.0380     2.3370   -14.9600 
  189.5000    63.5840     6.3680     5.9300     6.9020    22.9520     2.3430   -15.0210 
  189.6250    66.8480     6.5540     6.0720     7.0290    22.9800     2.3530   -15.1140 
  189.7500    71.1850     6.8810     6.3470     7.3370    23.1310     2.3620   -15.2540 
  189.8750    75.3160     7.3170     6.7310     7.8180    23.3480     2.3650   -15.4310 
  190.0000    77.8460     7.7960     7.1660     8.5420    23.5480     2.3610   -15.5860 
  190.1250    78.8050     8.2030     7.5540     9.3440    23.6560     2.3550   -15.6800 
  190.2500    79.9110     8.4530     7.8080     9.9580    23.6840     2.3520   -15.7140 
  190.3750    80.6190     8.5080     7.8870    10.1730    23.6490     2.3550   -15.7130 
  190.5000    80.3690     8.3990     7.8080     9.8250    23.5780     2.3640   -15.6990 
  190.6250    80.3410     8.2220     7.6440     9.1580    23.5040     2.3750   -15.6680 
  190.7500    81.4690     8.1060     7.5100     8.6200    23.4660     2.3840   -15.6350 
  190.8750    82.2070     8.1290     7.4750     8.5490    23.4670     2.3890   -15.6350 
  191.0000    80.8300     8.3220     7.5740     9.0190    23.4900     2.3930   -15.7180 
  191.1250    77.3450     8.6850     7.8290     9.7970    23.4950     2.3930   -15.9530 
  191.2500    74.5370     9.1270     8.1810    10.3970    23.4800     2.3910   -16.3190 
  191.3750    74.0430     9.5670     8.5750    10.8310    23.4490     2.3830   -16.7890 
  191.5000    76.7290     9.9270     8.9450    11.2830    23.4110     2.3720   -17.3170 
  191.6250    81.2650    10.0990     9.1940    11.7600    23.3740     2.3600   -17.8740 
  191.7500    83.9080    10.0650     9.2740    11.6530    23.3510     2.3540   -18.4120 
  191.8750    83.6660     9.8270     9.1650    11.0420    23.3380     2.3550   -18.8700 
  192.0000    81.9020     9.4330     8.8860    10.2740    23.3330     2.3620   -19.2020 
  192.1250    80.2480     8.9590     8.4890     9.4960    23.3290     2.3730   -19.3240 
  192.2500    78.7270     8.5120     8.0810     8.7790    23.3280     2.3830   -19.1920 
  192.3750    76.8720     8.1520     7.7280     8.2480    23.3300     2.3940   -18.7750 
  192.5000    75.0870     7.9150     7.4710     8.0320    23.3350     2.4040   -18.0510 
  192.6250    73.6130     7.8260     7.3440     7.9990    23.3530     2.4080   -17.0260 
  192.7500    72.1440     7.8400     7.3110     8.0500    23.3820     2.4030   -15.8720 
  192.8750    70.5810     7.9040     7.3340     8.2330    23.4180     2.3880   -14.7140 
  193.0000    69.4090     7.9510     7.3610     8.4030    23.4550     2.3670   -13.6030 
  193.1250    69.2200     7.9010     7.3290     8.5810    23.4880     2.3490   -12.5960 
  193.2500    69.3700     7.7600     7.2310     8.5520    23.4970     2.3410   -11.7570 
  193.3750    69.5910     7.5850     7.1010     8.2730    23.4750     2.3430   -11.1670 
  193.5000    70.5030     7.4720     7.0090     7.9580    23.4360     2.3480   -10.9260 
  193.6250    71.8530     7.5360     7.0470     7.8640    23.4020     2.3460   -11.0880 
  193.7500    73.0730     7.7660     7.2190     8.0300    23.3920     2.3330   -11.4410 
  193.8750    74.9600     8.0870     7.4800     8.5040    23.4050     2.3130   -11.8410 
  194.0000    77.8090     8.3760     7.7390     9.2100    23.4370     2.2950   -12.2220 
  194.1250    80.4820     8.4700     7.8700     9.5160    23.4760     2.2890   -12.5790 
  194.2500    82.4730     8.3490     7.8300     9.1110    23.5090     2.2960   -12.9300 
  194.3750    84.0900     8.0700     7.6420     8.5290    23.5240     2.3120   -13.2650 
  194.5000    84.5480     7.7460     7.3830     8.0710    23.5250     2.3300   -13.5450 
  194.6250    83.3430     7.5280     7.1650     7.7570    23.5170     2.3440   -13.7320 
  194.7500    82.2460     7.4780     7.0610     7.6690    23.5030     2.3490   -13.8380 
  194.8750    81.6620     7.5940     7.0890     7.8480    23.4910     2.3440   -13.8870 
  195.0000    80.5190     7.8090     7.2150     8.0690    23.4940     2.3280   -13.9000 
  195.1250    79.5150     7.9950     7.3590     8.0460    23.5260     2.3110   -13.8490 
  195.2500    80.5150     8.0260     7.4140     8.0630    23.5960     2.3020   -13.7080 
  195.3750    82.7550     7.8390     7.3140     8.1200    23.6920     2.3040   -13.4640 
  195.5000    83.9690     7.4550     7.0490     7.9890    23.7990     2.3140   -13.1170 
  195.6250    82.0300     6.9860     6.6780     7.5020    23.9230     2.3230   -12.7110 
  195.7500    78.4500     6.6070     6.3320     6.9410    24.0660     2.3220   -12.3460 
  195.8750    75.7260     6.4220     6.1040     6.6320    24.2000     2.3130   -12.0850 
  196.0000    75.3190     6.4600     6.0410     6.7330    24.2790     2.3010   -11.9530 
  196.1250    76.5970     6.6940     6.1570     7.2230    24.2350     2.2950   -11.9620 
