~V
VERS. 2.00: Ver 2.00
~W
STRT.M 51.0000:
STOP.M 242.0000:
STEP.M 0.1250:
NULL. -999.2500:
UWI. F10056:
~C
DEPT.M :
GR.API :
RML.OHMM :
RI. :
RXO.OHMM :
CALI.CM :
SP.MV :
DEN.GM/CC :
~A
# ...
   73.5000    81.5200     7.8740     6.7320     6.7970    25.1230    -2.2820     2.2540 
   73.6250    81.3080     8.1400     6.9260     6.7420    25.0950    -2.7970     2.2560 
   73.7500    80.6440     8.4880     7.1510     6.9860    25.0110    -3.4640     2.2540 
   73.8750    79.3450     8.8200     7.3470     7.4820    24.9460    -4.0710     2.2490 
   74.0000    77.9260     8.9740     7.4170     7.7740    24.9250    -4.4030     2.2470 
   74.1250    77.1300     8.7290     7.2180     7.5460    24.9320    -4.3740     2.2540 
   74.2500    78.3530     8.1350     6.7780     6.8930    24.9340    -4.1760     2.2700 
   74.3750    82.9700     7.3680     6.2070     6.1350    24.8840    -3.9370     2.2920 
   74.5000    90.2690     6.6790     5.6680     5.5160    24.7210    -3.7050     2.3120 
   74.6250    96.2850     6.3820     5.3620     5.2070    24.4920    -3.5200     2.3230 
   74.7500    96.9910     6.5880     5.3700     5.4550    24.2760    -3.4410     2.3230 
   74.8750    92.7280     7.3350     5.7350     6.3000    24.1290    -3.6300     2.3120 
   75.0000    84.8940     8.5270     6.4390     7.6260    24.0840    -4.1930     2.2880 
   75.1250    75.4880     9.8660     7.3560     8.9830    24.1460    -5.2660     2.2490 
   75.2500    67.9710    10.8590     8.1570     9.3800    24.2610    -6.6720     2.2000 
   75.3750    63.1290    11.1760     8.5710     8.7380    24.3560    -8.2300     2.1500 
   75.5000    60.3760    10.7800     8.4980     7.8400    24.4630    -9.7480     2.1080 
   75.6250    60.0050     9.9480     8.0530     7.5590    24.6300   -11.1420     2.0880 
   75.7500    61.9140     9.1590     7.5580     7.6290    24.6990   -12.3560     2.0880 
   75.8750    63.5470     8.6200     7.1720     7.8360    24.6800   -13.3570     2.1050 
   76.0000    63.7460     8.3810     6.9560     8.1730    24.5950   -14.3010     2.1290 
   76.1250    64.3930     8.4240     6.9200     8.4170    24.5150   -15.1150     2.1530 
   76.2500    65.6090     8.6140     6.9830     8.5450    24.4950   -15.7910     2.1700 
   76.3750    66.1200     8.8560     7.0870     8.6580    24.5640   -16.2990     2.1810 
   76.5000    65.5000     9.0440     7.1630     8.9240    24.6730   -16.6110     2.1900 
   76.6250    65.3700     9.0380     7.1240     9.0690    24.7720   -16.5430     2.1990 
   76.7500    67.1010     8.8210     6.9570     9.2240    24.9080   -16.1200     2.2080 
   76.8750    70.6800     8.4480     6.6930     8.7850    25.0640   -15.3960     2.2150 
   77.0000    73.5650     8.0510     6.4120     7.6330    25.1720   -14.4430     2.2170 
   77.1250    72.9310     7.8220     6.2290     6.7080    25.2380   -13.6940     2.2130 
   77.2500    71.7510     7.8330     6.1950     6.7940    25.3110   -13.2200     2.2050 
   77.3750    72.3490     8.0690     6.3170     7.6530    25.4230   -13.0150     2.1980 
   77.5000    73.1930     8.4430     6.5540     8.4880    25.5500   -13.0470     2.1930 
   77.6250    70.8040     8.8080     6.8290     8.7700    25.6280   -13.4180     2.1910 
   77.7500    66.5750     9.0450     7.0460     8.7380    25.6320   -14.0700     2.1880 
   77.8750    63.3690     9.1100     7.1560     8.6830    25.5150   -14.8700     2.1820 
   78.0000    63.4460     9.0250     7.1500     8.5610    25.2930   -15.6760     2.1750 
   78.1250    67.3980     8.8280     7.0380     8.2180    25.1190   -15.9320     2.1720 
   78.2500    72.8180     8.5770     6.8720     7.6700    24.8940   -15.6420     2.1750 
   78.3750    76.7410     8.3160     6.6860     7.2400    24.7060   -14.9100     2.1850 
   78.5000    77.2700     8.0930     6.5230     6.9810    24.6430   -13.8200     2.2020 
   78.6250    75.8060     7.9700     6.4220     7.0780    24.7080   -12.3660     2.2270 
   78.7500    75.9530     7.9380     6.3820     7.2580    24.8080   -10.7300     2.2550 
   78.8750    79.1710     7.9730     6.3870     7.3760    24.8750    -9.1400     2.2800 
   79.0000    83.7180     8.0300     6.4140     8.6440    24.8860    -7.6070     2.2940 
   79.1250    85.8500     8.0700     6.4420     7.9190    24.9160    -6.3080     2.2900 
   79.2500    84.7670     8.1060     6.4730     7.2940    25.0410    -5.2560     2.2760 
   79.3750    80.3250     8.1700     6.5250     6.8300    25.1310    -4.5350     2.2570 
   79.5000    74.6710     8.2760     6.6040     6.7550    25.1360    -4.1590     2.2430 
   79.6250    72.0380     8.3880     6.6930     6.9880    25.0490    -4.1570     2.2390 
   79.7500    74.3930     8.4120     6.7340     7.3110    24.9560    -4.2260     2.2450 
   79.8750    79.5810     8.2520     6.6660     7.1980    24.9160    -4.1990     2.2580 
   80.0000    83.3470     7.8810     6.4560     6.6670    24.9120    -4.0570     2.2730 
   80.1250    84.9050     7.3970     6.1490     6.2890    24.9200    -3.8170     2.2900 
   80.2500    85.9540     7.0080     5.8760     6.0960    24.9400    -3.5080     2.3110 
   80.3750    88.1030     6.8590     5.7350     5.6260    24.9710    -3.1340     2.3370 
   80.5000    91.5790     7.0140     5.7800     5.5200    24.9440    -2.7560     2.3610 
   80.6250    92.3540     7.4410     6.0270     6.1520    24.9260    -2.4770     2.3690 
   80.7500    87.1390     7.9190     6.3570     6.9530    24.9040    -2.4850     2.3560 
   80.8750    79.1890     8.2710     6.6560     7.1260    24.8630    -2.6360     2.3280 
   81.0000    74.6780     8.3970     6.8350     7.2250    24.7700    -2.8510     2.2970 
   81.1250    75.6360     8.2980     6.8550     6.9770    24.7050    -3.1490     2.2760 
   81.2500    76.6760     8.1540     6.8040     6.8030    24.6390    -3.6000     2.2660 
   81.3750    75.6140     8.0920     6.7630     7.0080    24.5530    -4.0910     2.2600 
   81.5000    73.5330     8.1660     6.7810     7.1330    24.4530    -4.4570     2.2540 
   81.6250    72.4760     8.3330     6.8550     7.4970    24.3710    -4.5700     2.2460 
   81.7500    72.5990     8.4680     6.9220     7.4190    24.3520    -4.4130     2.2380 
   81.8750    74.9560     8.4910     6.9350     7.0710    24.3650    -4.0880     2.2380 
   82.0000    78.4320     8.3800     6.8720     6.7150    24.3430    -3.7520     2.2480 
   82.1250    80.1880     8.2160     6.7630     6.5660    24.2280    -3.5590     2.2670 
   82.2500    80.0750     8.1700     6.7090     6.2770    24.0560    -3.4240     2.2840 
   82.3750    82.6680     8.3730     6.7960     6.1490    23.8870    -3.4200     2.2950 
   82.5000    87.2080     8.8950     7.0800     6.2880    23.6950    -3.6640     2.3020 
   82.6250    84.0800     9.7470     7.6010     6.8070    23.4610    -4.2530     2.3140 
   82.7500    74.3540    10.7140     8.2470     8.2390    23.3430    -5.1270     2.3340 
   82.8750    65.6880    11.5510     8.8760    11.1220    23.4110    -6.2860     2.3540 
   83.0000    62.7910    12.0130     9.3120    14.8370    23.6520    -7.5870     2.3630 
   83.1250    64.3200    11.9510     9.4130    13.6840    23.8930    -8.7230     2.3530 
   83.2500    66.2190    11.6890     9.3380    11.7980    23.9100    -9.6900     2.3350 
   83.3750    67.3570    11.6270     9.3190    10.4630    23.7590   -10.4140     2.3210 
   83.5000    67.5020    12.1070     9.5860     9.6790    23.4750   -10.9200     2.3200 
   83.6250    67.0150    13.3490    10.3320     9.7720    23.2870   -11.2490     2.3300 
   83.7500    64.0710    14.9660    11.3970    10.8530    23.3840   -11.4110     2.3330 
   83.8750    59.0610    16.3800    12.4590    13.1810    23.7740   -11.5130     2.3170 
   84.0000    56.2830    16.9240    13.0570    15.1130    24.2460   -11.7260     2.2790 
   84.1250    58.3700    16.0830    12.7360    13.0970    24.5520   -12.1330     2.2290 
   84.2500    62.2880    14.4560    11.7990    10.4910    24.8330   -12.6610     2.1880 
   84.3750    65.4850    12.6940    10.6570     9.6050    25.0910   -13.3670     2.1650 
   84.5000    67.1670    11.2780     9.6490     9.8340    25.0330   -14.1380     2.1610 
   84.6250    67.6020    10.4650     8.9910    10.0020    24.9680   -14.8320     2.1680 
