~V
VERS. 2.00: Ver 2.00
~W
STRT.M 50.0000:
STOP.M 250.0000:
STEP.M 0.1250:
NULL. -999.2500:
UWI. F10033:
~C
DEPT.M :
SP.MV :
GR.API :
RML.OHMM :
RI. :
RXO.OHMM :
CALI.CM :
DEN.GM/CC :
~A
# ...
  230.0000    -9.6440    30.1620     4.7710     4.6290     4.6890    25.0460     2.3900 
  230.1250    -9.6710    30.3040     4.8850     4.7210     5.0520    25.0230     2.4080 
  230.2500    -9.7910    29.8400     4.9790     4.7630     5.0500    24.9750     2.4340 
  230.3750    -9.9350    29.1300     5.0230     4.7260     4.9140    24.9140     2.4630 
  230.5000   -10.1430    28.5100     4.9860     4.6030     4.8060    24.8690     2.4930 
  230.6250   -10.4250    27.8340     4.8620     4.4230     4.7570    24.8650     2.5100 
  230.7500   -10.7850    27.9520     4.7470     4.2820     4.6950    24.9030     2.5080 
  230.8750   -11.2700    30.8140     4.7600     4.2660     4.6260    24.9960     2.4830 
  231.0000   -11.9150    38.6880     5.0050     4.4380     4.7560    25.1220     2.4400 
  231.1250   -12.6890    52.5640     5.5680     4.8580     5.8540    25.1210     2.3890 
  231.2500   -13.4540    67.0920     6.3170     5.4400     8.2210    24.9400     2.3480 
  231.3750   -14.1560    77.2940     7.0810     6.0700     9.8650    24.6910     2.3240 
  231.5000   -14.7920    81.7980     7.6770     6.6080     8.8260    24.5730     2.3150 
  231.6250   -15.3450    83.1230     7.9630     6.9210     7.9120    24.5460     2.3140 
  231.7500   -15.8810    84.3050     8.0470     7.0650     7.6360    24.5070     2.3080 
  231.8750   -16.3290    86.3170     8.0660     7.1360     8.0220    24.4560     2.2970 
  232.0000   -16.6250    89.7510     8.1340     7.2300     8.6100    24.4620     2.2850 
  232.1250   -16.7530    91.3340     8.2860     7.3940     8.7880    24.4760     2.2790 
  232.2500   -16.7810    88.6790     8.4440     7.5800     8.8990    24.4040     2.2810 
  232.3750   -16.8420    83.7620     8.5450     7.7330     9.0410    24.3040     2.2890 
  232.5000   -16.8970    80.3830     8.5690     7.8170     9.0150    24.2480     2.2990 
  232.6250   -16.8950    79.6920     8.5540     7.8450     8.2900    24.2660     2.3060 
  232.7500   -16.7810    80.4020     8.5870     7.8910     7.9370    24.3170     2.3110 
  232.8750   -16.5880    82.2410     8.7400     8.0250     8.0350    24.3630     2.3140 
  233.0000   -16.3590    84.1390     9.0320     8.2710     8.5800    24.3520     2.3170 
  233.1250   -16.1610    84.5430     9.3930     8.5820     9.6060    24.1780     2.3180 
  233.2500   -15.9780    83.2090     9.6740     8.8300    10.7360    23.9000     2.3190 
  233.3750   -15.6910    80.4550     9.7540     8.9140    11.6570    23.7170     2.3180 
  233.5000   -15.3870    76.6980     9.5630     8.7680    11.2530    23.7380     2.3200 
  233.6250   -15.0690    72.7220     9.0940     8.3720     9.3240    23.9140     2.3260 
  233.7500   -14.7280    68.2480     8.5070     7.8470     7.8850    24.1220     2.3380 
  233.8750   -14.3550    62.1900     7.9050     7.2810     7.5540    24.2660     2.3510 
  234.0000   -13.9260    55.3020     7.3530     6.7420     7.1090    24.3300     2.3630 
  234.1250   -13.4400    49.6500     6.9220     6.3110     6.8940    24.3770     2.3690 
  234.2500   -12.9790    46.9730     6.6200     6.0140     6.9950    24.4130     2.3720 
  234.3750   -12.6010    46.3370     6.4590     5.8720     7.2180    24.4360     2.3750 
  234.5000   -12.2710    44.7310     6.4910     5.9240     7.5630    24.4170     2.3800 
  234.6250   -11.9280    40.2420     6.8510     6.2750     7.8980    24.4310     2.3940 
  234.7500   -11.6010    36.3620     7.5310     6.9140     8.3550    24.4170     2.4210 
  234.8750   -11.2830    35.4590     8.4510     7.7850     8.8720    24.3410     2.4590 
  235.0000   -11.0600    37.1280     9.3740     8.7020     9.9330    24.2470     2.5010 
  235.1250   -10.9070    38.0880     9.8090     9.2190    11.2840    24.1860     2.5270 
  235.2500   -10.7490    37.4910     9.4920     9.0380    10.7130    24.1540     2.5220 
  235.3750   -10.6360    36.4000     8.4830     8.1820     8.5340    24.0750     2.4880 
  235.5000   -10.5100    35.8580     7.1370     6.9850     6.4310    23.9540     2.4340 
  235.6250   -10.4070    36.0820     5.9180     5.8700     5.3170    23.9440     2.3830 
  235.7500   -10.2850    34.7690     5.0660     5.0450     4.7540    24.0150     2.3490 
  235.8750   -10.1800    32.3030     4.6170     4.5410     4.7200    24.0840     2.3350 
  236.0000   -10.0160    30.4160     4.4870     4.3100     4.9420    24.0870     2.3370 
  236.1250    -9.7940    29.2750     4.5480     4.2810     4.7800    23.9880     2.3480 
  236.2500    -9.5630    28.0670     4.6260     4.3220     4.4690    23.8410     2.3590 
  236.3750    -9.3240    27.1590     4.6590     4.3660     4.2770    23.7260     2.3650 
  236.5000    -9.1100    27.2690     4.6510     4.3860     4.2440    23.6740     2.3640 
  236.6250    -8.9990    27.9380     4.6430     4.3860     4.2940    23.7080     2.3540 
  236.7500    -8.9710    29.2540     4.6610     4.3900     4.3200    23.8040     2.3420 
  236.8750    -8.9480    31.4910     4.7020     4.4060     4.3660    23.8980     2.3310 
  237.0000    -8.9990    33.0390     4.7530     4.4230     4.5240    23.9830     2.3260 
  237.1250    -9.0900    33.0000     4.7730     4.4170     4.5620    24.2120     2.3280 
  237.2500    -9.2190    32.8860     4.7300     4.3750     4.4710    24.5490     2.3350 
  237.3750    -9.3520    33.4500     4.6170     4.2950     4.2740    24.8330     2.3470 
  237.5000    -9.4770    33.2150     4.4620     4.1900     4.0720    24.9920     2.3610 
  237.6250    -9.5780    30.5800     4.3320     4.0890     4.0110    25.0500     2.3680 
  237.7500    -9.6740    27.5340     4.2740     4.0140     3.9580    25.0710     2.3660 
  237.8750    -9.7990    26.4390     4.2900     3.9730     3.9690    25.0390     2.3550 
  238.0000    -9.9100    27.9070     4.3500     3.9600     4.0470    24.9740     2.3410 
  238.1250   -10.0030    30.1290     4.4200     3.9670     4.1110    24.8950     2.3270 
  238.2500   -10.0630    31.2080     4.4760     3.9850     4.0820    24.9290     2.3140 
  238.3750   -10.1310    30.8530     4.5190     4.0160     4.0960    25.0890     2.2960 
  238.5000   -10.2270    29.6560     4.5660     4.0670     4.1230    25.3220     2.2740 
  238.6250   -10.2670    29.3450     4.6240     4.1430     4.3100    25.4960     2.2570 
  238.7500   -10.3040    30.0280     4.6870     4.2290     4.6610    25.5130     2.2560 
  238.8750   -10.3170    30.0950     4.7310     4.2990     5.0120    25.3680     2.2700 
  239.0000   -10.2880    29.4270     4.7330     4.3280     5.0310    25.1950     2.2930 
  239.1250   -10.2630    29.6370     4.6730     4.2910     4.5750    25.1470     2.3100 
  239.2500   -10.2600    30.4310     4.5800     4.2070     4.3140    25.1810     2.3180 
  239.3750   -10.2820    30.6140     4.4920     4.1120     4.2560    25.2320     2.3210 
  239.5000   -10.3040    30.6140     4.4480     4.0430     4.3730    25.2310     2.3270 
  239.6250   -10.3350    30.6140     4.4860     4.0390     4.5220    25.1050     2.3420 
  239.7500   -10.3410    30.6140     4.5990     4.0970     4.6790    25.0420     2.3590 
  239.8750   -10.3590    30.6140     4.7620     4.2020     4.8370    25.0300     2.3700 
  240.0000   -10.4160    30.6140     4.9420     4.3340     4.8610    25.0540     2.3700 
  240.1250   -10.5020    30.6140     5.1050     4.4660     4.9120    25.1130     2.3590 
  240.2500   -10.6320    30.6140     5.2250     4.5710     5.0360    25.1710     2.3450 
  240.3750   -10.7210    30.6140     5.2820     4.6290     5.1280    25.1980     2.3340 
  240.5000   -10.7650    30.6140     5.2640     4.6300     5.0910    25.1900     2.3280 
  240.6250   -10.7740    30.6140     5.1680     4.5680     4.9220    25.1510     2.3250 
  240.7500   -10.7650    30.6140     5.0290     4.4700     4.6940    25.0700     2.3240 
  240.8750   -10.7320    30.6140     4.8720     4.3560     4.4760    24.9510     2.3260 
  241.0000   -10.6600    30.6140     4.7190     4.2470     4.3790    24.8920     2.3330 
  241.1250   -10.5630    30.6140     4.5800     4.1590     4.3780    25.0310     2.3450 
