~V
VERS. 2.00: Ver 2.00
~W
STRT.M 64.0000:
STOP.M 287.0000:
STEP.M 0.1250:
NULL. -999.2500:
UWI. F10052:
~C
DEPT.M :
SP.MV :
DEN.GM/CC :
GR.API :
RML.OHMM :
RI. :
RXO.OHMM :
CALI.CM :
~A
# ...
  277.7500   -22.5670     2.4480    52.0910    95.0700    90.1450    70.9760    22.6630 
  277.8750   -22.5610     2.4030    52.0910    99.6020    96.4660    71.2820    22.8110 
  278.0000   -22.5890     2.3880    52.0910    86.2990    87.3120    67.1340    22.9740 
  278.1250   -22.5580     2.4000    52.0910    68.4480    70.4000    59.4050    23.1330 
  278.2500   -22.5280     2.4150    52.0910    54.7180    55.3610    55.3240    23.2740 
  278.3750   -22.5020     2.4210    52.0910    45.8300    44.6300    52.1750    23.3650 
  278.5000   -22.4670     2.4170    52.0910    41.2360    38.3300    46.5980    23.3990 
  278.6250   -22.4630     2.4150    52.0910    40.9280    36.4850    37.9000    23.4060 
  278.7500   -22.4580     2.4220    52.0910    43.8990    37.8580    35.6180    23.4080 
  278.8750   -22.4540     2.4330    52.0910    49.8780    42.0870    38.8270    23.3860 
  279.0000   -22.4310     2.4400    52.0910    58.3480    48.6990    46.4770    23.3190 
  279.1250   -22.4190     2.4410    52.0910    67.8190    56.5290    57.0010    23.1750 
  279.2500   -22.4320     2.4450    52.0910    75.3040    63.1530    67.9390    22.9590 
  279.3750   -22.4390     2.4590    52.0910    78.4200    66.5900    75.8050    22.7280 
  279.5000   -22.4560     2.4850    52.0910    76.5160    65.9600    77.6710    22.5910 
  279.6250   -22.4830     2.5120    52.0910    70.5080    61.4640    80.1260    22.6580 
  279.7500   -22.5090     2.5250    52.0910    62.9670    55.2150    76.8980    22.8990 
  279.8750   -22.5350     2.5240    52.0910    54.9020    48.2890    66.1800    23.2630 
  280.0000   -22.5490     2.5190    52.0910    46.7240    41.2140    58.0660    23.6780 
  280.1250   -22.5580     2.5160    52.0910    38.8140    34.3440    52.1890    24.0260 
  280.2500   -22.5280     2.5050    52.0910    31.6670    28.0840    40.8390    24.2410 
  280.3750   -22.4970     2.4770    52.0910    25.7770    22.8540    27.6500    24.3240 
  280.5000   -22.4460     2.4350    52.0910    21.4300    18.9100    17.6910    24.3150 
  280.6250   -22.3820     2.3920    52.0910    18.8810    16.4690    13.9370    24.2530 
  280.7500   -22.3240     2.3700    52.0910    17.6450    15.1420    14.0920    24.1650 
  280.8750   -22.2660     2.3780    52.0910    17.4030    14.6990    15.3610    24.0580 
  281.0000   -22.2140     2.4040    52.0910    17.7720    14.8640    16.7140    23.9530 
  281.1250   -22.2020     2.4170    52.0910    18.2730    15.2870    18.0130    23.9060 
  281.2500   -22.2240     2.3970    52.0910    18.4510    15.5470    18.2970    23.9420 
  281.3750   -22.2500     2.3520    52.0910    18.1460    15.4480    16.8410    24.0350 
  281.5000   -22.2640     2.3020    52.0910    17.4580    15.0110    14.4040    24.1120 
  281.6250   -22.2490     2.2720    52.0910    16.6700    14.4230    13.1470    24.0950 
  281.7500   -22.2240     2.2730    52.0910    16.0470    13.9170    12.1550    23.9950 
  281.8750   -22.2140     2.3070    52.0910    15.6690    13.5820    10.8900    23.8420 
  282.0000   -22.1910     2.3570    52.0910    15.5050    13.4130     9.4990    23.6640 
  282.1250   -22.1380     2.3990    52.0910    15.4730    13.3620     9.5790    23.5050 
  282.2500   -22.0690     2.4130    52.0910    15.4670    13.3480    12.4660    23.4130 
  282.3750   -21.9960     2.4000    52.0910    15.4530    13.3430    14.7160    23.4120 
  282.5000   -21.9350     2.3660    52.0910    15.4290    13.3410    12.9840    23.4970 
  282.6250   -21.9080     2.3260    52.0910    15.4040    13.3400    10.4330    23.6680 
  282.7500   -21.8720     2.2950    52.0910    15.3910    13.3380    10.3940    23.8970 
  282.8750   -21.7940     2.2790    52.0910    15.3910    13.3380    11.3420    24.1350 
  283.0000   -21.6920     2.2810    52.0910    15.3910    13.3380    10.9630    24.2950 
  283.1250   -21.5980     2.3100    52.0910    15.3910    13.3380    11.4630    24.2860 
  283.2500   -21.5120     2.3610    52.0910    15.3910    13.3380    14.2720    24.1510 
  283.3750   -21.4320     2.4200    52.0910    15.3910    13.3380    17.5030    23.9560 
  283.5000   -21.3570     2.4610    52.0910    15.3910    13.3380    18.1690    23.7720 
  283.6250   -21.2700     2.4650    52.0910    15.3910    13.3380    16.8360    23.6920 
  283.7500   -21.1500     2.4380    52.0910    15.3910    13.3380    16.1350    23.7350 
  283.8750   -21.0340     2.3990    52.0910    15.3910    13.3380    14.9650    23.8610 
  284.0000   -20.9730     2.3690    52.0910    15.3910    13.3380    12.5980    24.0050 
  284.1250   -20.9280     2.3680    52.0910    15.3910    13.3380    11.2220    24.1190 
  284.2500   -20.8360     2.3870    52.0910    15.3910    13.3380    13.0690    24.1910 
  284.3750   -20.7490     2.4150    52.0910    15.3910    13.3380    16.8120    24.2240 
  284.5000   -20.6620     2.4430    52.0910    15.3910    13.3380    19.5490    24.2380 
  284.6250   -20.5740     2.4650    52.0910    15.3910    13.3380    17.3200    24.2510 
  284.7500   -20.4950     2.4780    52.0910    15.3910    13.3380    14.7230    24.2590 
  284.8750   -20.4390     2.4790    52.0910    15.3910    13.3380    12.9090    24.2550 
  285.0000   -20.3460     2.4630    52.0910    15.3910    13.3380    11.6840    24.2450 
  285.1250   -20.2160     2.4250    52.0910    15.3910    13.3380     9.0760    24.2280 
  285.2500   -20.0930     2.3740    52.0910    15.3910    13.3380     6.5300    24.1800 
  285.3750   -19.9460     2.3180    52.0910    15.3910    13.3380     5.2400    24.0610 
  285.5000   -19.8150     2.2640    52.0910    15.3910    13.3380     5.0720    23.8330 
  285.6250   -19.6570     2.2180    52.0910    15.3910    13.3380     5.3960    23.4440 
  285.7500   -19.4920     2.1890    52.0910    15.3910    13.3380     5.6960    22.9040 
  285.8750   -19.3090     2.1850    52.0910    15.3910    13.3380     5.5150    22.2260 
  286.0000   -19.1200     2.2080    52.0910    15.3910    13.3380     4.9520    21.4550 
  286.1250   -18.9510     2.2450    52.0910    15.3910    13.3380     4.6300    20.6970 
  286.2500   -18.6380     2.2720    52.0910    15.3910    13.3380     4.4580    20.1110 
  286.3750   -17.8540     2.2750    52.0910    15.3910    13.3380     4.3690    19.7860 
  286.5000   -16.8810     2.2580    52.0910    15.3910    13.3380     4.2470    19.6790 
  286.6250   -15.8970     2.2410    52.0910    15.3910    13.3380     4.1120    19.6560 
  286.7500   -14.9220     2.2230    52.0910    15.3910    13.3380     4.0550    19.6220 
  286.8750   -13.9380     2.2190    52.0910    15.3910    13.3380     4.0430    19.5900 
  287.0000   -12.9510     2.2140    52.0910    15.3910    13.3380     4.0440    19.5720 
