~V
VERS. 2.00: Ver 2.00
~W
STRT.M 51.0000:
STOP.M 262.0000:
STEP.M 0.1250:
NULL. -999.2500:
UWI. F10019:
~C
DEPT.M :
DEN.GM/CC :
SP.MV :
GR.API :
CALI.CM :
RXO.OHMM :
RI. :
RML.OHMM :
~A
# ...
  129.7500     2.2800   -12.8090   112.3010    24.3130     9.7530     6.1690     7.1870 
  129.8750     2.2680   -12.8350   111.5690    24.2940     9.6760     6.0460     7.0020 
  130.0000     2.2540   -12.9150   109.2930    24.2980     9.6640     5.9700     6.9530 
  130.1250     2.2460   -13.0180   109.1560    24.3010     9.7720     6.0670     7.1570 
  130.2500     2.2510   -13.1150   110.4780    24.3240     9.7490     6.4110     7.6620 
  130.3750     2.2720   -13.2370   108.3430    24.3550     9.4660     6.9940     8.4200 
  130.5000     2.3070   -13.3680    98.8220    24.3890     9.1380     7.7040     9.2210 
  130.6250     2.3450   -13.5210    89.7650    24.3930     8.9930     8.2750     9.7410 
  130.7500     2.3750   -13.6920    87.9300    24.3650     9.4690     8.5080     9.7750 
  130.8750     2.3870   -13.9260    93.1810    24.3410    10.9370     8.3700     9.3710 
  131.0000     2.3730   -14.1630   100.5200    24.3360    11.6890     8.0310     8.8230 
  131.1250     2.3430   -14.4140   105.1600    24.3490    11.1240     7.7610     8.4590 
  131.2500     2.3130   -14.7120   104.6880    24.3870    10.2310     7.6790     8.3990 
  131.3750     2.2960   -15.0920   101.4720    24.4360    10.2950     7.8000     8.6130 
  131.5000     2.2940   -15.5480   100.5370    24.4260    10.5700     8.0160     8.9170 
  131.6250     2.2920   -16.1190   100.7350    24.3850    10.1820     8.1230     9.0600 
  131.7500     2.2830   -16.8010    98.8360    24.3800     9.3130     8.0050     8.9360 
  131.8750     2.2670   -17.6540    97.2120    24.3960     8.6810     7.6770     8.5790 
  132.0000     2.2610   -18.7210   100.7690    24.4170     8.4670     7.2670     8.1360 
  132.1250     2.2700   -20.0230   105.1250    24.4400     8.5090     6.9710     7.8430 
  132.2500     2.2800   -21.5730   107.2640    24.4510     9.3500     6.9520     7.9020 
  132.3750     2.2680   -23.3200   106.9570    24.4300    12.4300     7.3610     8.4820 
  132.5000     2.2300   -25.2630   104.1750    24.4140    18.0630     8.4800     9.8720 
  132.6250     2.1890   -27.2920    98.7630    24.3980    23.2720    10.3940    12.1210 
  132.7500     2.1590   -29.3060    89.8850    24.3730    26.4070    13.1770    15.2570 
  132.8750     2.1380   -31.1950    79.0610    24.3730    28.9960    16.6200    18.9880 
  133.0000     2.1160   -32.9070    68.5730    24.4180    31.7720    19.9110    22.3390 
  133.1250     2.0910   -34.4190    62.9520    24.4610    32.9720    22.1210    24.3400 
  133.2500     2.0690   -35.6900    62.9940    24.4770    32.1580    23.0130    24.8370 
  133.3750     2.0580   -36.7160    66.7460    24.4610    30.4230    23.0150    24.4550 
  133.5000     2.0600   -37.4830    70.8270    24.4230    28.8100    22.7990    24.0910 
  133.6250     2.0690   -38.0700    72.6560    24.4210    28.4090    22.8240    24.2170 
  133.7500     2.0780   -38.5480    71.3150    24.5480    29.0360    23.1880    24.8470 
  133.8750     2.0880   -38.9300    69.1020    24.7450    30.0680    23.8320    25.8000 
  134.0000     2.0950   -39.2430    70.3950    24.7890    31.3690    24.6230    26.8040 
  134.1250     2.0970   -39.4790    72.1730    24.7180    33.1380    25.3890    27.6600 
  134.2500     2.0960   -39.6610    69.9000    24.6960    34.6730    26.0510    28.3250 
  134.3750     2.0930   -39.7540    64.4240    24.7960    35.4510    26.5780    28.8250 
  134.5000     2.0840   -39.7740    61.9570    24.8810    35.7210    26.9100    29.1090 
  134.6250     2.0730   -39.7080    64.4250    24.9160    35.2260    27.0200    29.0620 
  134.7500     2.0670   -39.5830    68.1410    24.9500    34.1960    26.8940    28.5990 
  134.8750     2.0690   -39.3820    69.7250    25.0140    32.8890    26.5910    27.8340 
  135.0000     2.0790   -39.1160    68.5380    25.0420    31.8210    26.2220    27.0650 
  135.1250     2.0890   -38.7810    67.1430    25.0630    31.5400    25.8810    26.5300 
  135.2500     2.0890   -38.3860    66.7730    25.1220    31.6990    25.5620    26.2310 
  135.3750     2.0490   -37.9910    66.6980    25.2870    31.2420    25.2030    25.9880 
  135.5000     1.9620   -37.6110    65.5150    25.5680    28.9570    24.7290    25.5560 
  135.6250     1.8930   -37.2620    63.9110    25.8090    27.1920    24.1830    24.9250 
  135.7500     1.9030   -36.9630    64.5800    25.7610    27.7980    23.6680    24.2510 
  135.8750     1.9910   -36.7100    68.0990    25.1420    28.6820    23.3230    23.7710 
  136.0000     2.0930   -36.4680    69.5730    24.4320    28.2160    23.3300    23.7140 
  136.1250     2.1460   -36.2400    67.8460    24.3520    27.3190    23.6720    24.0190 
  136.2500     2.1430   -36.0090    67.4140    24.6240    27.5670    24.2570    24.5530 
  136.3750     2.1150   -35.7400    71.0690    24.8220    28.2820    24.9080    25.1190 
  136.5000     2.0940   -35.3860    73.5730    24.8650    28.8520    25.3510    25.4260 
  136.6250     2.0870   -34.9590    72.5230    24.8790    28.3970    25.3950    25.2910 
  136.7500     2.0880   -34.4410    71.6790    24.8830    27.0600    24.9280    24.6250 
  136.8750     2.0920   -33.8920    73.0590    24.9180    25.5410    23.9940    23.5280 
  137.0000     2.0960   -33.3630    73.9850    24.9610    23.9910    22.8260    22.2870 
  137.1250     2.0980   -32.8910    72.7040    24.9620    21.8570    21.8120    21.3020 
  137.2500     2.0970   -32.4710    72.2790    24.9300    19.7470    21.2320    20.8640 
  137.3750     2.0970   -32.0980    74.0560    24.9410    19.3510    21.2960    21.1570 
  137.5000     2.1020   -31.7720    74.8480    25.1260    22.2760    22.2390    22.3780 
  137.6250     2.1010   -31.5070    72.0960    25.4340    26.7140    23.8570    24.2430 
  137.7500     2.0790   -31.2640    68.6600    25.5790    31.4040    25.8090    26.2990 
  137.8750     2.0510   -31.0610    67.3040    25.4030    36.9530    27.4450    27.7850 
  138.0000     2.0610   -30.8230    68.9640    25.1400    41.2750    27.7880    27.7000 
  138.1250     2.1160   -30.5760    71.6010    24.7920    39.1950    26.9330    26.3960 
  138.2500     2.1790   -30.3340    72.9050    24.4190    30.7630    25.6230    24.8420 
  138.3750     2.2160   -30.1040    72.8790    24.3650    23.1310    24.8190    24.1070 
  138.5000     2.2260   -29.9410    73.8600    24.4110    21.3100    25.5490    25.2170 
  138.6250     2.2510   -29.8660    76.0220    24.4360    28.3400    28.0090    28.1470 
  138.7500     2.3150   -29.9150    77.0260    24.3820    48.9130    31.9860    32.4760 
  138.8750     2.4100   -30.0550    74.6240    24.2260    71.2230    36.2960    36.7610 
  139.0000     2.4960   -30.3950    72.1700    23.9560    70.3020    38.1480    37.9500 
  139.1250     2.5350   -30.8540    71.5090    23.7690    51.3470    36.5410    35.5220 
  139.2500     2.5030   -31.4320    72.4220    23.7270    34.7900    32.7370    31.3090 
  139.3750     2.4110   -32.0920    74.4590    23.8730    27.4590    28.8370    27.5510 
  139.5000     2.2960   -32.7860    75.5630    24.2090    28.3990    26.4710    25.6410 
  139.6250     2.2060   -33.4040    73.3190    24.7210    31.8260    25.6750    25.2990 
  139.7500     2.1540   -33.9530    67.7820    25.1250    34.2930    26.1260    26.0600 
  139.8750     2.1340   -34.3740    62.4740    25.2950    35.0690    27.3140    27.3350 
  140.0000     2.1280   -34.5980    61.5370    25.2390    34.7460    28.5950    28.4700 
  140.1250     2.1190   -34.6210    63.2590    25.1680    33.9410    29.4560    29.1270 
  140.2500     2.1090   -34.4610    66.3190    25.1350    32.8730    29.7780    29.3440 
  140.3750     2.1050   -34.1480    68.7110    25.1290    32.0680    29.6680    29.2920 
  140.5000     2.1090   -33.6910    68.6030    25.0860    31.5930    29.2470    29.0070 
  140.6250     2.1110   -33.1420    68.2390    25.0090    30.4650    28.6550    28.4700 
  140.7500     2.1030   -32.4960    70.0420    24.9370    28.1810    27.9590    27.6860 
  140.8750     2.0900   -31.8240    71.9420    24.8640    25.4320    27.2410    26.7830 
