~V
VERS. 2.00: Ver 2.00
~W
STRT.M 50.0000:
STOP.M 279.0000:
STEP.M 0.1250:
NULL. -999.2500:
UWI. F10075:
~C
DEPT.M :
GR.API :
RML.OHMM :
RI. :
RXO.OHMM :
CALI.CM :
DEN.GM/CC :
SP.MV :
~A
# ...
  140.0000    66.8850    10.2710     8.5370     9.8860    24.5250     2.1240   -16.0070 
  140.1250    67.5440    10.0020     8.3810     9.6900    24.5190     2.1170   -16.1430 
  140.2500    67.8030     9.6590     8.1730     9.5350    24.5640     2.1160   -16.1720 
  140.3750    68.4900     9.2550     7.9040     9.3880    24.6270     2.1140   -15.9940 
  140.5000    70.1560     8.8120     7.5760     8.8540    24.5950     2.1020   -15.5370 
  140.6250    74.0640     8.3310     7.1970     8.4710    24.4670     2.0910   -14.7900 
  140.7500    79.6530     7.8260     6.7950     8.3390    24.4390     2.0980   -13.7850 
  140.8750    83.7240     7.3270     6.4020     8.3250    24.5440     2.1340   -12.5580 
  141.0000    85.9790     6.8960     6.0600     7.6350    24.6320     2.1940   -11.2470 
  141.1250    87.9140     6.6410     5.8290     7.1560    24.6860     2.2570    -9.9190 
  141.2500    88.7630     6.5950     5.7210     6.9570    24.6970     2.2980    -8.6120 
  141.3750    87.6030     6.7480     5.7330     7.0040    24.6870     2.3090    -7.4800 
  141.5000    86.0290     7.0370     5.8330     7.0760    24.6430     2.2980    -6.6350 
  141.6250    87.7680     7.3200     5.9480     7.2370    24.5470     2.2810    -6.0190 
  141.7500    91.5410     7.4410     5.9870     7.2520    24.4450     2.2760    -5.6040 
  141.8750    92.5800     7.3340     5.9070     7.1490    24.2800     2.2860    -5.4160 
  142.0000    88.5290     7.0420     5.7210     6.7920    24.1390     2.3090    -5.3860 
  142.1250    84.5940     6.7020     5.4980     6.2820    24.1780     2.3290    -5.4630 
  142.2500    86.5020     6.4790     5.3360     6.0380    24.2970     2.3330    -5.6780 
  142.3750    90.3940     6.4590     5.2980     6.0840    24.3570     2.3150    -6.0690 
  142.5000    88.7640     6.6750     5.4220     6.3980    24.3310     2.2770    -6.6210 
  142.6250    80.3270     7.1320     5.7440     7.3190    24.1560     2.2330    -7.4690 
  142.7500    72.8120     7.7180     6.2010     7.9590    23.8670     2.1960    -8.5350 
  142.8750    69.9570     8.3530     6.7320     8.2710    23.6410     2.1710    -9.7010 
  143.0000    68.8090     8.9590     7.2580     8.2670    23.6140     2.1600   -10.8910 
  143.1250    66.6790     9.4540     7.7010     8.1610    23.7550     2.1560   -12.0980 
  143.2500    64.6120     9.8230     8.0420     8.2060    23.7730     2.1520   -13.2640 
  143.3750    63.0160    10.0430     8.2670     8.3990    23.6890     2.1460   -14.2800 
  143.5000    61.6490    10.0670     8.3410     8.5880    23.6270     2.1390   -15.0270 
  143.6250    61.5090     9.8070     8.1900     8.5200    23.7580     2.1400   -15.2430 
  143.7500    64.4210     9.3370     7.8460     8.2380    24.0120     2.1510   -14.9870 
  143.8750    68.3470     8.7640     7.3690     7.7150    24.1410     2.1720   -14.4080 
  144.0000    72.2890     8.2110     6.8590     6.9240    24.0820     2.1990   -13.5970 
  144.1250    76.7490     7.8010     6.4290     6.0850    23.9520     2.2260   -12.5860 
  144.2500    81.2580     7.5180     6.1170     5.9950    23.8190     2.2480   -11.4420 
  144.3750    85.9690     7.3060     5.9240     6.2820    23.6490     2.2650   -10.1960 
  144.5000    89.4520     7.1200     5.8210     6.3140    23.5180     2.2780    -8.9710 
  144.6250    91.3280     6.9460     5.7640     6.3840    23.4690     2.2870    -7.9070 
  144.7500    90.8390     6.7940     5.7010     6.2930    23.4810     2.2920    -7.0370 
  144.8750    88.6520     6.6960     5.6320     6.2230    23.5040     2.2940    -6.3340 
  145.0000    87.0510     6.6860     5.5890     6.1930    23.5360     2.2980    -5.8360 
  145.1250    87.9040     6.8090     5.6310     6.1620    23.5510     2.3110    -5.4930 
  145.2500    90.9700     7.0390     5.7660     6.0870    23.5450     2.3310    -5.1810 
  145.3750    93.8430     7.3410     5.9740     6.1860    23.5220     2.3500    -4.9490 
  145.5000    93.5730     7.6510     6.2060     6.6240    23.4770     2.3580    -4.8220 
  145.6250    89.6660     7.8660     6.3760     6.4030    23.4780     2.3440    -4.8520 
  145.7500    84.1670     7.9600     6.4460     6.5150    23.3810     2.3190    -5.0030 
  145.8750    80.7830     7.9470     6.4160     6.7350    23.2410     2.2920    -5.1940 
  146.0000    81.9440     7.8640     6.3150     6.9290    23.2260     2.2710    -5.3050 
  146.1250    85.2250     7.7380     6.1770     6.7650    23.4950     2.2600    -5.3940 
  146.2500    87.5050     7.5760     6.0410     6.5380    23.8480     2.2570    -5.5470 
  146.3750    89.1870     7.3620     5.9220     6.4250    24.0940     2.2600    -5.6950 
  146.5000    91.2920     7.1070     5.8270     6.2870    24.1800     2.2660    -5.7480 
  146.6250    92.0340     6.8780     5.7670     6.0360    24.1280     2.2730    -5.6780 
  146.7500    91.2620     6.7420     5.7380     6.0240    23.8810     2.2790    -5.5440 
  146.8750    91.4510     6.7120     5.7350     6.2860    23.4260     2.2800    -5.3890 
  147.0000    92.4510     6.7370     5.7430     6.5950    23.0010     2.2730    -5.2920 
  147.1250    92.8040     6.7250     5.7420     6.9480    22.9060     2.2600    -5.2600 
  147.2500    94.4080     6.6470     5.7170     7.1350    22.9480     2.2470    -5.2210 
  147.3750    97.7500     6.5270     5.6640     6.8720    23.1600     2.2390    -5.1320 
  147.5000    99.1690     6.4090     5.5890     6.0970    23.6870     2.2400    -5.0640 
  147.6250    95.6670     6.3350     5.5020     5.9670    24.3260     2.2490    -5.0550 
  147.7500    92.7140     6.2940     5.4170     6.0530    24.7530     2.2590    -5.0430 
  147.8750    93.9700     6.2720     5.3340     6.0490    24.9450     2.2660    -5.0010 
  148.0000    97.9690     6.2510     5.2380     6.1160    25.0050     2.2710    -4.9290 
  148.1250   101.0920     6.1890     5.1010     5.9400    25.0140     2.2780    -4.8870 
  148.2500   104.0310     6.0800     4.9390     5.9180    25.0240     2.2860    -4.8450 
  148.3750   107.2690     5.9680     4.8040     5.8420    25.0230     2.2970    -4.8340 
  148.5000   108.0140     5.9630     4.7810     5.6970    25.0030     2.3050    -4.8820 
  148.6250   102.6100     6.2470     4.9930     5.6370    24.9850     2.3010    -5.0300 
  148.7500    94.2440     6.8620     5.4600     6.0370    24.9380     2.2800    -5.3250 
  148.8750    88.5020     7.7770     6.1670     7.0870    24.7840     2.2440    -5.8020 
  149.0000    87.4790     8.8220     7.0130     8.2820    24.5390     2.2010    -6.4060 
  149.1250    87.9970     9.6670     7.7760     8.9580    24.3410     2.1660    -7.0070 
  149.2500    86.5400    10.1100     8.2570     9.3510    24.2710     2.1490    -7.6010 
  149.3750    83.6840    10.1350     8.3920     9.4930    24.2490     2.1510    -8.1960 
  149.5000    81.6520     9.8850     8.2570     9.3070    24.2100     2.1690    -8.7290 
  149.6250    82.4360     9.5540     7.9970     9.0480    24.1330     2.1950    -9.1250 
  149.7500    84.6670     9.2840     7.7560     8.8730    24.0800     2.2190    -9.3700 
  149.8750    87.2600     9.1300     7.5900     8.8300    24.0630     2.2350    -9.4640 
  150.0000    88.8820     9.1390     7.5340     8.7750    24.0620     2.2360    -9.4810 
  150.1250    88.0700     9.4050     7.6440     8.7150    24.0530     2.2200    -9.5480 
  150.2500    86.5920     9.9100     7.9210     8.7060    24.0270     2.2000    -9.7060 
  150.3750    86.6290    10.6200     8.3700     9.1660    24.0540     2.1850    -9.8990 
  150.5000    87.2550    11.4400     8.9670    10.3010    24.2230     2.1820   -10.1120 
  150.6250    85.7410    12.1920     9.6320    11.3050    24.4800     2.1850   -10.4060 
  150.7500    84.5320    12.7190    10.2230    11.7970    24.4310     2.1840   -10.7570 
  150.8750    83.7980    12.9580    10.6320    11.9550    24.1020     2.1720   -11.1530 
  151.0000    80.1630    12.9420    10.8120    11.9070    23.6520     2.1500   -11.5020 
  151.1250    73.5740    12.7450    10.7510    11.9010    23.4700     2.1270   -11.7030 
