~V
VERS. 2.00: Ver 2.00
~W
STRT.M 56.0000:
STOP.M 261.0000:
STEP.M 0.1250:
NULL. -999.2500:
UWI. F10028:
~C
DEPT.M :
GR.API :
RML.OHMM :
RI. :
RXO.OHMM :
CALI.CM :
DEN.GM/CC :
SP.MV :
~A
# ...
  168.5000    46.3100    27.1840    25.3390    30.5790    24.8400     2.5980     1.7210 
  168.6250    46.9240    27.9500    25.9420    31.9750    24.7840     2.6080     1.7910 
  168.7500    48.3350    28.3690    26.3140    31.7260    24.7840     2.6120     1.8160 
  168.8750    51.6160    28.4260    26.4090    31.7050    24.8210     2.6090     1.8040 
  169.0000    55.2510    28.3090    26.3440    31.0530    24.8440     2.6010     1.7540 
  169.1250    55.2700    28.3720    26.3740    30.7080    24.8230     2.5950     1.6390 
  169.2500    52.2200    28.8430    26.6980    30.3400    24.7620     2.5950     1.4620 
  169.3750    49.6670    29.7920    27.4030    31.4780    24.6660     2.6030     1.2560 
  169.5000    48.2670    31.1140    28.4550    34.8370    24.5980     2.6140     1.0750 
  169.6250    47.1020    32.4340    29.6040    36.3620    24.5910     2.6210     0.9090 
  169.7500    45.7590    33.2190    30.3910    36.3380    24.6250     2.6230     0.8000 
  169.8750    45.6620    33.0610    30.4270    36.8970    24.6690     2.6220     0.6990 
  170.0000    47.9910    31.8070    29.5070    35.6070    24.7050     2.6210     0.5700 
  170.1250    50.6860    29.5980    27.6670    33.2190    24.7250     2.6210     0.4180 
  170.2500    51.6770    27.1670    25.5290    29.1970    24.7240     2.6140     0.2520 
  170.3750    51.0360    25.0160    23.5450    25.0510    24.7100     2.5940     0.0740 
  170.5000    49.9620    23.3970    21.9700    21.7560    24.7030     2.5640    -0.1440 
  170.6250    49.4900    22.3790    20.9000    20.1310    24.7360     2.5380    -0.3610 
  170.7500    49.8860    21.7000    20.1400    21.1660    24.8170     2.5270    -0.5200 
  170.8750    51.5270    21.1800    19.5430    22.5690    24.9160     2.5350    -0.5730 
  171.0000    52.6020    20.7100    19.0000    21.0230    24.9980     2.5520    -0.5310 
  171.1250    52.7360    20.3220    18.5170    17.8030    25.0530     2.5620    -0.4210 
  171.2500    53.1520    20.1100    18.1730    16.7750    25.1090     2.5630    -0.2450 
  171.3750    51.2560    20.1100    18.0210    17.4460    25.1320     2.5580     0.0000 
  171.5000    47.3130    20.2420    18.0300    18.7960    25.1190     2.5510     0.2940 
  171.6250    47.0200    20.2800    18.0540    19.0340    25.0500     2.5470     0.5330 
  171.7500    50.6340    20.0670    17.9420    19.8170    25.0100     2.5430     0.6480 
  171.8750    54.2820    19.6710    17.7060    20.4560    24.9910     2.5370     0.6660 
  172.0000    56.1140    19.3860    17.5380    19.9100    24.9750     2.5350     0.6590 
  172.1250    56.8860    19.6830    17.7790    19.2860    24.9560     2.5430     0.6710 
  172.2500    55.8910    20.6430    18.5270    20.0190    24.9780     2.5630     0.6480 
  172.3750    53.6770    22.0580    19.6800    24.7090    24.9690     2.5830     0.5540 
  172.5000    53.0280    23.4060    20.8750    33.6750    24.9340     2.5860     0.3840 
  172.6250    54.5520    23.8770    21.4560    34.0110    24.9040     2.5530     0.1610 
  172.7500    55.7830    23.3350    21.2090    30.3070    24.9270     2.4940    -0.0590 
  172.8750    55.7590    22.0900    20.3140    26.1290    24.9250     2.4360    -0.2840 
  173.0000    54.0980    20.6810    19.1730    21.5030    24.8410     2.4050    -0.5250 
  173.1250    52.3070    19.5960    18.1840    18.8600    24.7380     2.4160    -0.7850 
  173.2500    52.4700    18.8490    17.4400    18.5790    24.7670     2.4470    -0.9910 
  173.3750    53.9230    18.2350    16.8320    18.4720    24.8490     2.4740    -1.1180 
  173.5000    54.8000    17.5330    16.1940    16.7400    24.8540     2.4820    -1.1540 
  173.6250    53.0840    16.6580    15.4380    15.6140    24.9370     2.4710    -1.1010 
  173.7500    50.7130    15.7640    14.6620    15.3660    24.9400     2.4570    -1.0170 
  173.8750    51.6930    15.0150    14.0000    14.3920    24.8780     2.4490    -0.8990 
  174.0000    56.6340    14.5390    13.5730    13.2230    24.8580     2.4470    -0.7560 
  174.1250    59.9650    14.4220    13.4690    13.3050    24.9340     2.4480    -0.5560 
  174.2500    60.0640    14.5370    13.5840    13.8310    24.9590     2.4510    -0.3460 
  174.3750    59.1230    14.7560    13.8110    14.2390    24.9000     2.4600    -0.1220 
  174.5000    58.5130    14.9470    14.0350    14.8480    24.8730     2.4750     0.1150 
  174.6250    57.0160    14.9800    14.1440    15.0390    24.8700     2.4900     0.3650 
  174.7500    55.9230    14.8630    14.1330    14.7410    24.8930     2.4990     0.6260 
  174.8750    55.9680    14.6710    14.0550    14.4730    24.8800     2.5010     0.8620 
  175.0000    55.4630    14.4950    13.9810    14.3720    24.8510     2.4970     1.0580 
  175.1250    54.9400    14.3710    13.9420    14.2520    24.7820     2.4900     1.2170 
  175.2500    54.6200    14.2380    13.8980    14.4690    24.7370     2.4810     1.3560 
  175.3750    53.9530    14.0560    13.8150    14.5280    24.7500     2.4710     1.4530 
  175.5000    53.3150    13.8540    13.7050    14.1420    24.7920     2.4630     1.5070 
  175.6250    54.1050    13.7690    13.6530    13.5970    24.8620     2.4570     1.5230 
  175.7500    55.2530    13.9080    13.7430    12.9570    24.9230     2.4510     1.4710 
  175.8750    54.5590    14.2800    13.9980    13.3230    25.0280     2.4450     1.3940 
  176.0000    52.5440    14.7640    14.3490    14.8260    25.1250     2.4400     1.3000 
  176.1250    51.9240    15.0680    14.5850    16.5800    25.1630     2.4380     1.1310 
  176.2500    52.9790    14.9750    14.4990    16.8520    25.1490     2.4400     0.9210 
  176.3750    54.9240    14.4560    14.0320    15.9320    25.1330     2.4430     0.6680 
  176.5000    56.6540    13.7370    13.3570    14.6200    25.1300     2.4440     0.3790 
  176.6250    57.9010    13.3640    12.9090    13.5460    25.1290     2.4400     0.0160 
  176.7500    57.9990    13.8030    13.0620    13.4520    25.1190     2.4280    -0.4240 
  176.8750    57.2180    15.3960    14.1050    15.2740    25.1080     2.4080    -1.0170 
  177.0000    57.8070    18.3540    16.2950    20.2210    25.1270     2.3780    -1.8000 
  177.1250    61.0360    25.3830    20.0430    31.9030    25.1400     2.3380    -2.7100 
  177.2500    65.2340    31.3060    24.9310    42.9710    25.1760     2.2970    -3.7150 
  177.3750    68.4910    37.1700    30.2150    50.1680    25.2250     2.2650    -4.7580 
  177.5000    68.9920    41.8450    34.8440    52.9640    25.2700     2.2480    -5.8090 
  177.6250    67.1230    44.6170    37.9510    55.7180    24.9480     2.2460    -6.8350 
  177.7500    66.8940    46.5590    40.1910    60.5410    24.7710     2.2510    -7.7660 
  177.8750    68.2710    48.9210    42.5290    69.6090    24.7340     2.2540    -8.5280 
  178.0000    68.6240    52.7820    45.9100    75.9820    24.7740     2.2540    -9.1110 
  178.1250    66.2490    59.1250    51.2820    86.1060    24.7580     2.2490    -9.5800 
  178.2500    63.7520    67.5000    58.4150    95.1230    24.7170     2.2430    -9.9560 
  178.3750    62.4500    77.0100    66.6380   102.6290    24.6960     2.2370   -10.2610 
  178.5000    62.4920    85.8900    74.5600   108.1770    24.6740     2.2330   -10.5320 
  178.6250    63.3050    91.0570    79.7640   110.7840    24.6060     2.2320   -10.7480 
  178.7500    63.0990    91.6160    81.3660   108.4860    24.5160     2.2330   -10.9250 
  178.8750    61.3350    88.4640    79.7850   103.6480    24.4620     2.2350   -11.0850 
  179.0000    60.0010    83.7860    76.5580    95.8850    24.4420     2.2360   -11.2110 
  179.1250    61.0710    80.0160    73.6610    85.1180    24.4650     2.2360   -11.3250 
  179.2500    62.4570    78.2680    72.3070    78.4830    24.5350     2.2340   -11.4440 
  179.3750    63.6910    78.7240    72.8500    78.3340    24.6200     2.2330   -11.5720 
  179.5000    64.8910    80.9460    75.0500    84.3170    24.7000     2.2330   -11.7110 
  179.6250    66.2120    83.8980    78.1250    96.2670    24.7870     2.2370   -11.8160 
