~V
VERS. 2.00: Ver 2.00
~W
STRT.M 60.0000:
STOP.M 262.0000:
STEP.M 0.1250:
NULL. -999.2500:
UWI. F10018:
~C
DEPT.M :
GR.API :
RML.OHMM :
RI. :
RXO.OHMM :
CALI.CM :
DEN.GM/CC :
SP.MV :
~A
# ...
  183.7500    42.6960    20.5210    19.3260    20.9720    24.1920     2.5070    -3.0130 
  183.8750    41.4600    20.7640    19.5580    21.5550    24.1720     2.4950    -3.1830 
  184.0000    40.1960    20.9660    19.7590    20.9890    24.2670     2.4770    -3.2870 
  184.1250    39.9180    21.1290    19.9290    20.1270    24.3760     2.4560    -3.2660 
  184.2500    39.9970    21.2800    20.0890    20.0930    24.4230     2.4360    -3.2530 
  184.3750    39.6080    21.4190    20.2410    20.9800    24.3400     2.4180    -3.3060 
  184.5000    39.7270    21.5030    20.3480    21.0920    24.2770     2.4040    -3.4450 
  184.6250    41.3220    21.4420    20.3370    20.4680    24.2850     2.3960    -3.6300 
  184.7500    41.9330    21.2380    20.2030    21.0800    24.3180     2.3950    -3.8010 
  184.8750    40.8060    20.9590    19.9920    22.6370    24.3310     2.4000    -3.9550 
  185.0000    39.1600    20.7340    19.8030    22.0860    24.3240     2.4100    -4.1080 
  185.1250    39.4860    20.7210    19.7710    20.3700    24.3000     2.4230    -4.2650 
  185.2500    39.9190    20.9100    19.9060    20.6400    24.2840     2.4360    -4.3950 
  185.3750    39.7660    21.2270    20.1670    22.4760    24.2800     2.4450    -4.4840 
  185.5000    40.3580    21.5590    20.4710    23.0930    24.2850     2.4520    -4.5030 
  185.6250    42.7560    21.7470    20.6910    23.9170    24.3060     2.4560    -4.4610 
  185.7500    45.2120    21.7160    20.7410    23.6740    24.3490     2.4600    -4.4320 
  185.8750    46.0230    21.4830    20.6050    22.8350    24.4230     2.4620    -4.4240 
  186.0000    45.0710    21.1450    20.3450    22.7050    24.5210     2.4610    -4.4240 
  186.1250    44.0780    20.8440    20.0690    21.4790    24.5120     2.4570    -4.4020 
  186.2500    44.6780    20.6740    19.8800    20.0050    24.4170     2.4540    -4.3600 
  186.3750    46.8570    20.6780    19.8350    19.5850    24.3030     2.4540    -4.3180 
  186.5000    48.4450    20.8450    19.9440    19.3900    24.1730     2.4600    -4.3110 
  186.6250    48.0670    21.1330    20.1830    19.3130    24.0120     2.4680    -4.3300 
  186.7500    47.5730    21.4460    20.4640    20.0470    23.9110     2.4740    -4.3080 
  186.8750    47.6420    21.7250    20.7320    20.8800    23.8710     2.4760    -4.2190 
  187.0000    47.2460    21.9360    20.9530    21.5790    23.8830     2.4750    -4.1380 
  187.1250    46.1970    22.0970    21.1340    21.8660    23.9820     2.4740    -4.1510 
  187.2500    45.8080    22.2820    21.3290    22.5440    24.1290     2.4720    -4.2410 
  187.3750    46.7040    22.5320    21.5660    24.3640    24.2430     2.4670    -4.3580 
  187.5000    47.3110    22.8300    21.8400    25.2480    24.3050     2.4560    -4.4340 
  187.6250    45.6800    23.1170    22.1080    24.4380    24.3050     2.4370    -4.4630 
  187.7500    45.1040    23.3290    22.3190    24.1320    24.2870     2.4150    -4.4860 
  187.8750    48.2320    23.4520    22.4510    24.0360    24.2600     2.3960    -4.5470 
  188.0000    52.6890    23.5330    22.5370    23.5770    24.1730     2.3870    -4.6270 
  188.1250    52.6120    23.6830    22.6670    22.6160    23.9800     2.3930    -4.6690 
  188.2500    49.2580    23.9470    22.8960    22.3450    23.8500     2.4120    -4.6640 
  188.3750    47.8150    24.2910    23.2070    23.3340    23.9060     2.4340    -4.6150 
  188.5000    49.1420    24.6310    23.5340    24.8070    23.9940     2.4520    -4.5280 
  188.6250    49.5410    24.8160    23.7530    26.0220    24.0860     2.4600    -4.4480 
  188.7500    48.3910    24.7780    23.7850    27.7250    24.2270     2.4630    -4.3650 
  188.8750    46.9860    24.5490    23.6370    27.8520    24.4090     2.4660    -4.2900 
  189.0000    46.3530    24.2570    23.4020    25.9770    24.5190     2.4730    -4.2410 
  189.1250    46.8720    24.0790    23.2200    25.3510    24.5510     2.4800    -4.2270 
  189.2500    48.5000    24.0780    23.1710    24.5060    24.5340     2.4800    -4.2290 
  189.3750    49.5850    24.2140    23.2490    24.3220    24.4600     2.4670    -4.2430 
  189.5000    48.6480    24.3530    23.3680    25.6520    24.4050     2.4430    -4.2860 
  189.6250    47.3410    24.3020    23.3680    26.6900    24.4360     2.4150    -4.3380 
  189.7500    46.8430    24.0260    23.1840    26.9680    24.4310     2.3930    -4.4170 
  189.8750    46.7250    23.5970    22.8480    26.4650    24.3820     2.3800    -4.5330 
  190.0000    47.0410    23.1440    22.4560    25.9570    24.3340     2.3780    -4.6470 
  190.1250    47.4740    22.8370    22.1420    25.0620    24.3090     2.3860    -4.7480 
  190.2500    47.5740    22.7390    21.9840    24.7780    24.3070     2.4020    -4.8270 
  190.3750    46.7080    22.8540    22.0030    24.3420    24.2940     2.4210    -4.9100 
  190.5000    46.0510    23.1280    22.1730    23.4030    24.2640     2.4360    -5.0320 
  190.6250    48.6340    23.4680    22.4360    24.0760    24.2370     2.4400    -5.1980 
  190.7500    52.3480    23.7490    22.6790    24.3050    24.2150     2.4340    -5.3780 
  190.8750    54.4520    23.8710    22.8030    24.9850    24.1980     2.4250    -5.5330 
  191.0000    54.0070    23.7670    22.7270    25.4800    24.1260     2.4180    -5.6450 
  191.1250    52.6960    23.4510    22.4400    25.3070    24.1740     2.4180    -5.6840 
  191.2500    51.3650    23.1080    22.1000    24.0000    24.3050     2.4220    -5.7100 
  191.3750    49.8420    22.9000    21.8500    22.6400    24.3770     2.4280    -5.7430 
  191.5000    48.5220    22.9250    21.7830    22.3530    24.3630     2.4330    -5.7640 
  191.6250    47.1470    23.1900    21.9300    22.7680    24.3470     2.4360    -5.7540 
  191.7500    45.1150    23.5110    22.1550    25.2990    24.3540     2.4380    -5.6920 
  191.8750    43.3930    23.7440    22.3450    25.5720    24.3480     2.4360    -5.6010 
  192.0000    42.2360    23.8210    22.4310    24.0760    24.3520     2.4310    -5.5120 
  192.1250    42.4310    23.7480    22.3900    22.2770    24.3630     2.4240    -5.4760 
  192.2500    44.5830    23.6040    22.2710    22.3190    24.4050     2.4180    -5.4300 
  192.3750    46.4650    23.4180    22.0900    23.7120    24.4570     2.4130    -5.3510 
  192.5000    46.3120    23.1960    21.8500    25.8470    24.4900     2.4120    -5.2600 
  192.6250    44.1370    22.9550    21.5590    24.4900    24.4500     2.4170    -5.1910 
  192.7500    42.5270    22.7620    21.2690    22.2660    24.3860     2.4320    -5.1410 
  192.8750    41.5700    22.6610    21.0130    20.6210    24.3210     2.4620    -5.0840 
  193.0000    40.4980    22.6150    20.7660    20.4660    24.2960     2.5040    -5.0130 
  193.1250    40.4650    22.4800    20.4350    21.5300    24.3220     2.5510    -4.9660 
  193.2500    42.3500    22.1630    19.9810    22.3590    24.3590     2.5890    -5.0000 
  193.3750    44.1220    21.6740    19.4410    20.6050    24.3680     2.6070    -5.0530 
  193.5000    43.7100    21.1340    18.9200    17.9570    24.3750     2.6030    -5.0620 
  193.6250    41.4390    20.7510    18.5810    17.0540    24.4080     2.5800    -5.0110 
  193.7500    40.2540    20.6050    18.4660    18.8340    24.4620     2.5500    -4.9730 
  193.8750    40.6120    20.6490    18.5290    22.1850    24.5450     2.5240    -4.9940 
  194.0000    42.2110    20.7350    18.6550    23.4470    24.6060     2.5050    -5.0820 
  194.1250    44.2790    20.6710    18.6770    21.1800    24.6260     2.4970    -5.1650 
  194.2500    45.4950    20.4110    18.5290    20.0610    24.6300     2.4950    -5.1630 
  194.3750    45.6660    20.0080    18.2380    20.7940    24.6400     2.4990    -5.1320 
  194.5000    45.5170    19.5750    17.8850    21.7810    24.6320     2.5070    -5.0920 
  194.6250    43.6010    19.2520    17.5840    20.3020    24.5890     2.5170    -5.0560 
  194.7500    40.3130    19.0920    17.3960    18.9310    24.5610     2.5280    -5.0200 
  194.8750    38.1060    19.1030    17.3420    18.4010    24.5460     2.5360    -4.9690 
