~V
VERS. 2.00: Ver 2.00
~W
STRT.M 50.0000:
STOP.M 255.0000:
STEP.M 0.1250:
NULL. -999.2500:
UWI. F10005:
~C
DEPT.M :
SP.MV :
GR.API :
RML.OHMM :
RI. :
RXO.OHMM :
CALI.CM :
DEN.GM/CC :
~A
# ...
  230.0000    -7.0410    55.9930     7.3430     5.5950     5.4510    24.2240     2.3480 
  230.1250    -7.1320    58.4240     7.6280     5.8140     6.8420    24.1670     2.3450 
  230.2500    -7.1600    57.7080     7.7540     5.9240     8.1030    24.1510     2.3480 
  230.3750    -7.1910    55.1280     7.6400     5.8650     7.6070    24.1480     2.3570 
  230.5000    -7.1790    54.0690     7.3110     5.6460     6.7520    24.0900     2.3710 
  230.6250    -7.1240    53.0760     6.9070     5.3470     6.1810    23.9270     2.3880 
  230.7500    -7.0630    50.1370     6.6210     5.1060     5.7360    23.6940     2.4020 
  230.8750    -7.0730    48.3860     6.5580     5.0010     5.4100    23.4450     2.4080 
  231.0000    -7.1290    50.5920     6.7380     5.0730     5.2880    23.2410     2.4030 
  231.1250    -7.3610    54.7730     7.1410     5.3350     5.5720    23.1370     2.3890 
  231.2500    -7.6590    57.6060     7.6220     5.7000     6.3070    23.1010     2.3730 
  231.3750    -7.9740    60.2760     8.0420     6.0680     7.2170    23.1470     2.3600 
  231.5000    -8.3710    63.5390     8.2640     6.3320     7.6280    23.2960     2.3500 
  231.6250    -8.7360    65.4470     8.2090     6.4060     7.5880    23.4860     2.3430 
  231.7500    -9.0080    65.3520     8.0320     6.3750     8.0630    23.6110     2.3380 
  231.8750    -9.1890    64.4120     7.9220     6.3630     8.0710    23.6490     2.3330 
  232.0000    -9.3930    65.2450     8.0520     6.4920     7.0930    23.6570     2.3280 
  232.1250    -9.6420    68.6540     8.5250     6.8550     7.1640    23.6840     2.3200 
  232.2500    -9.9280    72.2530     9.1450     7.3430     8.3650    23.7330     2.3100 
  232.3750   -10.1480    75.2860     9.6340     7.7700     9.9930    23.7850     2.3030 
  232.5000   -10.2600    76.4540     9.7010     7.9140    10.4860    23.8110     2.3030 
  232.6250   -10.2510    72.6780     9.1680     7.6020    10.8580    23.7920     2.3150 
  232.7500   -10.2660    66.2240     8.3510     7.0320     8.9820    23.7650     2.3310 
  232.8750   -10.3220    62.7980     7.5840     6.4340     6.7100    23.7550     2.3450 
  233.0000   -10.3810    64.8660     7.1080     5.9940     5.7040    23.7600     2.3540 
  233.1250   -10.4530    67.9970     7.0480     5.8450     6.0150    23.7520     2.3540 
  233.2500   -10.5650    68.3360     7.2550     5.9340     6.7570    23.7240     2.3530 
  233.3750   -10.8630    68.6910     7.6050     6.2050     7.2880    23.7170     2.3510 
  233.5000   -11.2550    72.1780     7.9910     6.5830     7.4130    23.7530     2.3490 
  233.6250   -11.7970    75.8730     8.3620     7.0140     8.2870    23.8330     2.3460 
  233.7500   -12.4770    76.5130     8.7570     7.4780     8.7790    23.9460     2.3390 
  233.8750   -13.2230    77.2170     9.2350     8.0030     9.2180    24.0650     2.3260 
  234.0000   -13.9680    79.4220     9.7860     8.5830    10.4800    24.1470     2.3100 
  234.1250   -14.5680    81.6410    10.2440     9.0960    12.4400    24.1790     2.2960 
  234.2500   -14.8910    83.7550    10.4010     9.3630    12.0570    24.2120     2.2900 
  234.3750   -14.8100    86.0590    10.1440     9.2650    11.3810    24.2730     2.2910 
  234.5000   -14.4740    85.7130     9.5160     8.8110    11.0790    24.3600     2.3010 
  234.6250   -14.0210    79.2990     8.7230     8.1440     9.6260    24.4570     2.3190 
  234.7500   -13.4080    70.8110     8.0340     7.5060     8.2780    24.5220     2.3460 
  234.8750   -12.6470    63.5220     7.5450     7.0000     7.3160    24.5570     2.3790 
  235.0000   -11.7380    56.7200     7.2400     6.6390     7.1660    24.5690     2.4100 
  235.1250   -10.7800    48.1180     7.0620     6.4000     7.2710    24.5750     2.4280 
  235.2500    -9.9200    38.6730     6.9170     6.2100     6.9030    24.5860     2.4300 
  235.3750    -9.2950    31.6310     6.7660     6.0370     6.3720    24.5950     2.4230 
  235.5000    -8.8980    29.0860     6.6060     5.8700     5.9990    24.5940     2.4160 
  235.6250    -8.6330    29.8800     6.4620     5.7270     5.7970    24.5760     2.4180 
  235.7500    -8.3960    31.0000     6.3530     5.6210     5.7190    24.5670     2.4240 
  235.8750    -8.2860    32.4390     6.2810     5.5580     5.6710    24.5660     2.4290 
  236.0000    -8.3820    34.0880     6.2550     5.5420     5.6790    24.5670     2.4300 
  236.1250    -8.7880    36.4050     6.3140     5.6050     5.8430    24.5670     2.4260 
  236.2500    -9.5440    41.1410     6.4840     5.7630     6.4770    24.5610     2.4180 
  236.3750   -10.6120    49.0830     6.7880     6.0340     7.6710    24.5500     2.4010 
  236.5000   -11.9960    59.1480     7.2310     6.4260     9.3490    24.5360     2.3730 
  236.6250   -13.4700    69.0520     7.8250     6.9540     9.1500    24.5190     2.3400 
  236.7500   -14.9130    78.4750     8.5260     7.5820     9.5400    24.4910     2.3140 
  236.8750   -16.2370    85.4410     9.2890     8.2730    10.1530    24.4250     2.3060 
  237.0000   -17.3410    86.5160    10.0440     8.9680    10.7250    24.2720     2.3130 
  237.1250   -18.1620    83.5060    10.6770     9.5680    11.7670    23.9900     2.3220 
  237.2500   -18.7580    82.3830    11.1270    10.0130    13.0330    23.6770     2.3230 
  237.3750   -19.0820    84.1840    11.3790    10.2820    13.7310    23.4480     2.3160 
  237.5000   -19.0880    86.0900    11.4810    10.4120    13.3430    23.3660     2.3100 
  237.6250   -18.8830    86.4360    11.5080    10.4640    12.7850    23.4130     2.3120 
  237.7500   -18.6870    86.2490    11.5430    10.5130    12.5580    23.4850     2.3170 
  237.8750   -18.4620    84.6350    11.6300    10.6070    12.3460    23.5110     2.3150 
  238.0000   -18.2420    80.5950    11.7980    10.7770    12.5930    23.5030     2.3040 
  238.1250   -18.0150    75.9270    12.0840    11.0650    13.1470    23.4950     2.2950 
  238.2500   -17.6900    74.0150    12.4690    11.4500    12.7830    23.5010     2.3020 
  238.3750   -17.3070    75.5720    12.9050    11.8890    12.6540    23.5170     2.3250 
  238.5000   -16.8850    79.6870    13.2700    12.2750    13.6010    23.5280     2.3530 
  238.6250   -16.5380    84.6600    13.2950    12.3700    14.7260    23.5290     2.3670 
  238.7500   -16.1600    88.0320    12.8290    12.0260    14.3800    23.5220     2.3600 
  238.8750   -15.7700    88.0950    11.8550    11.2070    12.5140    23.5030     2.3370 
  239.0000   -15.2540    85.4500    10.5530    10.0570    10.6430    23.4700     2.3150 
  239.1250   -14.5680    84.1340     9.2540     8.8610     9.2460    23.4540     2.3080 
  239.2500   -13.8940    83.5920     8.2390     7.8730     8.5170    23.4880     2.3160 
  239.3750   -13.3230    80.2400     7.6290     7.2090     7.6050    23.5960     2.3290 
  239.5000   -12.9740    74.9080     7.4450     6.9070     6.8940    23.7760     2.3360 
  239.6250   -12.8200    74.2530     7.6700     6.9910     6.9900    23.9860     2.3290 
  239.7500   -12.8310    77.4910     8.0940     7.3080     7.4800    24.1690     2.3100 
  239.8750   -12.8960    80.1120     8.5500     7.7270     7.9460    24.2750     2.2860 
  240.0000   -12.9800    81.1690     8.8780     8.0900     8.3370    24.3020     2.2630 
  240.1250   -13.0740    82.9190     8.9310     8.2300     8.7810    24.2810     2.2510 
  240.2500   -13.0540    84.3100     8.7560     8.1480     8.8230    24.2430     2.2540 
  240.3750   -12.8400    83.5730     8.4410     7.9070     8.6540    24.2110     2.2700 
  240.5000   -12.4250    80.9940     8.0900     7.5960     8.4560    24.1910     2.2930 
  240.6250   -11.8710    76.8920     7.8010     7.3010     8.1590    24.1600     2.3150 
  240.7500   -11.2410    72.9620     7.6050     7.0680     7.7580    24.0920     2.3310 
  240.8750   -10.6560    71.8830     7.5010     6.9100     7.4370    23.9810     2.3400 
  241.0000   -10.2280    73.9990     7.4760     6.8290     7.5670    23.8520     2.3450 
  241.1250   -10.1120    75.4650     7.5290     6.8380     7.8250    23.7770     2.3470 
