~V
VERS. 2.00: Ver 2.00
~W
STRT.M 56.0000:
STOP.M 269.0000:
STEP.M 0.1250:
NULL. -999.2500:
UWI. F10026:
~C
DEPT.M :
GR.API :
RML.OHMM :
RI. :
RXO.OHMM :
CALI.CM :
DEN.GM/CC :
SP.MV :
~A
# ...
  123.5000    87.3320     6.3980     6.0080     6.4020    22.9420     2.2880   -26.1250 
  123.6250    89.4230     6.1110     5.8010     6.2650    23.2050     2.2980   -26.0810 
  123.7500    91.3850     5.9400     5.6370     6.1340    23.6180     2.3060   -26.0520 
  123.8750    92.2530     5.9230     5.5510     6.1210    24.0210     2.3100   -26.0470 
  124.0000    92.6960     6.0610     5.5660     6.2630    24.2400     2.3070   -26.0590 
  124.1250    93.5370     6.3190     5.6870     6.6310    24.2950     2.2980   -26.0730 
  124.2500    93.6920     6.5800     5.8560     6.8600    24.2840     2.2860   -26.0840 
  124.3750    92.4770     6.7530     6.0100     7.2250    24.2410     2.2750   -26.1090 
  124.5000    92.2050     6.7900     6.1000     7.4720    24.2160     2.2680   -26.1520 
  124.6250    92.9460     6.6950     6.0960     7.4220    24.2430     2.2660   -26.2300 
  124.7500    92.4500     6.5650     6.0400     7.0650    24.2970     2.2650   -26.3110 
  124.8750    92.2100     6.4800     5.9780     6.9200    24.3020     2.2610   -26.3880 
  125.0000    91.8410     6.5080     5.9600     6.7870    24.2750     2.2550   -26.4520 
  125.1250    89.2670     6.7260     6.0640     7.1170    24.2260     2.2540   -26.5270 
  125.2500    85.6820     7.1070     6.3090     7.5930    24.1490     2.2680   -26.6290 
  125.3750    84.4610     7.5840     6.6800     7.9550    24.1030     2.3020   -26.7370 
  125.5000    85.5790     8.0450     7.1040     8.9070    24.1870     2.3470   -26.8370 
  125.6250    84.4770     8.3200     7.4290    11.9420    24.2280     2.3770   -26.8960 
  125.7500    83.4860     8.3520     7.5480    14.6470    24.1630     2.3760   -26.9390 
  125.8750    85.8090     8.1630     7.4390    11.3690    24.1150     2.3450   -26.9680 
  126.0000    88.4600     7.8550     7.1780     8.3860    24.0950     2.2980   -26.9910 
  126.1250    87.8840     7.5530     6.8970     7.9170    24.0760     2.2640   -27.0020 
  126.2500    84.9640     7.3260     6.7000     8.1740    24.0570     2.2520   -26.9980 
  126.3750    84.0940     7.1780     6.6120     8.2280    24.0210     2.2560   -27.0030 
  126.5000    85.7780     7.0850     6.6050     8.0120    23.9820     2.2660   -27.0110 
  126.6250    87.1220     7.0190     6.6250     7.7960    24.0700     2.2690   -27.0600 
  126.7500    88.3120     6.9710     6.6210     7.3750    24.1200     2.2650   -27.1270 
  126.8750    89.4390     6.9470     6.5770     7.1060    24.0980     2.2570   -27.2220 
  127.0000    90.6380     6.9380     6.4970     6.9460    24.0140     2.2510   -27.3350 
  127.1250    92.1140     6.9040     6.3920     7.2000    23.9670     2.2520   -27.4640 
  127.2500    95.0350     6.8100     6.2810     7.2570    24.0470     2.2590   -27.6200 
  127.3750    98.1170     6.6550     6.1750     6.8790    24.2350     2.2700   -27.7710 
  127.5000    97.9960     6.4730     6.0880     6.4630    24.3170     2.2810   -27.8980 
  127.6250    95.6370     6.3450     6.0460     6.5560    24.2100     2.2870   -27.9820 
  127.7500    94.1170     6.3270     6.0630     6.7580    24.1590     2.2870   -28.0660 
  127.8750    93.0460     6.4360     6.1390     6.5440    24.1730     2.2770   -28.1460 
  128.0000    91.1270     6.6410     6.2430     6.5770    24.1940     2.2600   -28.2280 
  128.1250    88.7020     6.8460     6.3090     7.0200    24.2110     2.2420   -28.3400 
  128.2500    88.8450     6.9440     6.2840     7.5030    24.2200     2.2340   -28.4880 
  128.3750    91.9660     6.8840     6.1630     7.3640    24.2270     2.2380   -28.7100 
  128.5000    96.4310     6.6920     5.9910     6.8090    24.2340     2.2510   -29.0170 
  128.6250    97.3740     6.5060     5.8740     6.3580    24.2430     2.2650   -29.3960 
  128.7500    94.1100     6.5160     5.9160     6.3340    24.2410     2.2790   -29.7990 
  128.8750    88.6680     6.8700     6.1970     6.8730    24.1920     2.3020   -30.2200 
  129.0000    82.3270     7.6260     6.7530     7.7580    24.0810     2.3400   -30.6600 
  129.1250    76.0210     8.7160     7.5680     8.6910    23.9370     2.3830   -31.0900 
  129.2500    71.4930     9.7970     8.4350     9.8100    23.7970     2.4060   -31.4870 
  129.3750    70.6010    10.5540     9.1380    10.7380    23.6480     2.3940   -31.8300 
  129.5000    71.4890    10.7850     9.5040    10.7820    23.4370     2.3510   -32.1260 
  129.6250    71.5300    10.4730     9.4570    10.0000    23.2640     2.2980   -32.4130 
  129.7500    72.7650     9.9880     9.2100     9.7350    23.1650     2.2610   -32.6790 
  129.8750    73.8390     9.5970     8.9410    10.0470    23.1520     2.2450   -32.9220 
  130.0000    70.8710     9.4490     8.7740    10.4910    23.2320     2.2420   -33.1280 
  130.1250    65.7260     9.5500     8.7530    11.1000    23.4500     2.2350   -33.2610 
  130.2500    64.7970     9.7040     8.7880    11.3950    23.8230     2.2190   -33.3180 
  130.3750    68.3410     9.7560     8.7960    11.2540    24.2530     2.1970   -33.3060 
  130.5000    70.7370     9.6250     8.7270    10.6870    24.4140     2.1750   -33.2330 
  130.6250    70.0660     9.3370     8.5840     9.9200    24.4270     2.1600   -33.0420 
  130.7500    68.9490     9.0480     8.4360     9.2420    24.3990     2.1480   -32.7600 
  130.8750    68.1790     8.8670     8.3350     8.9560    24.3960     2.1350   -32.3870 
  131.0000    68.1010     8.8230     8.3010     9.3210    24.3430     2.1200   -31.9400 
  131.1250    68.8210     8.8500     8.3010     9.7410    24.3600     2.1110   -31.4440 
  131.2500    71.2650     8.7990     8.2470     9.9810    24.4340     2.1170   -30.9610 
  131.3750    75.7330     8.5760     8.0760     9.9800    24.4660     2.1400   -30.5050 
  131.5000    80.1220     8.1650     7.7700     9.4200    24.3710     2.1720   -30.0790 
  131.6250    79.9230     7.6440     7.3750     8.5910    24.2200     2.2010   -29.7440 
  131.7500    78.1540     7.1850     7.0190     7.8170    24.1580     2.2180   -29.5030 
  131.8750    80.3760     6.9200     6.7990     7.6230    24.1430     2.2230   -29.3580 
  132.0000    84.0910     6.9230     6.7720     7.6780    24.1340     2.2210   -29.2990 
  132.1250    82.3360     7.2130     6.9620     7.7050    24.1340     2.2130   -29.3010 
  132.2500    79.1850     7.6030     7.2500     7.8110    24.1200     2.2010   -29.3000 
  132.3750    81.1760     7.9010     7.5050     8.1520    24.0540     2.1900   -29.2710 
  132.5000    87.7080     7.9290     7.5950     8.4910    23.9470     2.1880   -29.2210 
  132.6250    95.5070     7.5600     7.3910     8.3640    23.8480     2.2080   -29.1470 
  132.7500   102.4120     6.9490     6.9590     7.4350    23.7900     2.2440   -29.0870 
  132.8750   105.7780     6.2690     6.3960     6.3060    23.7730     2.2860   -29.0600 
  133.0000   104.3680     5.6730     5.8120     5.4380    23.8030     2.3200   -29.0820 
  133.1250   102.2850     5.2560     5.3040     5.1570    23.8010     2.3360   -29.2180 
  133.2500   102.9660     4.9750     4.9030     5.0230    23.8030     2.3410   -29.4880 
  133.3750   105.7150     4.8030     4.6370     4.8960    23.8060     2.3440   -29.9000 
  133.5000   107.0500     4.7600     4.5440     4.8510    23.8010     2.3540   -30.4320 
  133.6250   104.0370     4.9790     4.7200     4.9650    23.7700     2.3790   -31.0850 
  133.7500    96.6980     5.5210     5.1700     5.4000    23.7020     2.4090   -31.8020 
  133.8750    86.7780     6.3930     5.8830     6.6530    23.6260     2.4260   -32.5520 
  134.0000    76.8970     7.4610     6.7680     8.8200    23.5730     2.4170   -33.3080 
  134.1250    70.5450     8.4020     7.6050    10.4310    23.6480     2.3730   -34.0200 
  134.2500    67.6290     8.9400     8.1720    10.2650    23.8860     2.3140   -34.6540 
  134.3750    67.8200     9.0100     8.3830     9.9150    24.2160     2.2560   -35.1960 
  134.5000    70.0120     8.7550     8.3100     9.7040    24.3530     2.2130   -35.6400 
  134.6250    70.5840     8.4470     8.1280     9.4690    24.4450     2.1850   -35.9490 
