~V
VERS. 2.00: Ver 2.00
~W
STRT.M 64.0000:
STOP.M 220.0000:
STEP.M 0.1250:
NULL. -999.2500:
UWI. F10051:
~C
DEPT.M :
SP.MV :
GR.API :
RML.OHMM :
RI. :
RXO.OHMM :
CALI.CM :
DEN.GM/CC :
~A
# ...
  210.2500    -7.9960    74.2580    25.6890    24.6770    24.5680    23.8820     2.5870 
  210.3750    -7.9590    74.2580    24.5950    23.6770    21.1660    23.8840     2.5880 
  210.5000    -7.8860    74.2580    24.0880    23.1760    21.4100    23.8770     2.5930 
  210.6250    -7.8830    74.2580    24.5480    23.5530    24.4010    23.8490     2.6050 
  210.7500    -7.9310    74.2580    25.8530    24.7530    27.2750    23.8110     2.6170 
  210.8750    -7.9850    74.2580    27.7940    26.6370    29.3590    23.7840     2.6250 
  211.0000    -8.0690    74.2580    29.9790    28.8830    31.6990    23.7750     2.6240 
  211.1250    -8.1530    74.2580    31.7680    30.9130    35.8770    23.7690     2.6190 
  211.2500    -8.1970    74.2580    32.7010    32.2070    39.8490    23.7610     2.6150 
  211.3750    -8.2500    74.2580    32.5770    32.4820    42.2010    23.7550     2.6110 
  211.5000    -8.3430    74.2580    31.5080    31.7570    40.7510    23.7580     2.6030 
  211.6250    -8.4120    74.2580    29.8270    30.2790    34.3740    23.7760     2.5850 
  211.7500    -8.4440    74.2580    28.1010    28.6200    27.3760    23.8080     2.5620 
  211.8750    -8.4850    74.2580    26.6150    27.0940    22.3550    23.8360     2.5440 
  212.0000    -8.5200    74.2580    25.4950    25.8650    17.7020    23.8230     2.5400 
  212.1250    -8.5220    74.2580    24.7870    25.0240    14.1780    23.7820     2.5560 
  212.2500    -8.5270    74.2580    24.3220    24.4440    12.6320    23.8000     2.5810 
  212.3750    -8.5130    74.2580    23.9750    24.0180    11.9600    23.8590     2.6030 
  212.5000    -8.5270    74.2580    23.6420    23.6450    11.1910    23.9020     2.6130 
  212.6250    -8.5780    74.2580    23.2810    23.2730    10.4220    23.9090     2.6050 
  212.7500    -8.6300    74.2580    22.9440    22.9360    10.5550    23.9150     2.5870 
  212.8750    -8.6960    74.2580    22.7300    22.7160    12.0480    23.9200     2.5700 
  213.0000    -8.7650    74.2580    22.7350    22.7070    15.0860    23.9080     2.5630 
  213.1250    -8.8420    74.2580    23.0710    23.0210    19.0580    23.8560     2.5720 
  213.2500    -8.9720    74.2580    23.6740    23.6050    23.0830    23.8080     2.5910 
  213.3750    -9.1340    74.2580    24.4570    24.3830    26.7250    23.7810     2.6100 
  213.5000    -9.2770    74.2580    25.2860    25.2340    28.3110    23.7580     2.6200 
  213.6250    -9.3860    74.2580    25.9780    25.9810    27.4170    23.7150     2.6160 
  213.7500    -9.5060    74.2580    26.4430    26.5150    25.7640    23.6800     2.6050 
  213.8750    -9.6310    74.2580    26.6640    26.8070    24.2180    23.6670     2.5950 
  214.0000    -9.7230    74.2580    26.7000    26.8990    23.2500    23.6650     2.5900 
  214.1250    -9.8100    74.2580    26.6380    26.8710    24.8930    23.6650     2.5900 
  214.2500    -9.8630    74.2580    26.5730    26.8240    29.1010    23.6680     2.5930 
  214.3750    -9.8750    74.2580    26.5350    26.7940    34.2830    23.6810     2.5960 
  214.5000    -9.8750    74.2580    26.5190    26.7800    38.0690    23.7090     2.6030 
  214.6250    -9.8740    74.2580    26.5130    26.7710    38.7560    23.7240     2.6140 
  214.7500    -9.8600    74.2580    26.5090    26.7600    36.5020    23.7230     2.6240 
  214.8750    -9.8190    74.2580    26.5050    26.7480    32.7200    23.7120     2.6280 
  215.0000    -9.7530    74.2580    26.5010    26.7370    30.3220    23.6960     2.6220 
  215.1250    -9.6250    74.2580    26.4970    26.7310    29.8140    23.7080     2.6030 
  215.2500    -9.4970    74.2580    26.4940    26.7290    29.3640    23.7250     2.5810 
  215.3750    -9.4510    74.2580    26.4920    26.7310    29.2530    23.7340     2.5600 
  215.5000    -9.4180    74.2580    26.4910    26.7340    29.6490    23.7350     2.5460 
  215.6250    -9.3810    74.2580    26.4920    26.7360    30.3330    23.7340     2.5420 
  215.7500    -9.3510    74.2580    26.4920    26.7360    30.5950    23.7330     2.5480 
  215.8750    -9.3200    74.2580    26.4920    26.7360    30.2750    23.7310     2.5620 
  216.0000    -9.3020    74.2580    26.4920    26.7360    28.8660    23.7330     2.5800 
  216.1250    -9.3630    74.2580    26.4920    26.7360    26.5660    23.7320     2.5970 
  216.2500    -9.3990    74.2580    26.4920    26.7360    24.8080    23.7190     2.6060 
  216.3750    -9.3900    74.2580    26.4920    26.7360    23.0110    23.6560     2.6070 
  216.5000    -9.4050    74.2580    26.4920    26.7360    21.3420    23.4970     2.6010 
  216.6250    -9.3990    74.2580    26.4920    26.7360    19.3490    23.3230     2.5940 
  216.7500    -9.3750    74.2580    26.4920    26.7360    18.1970    23.2660     2.5890 
  216.8750    -9.3690    74.2580    26.4920    26.7360    18.6410    23.3710     2.5890 
  217.0000    -9.3990    74.2580    26.4920    26.7360    20.6390    23.5190     2.5930 
  217.1250    -9.4390    74.2580    26.4920    26.7360    23.9500    23.6440     2.6010 
  217.2500    -9.4970    74.2580    26.4920    26.7360    26.9190    23.7040     2.6110 
  217.3750    -9.5550    74.2580    26.4920    26.7360    29.0180    23.7230     2.6210 
  217.5000    -9.5950    74.2580    26.4920    26.7360    30.6080    23.7250     2.6280 
  217.6250    -9.6510    74.2580    26.4920    26.7360    31.7640    23.7280     2.6260 
  217.7500    -9.7260    74.2580    26.4920    26.7360    32.6440    23.7440     2.6190 
  217.8750    -9.8190    74.2580    26.4920    26.7360    33.7030    23.7800     2.6070 
  218.0000    -9.9000    74.2580    26.4920    26.7360    34.2610    23.8180     2.5940 
  218.1250    -9.9180    74.2580    26.4920    26.7360    32.2180    23.8740     2.5840 
  218.2500    -9.9360    74.2580    26.4920    26.7360    28.8530    23.9050     2.5790 
  218.3750    -9.9360    74.2580    26.4920    26.7360    24.8040    23.8590     2.5760 
  218.5000    -9.9360    74.2580    26.4920    26.7360    20.9250    23.7060     2.5700 
  218.6250  -999.2500    74.2580    26.4920    26.7360    18.9840    23.5620     2.5440 
  218.7500  -999.2500    74.2580    26.4920    26.7360    16.8010    23.1520     2.4890 
  218.8750  -999.2500    74.2580    26.4920    26.7360    13.4970    21.8610     2.4060 
  219.0000  -999.2500    74.2580    26.4920    26.7360     8.9560    19.0980     2.3100 
  219.1250  -999.2500    74.2580    26.4920    26.7360     5.8570    17.5670     2.2250 
  219.2500  -999.2500    74.2580    26.4920    26.7360     4.9800    17.0210     2.1640 
  219.3750  -999.2500    74.2580    26.4920    26.7360     4.8230    16.9870     2.1300 
  219.5000  -999.2500    74.2580    26.4920    26.7360     4.8210    16.9850     2.1160 
  219.6250  -999.2500    74.2580    26.4920    26.7360     4.8200    16.9850     2.1140 
  219.7500  -999.2500    74.2580    26.4920    26.7360     4.8190    16.9850     2.1140 
  219.8750  -999.2500    74.2580    26.4920    26.7360     4.8160    16.9850     2.1130 
  220.0000  -999.2500    74.2580    26.4920    26.7360     4.8140    16.9850     2.1100 
