~V
VERS. 2.00: Ver 2.00
~W
STRT.M 50.0000:
STOP.M 265.0000:
STEP.M 0.1250:
NULL. -999.2500:
UWI. F10025:
~C
DEPT.M :
SP.MV :
DEN.GM/CC :
GR.API :
CALI.CM :
RXO.OHMM :
RI. :
RML.OHMM :
~A
# ...
  252.5000    -5.8420     2.2180    79.4530    23.4740     4.0570     3.9240     4.3150 
  252.6250    -5.8750     2.2210    79.4530    23.4700     4.0990     3.8000     4.3960 
  252.7500    -5.9120     2.2350    79.4530    23.4700     4.0670     3.6510     4.4280 
  252.8750    -5.9210     2.2520    79.4530    23.4700     4.0190     3.4790     4.2600 
  253.0000    -5.9090     2.2710    79.4530    23.4700     4.0270     3.3680     4.0180 
  253.1250    -5.8550     2.3030    79.4530    23.4700     4.0930     3.4380     3.9650 
  253.2500    -5.7290     2.3570    79.4530    23.4740     4.2110     3.8020     4.3600 
  253.3750    -5.6070     2.4260    79.4530    23.4930     5.2080     4.5990     5.4270 
  253.5000    -5.5240     2.4940    79.4530    23.5440     8.9260     5.6770     6.9270 
  253.6250    -5.4710     2.5230    79.4530    23.6030    16.7480     6.6590     8.2610 
  253.7500    -5.3720     2.5020    79.4530    23.6490    22.8770     6.9690     8.5700 
  253.8750    -5.2360     2.4470    79.4530    23.6740    19.4410     6.2680     7.5020 
  254.0000    -5.1160     2.3830    79.4530    23.6830    11.4130     5.1870     6.0890 
  254.1250    -5.0960     2.3310    79.4530    23.6810     6.1300     4.1880     4.9920 
  254.2500    -5.1130     2.2920    79.4530    23.6680     4.3740     3.4780     4.4300 
  254.3750    -5.1160     2.2710    79.4530    23.6380     4.0280     3.1340     4.4070 
  254.5000    -5.1400     2.2700    79.4530    23.6150     3.9410     3.0350     4.6570 
  254.6250    -5.1350     2.2790    79.4530    23.6080     3.8600     3.0860     4.9620 
  254.7500    -5.1250     2.2830    79.4530    23.6060     3.8180     3.1930     5.1670 
  254.8750    -5.1420     2.2830    79.4530    23.5950     3.8460     3.2850     5.2170 
  255.0000    -5.1890     2.2860    79.4530    23.5690     3.9270     3.3400     5.1930 
  255.1250    -5.1900     2.2930    79.4530    23.5480     3.9860     3.3650     5.1340 
  255.2500    -5.1950     2.2950    79.4530    23.5400     3.9660     3.3780     5.0530 
  255.3750    -5.2090     2.2950    79.4530    23.5390     3.8920     3.3960     4.9900 
  255.5000    -5.1770     2.2980    79.4530    23.5460     3.8360     3.4330     4.9920 
  255.6250    -5.1580     2.3010    79.4530    23.5670     3.8350     3.4930     5.0620 
  255.7500    -5.1280     2.2950    79.4530    23.5940     3.9260     3.5730     5.1810 
  255.8750    -5.1160     2.2770    79.4530    23.6060     4.1770     3.6620     5.3220 
  256.0000    -5.1160     2.2580    79.4530    23.6080     4.4980     3.7420     5.4530 
  256.1250    -5.1460     2.2520    79.4530    23.6080     4.9200     3.8000     5.5420 
  256.2500    -5.1340     2.2570    79.4530    23.6030     5.0260     3.8330     5.5650 
  256.3750    -5.0580     2.2650    79.4530    23.5800     4.6330     3.8420     5.5470 
  256.5000    -4.9810     2.2680    79.4530    23.5310     4.0140     3.8380     5.5280 
  256.6250    -4.9600     2.2650    79.4530    23.4890     3.7100     3.8270     5.5260 
  256.7500    -4.9970     2.2660    79.4530    23.4730     3.6370     3.8080     5.5770 
  256.8750    -5.0100     2.2780    79.4530    23.4700     3.6510     3.7820     5.6950 
  257.0000    -5.0420     2.2910    79.4530    23.4700     3.6980     3.7600     5.7820 
  257.1250    -5.0770     2.2900    79.4530    23.4700     3.7550     3.7510     5.7580 
  257.2500    -5.1280     2.2860    79.4530    23.4700     3.8250     3.7560     5.6250 
  257.3750    -5.2240     2.2970    79.4530    23.4700     3.9040     3.7660     5.4600 
  257.5000    -5.2930     2.3170    79.4530    23.4700     3.9600     3.7680     5.3550 
  257.6250    -5.3230     2.3170    79.4530    23.4660     3.9620     3.7570     5.3550 
  257.7500    -5.3470     2.2960    79.4530    23.4400     3.9240     3.7370     5.4450 
  257.8750    -5.4040     2.2750    79.4530    23.3830     3.8730     3.7260     5.5330 
  258.0000    -5.3780     2.2690    79.4530    23.3400     3.8350     3.7320     5.5790 
  258.1250    -5.3110     2.2750    79.4530    23.3270     3.8150     3.7380     5.5930 
  258.2500    -5.2380     2.2780    79.4530    23.3270     3.7970     3.7380     5.5930 
  258.3750    -5.1460     2.2750    79.4530    23.3270     3.7950     3.7380     5.5930 
  258.5000    -5.0790     2.2690    79.4530    23.3270     3.7880     3.7380     5.5930 
  258.6250    -5.0180     2.2680    79.4530    23.3240     3.7710     3.7380     5.5930 
  258.7500    -4.9540     2.2740    79.4530    23.3100     3.7610     3.7380     5.5930 
  258.8750    -4.8850     2.2780    79.4530    23.2800     3.7480     3.7380     5.5930 
  259.0000    -4.8290     2.2690    79.4530    23.2590     3.7490     3.7380     5.5930 
  259.1250    -4.8040     2.2460    79.4530    23.2520     3.7710     3.7380     5.5930 
  259.2500    -4.8230     2.2320    79.4530    23.2520     3.7750     3.7380     5.5930 
  259.3750    -4.9010     2.2360    79.4530    23.2580     3.7340     3.7380     5.5930 
  259.5000    -5.0180     2.2490    79.4530    23.2770     3.6940     3.7380     5.5930 
  259.6250    -5.1250     2.2540    79.4530    23.3090     3.7370     3.7380     5.5930 
  259.7500    -5.1770     2.2480    79.4530    23.3230     3.8710     3.7380     5.5930 
  259.8750    -5.1870     2.2410    79.4530    23.3270     4.0590     3.7380     5.5930 
  260.0000    -5.2190     2.2520    79.4530    23.3270     4.2450     3.7380     5.5930 
  260.1250    -5.2700     2.2700    79.4530    23.3270     4.4880     3.7380     5.5930 
  260.2500    -5.3110     2.1990    79.4530    23.3270     4.9630     3.7380     5.5930 
  260.3750    -5.3110     1.9780    79.4530    23.3240     5.5340     3.7380     5.5930 
  260.5000    -5.3110     1.6730    79.4530    23.2970     5.9910     3.7380     5.5930 
  260.6250  -999.2500     1.4640    79.4530    23.2080     6.2400     3.7380     5.5930 
  260.7500  -999.2500     1.3960    79.4530    23.0430     6.3970     3.7380     5.5930 
  260.8750  -999.2500     1.3990    79.4530    22.5790     6.5710     3.7380     5.5930 
  261.0000  -999.2500     1.4050    79.4530    21.1760     6.6600     3.7380     5.5930 
  261.1250  -999.2500     1.4000    79.4530    18.3380     6.6880     3.7380     5.5930 
  261.2500  -999.2500     1.3950    79.4530    15.9610     6.6930     3.7380     5.5930 
  261.3750  -999.2500     1.3960    79.4530    15.0550     6.6960     3.7380     5.5930 
  261.5000  -999.2500     1.3990    79.4530    14.9490     6.6970     3.7380     5.5930 
  261.6250  -999.2500     1.3990    79.4530    14.9460     6.6960     3.7380     5.5930 
  261.7500  -999.2500     1.3950    79.4530    14.9400     6.6940     3.7380     5.5930 
  261.8750  -999.2500     1.3920    79.4530    14.9340     6.6940     3.7380     5.5930 
  262.0000  -999.2500     1.3930    79.4530    14.9320     6.6930     3.7380     5.5930 
  262.1250  -999.2500     1.3980    79.4530    14.9320     6.6930     3.7380     5.5930 
  262.2500  -999.2500     1.4000    79.4530    14.9320     6.6940     3.7380     5.5930 
  262.3750  -999.2500     1.3980    79.4530    14.9320     6.6970     3.7380     5.5930 
  262.5000  -999.2500     1.3970    79.4530    14.9320     6.6980     3.7380     5.5930 
  262.6250  -999.2500     1.4000    79.4530    14.9320     6.6980     3.7380     5.5930 
  262.7500  -999.2500     1.4040    79.4530    14.9320     6.6980     3.7380     5.5930 
  262.8750  -999.2500     1.4040    79.4530    14.9320     6.6990     3.7380     5.5930 
  263.0000  -999.2500     1.4010    79.4530    14.9320     6.6990     3.7380     5.5930 
  263.1250  -999.2500     1.4000  -999.2500    14.9320  -999.2500  -999.2500  -999.2500 
  263.2500  -999.2500     1.4040  -999.2500    14.9320  -999.2500  -999.2500  -999.2500 
  263.3750  -999.2500     1.4080  -999.2500  -999.2500  -999.2500  -999.2500  -999.2500 
  263.5000  -999.2500     1.4080  -999.2500  -999.2500  -999.2500  -999.2500  -999.2500 
  263.6250  -999.2500     1.4050  -999.2500  -999.2500  -999.2500  -999.2500  -999.2500 
