~V
VERS. 2.00: Ver 2.00
~W
STRT.M 57.0000:
STOP.M 307.0000:
STEP.M 0.1250:
NULL. -999.2500:
UWI. F10042:
~C
DEPT.M :
GR.API :
RML.OHMM :
RI. :
RXO.OHMM :
CALI.CM :
DEN.GM/CC :
SP.MV :
~A
# ...
  102.0000    72.7370     7.7830     6.1860     7.6740    25.1310     2.1130   -16.5410 
  102.1250    72.5400     7.9460     6.2230     7.9130    25.0780     2.1220   -16.7880 
  102.2500    69.3370     8.1440     6.2890     8.3780    24.9910     2.1330   -17.0940 
  102.3750    66.8570     8.3130     6.3650     8.7100    24.9080     2.1400   -17.4050 
  102.5000    67.2240     8.3980     6.4250     8.7370    24.8520     2.1320   -17.7520 
  102.6250    68.0450     8.3690     6.4620     8.5560    24.8900     2.1070   -18.1630 
  102.7500    65.8580     8.2990     6.5020     8.1880    24.9920     2.0800   -18.5140 
  102.8750    62.3810     8.2650     6.5760     7.7900    25.0820     2.0690   -18.7300 
  103.0000    60.6860     8.3260     6.6990     7.6490    25.1360     2.0880   -18.7970 
  103.1250    61.6470     8.4900     6.8540     8.1760    25.1280     2.1380   -18.7120 
  103.2500    63.9540     8.6670     6.9810     9.3490    25.0630     2.1920   -18.5970 
  103.3750    65.8530     8.7660     7.0270     9.7830    25.0000     2.2260   -18.5220 
  103.5000    66.4590     8.7180     6.9660     8.7450    24.9980     2.2270   -18.4770 
  103.6250    66.8880     8.4870     6.7960     7.9010    25.0430     2.1860   -18.4270 
  103.7500    68.7600     8.1590     6.5790     7.7570    25.0560     2.1210   -18.3880 
  103.8750    72.3360     7.8300     6.3700     7.7710    25.0270     2.0460   -18.3830 
  104.0000    75.4940     7.5870     6.2140     7.5860    24.9300     1.9850   -18.3780 
  104.1250    76.2630     7.5010     6.1410     7.4420    24.7590     1.9650   -18.3360 
  104.2500    75.0790     7.5220     6.1260     7.4030    24.5860     1.9870   -18.2740 
  104.3750    73.8570     7.5870     6.1480     7.4350    24.5170     2.0340   -18.1630 
  104.5000    74.2420     7.6420     6.1930     7.4340    24.4870     2.0800   -18.0250 
  104.6250    74.6430     7.6540     6.2490     7.5640    24.3980     2.0980   -17.7940 
  104.7500    73.7030     7.6330     6.3010     7.7740    24.2700     2.0910   -17.4300 
  104.8750    72.4850     7.5850     6.3310     8.0460    24.1880     2.0730   -16.9650 
  105.0000    72.8760     7.5230     6.3320     8.0080    24.1760     2.0610   -16.4950 
  105.1250    73.0690     7.4790     6.3210     7.6840    24.3190     2.0620   -16.0870 
  105.2500    71.5410     7.4840     6.3140     7.4680    24.6020     2.0770   -15.5800 
  105.3750    69.8480     7.5230     6.2920     7.2450    24.8970     2.1030   -14.8480 
  105.5000    69.6020     7.5200     6.1960     7.1530    25.0540     2.1420   -13.9000 
  105.6250    74.9440     7.3180     5.9280     7.0320    25.0940     2.1900   -12.7160 
  105.7500    87.5280     6.8580     5.4960     6.4480    25.1100     2.2360   -11.3690 
  105.8750   102.1960     6.1560     4.9560     5.2210    25.1910     2.2690    -9.8870 
  106.0000   113.1310     5.3080     4.4010     4.1920    25.3940     2.2820    -8.2920 
  106.1250   117.3080     4.4670     3.9370     3.8560    25.5880     2.2760    -6.6240 
  106.2500   118.2470     3.7860     3.6110     3.7990    25.6640     2.2660    -5.0820 
  106.3750   114.9960     3.3800     3.4580     3.8100    25.6560     2.2600    -3.8050 
  106.5000   107.8350     3.3500     3.5250     3.8750    25.5980     2.2610    -2.7700 
  106.6250   100.9080     3.8440     3.9130     4.4710    25.5300     2.2740    -2.1050 
  106.7500    95.7660     4.7640     4.5940     5.9010    25.4720     2.3000    -1.8150 
  106.8750    89.5570     5.9570     5.4780     7.4170    25.3930     2.3420    -1.8150 
  107.0000    81.5110     7.1220     6.3350     9.7690    25.2890     2.3880    -2.0120 
  107.1250    76.9160     7.7450     6.7300    12.0690    25.2630     2.4160    -2.2590 
  107.2500    78.7910     7.6240     6.5470    10.6650    25.3350     2.4140    -2.4510 
  107.3750    84.6400     6.8550     5.9560     7.0970    25.4190     2.3840    -2.5920 
  107.5000    90.5040     5.8090     5.2610     4.9550    25.4800     2.3430    -2.7100 
  107.6250    94.2630     4.9720     4.7330     4.6170    25.5150     2.3100    -2.7720 
  107.7500    95.2930     4.5360     4.4360     5.1120    25.5360     2.2920    -2.7170 
  107.8750    93.8790     4.4530     4.3440     5.1570    25.5890     2.2830    -2.6070 
  108.0000    91.3800     4.5690     4.3800     4.9160    25.6680     2.2780    -2.5110 
  108.1250    89.4140     4.7060     4.4480     4.8210    25.6840     2.2770    -2.5370 
  108.2500    90.4350     4.7690     4.4850     4.8850    25.6850     2.2810    -2.6270 
  108.3750    96.1780     4.7660     4.4950     4.6510    25.6960     2.2890    -2.6870 
  108.5000   103.4060     4.7560     4.5080     4.4610    25.7200     2.2970    -2.7430 
  108.6250   103.2450     4.8170     4.5530     4.5070    25.7440     2.2960    -2.8950 
  108.7500    97.1570     4.9640     4.6240     4.8350    25.7430     2.2810    -3.1960 
  108.8750    90.8650     5.1670     4.6970     5.1780    25.7200     2.2560    -3.6020 
  109.0000    86.5010     5.3580     4.7450     5.4340    25.6910     2.2310    -4.0210 
  109.1250    84.0230     5.4510     4.7530     5.5170    25.6890     2.2140    -4.3280 
  109.2500    85.2850     5.4510     4.7600     5.3710    25.7050     2.2120    -4.5800 
  109.3750    89.9280     5.4410     4.8270     5.1950    25.7240     2.2320    -4.8860 
  109.5000    94.4560     5.5580     5.0140     5.1770    25.7220     2.2790    -5.2780 
  109.6250    94.2360     5.9850     5.3880     5.7750    25.6920     2.3450    -5.7520 
  109.7500    88.5740     6.7030     5.9030     6.8350    25.6010     2.4030    -6.2990 
  109.8750    79.5480     7.5930     6.4770     7.4920    25.4800     2.4230    -6.9810 
  110.0000    72.1470     8.4440     6.9930     7.3340    25.3180     2.3910    -7.8130 
  110.1250    69.9930     8.9730     7.3040     7.6390    25.0670     2.3100    -8.8640 
  110.2500    68.5380     9.1370     7.4050     8.3190    24.8370     2.2190   -10.1010 
  110.3750    65.8770     9.0240     7.3570     8.6240    24.7260     2.1430   -11.4040 
  110.5000    63.4260     8.8000     7.2520     8.7110    24.6500     2.0920   -12.6830 
  110.6250    62.5130     8.6240     7.1730     8.7130    24.5390     2.0700   -13.8650 
  110.7500    64.1960     8.5340     7.1320     8.8320    24.4560     2.0650   -14.8850 
  110.8750    67.9420     8.4920     7.1080     8.9630    24.5280     2.0710   -15.6900 
  111.0000    70.1190     8.4400     7.0710     9.0020    24.8540     2.0820   -16.3280 
  111.1250    67.5840     8.3180     6.9870     8.8270    25.3200     2.0960   -16.8060 
  111.2500    64.2560     8.1280     6.8580     8.4670    25.5850     2.1120   -17.1040 
  111.3750    63.8590     7.9110     6.7060     8.0110    25.6490     2.1290   -17.2270 
  111.5000    65.9010     7.7350     6.5650     7.8150    25.6560     2.1420   -17.1800 
  111.6250    68.8420     7.6770     6.4780     7.6990    25.6790     2.1450   -16.9900 
  111.7500    71.0330     7.7160     6.4470     7.8440    25.6780     2.1410   -16.8340 
  111.8750    71.8550     7.7900     6.4560     8.1500    25.6350     2.1330   -16.7130 
  112.0000    72.0590     7.8220     6.4670     8.4440    25.5710     2.1270   -16.5550 
  112.1250    71.8800     7.7510     6.4380     8.3340    25.5110     2.1250   -16.3550 
  112.2500    71.1970     7.6140     6.3740     7.9930    25.4940     2.1230   -16.1890 
  112.3750    70.1440     7.4730     6.3050     7.7320    25.4970     2.1200   -16.1570 
  112.5000    69.5650     7.3810     6.2560     7.7180    25.4910     2.1170   -16.3150 
  112.6250    69.9590     7.3610     6.2370     7.9120    25.4160     2.1170   -16.6280 
  112.7500    69.3960     7.3800     6.2280     8.1010    25.2990     2.1210   -16.8840 
  112.8750    68.8320     7.4090     6.2110     8.1350    25.2440     2.1230   -17.0150 
  113.0000    69.6910     7.4290     6.1740     8.0740    25.2450     2.1190   -17.0200 
  113.1250    72.5070     7.4180     6.1200     7.7820    25.2360     2.1070   -16.9160 
