~V
VERS. 2.00: Ver 2.00
~W
STRT.M 60.0000:
STOP.M 217.0000:
STEP.M 0.1250:
NULL. -999.2500:
UWI. F10010:
~C
DEPT.M :
DEN.GM/CC :
GR.API :
RML.OHMM :
RI. :
RXO.OHMM :
CALI.CM :
SP.MV :
~A
# ...
  206.2500     2.5390    34.6800     5.5110     5.1580     5.8020    23.7050   -29.7640 
  206.3750     2.5620    34.7620     5.6120     5.2640     6.4390    23.7470   -29.8910 
  206.5000     2.5790    34.7620     5.7110     5.3800     7.1970    23.8080   -30.0110 
  206.6250     2.5910    34.7620     5.8080     5.5090     8.0790    23.8860   -30.1170 
  206.7500     2.6020    34.7620     5.9060     5.6340     8.8230    23.9540   -30.1870 
  206.8750     2.6080    34.7620     5.9990     5.7410     9.2240    23.9890   -30.2530 
  207.0000     2.6040    34.7620     6.0690     5.8080     9.3560    23.9980   -30.2960 
  207.1250     2.5800    34.7620     6.0790     5.8170     9.1260    24.0010   -30.2670 
  207.2500     2.5390    34.7620     6.0210     5.7840     8.2610    24.0160   -30.2160 
  207.3750     2.4880    34.7620     5.9040     5.7240     6.9520    24.0380   -30.1700 
  207.5000     2.4370    34.7620     5.8380     5.6500     5.9120    24.0450   -30.1000 
  207.6250     2.4000    34.7620     5.7840     5.5680     5.6640    24.0390   -30.0340 
  207.7500     2.3780    34.7620     5.6970     5.4780     5.8310    24.0290   -29.9680 
  207.8750     2.3710    34.7620     5.5990     5.3690     5.9480    24.0000   -29.8840 
  208.0000     2.3710    34.7620     5.5370     5.2380     5.8680    23.9580   -29.8120 
  208.1250     2.3730    34.7620     5.4760     5.0990     5.7050    23.9940   -29.7690 
  208.2500     2.3730    34.7620     5.3830     4.9800     5.3870    24.0540   -29.7380 
  208.3750     2.3740    34.7620     5.5870     4.9070     4.8960    24.0830   -29.6980 
  208.5000     2.3790    34.7620     5.9470     4.8970     4.6400    24.0800   -29.6760 
  208.6250     2.3900    34.7620     6.3090     4.9780     4.9560    24.0820   -29.6910 
  208.7500     2.4030    34.7620     6.6490     5.1580     5.3410    24.0950   -29.7210 
  208.8750     2.4130    34.7620     6.9390     5.4430     5.4680    24.1010   -29.7790 
  209.0000     2.4170    34.7620     7.2290     5.8070     5.5950    24.1020   -29.8760 
  209.1250     2.4090    34.7620     7.5060     6.1700     6.1000    24.1070   -29.9750 
  209.2500     2.3950    34.7620     7.6490     6.4500     6.8120    24.1380   -30.0560 
  209.3750     2.3790    34.7620     7.7080     6.6140     7.4480    24.2150   -30.1500 
  209.5000     2.3660    34.7620     7.7230     6.6810     7.8050    24.3010   -30.2050 
  209.6250     2.3570    34.7620     7.7230     6.6950     7.5520    24.3400   -30.2000 
  209.7500     2.3480    34.7620     7.7200     6.7030     6.9740    24.2950   -30.1770 
  209.8750     2.3400    34.7620     7.7240     6.7090     6.5930    24.2400   -30.1440 
  210.0000     2.3330    34.7620     7.7830     6.7110     6.5790    24.2420   -30.0320 
  210.1250     2.3310    34.7620     7.7970     6.7110     6.7050    24.2660   -29.8400 
  210.2500     2.3340    34.7620     7.8100     6.7160     6.6240    24.2610   -29.6290 
  210.3750     2.3410    34.7620     7.8090     6.7290     6.4150    24.2120   -29.4090 
  210.5000     2.3490    34.7620     7.7970     6.7470     6.4790    24.1290   -29.2130 
  210.6250     2.3510    34.7620     7.7960     6.7640     7.1560    24.0500   -29.0500 
  210.7500     2.3440    34.7620     7.8150     6.7780     8.0220    23.9710   -28.8530 
  210.8750     2.3280    34.7620     7.8410     6.7870     8.2200    23.9250   -28.6420 
  211.0000     2.3060    34.7620     7.8540     6.7920     7.5030    23.9120   -28.5160 
  211.1250     2.2870    34.7620     7.8430     6.7880     6.8850    23.8820   -28.4630 
  211.2500     2.2760    34.7620     7.8180     6.7670     6.8080    23.8380   -28.4120 
  211.3750     2.2750    34.7620     7.7920     6.7210     6.9570    23.7550   -28.3660 
  211.5000     2.2770    34.7620     7.7710     6.6650     6.9520    23.6420   -28.3140 
  211.6250     2.2740    34.7620     7.7630     6.6340     6.8030    23.5830   -28.2930 
  211.7500     2.2630    34.7620     7.7690     6.6390     6.5710    23.5130   -28.3250 
  211.8750     2.2450    34.7620     7.7860     6.6720     6.1930    23.3860   -28.3430 
  212.0000     2.2260    34.7620     7.8020     6.7170     5.7640    23.1130   -28.3120 
  212.1250     2.2150    34.7620     7.8090     6.7560     5.5320    22.6710   -28.2800 
  212.2500     2.2120    34.7620     7.8100     6.7740     5.5250    22.0990   -28.2690 
  212.3750     2.2160    34.7620     7.8100     6.7740     5.5820    21.1950   -28.2580 
  212.5000     2.2180    34.7620     7.8100     6.7740     5.5660    19.8570   -28.2740 
  212.6250     2.2140    34.7620     7.8100     6.7740     5.5370    18.1740   -28.2360 
  212.7500     2.2070    34.7620     7.8100     6.7740     5.5850    16.7730   -28.1790 
  212.8750     2.2040    34.7620     7.8100     6.7740     5.7270    15.8680   -28.1540 
  213.0000     2.2080    34.7620     7.8100     6.7740     5.8590    15.3270   -28.1210 
  213.1250     2.2130    34.7620     7.8100     6.7740     5.8240    15.0210   -28.0900 
  213.2500     2.2110    34.7620     7.8100     6.7740     5.7050    14.8410   -28.0620 
  213.3750     2.1970    34.7620     7.8100     6.7740     5.6130    14.8800   -28.0390 
  213.5000     2.1810    34.7620     7.8100     6.7740     5.5810    15.0730   -27.9850 
  213.6250     2.1660    34.7620     7.8100     6.7740     5.5720    15.2020   -27.9470 
  213.7500     2.1530    34.7620     7.8100     6.7740     5.5600    15.0640   -27.9260 
  213.8750     2.1390    34.7620     7.8100     6.7740     5.5760    14.6850   -27.8930 
  214.0000     2.1220    34.7620     7.8100     6.7740     5.6050    14.0910   -27.9040 
  214.1250     2.1060    34.7620     7.8100     6.7740     5.6320    13.6770   -27.9000 
  214.2500     2.0940    34.7620     7.8100     6.7740     5.6610    13.5220   -27.8850 
  214.3750     2.0910    34.7620     7.8100     6.7740     5.6890    13.5000   -27.8760 
  214.5000     2.0930    34.7620     7.8100     6.7740     5.7160    13.4990   -27.8730 
  214.6250     2.0970    34.7620     7.8100     6.7740     5.7400    13.4990   -27.9040 
  214.7500     2.1000    34.7620     7.8100     6.7740     5.7650    13.4990   -27.9060 
  214.8750     2.1010    34.7620     7.8100     6.7740     5.7890    13.4990   -27.8880 
  215.0000     2.1000    34.7620     7.8100     6.7740     5.8110    13.4990   -27.8530 
  215.1250     2.0990    34.7620     7.8100     6.7740     5.8330    13.4990   -27.8100 
  215.2500     2.1000    34.7620     7.8100     6.7740     5.8590    13.4990   -27.7820 
  215.3750     2.1020    34.7620     7.8100     6.7740     5.8870    13.4990   -27.7500 
  215.5000     2.1070    34.7620     7.8100     6.7740     5.9200    13.4990   -27.6930 
  215.6250     2.1030    34.7620     7.8100     6.7740     5.9450    13.4990   -27.6410 
  215.7500     2.0910    34.7620     7.8100     6.7740     5.8980    13.4990   -27.5950 
  215.8750  -999.2500    34.7620     7.8100     6.7740     6.1350    13.4990   -27.5720 
  216.0000  -999.2500    34.7620     7.8100     6.7740     9.5810    13.4990   -27.5640 
  216.1250  -999.2500    34.7620     7.8100     6.7740    31.5610    13.4990  -999.2500 
  216.2500  -999.2500    34.7620     7.8100     6.7740   110.2050    13.4990  -999.2500 
  216.3750  -999.2500    34.7620     7.8100     6.7740   251.4380    13.4990  -999.2500 
  216.5000  -999.2500    34.7620     7.8100     6.7740   274.4480    13.4980  -999.2500 
  216.6250  -999.2500    34.7620     7.8100     6.7740    73.8510    13.4910  -999.2500 
  216.7500  -999.2500    34.7620     7.8100     6.7740     0.3000    13.4810  -999.2500 
  216.8750  -999.2500    34.7620     7.8100     6.7740     0.3000    13.4750  -999.2500 
  217.0000  -999.2500    34.7620     7.8100     6.7740     0.3000    13.4730  -999.2500 
