~V
VERS. 2.00: Ver 2.00
~W
STRT.M 50.0000:
STOP.M 244.0000:
STEP.M 0.1250:
NULL. -999.2500:
UWI. F10003:
~C
DEPT.M :
GR.API :
RML.OHMM :
RI. :
RXO.OHMM :
CALI.CM :
DEN.GM/CC :
SP.MV :
~A
# ...
  207.5000    67.9440    84.3630    75.1520   116.9180    24.2120     2.5260   -11.5040 
  207.6250    65.8900    88.9110    79.0370   113.6350    24.3180     2.5410   -11.4440 
  207.7500    63.3880    92.3820    81.9980   110.8550    24.2580     2.5730   -11.3800 
  207.8750    62.5230    92.6820    82.2270   112.7720    24.0160     2.6080   -11.3220 
  208.0000    64.0450    87.5480    77.7690   106.5470    23.7440     2.6370   -11.2390 
  208.1250    66.1620    74.9240    66.7380    93.0720    23.6170     2.6520   -11.0890 
  208.2500    66.4240    58.0560    51.8610    70.9530    23.7000     2.6530   -10.8990 
  208.3750    64.1650    41.0510    36.8180    45.2610    23.8580     2.6420   -10.6810 
  208.5000    57.8610    27.4850    24.8870    23.4420    24.0090     2.6150   -10.4490 
  208.6250    45.9270    19.4090    17.7730    12.3110    24.1380     2.5680   -10.3690 
  208.7500    32.9850    15.1960    13.9010     7.5730    24.1690     2.5130   -10.7500 
  208.8750    24.8790    13.5680    12.1710     7.5500    24.2340     2.4730   -11.6800 
  209.0000    22.7660    13.2940    11.6330     9.7960    24.3230     2.4680   -12.4120 
  209.1250    21.4700    13.2360    11.4470    12.7430    24.4470     2.5090   -12.5620 
  209.2500    19.4830    12.5640    10.8940    14.4150    24.5020     2.5620   -12.7070 
  209.3750    20.2400    11.0850     9.7370    12.1200    24.5140     2.5910   -12.7960 
  209.5000    23.6600     9.0080     8.1450     7.1830    24.4630     2.5690   -12.8240 
  209.6250    25.1260     7.0020     6.5860     4.9940    24.4610     2.5020   -12.6590 
  209.7500    24.1760     5.5730     5.3990     4.4770    24.5010     2.4290   -12.0510 
  209.8750    24.1070     4.9120     4.6660     4.5100    24.5800     2.3700   -10.9260 
  210.0000    26.6260     4.7260     4.3670     4.6250    24.4650     2.3380   -10.0450 
  210.1250    28.6120     4.9920     4.5140     4.7200    24.4630     2.3390    -9.8440 
  210.2500    27.6500     5.5440     4.9660     5.2250    24.5330     2.3690    -9.7290 
  210.3750    25.7660     6.2490     5.6070     6.2090    24.5410     2.4260    -9.7240 
  210.5000    24.5750     6.9180     6.2620     7.2380    24.4900     2.4940    -9.7740 
  210.6250    24.2930     7.2830     6.6660     8.2130    24.4330     2.5380    -9.8460 
  210.7500    24.2720     7.2640     6.7000     8.1140    24.4170     2.5260    -9.9250 
  210.8750    24.8640     6.9140     6.3840     6.3930    24.5240     2.4560    -9.9950 
  211.0000    25.6990     6.4060     5.8780     4.9230    24.8670     2.3620   -10.0280 
  211.1250    26.2600     5.9590     5.4100     4.5970    24.8440     2.2920   -10.0680 
  211.2500    28.6600     5.6570     5.1020     4.7980    24.5140     2.2680   -10.1390 
  211.3750    32.9570     5.4700     4.9550     5.0210    24.2870     2.2880   -10.1830 
  211.5000    35.6810     5.3350     4.9100     5.0380    24.2380     2.3330   -10.1720 
  211.6250    33.9440     5.2340     4.8770     4.6860    24.1490     2.3750   -10.2060 
  211.7500    31.0760     5.1660     4.7950     4.3880    23.9920     2.4000   -10.2830 
  211.8750    29.1970     5.0690     4.6610     4.3340    23.9100     2.4110   -10.3740 
  212.0000    27.7910     4.9390     4.5000     4.4140    23.9460     2.4140   -10.4620 
  212.1250    26.5900     4.8360     4.3680     4.5000    23.9300     2.4130   -10.6020 
  212.2500    25.8450     4.8170     4.3080     4.5450    23.7360     2.4110   -10.7630 
  212.3750    25.9000     4.9250     4.3580     4.6360    23.5040     2.4120   -10.9420 
  212.5000    29.2230     5.1880     4.5420     4.9860    23.7230     2.4160   -11.2470 
  212.6250    39.0020     5.6260     4.8850     5.6820    24.0260     2.4180   -11.6340 
  212.7500    51.3060     6.1710     5.3390     6.5780    24.2460     2.4120   -12.0360 
  212.8750    61.7190     6.7560     5.8540     7.5040    24.1740     2.3980   -12.4610 
  213.0000    69.0090     7.3010     6.3620     8.1160    23.7940     2.3790   -12.9290 
  213.1250    72.5040     7.7010     6.7690     8.4110    23.6460     2.3630   -13.3190 
  213.2500    72.5450     7.9300     7.0300     8.6080    23.8620     2.3550   -13.6450 
  213.3750    70.1800     7.9940     7.1360     8.9100    24.2160     2.3530   -13.9390 
  213.5000    70.4640     7.9390     7.1180     9.0320    24.3680     2.3540   -14.0920 
  213.6250    73.8440     7.8280     7.0220     8.6360    24.3110     2.3550   -14.0810 
  213.7500    74.2550     7.7230     6.9080     8.3570    24.2910     2.3560   -14.0060 
  213.8750    71.2970     7.6260     6.7870     8.4560    24.3830     2.3600   -13.8800 
  214.0000    68.3890     7.5050     6.6440     8.6830    24.4380     2.3690   -13.6630 
  214.1250    67.3900     7.3030     6.4410     8.2560    24.4190     2.3780   -13.3710 
  214.2500    65.4250     7.0190     6.1740     7.2970    24.3730     2.3830   -13.0570 
  214.3750    61.9160     6.6880     5.8680     6.2660    24.3470     2.3800   -12.7440 
  214.5000    57.6610     6.3750     5.5710     5.6700    24.3050     2.3730   -12.4640 
  214.6250    51.5560     6.1560     5.3520     5.5010    24.2090     2.3680   -12.3010 
  214.7500    45.6780     6.0190     5.2210     5.3620    24.2410     2.3730   -12.2210 
  214.8750    41.7980     5.9100     5.1570     5.3010    24.2850     2.3850   -12.1370 
  215.0000    39.0570     5.7810     5.1100     5.3270    24.2880     2.3980   -12.0520 
  215.1250    35.4860     5.5650     5.0240     5.2740    24.3020     2.4010   -12.0240 
  215.2500    31.0550     5.3480     4.8790     5.0450    24.2920     2.3960   -11.9600 
  215.3750    27.1620     5.1710     4.6930     4.7590    24.2350     2.3910   -11.7990 
  215.5000    24.7920     5.0350     4.5010     4.5660    24.1640     2.3960   -11.6170 
  215.6250    23.6400     4.8980     4.3510     4.5250    24.2830     2.4130   -11.3520 
  215.7500    23.3750     4.7780     4.2650     4.5590    24.4840     2.4330   -10.9680 
  215.8750    24.3290     4.6920     4.2500     4.6360    24.5830     2.4480   -10.5660 
  216.0000    25.3920     4.6710     4.2970     4.7400    24.6850     2.4540   -10.2100 
  216.1250    25.2890     4.7060     4.3920     4.8470    24.7790     2.4490    -9.8300 
  216.2500    24.0460     4.8120     4.5050     4.9550    24.6400     2.4340    -9.4830 
  216.3750    22.6960     4.9160     4.6160     5.0370    24.3340     2.4060    -9.2460 
  216.5000    22.8840     5.0100     4.7140     5.0750    24.1040     2.3690    -9.0240 
  216.6250    25.9100     5.0800     4.7840     5.1490    24.2880     2.3370    -8.8260 
  216.7500    29.9330     5.1210     4.8240     5.2260    24.4670     2.3220    -8.7110 
  216.8750    31.5410     5.1310     4.8360     5.2740    24.3090     2.3270    -8.6370 
  217.0000    29.7620     5.1140     4.8210     5.2810    24.0380     2.3470    -8.5270 
  217.1250    26.6050     5.0760     4.7830     5.1740    23.7250     2.3640    -8.4670 
  217.2500    24.0510     5.0300     4.7300     5.0090    23.4420     2.3650    -8.4430 
  217.3750    22.8710     4.9760     4.6650     4.9230    23.2870     2.3460    -8.3560 
  217.5000    23.3390     4.9080     4.5850     4.9590    23.3420     2.3160    -8.2380 
  217.6250    25.8800     4.8150     4.4830     5.0910    23.6830     2.2890    -8.1440 
  217.7500    29.5740     4.7060     4.3660     5.1160    24.0930     2.2750    -8.0530 
  217.8750    32.4500     4.5970     4.2480     4.9170    24.3380     2.2740    -7.9440 
  218.0000    32.1660     4.5140     4.1500     4.6020    24.4070     2.2820    -7.8510 
  218.1250    29.1170     4.4900     4.1060     4.4320    24.3870     2.2950    -7.7810 
  218.2500    27.1660     4.5250     4.1210     4.4510    24.3490     2.3060    -7.7420 
  218.3750    27.4030     4.6070     4.1910     4.6410    24.2660     2.3150    -7.7310 
  218.5000    29.2400     4.7090     4.2940     4.8690    24.0870     2.3220    -7.7560 
  218.6250    31.9300     4.7890     4.3920     5.0320    23.9650     2.3290    -7.7880 
