~V
VERS. 2.00: Ver 2.00
~W
STRT.M 57.0000:
STOP.M 255.0000:
STEP.M 0.1250:
NULL. -999.2500:
UWI. F10046:
~C
DEPT.M :
GR.API :
RML.OHMM :
RI. :
RXO.OHMM :
CALI.CM :
DEN.GM/CC :
SP.MV :
~A
# ...
   68.2500    65.0640     7.0400     6.0040     7.7810    22.5380     2.2360   -20.1290 
   68.3750    66.2490     6.5450     5.6300     7.1900    22.6310     2.2680   -19.2260 
   68.5000    69.0690     6.0990     5.2680     6.5700    22.8730     2.2940   -18.4200 
   68.6250    76.4360     5.8350     5.0230     6.2550    23.1390     2.3020   -17.7120 
   68.7500    82.5440     5.7910     4.9370     6.1890    23.2230     2.2900   -17.0650 
   68.8750    82.4940     5.9670     5.0210     6.3210    23.1110     2.2650   -16.4830 
   69.0000    78.3100     6.3240     5.2560     6.7070    22.8450     2.2400   -15.9550 
   69.1250    73.5550     6.8020     5.6180     7.2180    22.5810     2.2320   -15.5470 
   69.2500    67.3670     7.2800     6.0180     7.6050    22.4490     2.2470   -15.1790 
   69.3750    63.1710     7.6550     6.3750     7.9960    22.5330     2.2810   -14.7610 
   69.5000    64.1560     7.8320     6.6030     8.4820    22.8150     2.3200   -14.2700 
   69.6250    67.9500     7.7000     6.6010     9.1210    23.2390     2.3460   -13.7890 
   69.7500    70.0330     7.3160     6.3920     9.3460    23.6690     2.3530   -13.3480 
   69.8750    71.1630     6.7780     6.0380     8.4930    24.0080     2.3450   -12.9850 
   70.0000    75.6500     6.2390     5.6470     7.0200    24.1320     2.3320   -12.7560 
   70.1250    80.9650     5.9050     5.3680     6.0640    24.0240     2.3230   -12.6070 
   70.2500    84.7800     5.8630     5.2860     5.8540    23.8780     2.3190   -12.5640 
   70.3750    86.3460     6.1330     5.4360     5.9820    23.7530     2.3170   -12.6130 
   70.5000    85.4440     6.6410     5.7840     6.3300    23.7100     2.3150   -12.7010 
   70.6250    82.4840     7.2210     6.2270     6.8700    23.7540     2.3110   -12.7070 
   70.7500    78.3280     7.6580     6.5900     7.4200    23.8370     2.3060   -12.6340 
   70.8750    74.3350     7.8150     6.7580     7.8120    23.9040     2.3000   -12.5200 
   71.0000    72.4280     7.6540     6.6800     7.7770    24.0100     2.2960   -12.3780 
   71.1250    76.0670     7.2470     6.3840     7.0350    24.1850     2.3010   -12.2770 
   71.2500    82.6070     6.8290     6.0420     6.3640    24.3400     2.3140   -12.2010 
   71.3750    87.1170     6.5510     5.7690     6.1240    24.3920     2.3350   -12.2020 
   71.5000    87.1630     6.4740     5.6230     6.3010    24.3950     2.3570   -12.3110 
   71.6250    83.4560     6.5760     5.6110     6.9560    24.3900     2.3700   -12.6220 
   71.7500    78.7710     6.7310     5.6630     7.6470    24.3270     2.3680   -13.1260 
   71.8750    73.2890     6.8680     5.7320     8.1660    24.2010     2.3510   -13.8170 
   72.0000    68.3060     6.9720     5.7990     8.1950    23.9870     2.3270   -14.6120 
   72.1250    67.4360     7.0850     5.8840     7.0050    23.5710     2.3000   -15.4530 
   72.2500    68.8120     7.2450     6.0120     6.8190    23.1500     2.2740   -16.2320 
   72.3750    69.8030     7.4410     6.1920     7.1400    22.9320     2.2480   -16.8880 
   72.5000    69.4660     7.6220     6.4010     7.5250    22.8070     2.2230   -17.3160 
   72.6250    68.4210     7.6930     6.5700     7.7000    22.6210     2.2030   -17.4130 
   72.7500    66.0310     7.6140     6.6300     7.7450    22.4050     2.1950   -17.2330 
   72.8750    62.5010     7.3760     6.5380     7.6820    22.2890     2.2020   -16.7010 
   73.0000    60.6810     7.0110     6.2940     7.5100    22.2880     2.2270   -15.8810 
   73.1250    62.6600     6.5750     5.9340     7.0880    22.4740     2.2630   -14.8670 
   73.2500    67.1210     6.1540     5.5540     6.4390    22.9170     2.3010   -13.8640 
   73.3750    73.4190     5.8230     5.2210     5.7340    23.5290     2.3320   -12.9210 
   73.5000    80.7990     5.6490     4.9890     5.3090    24.0140     2.3480   -12.1090 
   73.6250    87.4200     5.6900     4.8980     5.2130    24.2770     2.3470   -11.4560 
   73.7500    90.3490     5.8560     4.8970     5.2220    24.3400     2.3360   -10.9280 
   73.8750    88.6670     6.0190     4.9210     5.2760    24.2110     2.3230   -10.5880 
   74.0000    85.4750     6.0310     4.8950     5.4500    23.8550     2.3130   -10.4490 
   74.1250    85.2520     5.7640     4.7510     5.7110    23.5890     2.3100   -10.5040 
   74.2500    87.4530     5.3580     4.5370     5.8370    23.7260     2.3150   -10.6480 
   74.3750    88.8200     5.1170     4.3890     5.7560    24.0980     2.3300   -10.8550 
   74.5000    87.1830     5.4860     4.5480     5.9910    24.3110     2.3610   -11.1450 
   74.6250    84.5260     7.1420     5.4710     8.2310    24.3440     2.4130   -11.5740 
   74.7500    83.3250    10.0600     7.2960    13.2620    24.3490     2.4770   -12.1580 
   74.8750    79.5820    13.8280     9.9360    21.3330    24.3360     2.5330   -12.8940 
   75.0000    71.4300    17.4950    12.8880    30.9570    24.2840     2.5590   -13.7570 
   75.1250    64.8470    19.4140    15.0220    36.8230    24.1820     2.5320   -14.6870 
   75.2500    62.6890    18.9180    15.4760    35.4580    23.9480     2.4690   -15.5430 
   75.3750    60.3970    16.3530    14.1400    26.9480    23.4890     2.3930   -16.2840 
   75.5000    56.3930    13.0110    11.8230    16.7030    22.8750     2.3250   -16.9250 
   75.6250    55.2010    10.3810     9.6870    10.7570    22.4790     2.2770   -17.4850 
   75.7500    56.7390     8.8360     8.2070     8.6590    22.3040     2.2470   -17.9660 
   75.8750    58.1240     8.2060     7.3710     8.0080    22.2820     2.2290   -18.3590 
   76.0000    59.5190     8.1790     7.0400     7.8300    22.2930     2.2190   -18.6400 
   76.1250    60.4420     8.4750     7.0830     7.7370    22.2890     2.2140   -18.7700 
   76.2500    60.5660     8.8040     7.2770     7.6610    22.2660     2.2110   -18.8900 
   76.3750    60.7620     9.0500     7.5050     7.6690    22.2440     2.2090   -19.0980 
   76.5000    62.4930     9.1780     7.6950     7.7700    22.2330     2.2070   -19.3360 
   76.6250    64.9770     9.1930     7.8020     7.9780    22.2330     2.2060   -19.4670 
   76.7500    66.3020     9.1550     7.8400     8.2400    22.2330     2.2060   -19.5100 
   76.8750    65.6730     9.0940     7.8220     8.5230    22.2410     2.2040   -19.4470 
   77.0000    62.5680     9.0260     7.7630     8.7820    22.2840     2.2020   -19.2990 
   77.1250    57.6310     8.9530     7.6800     8.9130    22.3800     2.1980   -19.1130 
   77.2500    54.6170     8.8650     7.5930     8.8820    22.4710     2.1940   -18.8900 
   77.3750    54.5590     8.7520     7.5150     8.7360    22.5080     2.1910   -18.5760 
   77.5000    55.5250     8.6120     7.4510     8.6770    22.5120     2.1880   -18.1760 
   77.6250    54.1210     8.4690     7.4020     8.7810    22.5120     2.1840   -17.7310 
   77.7500    52.2570     8.3660     7.3610     8.8980    22.5050     2.1800   -17.2270 
   77.8750    52.1320     8.3390     7.3260     8.8970    22.4690     2.1760   -16.6920 
   78.0000    54.3670     8.4070     7.2940     8.7860    22.3780     2.1740   -16.1250 
   78.1250    57.2100     8.5560     7.2550     8.6440    22.2410     2.1780   -15.5180 
   78.2500    58.1750     8.7000     7.1850     8.5480    22.1630     2.1900   -14.8860 
   78.3750    56.7870     8.7430     7.0520     8.4720    22.1860     2.2110   -14.2320 
   78.5000    55.0950     8.5900     6.8170     8.3250    22.3220     2.2400   -13.5990 
   78.6250    55.5930     8.1320     6.4360     7.9690    22.6780     2.2710   -13.0540 
   78.7500    59.5070     7.4520     5.9490     7.3710    23.1600     2.2960   -12.6560 
   78.8750    66.2110     6.7140     5.4430     6.6950    23.6540     2.3130   -12.4730 
   79.0000    72.9960     6.1860     5.0620     6.3250    24.0250     2.3240   -12.5180 
   79.1250    75.0010     6.2800     5.0530     6.4870    24.0350     2.3400   -12.7960 
   79.2500    74.3840     7.0710     5.4940     7.6080    23.7820     2.3670   -13.2230 
   79.3750    73.3510     8.4570     6.3730    10.6910    23.3870     2.3990   -13.8150 
