~V
VERS. 2.00: Ver 2.00
~W
STRT.M 55.0000:
STOP.M 314.0000:
STEP.M 0.1250:
NULL. -999.2500:
UWI. F10048:
~C
DEPT.M :
DEN.GM/CC :
GR.API :
RML.OHMM :
RI. :
RXO.OHMM :
CALI.CM :
SP.MV :
~A
# ...
  167.5000     2.2760    53.6830     9.8420     9.1140    11.5550    23.3290   -16.2510 
  167.6250     2.2690    55.4340     9.6280     8.9570    11.2800    23.4100   -16.4220 
  167.7500     2.2640    56.7450     9.4040     8.7880    10.9390    23.4270   -16.4400 
  167.8750     2.2600    58.9390     9.1950     8.6180    10.5830    23.3400   -16.3530 
  168.0000     2.2540    62.1370     8.9910     8.4510    10.1960    23.1700   -16.1900 
  168.1250     2.2470    63.8650     8.7950     8.2820    10.0500    22.9740   -15.9110 
  168.2500     2.2440    62.8450     8.6160     8.1170    10.0810    22.8140   -15.5730 
  168.3750     2.2490    60.2990     8.5340     7.9800    10.0520    22.6990   -15.2270 
  168.5000     2.2610    58.3340     8.5640     7.9130     9.7790    22.5800   -14.9690 
  168.6250     2.2710    59.9410     8.8380     7.9800     9.4500    22.5230   -14.8440 
  168.7500     2.2740    62.8260     9.2580     8.1730     9.5490    22.5290   -14.7190 
  168.8750     2.2670    64.4200     9.6710     8.4540    10.1010    22.5980   -14.4930 
  169.0000     2.2550    64.5170     9.9590     8.7320    10.6630    22.7090   -14.1090 
  169.1250     2.2460    64.8450     9.9910     8.8500    11.0070    22.8330   -13.5620 
  169.2500     2.2440    64.4980     9.7100     8.7270    10.9990    22.9300   -12.8390 
  169.3750     2.2510    63.0430     9.1670     8.3630    10.5960    22.9940   -11.9140 
  169.5000     2.2670    62.1230     8.5100     7.8470     9.7310    23.0600   -10.7820 
  169.6250     2.2990    63.9680     7.9350     7.3390     8.4580    23.2120    -9.4750 
  169.7500     2.3440    68.6400     7.5130     6.9500     7.5420    23.4370    -8.1270 
  169.8750     2.3980    72.7960     7.2210     6.7020     7.3990    23.6450    -6.8030 
  170.0000     2.4500    72.9320     6.9920     6.5500     7.7720    23.7760    -5.5270 
  170.1250     2.4830    70.4960     6.7620     6.4190     8.0780    23.8340    -4.4120 
  170.2500     2.4900    71.0500     6.5890     6.2480     7.8460    23.8820    -3.5190 
  170.3750     2.4730    76.6420     6.4720     6.0340     7.1780    23.9410    -2.8510 
  170.5000     2.4450    82.0460     6.3990     5.8160     6.3240    24.0090    -2.3470 
  170.6250     2.4200    81.3130     6.3590     5.6630     6.0810    24.0670    -1.9400 
  170.7500     2.4040    77.8610     6.3400     5.6000     6.1250    24.1080    -1.6210 
  170.8750     2.3960    77.0340     6.3690     5.6200     6.2010    24.1330    -1.4300 
  171.0000     2.3940    80.9130     6.4280     5.6920     6.2190    24.1440    -1.3520 
  171.1250     2.3990    84.9970     6.4990     5.7730     6.1520    24.1460    -1.2820 
  171.2500     2.4100    85.3440     6.5220     5.8310     6.1050    24.1470    -1.1840 
  171.3750     2.4250    83.1650     6.4800     5.8610     6.0770    24.1480    -1.1140 
  171.5000     2.4390    81.7280     6.4090     5.8700     6.1150    24.1520    -1.1080 
  171.6250     2.4430    81.9370     6.3710     5.8690     6.1430    24.1520    -1.1950 
  171.7500     2.4330    80.2050     6.3720     5.8720     6.1880    24.1400    -1.2850 
  171.8750     2.4160    76.9410     6.4130     5.8860     6.2670    24.0980    -1.3390 
  172.0000     2.3990    74.7510     6.4870     5.9150     6.3760    24.0110    -1.3710 
  172.1250     2.3920    74.8090     6.5870     5.9580     6.4640    23.8700    -1.4790 
  172.2500     2.3900    75.5210     6.6950     6.0050     6.5150    23.7120    -1.6610 
  172.3750     2.3890    77.0440     6.7970     6.0480     6.5550    23.5570    -1.8470 
  172.5000     2.3860    81.2050     6.8800     6.0740     6.4560    23.4150    -2.0110 
  172.6250     2.3800    84.8840     6.9200     6.0580     6.2690    23.2970    -2.1780 
  172.7500     2.3750    84.4870     6.8900     5.9840     6.1280    23.2170    -2.3690 
  172.8750     2.3720    81.2900     6.7610     5.8370     5.9960    23.1820    -2.5680 
  173.0000     2.3710    79.4270     6.5360     5.6320     5.8720    23.1870    -2.7990 
  173.1250     2.3700    80.8780     6.3300     5.4440     5.7310    23.2110    -3.0280 
  173.2500     2.3710    81.8770     6.4050     5.4280     5.7190    23.2210    -3.2690 
  173.3750     2.3800    83.1420     7.1350     5.8290     6.3750    23.2240    -3.5470 
  173.5000     2.4080    83.3690     8.9770     7.0070     9.0310    23.2230    -3.8240 
  173.6250     2.4670    77.7290    12.5630     9.6020    15.3560    23.2190    -4.0240 
  173.7500     2.5490    67.3800    17.5240    13.5690    24.9040    23.2100    -4.2210 
  173.8750     2.6350    58.8870    23.0620    18.4740    36.5650    23.1930    -4.4910 
  174.0000     2.6970    55.0880    27.8100    23.2570    46.3280    23.1610    -4.8190 
  174.1250     2.6960    53.1480    29.7310    25.9880    47.0340    23.1040    -5.1260 
  174.2500     2.6350    51.8910    28.5910    25.9100    41.6580    23.0210    -5.4110 
  174.3750     2.5370    52.2170    25.2970    23.5250    32.8620    22.9130    -5.6960 
  174.5000     2.4320    54.0550    21.4910    20.2850    23.4660    22.8040    -6.0340 
  174.6250     2.3520    54.7520    18.6640    17.5950    17.5910    22.7710    -6.4810 
  174.7500     2.3060    54.5330    17.0310    15.8170    15.0610    22.8600    -6.9340 
  174.8750     2.2900    54.6440    16.3950    14.8920    14.5490    23.0630    -7.3230 
  175.0000     2.2930    56.0400    16.4370    14.6320    14.8020    23.3330    -7.6270 
  175.1250     2.3010    58.4120    16.8480    14.8440    15.0630    23.5730    -7.8980 
  175.2500     2.2980    59.3340    17.2900    15.2040    15.1400    23.6850    -8.1420 
  175.3750     2.2780    57.6630    17.6120    15.5470    15.1090    23.7010    -8.3410 
  175.5000     2.2400    55.6290    17.7580    15.7890    15.0970    23.6840    -8.4380 
  175.6250     2.2010    56.3700    17.7220    15.8920    15.1970    23.6120    -8.4160 
  175.7500     2.1800    57.9480    17.5930    15.9040    15.3520    23.4500    -8.3710 
  175.8750     2.1850    58.4830    17.4300    15.8610    15.4360    23.1690    -8.3770 
  176.0000     2.2150    59.2080    17.2830    15.7910    15.2930    22.8450    -8.3960 
  176.1250     2.2550    60.4720    17.1810    15.7140    14.7890    22.7590    -8.4080 
  176.2500     2.2850    61.1710    17.1140    15.6350    14.2820    22.8860    -8.4600 
  176.3750     2.2960    62.3160    17.0630    15.5480    14.1100    23.1460    -8.5990 
  176.5000     2.2890    65.5530    17.0060    15.4400    14.2200    23.4610    -8.8110 
  176.6250     2.2620    66.6980    16.9310    15.3080    14.4640    23.8010    -9.0670 
  176.7500     2.2220    63.5890    16.8590    15.1770    14.7160    24.1160    -9.3360 
  176.8750     2.1720    59.7820    16.8160    15.0740    14.9080    24.3340    -9.5770 
  177.0000     2.1220    59.2730    16.8280    15.0230    14.9940    24.4100    -9.8060 
  177.1250     2.0880    62.3300    16.9050    15.0460    14.9520    24.2970    -9.9830 
  177.2500     2.0830    63.4400    17.0070    15.1160    14.8180    24.0480   -10.0740 
  177.3750     2.1120    61.6380    17.0950    15.2020    14.5580    23.7020   -10.0740 
  177.5000     2.1690    59.6570    17.1390    15.2750    14.1250    23.3000   -10.0560 
  177.6250     2.2310    60.9330    17.1320    15.3150    13.6700    22.9940   -10.0940 
  177.7500     2.2630    64.1400    17.1110    15.3380    13.4630    22.9610   -10.1690 
  177.8750     2.2490    64.8040    17.1100    15.3650    13.6090    23.2630   -10.2570 
  178.0000     2.2000    61.1920    17.1480    15.4100    14.1580    23.8100   -10.3430 
  178.1250     2.1490    56.7550    17.2190    15.4760    14.8150    24.4350   -10.4430 
  178.2500     2.1240    54.8630    17.2830    15.5420    15.1550    24.8530   -10.5500 
  178.3750     2.1360    54.8030    17.3090    15.5890    15.1760    24.8480   -10.6750 
  178.5000     2.1750    55.4150    17.2800    15.6020    14.9220    24.5280   -10.7820 
  178.6250     2.2160    55.5270    17.1740    15.5600    14.6620    24.3770   -10.8220 
