~V
VERS. 2.00: Ver 2.00
~W
STRT.M 55.0000:
STOP.M 308.0000:
STEP.M 0.1250:
NULL. -999.2500:
UWI. F10053:
~C
DEPT.M :
GR.API :
RML.OHMM :
RI. :
RXO.OHMM :
CALI.CM :
DEN.GM/CC :
SP.MV :
~A
# ...
  302.5000    66.7860    10.2860     8.7180     9.4730    23.4140     2.2780   -19.4450 
  302.6250    66.7860    10.3140     8.7200     8.2440    23.4200     2.2930   -19.2640 
  302.7500    66.7860    10.3410     8.7250     9.3180    23.4140     2.3090   -19.0450 
  302.8750    66.7860    10.3610     8.7280    10.3830    23.3910     2.3230   -18.8490 
  303.0000    66.7860    10.3690     8.7300     9.2990    23.3770     2.3290   -18.7590 
  303.1250    66.7860    10.3710     8.7300     8.0430    23.3610     2.3230   -18.6950 
  303.2500    66.7860    10.3710     8.7300     7.0620    23.3080     2.3080   -18.6500 
  303.3750    66.7860    10.3710     8.7300     7.3090    23.2310     2.2900   -18.6780 
  303.5000    66.7860    10.3710     8.7300     7.8230    23.1870     2.2730   -18.7720 
  303.6250    66.7860    10.3710     8.7300     7.4740    23.1280     2.2600   -18.8620 
  303.7500    66.7860    10.3710     8.7300     6.8900    23.0640     2.2490   -18.9040 
  303.8750    66.7860    10.3710     8.7300     6.7020    22.9570     2.2400   -18.9360 
  304.0000    66.7860    10.3710     8.7300     7.8670    22.7930     2.2340   -19.0410 
  304.1250    66.7860    10.3710     8.7300     9.4850    22.5660     2.2330   -19.1380 
  304.2500    66.7860    10.3710     8.7300    10.3240    22.3280     2.2340   -19.2370 
  304.3750    66.7860    10.3710     8.7300     9.9240    22.0890     2.2360   -19.3410 
  304.5000    66.7860    10.3710     8.7300     9.6630    21.9130     2.2360   -19.4260 
  304.6250    66.7860    10.3710     8.7300     8.9170    21.8110     2.2340   -19.5440 
  304.7500    66.7860    10.3710     8.7300     8.2040    21.8470     2.2320   -19.7140 
  304.8750    66.7860    10.3710     8.7300     7.7960    22.0100     2.2320   -19.7980 
  305.0000    66.7860    10.3710     8.7300     8.5110    22.2690     2.2360   -19.7980 
  305.1250    66.7860    10.3710     8.7300     9.7630    22.5150     2.2440  -999.2500 
  305.2500    66.7860    10.3710     8.7300    10.7340    22.6260     2.2560  -999.2500 
  305.3750    66.7860    10.3710     8.7300    11.3440    22.6590     2.2670  -999.2500 
  305.5000    66.7860    10.3710     8.7300    11.5300    22.6630     2.2750  -999.2500 
  305.6250    66.7860    10.3710     8.7300    11.0410    22.6420     2.2770  -999.2500 
  305.7500    66.7860    10.3710     8.7300     9.7620    22.5500     2.2770  -999.2500 
  305.8750    66.7860    10.3710     8.7300     8.3770    22.3670     2.2730  -999.2500 
  306.0000    66.7860    10.3710     8.7300     7.9740    22.1260     2.2580  -999.2500 
  306.1250    66.7860    10.3710     8.7300     8.3160    21.7340     2.2190  -999.2500 
  306.2500    66.7860    10.3710     8.7300     9.0960    20.9700     2.1630  -999.2500 
  306.3750    66.7860    10.3710     8.7300     9.1980    19.5050     2.1060  -999.2500 
  306.5000    66.7860    10.3710     8.7300     7.6150    17.2290     2.0730  -999.2500 
  306.6250    66.7860    10.3710     8.7300     6.2710    14.7980     2.0770  -999.2500 
  306.7500    66.7860    10.3710     8.7300     5.8760    13.7690     2.0950  -999.2500 
  306.8750    66.7860    10.3710     8.7300     5.8330    13.5140     2.1340  -999.2500 
  307.0000    66.7860    10.3710     8.7300     5.8350    13.5090     2.2170  -999.2500 
  307.1250    66.7860    10.3710     8.7300     5.8370    13.5090     2.3260  -999.2500 
  307.2500    66.7860    10.3710     8.7300     5.8380    13.5070     2.8290  -999.2500 
  307.3750    66.7860    10.3710     8.7300     5.8390    13.5040     3.1120  -999.2500 
  307.5000    66.7860    10.3710     8.7300     5.8390    13.5010     2.6440  -999.2500 
  307.6250    66.7860    10.3710     8.7300     5.8380    13.5000  -999.2500  -999.2500 
  307.7500    66.7860    10.3710     8.7300     5.8380    13.5000  -999.2500  -999.2500 
  307.8750    66.7860    10.3710     8.7300     5.8380    13.5000  -999.2500  -999.2500 
  308.0000  -999.2500  -999.2500  -999.2500  -999.2500  -999.2500  -999.2500  -999.2500 
