~V
VERS. 2.00: Ver 2.00
~W
STRT.M 57.0000:
STOP.M 208.0000:
STEP.M 0.1250:
NULL. -999.2500:
UWI. F10012:
~C
DEPT.M :
DEN.GM/CC :
SP.MV :
GR.API :
CALI.CM :
RXO.OHMM :
RI. :
RML.OHMM :
~A
# ...
  124.5000     2.4030   -20.3740    66.0670    21.7720    24.2480    37.1380    39.0810 
  124.6250     2.4400   -20.3680    64.8500    21.8420    24.8730    39.1810    41.4970 
  124.7500     2.4910   -20.3130    65.5950    22.0340    26.8770    42.3080    44.8590 
  124.8750     2.5360   -20.1940    65.8510    22.2820    31.8310    46.1240    48.6620 
  125.0000     2.5650   -20.0450    64.8690    22.4940    39.0820    49.8170    52.0210 
  125.1250     2.5830   -19.9000    62.6790    22.7180    43.7300    51.9160    53.4180 
  125.2500     2.5980   -19.7700    60.8800    22.8450    43.2420    51.8060    52.4660 
  125.3750     2.6080   -19.6950    60.7670    22.8510    39.2140    49.6330    49.6190 
  125.5000     2.6170   -19.6420    60.4070    22.7990    34.6760    46.2490    45.9650 
  125.6250     2.6260   -19.6160    59.4790    22.7530    32.3890    42.8030    42.7220 
  125.7500     2.6320   -19.6110    59.3160    22.6690    31.7440    40.0540    40.4160 
  125.8750     2.6280   -19.6210    60.8000    22.6210    31.7850    38.1740    39.0360 
  126.0000     2.6140   -19.6300    62.8550    22.6630    31.7500    37.0060    38.2680 
  126.1250     2.5980   -19.6210    62.5050    22.7640    31.0390    36.2560    37.7010 
  126.2500     2.5850   -19.5960    59.4240    22.7700    29.7730    35.5610    37.0140 
  126.3750     2.5760   -19.5440    56.1460    22.6470    28.2490    34.8140    36.1580 
  126.5000     2.5670   -19.4830    55.2500    22.5720    26.8060    34.0680    35.2410 
  126.6250     2.5590   -19.3870    57.2620    22.6030    25.5090    33.5150    34.5130 
  126.7500     2.5530   -19.2760    61.9250    22.6680    24.8480    33.2650    34.1350 
  126.8750     2.5450   -19.1600    66.0110    22.6880    25.0060    33.2940    34.0790 
  127.0000     2.5340   -19.0320    65.9610    22.6610    25.4770    33.4020    34.0890 
  127.1250     2.5190   -18.9220    62.6710    22.6270    26.1480    33.2000    33.6910 
  127.2500     2.4990   -18.8490    60.2650    22.6130    26.3190    32.4760    32.6700 
  127.3750     2.4760   -18.8260    60.9280    22.6240    25.2850    31.2240    31.1000 
  127.5000     2.4610   -18.8370    62.2280    22.6360    23.1010    29.6910    29.3540 
  127.6250     2.4660   -18.9010    63.5880    22.6320    21.2700    28.3970    28.0800 
  127.7500     2.4920   -18.9800    65.6530    22.6390    20.7680    27.7570    27.6430 
  127.8750     2.5280   -19.0960    66.7050    22.6570    21.4010    27.9860    28.1910 
  128.0000     2.5580   -19.2820    65.7820    22.6340    23.1790    29.1270    29.6920 
  128.1250     2.5760   -19.5280    64.0490    22.5750    25.7770    31.1310    32.0190 
  128.2500     2.5790   -19.7760    63.1720    22.5770    28.0700    33.4230    34.5360 
  128.3750     2.5690   -20.0060    63.5070    22.6630    29.4720    35.3780    36.5750 
  128.5000     2.5620   -20.2090    63.4850    22.7110    29.9720    36.3840    37.5340 
  128.6250     2.5690   -20.4010    63.6910    22.7830    29.6820    35.9600    36.9880 
  128.7500     2.5860   -20.6000    64.1050    22.8370    28.8470    34.5940    35.5310 
  128.8750     2.5880   -20.7890    65.0940    22.7950    27.4210    32.8730    33.8210 
  129.0000     2.5710   -20.9410    65.1410    22.6820    25.2000    31.4040    32.4940 
  129.1250     2.5550   -20.9720    61.8950    22.5900    24.3540    30.7100    32.0690 
  129.2500     2.5540   -20.9200    56.5830    22.5500    24.8160    30.7310    32.4020 
  129.3750     2.5710   -20.8180    54.3550    22.5900    25.7260    31.2860    33.2210 
  129.5000     2.5900   -20.6970    55.6630    22.6670    25.9760    32.0370    34.0910 
  129.6250     2.6000   -20.5390    58.3350    22.6750    25.2790    32.3660    34.3040 
  129.7500     2.5910   -20.3530    61.6560    22.6310    24.1680    31.8390    33.5030 
  129.8750     2.5610   -20.1620    66.2270    22.6250    22.8940    30.4340    31.7700 
  130.0000     2.5180   -19.9840    68.8530    22.6220    21.3500    28.5670    29.6190 
  130.1250     2.4590   -19.9330    68.1630    22.5530    19.8920    26.9260    27.8070 
  130.2500     2.3920   -19.9810    65.9130    22.4220    18.7330    25.9430    26.7420 
  130.3750     2.3470   -20.1010    64.2250    22.2900    18.8500    25.7170    26.4770 
  130.5000     2.3410   -20.2700    64.4260    22.1780    20.5590    26.0760    26.7930 
  130.6250     2.3660   -20.5140    68.3970    22.1700    22.4270    26.6680    27.3180 
  130.7500     2.3980   -20.8380    73.8860    22.2500    22.9230    27.1010    27.6920 
  130.8750     2.4200   -21.2020    75.5080    22.2920    22.0400    27.1800    27.7780 
  131.0000     2.4310   -21.5880    73.3240    22.2540    20.8860    26.8260    27.5440 
  131.1250     2.4420   -21.9190    70.0810    22.1680    20.7910    26.0190    26.9710 
  131.2500     2.4600   -22.2250    66.5260    22.1450    21.8370    24.9320    26.1370 
  131.3750     2.4780   -22.5000    63.4520    22.2320    22.3340    23.6980    25.1100 
  131.5000     2.4830   -22.7470    63.4000    22.2590    20.9280    22.5580    24.1580 
  131.6250     2.4780   -22.8950    64.9220    22.2840    18.2130    22.0300    23.9540 
  131.7500     2.4800   -22.9270    64.8140    22.2950    17.0890    22.4840    24.9660 
  131.8750     2.5040   -22.8450    62.1310    22.3180    17.9370    24.2570    27.5120 
  132.0000     2.5360   -22.6620    58.7540    22.2770    21.3970    27.4910    31.5760 
  132.1250     2.5560   -22.4250    56.8930    22.2890    28.5320    31.7610    36.3160 
  132.2500     2.5590   -22.1370    58.8950    22.6410    34.1680    35.1990    39.5280 
  132.3750     2.5520   -21.7940    64.1290    23.3300    33.8900    36.0380    39.4220 
  132.5000     2.5400   -21.3990    69.2080    23.8770    28.4410    33.8340    35.9670 
  132.6250     2.5150   -20.9900    72.5560    24.0300    22.7590    29.7190    30.8910 
  132.7500     2.4740   -20.6180    74.0720    23.9220    20.6190    25.6570    26.2940 
  132.8750     2.4400   -20.3240    73.6830    23.7320    20.6400    22.4250    22.8510 
  133.0000     2.4260   -20.0810    72.3990    23.6370    19.8670    20.1980    20.6020 
  133.1250     2.4260   -19.8570    70.7870    23.6410    17.6960    18.9580    19.4280 
  133.2500     2.4300   -19.6660    69.1940    23.6680    15.9210    18.3140    18.8610 
  133.3750     2.4360   -19.5170    67.1360    23.6800    15.6200    18.0490    18.6580 
  133.5000     2.4430   -19.4160    65.4620    23.6760    16.2680    17.9940    18.6250 
  133.6250     2.4500   -19.3520    65.1790    23.6370    16.7190    18.0170    18.6040 
  133.7500     2.4540   -19.3000    65.9880    23.4970    16.8240    17.9720    18.4670 
  133.8750     2.4550   -19.2390    66.6930    23.2180    16.9530    17.7700    18.1520 
  134.0000     2.4520   -19.2150    66.7480    22.9070    16.6760    17.4170    17.7050 
  134.1250     2.4440   -19.2550    66.9640    22.5780    16.0290    17.0660    17.3150 
  134.2500     2.4350   -19.3400    67.5200    22.2400    14.8980    16.9100    17.1790 
  134.3750     2.4300   -19.4530    67.6840    22.2310    14.0880    17.0400    17.3880 
  134.5000     2.4270   -19.5990    67.2380    22.4980    14.2540    17.4030    17.8670 
  134.6250     2.4200   -19.7760    65.3940    22.8740    15.4790    17.7650    18.3300 
  134.7500     2.4060   -19.9710    63.0200    23.2290    16.4360    17.8190    18.4380 
  134.8750     2.3870   -20.1940    62.6340    23.5370    16.5090    17.3970    18.0400 
  135.0000     2.3710   -20.4170    65.0960    23.7490    15.3640    16.5270    17.2230 
  135.1250     2.3640   -20.6300    68.3080    23.8740    14.0930    15.4270    16.2740 
  135.2500     2.3670   -20.8130    69.6660    23.8840    13.5480    14.4190    15.5050 
  135.3750     2.3730   -21.0010    68.9070    23.8350    13.6630    13.6750    15.0370 
  135.5000     2.3770   -21.1790    68.5480    23.7890    13.6160    13.2860    14.9100 
  135.6250     2.3840   -21.3700    69.4680    23.7530    13.2380    13.3750    15.2210 
