~V
VERS. 2.00: Ver 2.00
~W
STRT.M 62.0000:
STOP.M 254.0000:
STEP.M 0.1250:
NULL. -999.2500:
UWI. F10030:
~C
DEPT.M :
DEN.GM/CC :
GR.API :
RML.OHMM :
RI. :
RXO.OHMM :
CALI.CM :
SP.MV :
~A
# ...
  174.5000     2.2730    56.2530     7.8730     7.5490     8.3540    25.2000   -13.0130 
  174.6250     2.2770    52.5440     7.4190     7.1940     8.7660    25.0410   -12.9390 
  174.7500     2.3050    49.0200     7.2430     7.1130     8.6540    24.5510   -12.8660 
  174.8750     2.3380    47.2290     7.2510     7.1510     8.1300    24.2000   -12.7790 
  175.0000     2.3530    45.7110     7.3030     7.1800     7.7650    24.3030   -12.7200 
  175.1250     2.3190    42.7460     7.3370     7.1110     7.4490    24.8580   -12.6600 
  175.2500     2.2460    40.0940     7.3370     6.9570     7.1160    25.7780   -12.6070 
  175.3750     2.1510    39.9080     7.2540     6.7550     6.8190    27.0500   -12.5490 
  175.5000     2.0570    41.1820     7.0730     6.5470     6.6520    28.3560   -12.4940 
  175.6250     1.9790    40.2920     6.8380     6.3710     6.4960    29.1900   -12.4450 
  175.7500     1.9180    37.7890     6.7160     6.2420     6.3630    29.5650   -12.4300 
  175.8750     1.8760    36.4940     6.6880     6.1720     6.3450    29.7810   -12.4330 
  176.0000     1.8570    37.5210     6.7090     6.1640     6.4430    29.9880   -12.4270 
  176.1250     1.8660    38.7430     6.7330     6.2180     6.6630    30.0420   -12.4240 
  176.2500     1.8850    39.2870     6.7750     6.3060     6.9490    29.9380   -12.4570 
  176.3750     1.9090    39.9940     6.8550     6.4090     7.2490    29.5420   -12.5000 
  176.5000     1.9410    41.5520     6.9600     6.5070     7.5320    28.6650   -12.5120 
  176.6250     1.9960    43.1050     7.0550     6.5870     7.6330    27.2040   -12.5760 
  176.7500     2.0730    43.9320     7.1420     6.6570     7.9560    25.7480   -12.6040 
  176.8750     2.1570    44.5980     7.2510     6.7390     8.2420    24.7800   -12.6360 
  177.0000     2.2290    45.6070     7.3890     6.8580     8.3100    24.4280   -12.6710 
  177.1250     2.2700    47.5860     7.5720     7.0430     8.2000    24.4920   -12.6800 
  177.2500     2.2880    49.8230     7.8030     7.2770     8.6980    24.6090   -12.7140 
  177.3750     2.2870    52.2290     8.0510     7.5280     9.6900    24.6610   -12.7110 
  177.5000     2.2720    54.5360     8.2410     7.7480    10.4180    24.6620   -12.7140 
  177.6250     2.2440    55.7390     8.2920     7.8650    10.2620    24.5700   -12.6980 
  177.7500     2.2110    56.1110     8.2370     7.8500     9.8800    24.3740   -12.6460 
  177.8750     2.1860    56.0750     8.1340     7.6950     9.1440    24.1800   -12.5720 
  178.0000     2.1740    55.9550     8.0130     7.4230     8.2870    24.1260   -12.4760 
  178.1250     2.1760    53.4620     7.8380     7.0860     7.7430    24.3020   -12.3890 
  178.2500     2.1780    47.4530     7.6640     6.7620     7.4140    24.5600   -12.2830 
  178.3750     2.1670    40.7840     7.5220     6.4940     7.2470    24.8850   -12.1920 
  178.5000     2.1340    36.7010     7.4260     6.3080     7.1470    25.3150   -12.1460 
  178.6250     2.0790    37.3590     7.3780     6.2220     7.0090    25.9270   -12.0930 
  178.7500     2.0270    39.3270     7.3720     6.2190     7.0660    26.5440   -12.0940 
  178.8750     2.0000    40.3510     7.4120     6.3010     7.3380    26.8030   -12.1090 
  179.0000     2.0150    40.7550     7.5030     6.4670     7.5660    26.5440   -12.1220 
  179.1250     2.0780    42.2320     7.6360     6.7080     7.5860    26.0230   -12.1490 
  179.2500     2.1620    44.0680     7.7680     6.9690     7.6220    25.5280   -12.1280 
  179.3750     2.2390    44.3950     7.8560     7.2000     7.6940    25.1230   -12.1060 
  179.5000     2.2830    42.3850     7.8650     7.3570     7.6510    24.8640   -12.0610 
  179.6250     2.2700    39.3680     7.8060     7.4060     7.2680    24.8880   -11.9870 
  179.7500     2.2120    37.5040     7.7140     7.3760     7.0510    25.0650   -11.9290 
  179.8750     2.1310    36.7970     7.6170     7.2910     7.2160    25.2250   -11.8900 
  180.0000     2.0610    37.0890     7.5320     7.1740     7.4240    25.2540   -11.8840 
  180.1250     2.0390    38.1300     7.4530     7.0410     7.4850    25.2060   -11.9130 
  180.2500     2.0600    38.8390     7.3660     6.9060     7.4370    25.2820   -11.9930 
  180.3750     2.1060    38.2920     7.2710     6.7820     7.3500    25.4670   -12.1340 
  180.5000     2.1490    36.4060     7.1830     6.6840     7.2050    25.7720   -12.2920 
  180.6250     2.1680    34.5460     7.1250     6.6360     7.0610    26.0930   -12.5120 
  180.7500     2.1650    34.1850     7.1030     6.6430     7.0040    26.3190   -12.7530 
  180.8750     2.1520    35.4140     7.1250     6.7020     7.0650    26.4190   -12.9940 
  181.0000     2.1420    38.1710     7.1830     6.8020     7.1770    26.4650   -13.2450 
  181.1250     2.1480    42.0820     7.2720     6.9180     7.2530    26.4500   -13.4720 
  181.2500     2.1720    45.0010     7.3760     7.0170     7.3720    26.3410   -13.6840 
  181.3750     2.2110    45.6830     7.4760     7.0750     7.4790    26.1220   -13.8500 
  181.5000     2.2600    44.7820     7.5430     7.0760     7.3920    25.7800   -13.9710 
  181.6250     2.3060    44.7080     7.5390     7.0150     7.1730    25.4650   -14.0760 
  181.7500     2.3400    45.6050     7.4760     6.9260     6.9670    25.3720   -14.1270 
  181.8750     2.3600    46.7650     7.3870     6.8360     6.8740    25.4530   -14.1630 
  182.0000     2.3650    46.9850     7.3120     6.7750     6.9930    25.3160   -14.1780 
  182.1250     2.3580    45.0240     7.2860     6.7740     7.2270    24.6770   -14.1680 
  182.2500     2.3480    42.9740     7.3160     6.8220     7.8420    24.0390   -14.1510 
  182.3750     2.3420    42.3660     7.3980     6.8970     8.6920    23.7020   -14.0880 
  182.5000     2.3430    41.6150     7.5090     6.9680     9.0600    23.6540   -14.0500 
  182.6250     2.3500    38.3590     7.6010     7.0110     8.7750    23.7290   -13.9750 
  182.7500     2.3560    35.2290     7.6370     7.0350     8.4040    23.7950   -13.9280 
  182.8750     2.3560    34.8990     7.6280     7.0560     8.0350    23.8100   -13.8900 
  183.0000     2.3510    37.3130     7.6080     7.0810     7.6250    23.7620   -13.8430 
  183.1250     2.3430    40.8800     7.5780     7.0850     7.3960    23.6850   -13.8230 
  183.2500     2.3360    43.5270     7.5070     7.0320     7.2940    23.7190   -13.8120 
  183.3750     2.3310    44.1310     7.3960     6.9040     7.2180    23.9530   -13.8890 
  183.5000     2.3320    43.8760     7.3660     6.7220     7.1520    24.3090   -13.9890 
  183.6250     2.3410    45.4020     7.5630     6.5660     7.3210    24.4160   -14.1300 
  183.7500     2.3550    49.7860     7.9550     6.5330     7.6470    24.2460   -14.2580 
  183.8750     2.3680    56.1500     8.4020     6.7010     8.0910    23.9620   -14.3490 
  184.0000     2.3770    62.6300     8.9840     7.1050     8.5640    23.7580   -14.4470 
  184.1250     2.3800    68.4560     9.7500     7.7410     9.3850    23.6810   -14.5000 
  184.2500     2.3740    72.3540    10.5400     8.4460    10.3400    23.6050   -14.5420 
  184.3750     2.3570    73.8580    11.1790     9.0590    11.0110    23.5350   -14.4910 
  184.5000     2.3280    74.5780    11.5090     9.4320    10.9110    23.5310   -14.3430 
  184.6250     2.2890    75.3340    11.3700     9.4390    10.3850    23.6500   -14.1160 
  184.7500     2.2450    73.8260    10.8710     9.1760    10.0880    23.8220   -13.7970 
  184.8750     2.1940    68.0130    10.1420     8.7420     9.4530    24.0490   -13.4640 
  185.0000     2.1310    59.3650     9.3530     8.2340     8.2900    24.4510   -13.0980 
  185.1250     2.0530    50.5960     8.6850     7.7310     7.6340    25.2340   -12.7560 
  185.2500     1.9720    43.2780     8.1980     7.2810     7.2240    26.4450   -12.4270 
  185.3750     1.9050    38.4850     7.8570     6.9200     7.1750    27.8400   -12.1380 
  185.5000     1.8650    35.3360     7.5700     6.6820     7.3120    28.8170   -11.9200 
  185.6250     1.8630    33.1810     7.4000     6.6080     7.2400    28.8340   -11.7710 
