~V
VERS. 2.00: Ver 2.00
~W
STRT.M 55.0000:
STOP.M 181.0000:
STEP.M 0.1250:
NULL. -999.2500:
UWI. F10008:
~C
DEPT.M :
SP.MV :
GR.API :
RML.OHMM :
RI. :
RXO.OHMM :
CALI.CM :
DEN.GM/CC :
~A
# ...
  133.7500   -16.1530    57.3210    63.2080    59.7420    75.1090    24.2460     2.1880 
  133.8750   -15.9350    57.9330    57.6020    54.1190    58.1400    24.1430     2.1840 
  134.0000   -15.6930    56.9220    53.8860    49.9690    46.1580    24.0790     2.1970 
  134.1250   -15.4430    56.6350    52.7530    48.0580    44.4080    24.0460     2.2260 
  134.2500   -15.1600    56.8210    53.5470    47.9690    52.7030    24.0710     2.2550 
  134.3750   -14.8510    56.2940    55.6450    49.2990    69.0090    24.1200     2.2740 
  134.5000   -14.5450    54.1560    58.3850    51.5520    75.0120    24.1710     2.2770 
  134.6250   -14.3710    52.4770    61.4580    54.4860    70.6900    24.1660     2.2660 
  134.7500   -14.2260    52.6100    65.0420    58.0350    66.3640    24.0940     2.2520 
  134.8750   -14.0270    53.1480    69.5570    62.3730    66.2060    24.0290     2.2410 
  135.0000   -13.7130    52.8350    75.0430    67.4050    70.1930    24.0610     2.2420 
  135.1250   -13.3080    51.5870    80.1980    71.9810    89.8400    24.0730     2.2610 
  135.2500   -12.9310    50.9150    82.4070    74.0680   116.7470    24.0180     2.2920 
  135.3750   -12.6790    51.7780    79.5250    71.9930   119.5700    23.9700     2.3280 
  135.5000   -12.4640    54.0130    71.6440    65.6980    90.7090    23.9650     2.3610 
  135.6250   -12.1200    55.5140    61.4080    57.1130    62.3540    23.9890     2.3930 
  135.7500   -11.7690    54.9700    52.4960    49.3880    46.4640    24.0350     2.4330 
  135.8750   -11.5190    55.3730    46.5880    44.0850    39.8220    24.1090     2.4780 
  136.0000   -11.3960    59.0140    44.2210    41.7990    33.2640    24.1610     2.5200 
  136.1250   -11.3900    62.0730    45.4480    42.7900    34.1480    24.1990     2.5470 
  136.2500   -11.4170    60.8910    48.0040    45.2980    38.9070    24.2280     2.5590 
  136.3750   -11.3530    59.2250    48.9940    46.8330    46.9680    24.2520     2.5610 
  136.5000   -11.1610    63.9440    45.4670    44.3900    60.7830    24.2260     2.5540 
  136.6250   -10.8530    75.1890    36.6700    36.6030    70.4270    24.3210     2.5280 
  136.7500   -10.3930    83.8250    26.8530    27.4150    49.1120    24.2780     2.4810 
  136.8750    -9.7820    86.1740    17.7670    19.7230    21.2160    24.1930     2.4220 
  137.0000    -9.0730    83.3400    12.3100    14.5400    11.6900    24.1960     2.3700 
  137.1250    -8.2980    78.5650     9.8470    11.8440    10.1720    24.3350     2.3410 
  137.2500    -7.5090    74.2660     8.8730    10.6060    10.4860    24.4610     2.3340 
  137.3750    -6.7810    72.8280     8.8460    10.3780    10.4680    24.4510     2.3400 
  137.5000    -6.2340    74.9830     9.3170    10.7820    10.3100    24.3650     2.3500 
  137.6250    -5.9260    76.1350     9.9100    11.4170    10.4070    24.3730     2.3650 
  137.7500    -5.7800    75.6910    10.3650    11.9100    10.7890    24.4620     2.3810 
  137.8750    -5.7350    77.3840    10.6100    12.1560    11.4700    24.5490     2.3950 
  138.0000    -5.7430    82.6770    10.6610    12.1850    12.0970    24.6060     2.4010 
  138.1250    -5.8310    87.4520    10.5760    12.0370    11.7120    24.6300     2.3990 
  138.2500    -5.9110    88.9820    10.4620    11.7980    11.4680    24.6500     2.3920 
  138.3750    -5.9410    91.2910    10.3350    11.4880    11.6330    24.6950     2.3870 
  138.5000    -6.0250    95.1970    10.1400    11.0930    11.8480    24.7250     2.3840 
  138.6250    -6.2120    96.7590     9.8460    10.6220    12.4200    24.7190     2.3830 
  138.7500    -6.4150    97.9040     9.5930    10.2070    13.0210    24.6950     2.3780 
  138.8750    -6.6880   101.2170     9.6380    10.0340    13.1740    24.6850     2.3710 
  139.0000    -7.0660   104.9880    10.3000    10.3120    13.2180    24.6800     2.3640 
  139.1250    -7.5860   102.0320    12.0650    11.4210    15.5070    24.6550     2.3640 
  139.2500    -8.2580    93.5740    14.9490    13.4850    21.6240    24.6050     2.3720 
  139.3750    -9.0500    85.8710    18.8590    16.5940    29.9730    24.5550     2.3830 
  139.5000    -9.8190    80.9630    23.3540    20.5370    37.5120    24.5260     2.3860 
  139.6250   -10.4750    74.9340    27.4110    24.5340    44.1470    24.4980     2.3750 
  139.7500   -11.0880    67.8110    30.1680    27.6090    46.5780    24.4890     2.3550 
  139.8750   -11.6500    62.3760    31.5440    29.4490    45.3180    24.4970     2.3340 
  140.0000   -12.1750    60.6980    32.1410    30.4080    40.6460    24.4850     2.3210 
  140.1250   -12.5830    60.3720    32.7110    31.0480    38.7970    24.4330     2.3170 
  140.2500   -12.8130    59.5990    33.5580    31.7440    42.2760    24.3390     2.3160 
  140.3750   -12.8570    60.5620    34.4760    32.4380    51.0380    24.2790     2.3150 
  140.5000   -12.7120    64.3510    35.0060    32.8320    54.0090    24.2480     2.3140 
  140.6250   -12.4020    69.3300    34.6200    32.4810    47.5120    24.2750     2.3190 
  140.7500   -12.0310    72.1440    33.4900    31.4540    42.8030    24.3130     2.3280 
  140.8750   -11.5540    70.8840    31.8980    29.9440    43.7020    24.3740     2.3380 
  141.0000   -10.9400    66.6260    30.1430    28.2220    39.1760    24.4120     2.3410 
  141.1250   -10.2740    62.7320    28.5320    26.6300    33.5050    24.3440     2.3350 
  141.2500    -9.6980    60.6860    27.2810    25.4250    31.9290    24.3040     2.3270 
  141.3750    -9.2330    59.2680    26.6180    24.8030    31.3070    24.2750     2.3200 
  141.5000    -8.8990    58.6900    26.8810    25.0010    29.6110    24.2270     2.3180 
  141.6250    -8.7080    59.8090    28.6170    26.4670    32.4090    24.1470     2.3190 
  141.7500    -8.5730    61.3940    31.5270    29.0340    39.2680    24.1480     2.3190 
  141.8750    -8.4740    61.8910    34.9570    32.2600    44.2170    24.1990     2.3170 
  142.0000    -8.3890    61.1110    37.8230    35.2510    48.1440    24.2290     2.3100 
  142.1250    -8.2390    59.8430    38.4220    36.4280    49.8560    24.2060     2.2980 
  142.2500    -7.9560    58.2880    36.3660    35.1090    46.9720    24.2200     2.2850 
  142.3750    -7.5560    57.6070    32.1480    31.4800    37.6410    24.2430     2.2800 
  142.5000    -7.0530    59.6990    26.9380    26.5960    28.0900    24.2220     2.2950 
  142.6250    -6.5000    64.1820    21.9800    21.7830    24.6360    24.1280     2.3340 
  142.7500    -5.9680    69.5510    17.9330    17.7940    19.5130    24.0620     2.3770 
  142.8750    -5.4870    72.7120    15.0300    14.8460    12.5580    23.9910     2.4040 
  143.0000    -5.0850    74.0880    13.2430    12.9150     9.4620    23.9430     2.4040 
  143.1250    -4.8200    74.1620    12.4750    11.9500     8.9300    23.9310     2.3770 
  143.2500    -4.6590    73.3200    12.2880    11.5860     8.6420    23.8730     2.3400 
  143.3750    -4.5630    74.7050    12.4360    11.6200     8.8600    23.7790     2.3090 
  143.5000    -4.5150    80.0980    12.6760    11.8280     9.8840    23.7150     2.2880 
  143.6250    -4.4780    85.9120    12.7470    11.9480    10.3400    23.7110     2.2820 
  143.7500    -4.4610    86.2000    12.5830    11.8720    10.1940    23.7530     2.2870 
  143.8750    -4.4390    81.2720    12.2630    11.6510    10.4340    23.8120     2.3010 
  144.0000    -4.3870    76.3650    11.9550    11.4180    10.6200    23.8440     2.3210 
  144.1250    -4.2480    75.3540    11.9420    11.3880    11.8970    23.8730     2.3420 
  144.2500    -4.0380    77.0230    12.3660    11.6810    13.6090    23.9690     2.3600 
  144.3750    -3.7930    78.0650    13.2320    12.3310    15.4770    24.1420     2.3690 
  144.5000    -3.5680    77.7540    14.3980    13.2750    15.7320    24.3020     2.3710 
  144.6250    -3.3850    76.5200    15.6140    14.3480    17.8300    24.3370     2.3680 
  144.7500    -3.1750    75.2380    16.6080    15.2960    20.0260    24.2220     2.3710 
  144.8750    -2.9760    74.3510    17.2720    15.9620    23.2320    24.1830     2.3800 
