~V
VERS. 2.00: Ver 2.00
~W
STRT.M 64.0000:
STOP.M 287.0000:
STEP.M 0.1250:
NULL. -999.2500:
UWI. F10052:
~C
DEPT.M :
SP.MV :
DEN.GM/CC :
GR.API :
RML.OHMM :
RI. :
RXO.OHMM :
CALI.CM :
~A
# ...
  244.0000   -25.9620     2.2970    75.1500    18.2880    16.5530    14.5390    23.9910 
  244.1250   -26.0470     2.2910    70.2490    24.4840    19.5960    17.8210    23.8700 
  244.2500   -26.1210     2.2840    67.3260    27.9040    22.7350    20.6170    23.7450 
  244.3750   -26.1710     2.2700    65.0570    30.8280    25.5140    22.0700    23.6240 
  244.5000   -26.2190     2.2480    62.5920    32.9070    27.5770    23.1400    23.5110 
  244.6250   -26.2650     2.2240    62.2520    33.9910    28.7210    24.0800    23.4150 
  244.7500   -26.2950     2.2040    64.5010    34.5050    29.2700    24.2790    23.3560 
  244.8750   -26.3220     2.1940    66.9020    34.7450    29.4780    23.7270    23.3360 
  245.0000   -26.3420     2.1880    67.3580    35.0100    29.6030    23.0160    23.3330 
  245.1250   -26.3430     2.1760    66.6520    35.6880    29.9730    22.6870    23.3140 
  245.2500   -26.3330     2.1620    66.6060    36.9260    30.8120    23.3900    23.2820 
  245.3750   -26.3040     2.1610    67.2530    38.7860    32.2640    24.8750    23.2630 
  245.5000   -26.2630     2.1820    65.2260    41.2330    34.3150    26.9800    23.2760 
  245.6250   -26.2260     2.2220    59.2620    44.0850    36.7260    30.4130    23.3370 
  245.7500   -26.2270     2.2550    54.1480    46.7710    38.9180    33.9250    23.4320 
  245.8750   -26.2500     2.2610    54.8220    48.6830    40.4040    34.8840    23.5410 
  246.0000   -26.2570     2.2460    60.5270    49.3530    40.9150    32.3540    23.6400 
  246.1250   -26.2450     2.2300    65.2270    48.5870    40.4250    31.0770    23.7180 
  246.2500   -26.2360     2.2290    64.8910    47.2280    39.5350    30.8560    23.7880 
  246.3750   -26.2410     2.2410    60.9630    46.0790    38.7610    29.9730    23.8610 
  246.5000   -26.2580     2.2530    56.7330    45.8070    38.5720    28.8200    23.9410 
  246.6250   -26.2720     2.2550    56.6160    47.0900    39.5190    28.2960    24.0250 
  246.7500   -26.2580     2.2490    57.7060    49.8910    41.6450    29.6060    24.1190 
  246.8750   -26.2270     2.2370    58.1940    54.0690    44.8790    32.9410    24.2270 
  247.0000   -26.2220     2.2200    58.8530    59.0350    48.8150    37.0810    24.3440 
  247.1250   -26.2470     2.1980    62.8220    63.3730    52.5020    38.7410    24.4410 
  247.2500   -26.2740     2.1770    67.2490    65.6860    54.9160    38.5280    24.4830 
  247.3750   -26.3250     2.1630    67.1210    65.3540    55.4840    37.8150    24.4410 
  247.5000   -26.3880     2.1580    64.4900    62.7890    54.2480    37.8110    24.2960 
  247.6250   -26.4580     2.1640    61.8540    58.9770    51.6670    36.1570    24.0390 
  247.7500   -26.5190     2.1740    58.8270    55.0250    48.6640    34.0660    23.7090 
  247.8750   -26.5710     2.1840    57.3060    51.2930    45.6220    31.5190    23.3520 
  248.0000   -26.6020     2.1880    61.6550    47.9300    42.7570    29.4760    23.0290 
  248.1250   -26.6310     2.1810    69.3890    45.2500    40.4080    28.3810    22.8090 
  248.2500   -26.6630     2.1640    70.7960    43.4760    38.8210    27.6460    22.6860 
  248.3750   -26.6730     2.1440    67.5160    42.8670    38.2330    26.4340    22.6360 
  248.5000   -26.6640     2.1290    65.6900    43.6050    38.7900    24.9760    22.6280 
  248.6250   -26.6160     2.1330    66.5480    45.9540    40.7340    26.3490    22.6410 
  248.7500   -26.5450     2.1570    67.4470    49.4250    43.6880    29.1760    22.6610 
  248.8750   -26.4820     2.1890    68.6880    53.3950    47.1820    30.5700    22.6980 
  249.0000   -26.4690     2.2130    69.6640    56.8240    50.4440    30.0140    22.7780 
  249.1250   -26.4690     2.2080    65.7850    58.1340    52.2250    32.1700    22.9060 
  249.2500   -26.4480     2.1820    58.6240    57.1180    52.1120    34.9460    23.0250 
  249.3750   -26.3990     2.1500    53.9270    54.3820    50.3390    35.3410    23.0950 
  249.5000   -26.3600     2.1300    57.0800    51.0280    47.6920    34.5920    23.1200 
  249.6250   -26.3770     2.1380    67.4270    48.1140    45.1020    33.6520    23.1290 
  249.7500   -26.4270     2.1640    73.8150    46.0150    43.1020    32.1590    23.1370 
  249.8750   -26.4820     2.1930    72.4630    44.7710    41.8270    30.4220    23.1430 
  250.0000   -26.5010     2.2110    69.5910    44.2640    41.2250    29.7030    23.1480 
  250.1250   -26.5070     2.2140    70.3520    44.3750    41.2090    30.4500    23.1540 
  250.2500   -26.5380     2.2080    70.1180    44.7980    41.5140    30.6820    23.1660 
  250.3750   -26.6000     2.1970    66.8820    45.3710    42.0110    30.1790    23.1840 
  250.5000   -26.6600     2.1860    66.2040    46.0050    42.6180    29.5440    23.2030 
  250.6250   -26.6920     2.1820    69.7430    46.6560    43.2790    30.7570    23.2120 
  250.7500   -26.7150     2.1870    72.4290    47.2300    43.8890    31.9150    23.2160 
  250.8750   -26.7250     2.1960    72.5070    47.5810    44.3120    32.5790    23.2160 
  251.0000   -26.7220     2.2040    71.6940    47.5970    44.4330    32.7400    23.2130 
  251.1250   -26.7170     2.2060    71.6900    47.3140    44.2080    32.7840    23.2040 
  251.2500   -26.7100     2.2040    70.6430    47.0740    43.8930    32.0520    23.1930 
  251.3750   -26.6890     2.2070    67.5240    47.2010    43.7900    30.1160    23.1840 
  251.5000   -26.6610     2.2200    64.9820    47.9010    44.1910    29.7080    23.1810 
  251.6250   -26.6140     2.2380    65.7740    49.2030    45.2960    31.5780    23.1990 
  251.7500   -26.5520     2.2510    65.8660    50.7200    46.7680    34.3080    23.2390 
  251.8750   -26.5120     2.2540    63.4660    52.0440    48.1830    35.9570    23.2870 
  252.0000   -26.5030     2.2500    61.9600    52.7630    49.0840    37.3820    23.3280 
  252.1250   -26.4970     2.2440    64.4900    52.5170    49.0610    38.1800    23.3580 
  252.2500   -26.4760     2.2390    66.2700    51.6310    48.3970    37.1960    23.3850 
  252.3750   -26.4320     2.2330    64.4060    50.5250    47.4990    34.6470    23.4120 
  252.5000   -26.3760     2.2270    62.9280    49.5860    46.7410    33.0270    23.4380 
  252.6250   -26.3420     2.2260    64.4010    49.0150    46.3120    32.9030    23.4660 
  252.7500   -26.3490     2.2310    66.3520    48.5550    46.0220    33.1010    23.4980 
  252.8750   -26.3460     2.2400    67.3670    47.8600    45.6050    33.3200    23.5310 
  253.0000   -26.3280     2.2440    65.4710    46.7050    44.8250    33.2770    23.5570 
  253.1250   -26.3080     2.2350    61.2700    45.1340    43.5970    32.6170    23.5690 
  253.2500   -26.2980     2.2200    58.7960    43.6370    42.2740    31.6730    23.5720 
  253.3750   -26.3140     2.2060    61.5680    42.6680    41.2480    30.4520    23.5790 
  253.5000   -26.3470     2.2000    66.7150    42.5670    40.8680    29.4380    23.6080 
  253.6250   -26.3730     2.2020    68.3220    43.6170    41.4930    29.7190    23.6840 
  253.7500   -26.3530     2.2030    66.4880    45.4820    42.9330    31.2970    23.7980 
  253.8750   -26.3010     2.1980    63.2570    47.7880    44.9100    33.4620    23.9330 
  254.0000   -26.2310     2.1870    60.6080    50.0160    46.9720    35.1260    24.0620 
  254.1250   -26.1690     2.1790    61.7650    51.5260    48.5140    35.7450    24.1540 
  254.2500   -26.1190     2.1810    64.6540    52.2150    49.3240    35.7360    24.2070 
  254.3750   -26.0730     2.1910    65.2820    52.2440    49.4740    35.4420    24.2310 
  254.5000   -26.0250     2.2040    62.6620    51.9340    49.2480    35.2210    24.2240 
  254.6250   -25.9590     2.2110    61.1440    51.5970    48.9800    34.8150    24.1810 
  254.7500   -25.9000     2.2110    62.8530    51.4310    48.8620    34.2420    24.1340 
  254.8750   -25.8630     2.2080    63.6730    51.5320    48.9260    34.1940    24.1160 
  255.0000   -25.8600     2.2050    60.3790    51.9550    49.1610    34.5320    24.1360 
  255.1250   -25.8700     2.2030    56.3320    52.7640    49.5690    34.8230    24.1820 
