~V
VERS. 2.00: Ver 2.00
~W
STRT.M 50.0000:
STOP.M 221.0000:
STEP.M 0.1250:
NULL. -999.2500:
UWI. F10024:
~C
DEPT.M :
GR.API :
RML.OHMM :
RI. :
RXO.OHMM :
CALI.CM :
DEN.GM/CC :
SP.MV :
~A
# ...
  117.5000    89.8380     8.1470     7.2840     6.8350    23.8440     2.3350    -3.0270 
  117.6250    90.4400     7.9600     7.0780     6.9930    23.8760     2.3110    -3.0140 
  117.7500    92.2510     7.9560     7.0590     7.0100    24.0150     2.2970    -3.0000 
  117.8750    94.8180     8.0530     7.1590     6.9970    24.1410     2.2930    -2.9680 
  118.0000    97.2690     8.1850     7.2990     7.0680    24.1950     2.2950    -2.9360 
  118.1250    98.5230     8.2880     7.4070     7.3210    24.1960     2.3000    -2.9280 
  118.2500    97.8140     8.2970     7.4400     7.7690    24.1900     2.3040    -2.9300 
  118.3750    95.3140     8.1810     7.3860     7.5510    24.2040     2.3050    -2.9590 
  118.5000    93.0930     7.9580     7.2670     7.0030    24.2290     2.3040    -2.9790 
  118.6250    93.7870     7.6990     7.1260     6.8810    24.2430     2.3050    -2.9980 
  118.7500    96.4780     7.4830     6.9990     6.9100    24.2430     2.3080    -3.0300 
  118.8750   100.4330     7.3530     6.8850     6.8450    24.2520     2.3100    -3.0400 
  119.0000   104.8250     7.3250     6.7760     6.7020    24.2500     2.3090    -3.0460 
  119.1250   106.4830     7.3880     6.6670     6.7990    24.2260     2.3030    -3.0330 
  119.2500   105.1530     7.4760     6.5630     6.9610    24.2130     2.2970    -3.0120 
  119.3750   103.0660     7.5400     6.4780     7.0700    24.2000     2.2930    -3.0090 
  119.5000   101.9030     7.5560     6.4140     7.2390    24.1660     2.2920    -3.0090 
  119.6250   101.3720     7.5380     6.3850     6.9660    24.1770     2.2910    -3.0410 
  119.7500   101.0290     7.5450     6.4020     6.7700    24.1350     2.2880    -3.0700 
  119.8750   101.7390     7.6140     6.4770     6.7460    24.0130     2.2830    -3.0990 
  120.0000   103.0890     7.7380     6.6060     6.8930    23.8650     2.2800    -3.1680 
  120.1250   102.7300     7.8710     6.7620     7.1820    23.7690     2.2790    -3.2240 
  120.2500   100.1090     8.0120     6.9330     7.3930    23.7870     2.2750    -3.3080 
  120.3750    96.1320     8.2560     7.1730     7.4780    23.8500     2.2680    -3.4060 
  120.5000    92.1870     8.7380     7.5750     7.4690    23.9080     2.2660    -3.4910 
  120.6250    90.1810     9.5860     8.2540     7.4940    23.9570     2.2820    -3.5770 
  120.7500    89.5840    10.6170     9.1150     8.6050    23.9650     2.3160    -3.6350 
  120.8750    88.8900    11.5040     9.9270    11.2070    23.8940     2.3580    -3.7110 
  121.0000    87.6430    11.8390    10.3300    13.1740    23.7590     2.3890    -3.8090 
  121.1250    88.6400    11.3350     9.9770    12.5850    23.6820     2.3930    -3.8910 
  121.2500    92.1220    10.4950     9.2150     9.6990    23.6530     2.3760    -3.9640 
  121.3750    95.2550     9.9100     8.5170     7.9960    23.6520     2.3510    -4.0280 
  121.5000    95.6640    10.0530     8.2840     7.6630    23.6460     2.3250    -4.1020 
  121.6250    92.4360    11.3090     8.8980     9.0590    23.6420     2.2990    -4.1730 
  121.7500    87.1430    13.4500    10.3530    12.8710    23.6360     2.2660    -4.2300 
  121.8750    83.6660    16.1930    12.6120    18.3290    23.6360     2.2280    -4.2950 
  122.0000    82.9650    19.1470    15.4660    21.7460    23.6510     2.1930    -4.3270 
  122.1250    81.2250    22.0060    18.5950    21.7210    23.7170     2.1700    -4.3750 
  122.2500    78.1230    24.9010    21.7630    22.4290    23.8180     2.1570    -4.4400 
  122.3750    75.9310    28.2180    25.0980    26.5690    23.8710     2.1480    -4.4830 
  122.5000    74.9280    32.2730    28.8550    34.6460    23.8620     2.1390    -4.5530 
  122.6250    73.4520    37.0390    33.1510    45.5880    23.8530     2.1270    -4.6070 
  122.7500    71.2280    41.7250    37.4460    50.1370    23.8280     2.1140    -4.7000 
  122.8750    67.9120    45.6170    41.0830    50.2520    23.8960     2.1040    -4.7790 
  123.0000    64.9750    48.4970    43.7340    50.7700    24.1990     2.0950    -4.8640 
  123.1250    66.9140    50.9530    45.7240    50.8990    24.4880     2.0900    -4.9530 
  123.2500    70.4060    54.1180    48.0450    51.6070    24.6110     2.0890    -5.0110 
  123.3750    71.3700    58.6780    51.3780    53.2690    24.6350     2.0900    -5.0960 
  123.5000    70.3530    64.7570    55.9860    58.9390    24.6750     2.0940    -5.1510 
  123.6250    68.7450    71.7810    61.5980    72.0170    24.7290     2.0960    -5.2110 
  123.7500    66.6150    78.1730    67.0220    83.3590    24.7460     2.0960    -5.2460 
  123.8750    64.5180    82.4940    71.1250    85.9060    24.7620     2.0920    -5.2580 
  124.0000    64.2630    83.8670    73.1150    81.8340    24.7860     2.0870    -5.2670 
  124.1250    64.2470    82.2230    72.7170    75.2970    24.8010     2.0810    -5.2260 
  124.2500    64.1830    79.4270    71.2130    71.8370    24.7730     2.0760    -5.1670 
  124.3750    66.0750    76.8470    69.6180    70.1350    24.7070     2.0730    -5.0660 
  124.5000    69.2170    75.4350    68.6920    67.9810    24.6080     2.0760    -4.9320 
  124.6250    69.5740    75.9120    69.0420    65.9170    24.5090     2.0870    -4.7990 
  124.7500    68.0670    77.8270    70.4480    68.3360    24.4540     2.1000    -4.6540 
  124.8750    66.6780    80.4910    72.4610    77.1190    24.4060     2.1040    -4.5230 
  125.0000    65.1200    82.8730    74.3500    83.0700    24.3880     2.0950    -4.4190 
  125.1250    61.2650    83.5980    75.1210    84.3850    24.3680     2.0800    -4.3470 
  125.2500    56.4400    82.3820    74.4860    82.7720    24.2830     2.0850    -4.3030 
  125.3750    52.8620    79.4980    72.5180    75.0080    24.0670     2.1260    -4.2860 
  125.5000    52.5990    75.6140    69.5920    68.3240    23.7840     2.1990    -4.2910 
  125.6250    56.5760    71.3650    66.1050    61.5140    23.6090     2.2820    -4.3210 
  125.7500    59.2300    67.1330    62.4350    58.5210    23.4450     2.3470    -4.3490 
  125.8750    56.2140    62.9830    58.7290    53.4130    23.2340     2.3850    -4.3760 
  126.0000    50.9670    58.9990    55.1470    49.0090    23.0960     2.4040    -4.3820 
  126.1250    50.0090    55.4920    52.0200    48.2520    23.1210     2.4160    -4.3840 
  126.2500    51.4020    52.7240    49.5730    47.4350    23.1770     2.4270    -4.4100 
  126.3750    51.9550    50.9480    48.0200    43.2960    23.1970     2.4340    -4.3950 
  126.5000    51.9870    50.3040    47.5080    39.5410    23.2300     2.4350    -4.4130 
  126.6250    53.9270    50.8910    48.1810    40.1690    23.3710     2.4240    -4.4390 
  126.7500    55.4530    52.1900    49.6170    43.8390    23.4780     2.4040    -4.4680 
  126.8750    55.4830    53.7480    51.4770    49.3810    23.5370     2.3780    -4.5240 
  127.0000    54.6140    55.1200    53.4220    56.8090    23.5800     2.3580    -4.5530 
  127.1250    52.9030    55.9630    55.1870    63.8620    23.6040     2.3550    -4.6160 
  127.2500    50.9770    56.5740    56.8670    62.5740    23.6940     2.3640    -4.6750 
  127.3750    50.2360    57.5810    58.8580    59.7270    23.8500     2.3730    -4.7350 
  127.5000    52.4480    59.7370    61.6970    61.1700    23.9590     2.3720    -4.7970 
  127.6250    55.4040    63.7240    65.9110    67.0760    23.9060     2.3540    -4.8220 
  127.7500    56.3120    68.3260    70.5140    68.2730    23.7120     2.3250    -4.8580 
  127.8750    55.9030    70.5440    72.7920    72.3250    23.5340     2.2910    -4.8950 
  128.0000    55.5960    66.2320    68.6030    79.1320    23.4890     2.2570    -4.9260 
  128.1250    57.2200    53.1400    55.2080    79.2390    23.5710     2.2270    -4.9550 
  128.2500    61.7930    37.6160    39.1680    63.1790    23.6380     2.2070    -4.9530 
  128.3750    70.6030    24.6040    25.8920    37.4300    23.6530     2.2050    -4.9840 
  128.5000    81.6410    15.9260    17.2120    17.4190    23.5600     2.2210    -4.9740 
  128.6250    88.2560    12.1910    12.9090     9.4550    23.3190     2.2530    -4.9510 
