~V
VERS. 2.00: Ver 2.00
~W
STRT.M 50.0000:
STOP.M 221.0000:
STEP.M 0.1250:
NULL. -999.2500:
UWI. F10024:
~C
DEPT.M :
GR.API :
RML.OHMM :
RI. :
RXO.OHMM :
CALI.CM :
DEN.GM/CC :
SP.MV :
~A
# ...
  140.0000    49.6440    32.4560    31.5580    28.1390    23.9880     2.5620    -5.3220 
  140.1250    49.8490    32.6840    31.3810    29.5550    23.9890     2.5550    -5.3270 
  140.2500    52.1020    32.9780    31.3860    32.3990    24.0080     2.5640    -5.3280 
  140.3750    52.9530    33.3030    31.6220    34.5240    24.0480     2.5850    -5.3440 
  140.5000    51.7560    33.5830    32.0310    33.2250    24.0730     2.6080    -5.3280 
  140.6250    51.3470    33.7550    32.4800    32.2700    24.0670     2.6200    -5.3250 
  140.7500    51.4650    33.8380    32.8320    33.5770    24.0200     2.6190    -5.3310 
  140.8750    50.5890    33.8240    32.9970    35.3160    23.9540     2.6090    -5.3380 
  141.0000    49.8590    33.6980    32.9320    34.9640    23.9200     2.5980    -5.3710 
  141.1250    51.1490    33.4440    32.6080    33.2130    23.9210     2.5940    -5.3970 
  141.2500    52.0780    33.0550    32.0680    32.2020    23.9080     2.5990    -5.4410 
  141.3750    51.6140    32.4370    31.2670    32.7490    23.9030     2.6120    -5.4760 
  141.5000    50.6840    31.4680    30.1320    33.1620    23.9950     2.6320    -5.5240 
  141.6250    51.0730    30.0060    28.5970    31.9970    24.0410     2.6500    -5.6230 
  141.7500    53.9810    28.2170    26.8520    32.1700    24.0720     2.6560    -5.7010 
  141.8750    57.3930    26.3610    25.1340    29.9200    24.0580     2.6420    -5.8240 
  142.0000    59.4160    24.7710    23.7160    28.3910    24.0070     2.6040    -5.9260 
  142.1250    60.4380    23.7970    22.9110    25.6670    23.9560     2.5460    -6.0200 
  142.2500    62.6060    23.4120    22.7010    23.9130    23.8200     2.4840    -6.1000 
  142.3750    65.3550    23.5140    23.0080    23.0280    23.6810     2.4330    -6.1630 
  142.5000    66.4530    23.8830    23.6300    23.3560    23.5630     2.4020    -6.1950 
  142.6250    65.1790    24.1670    24.1920    23.2910    23.5330     2.4000    -6.1280 
  142.7500    62.1600    24.1160    24.3570    23.9230    23.5060     2.4160    -6.0490 
  142.8750    58.1950    23.7180    24.0390    24.2530    23.4580     2.4420    -5.9010 
  143.0000    56.3120    23.1740    23.4140    23.4400    23.4680     2.4670    -5.7620 
  143.1250    57.1320    22.8280    22.8370    21.2780    23.6100     2.4790    -5.6030 
  143.2500    56.9250    22.8720    22.5750    19.7900    23.8630     2.4770    -5.4380 
  143.3750    54.9100    23.3780    22.7490    20.4910    24.0430     2.4630    -5.3050 
  143.5000    53.0240    24.3230    23.3930    24.3730    24.1150     2.4400    -5.1880 
  143.6250    52.7680    25.5630    24.4370    29.1330    24.0850     2.4130    -5.1190 
  143.7500    52.7580    26.6900    25.4980    29.8130    23.9780     2.3910    -5.0540 
  143.8750    53.7190    27.3150    26.1770    29.1750    23.7810     2.3820    -5.0110 
  144.0000    55.2960    27.1110    26.1100    29.2630    23.5430     2.3940    -4.9680 
  144.1250    56.3410    25.7770    24.9600    28.7580    23.4020     2.4240    -4.9100 
  144.2500    58.6480    23.6980    23.0890    25.9500    23.4410     2.4560    -4.8610 
  144.3750    61.8850    21.3390    20.9570    22.0610    23.6240     2.4770    -4.7850 
  144.5000    63.7170    19.1880    19.0250    19.7110    23.8580     2.4810    -4.7240 
  144.6250    62.0920    17.6980    17.6880    17.6880    23.9600     2.4720    -4.6770 
  144.7500    60.3080    16.8560    16.9350    15.2870    23.9920     2.4630    -4.6050 
  144.8750    60.1000    16.5060    16.6410    14.6990    24.0270     2.4570    -4.5750 
  145.0000    60.1620    16.3780    16.5610    16.3810    24.1090     2.4530    -4.5350 
  145.1250    59.5990    16.1940    16.3990    18.2010    24.1490     2.4500    -4.5210 
  145.2500    59.7380    15.8670    16.0390    16.9850    24.1640     2.4490    -4.5260 
  145.3750    60.2400    15.4350    15.5280    14.9070    24.1530     2.4510    -4.5030 
  145.5000    59.4670    14.9430    14.9500    13.8080    24.1010     2.4540    -4.4920 
  145.6250    57.2870    14.3890    14.3460    14.0060    24.1010     2.4540    -4.4680 
  145.7500    56.0830    13.7810    13.7230    13.3970    24.0810     2.4460    -4.4740 
  145.8750    57.2170    13.1580    13.0860    13.3770    24.0650     2.4320    -4.4660 
  146.0000    59.2760    12.6280    12.4850    12.1980    24.0200     2.4160    -4.4490 
  146.1250    61.0830    12.4510    12.1040    11.2270    24.0000     2.4070    -4.4570 
  146.2500    62.6220    12.7710    12.0930    11.0580    24.0050     2.4100    -4.4340 
  146.3750    63.3590    13.6310    12.5470    12.1230    24.0560     2.4210    -4.4390 
  146.5000    63.3700    14.9190    13.4510    14.1330    24.1080     2.4350    -4.4430 
  146.6250    61.3820    16.3390    14.6710    16.7630    24.1310     2.4440    -4.4430 
  146.7500    59.2040    17.4950    15.8570    18.6710    24.1140     2.4450    -4.4650 
  146.8750    58.6740    18.1930    16.7550    19.3460    24.0800     2.4430    -4.4540 
  147.0000    59.2140    18.5020    17.2970    19.1920    24.0650     2.4400    -4.4560 
  147.1250    59.0670    18.7250    17.6440    19.0260    24.0210     2.4400    -4.4680 
  147.2500    58.5630    19.1340    18.0500    19.3380    24.0030     2.4410    -4.4740 
  147.3750    59.2280    19.7350    18.5760    19.9450    23.9540     2.4390    -4.4890 
  147.5000    61.1830    20.3510    19.1390    21.2590    23.8710     2.4360    -4.4860 
  147.6250    62.3540    20.6670    19.5100    22.0100    23.8510     2.4340    -4.4690 
  147.7500    60.8080    20.5660    19.5480    22.6190    23.9400     2.4370    -4.4430 
  147.8750    57.4490    20.1060    19.2550    22.1310    24.0420     2.4470    -4.4170 
  148.0000    55.5460    19.4900    18.7800    20.4120    24.1040     2.4590    -4.3950 
  148.1250    58.8310    18.9920    18.3300    20.4450    24.1460     2.4660    -4.3320 
  148.2500    62.0130    18.7400    18.0110    20.5070    24.1370     2.4660    -4.3060 
  148.3750    61.3080    18.7310    17.8230    19.7600    24.1130     2.4620    -4.2710 
  148.5000    58.6600    18.8790    17.7070    19.2690    24.1230     2.4600    -4.2540 
  148.6250    57.5500    18.9980    17.5400    19.0520    24.0950     2.4640    -4.2600 
  148.7500    56.3590    18.9140    17.2370    18.8870    24.0560     2.4690    -4.2420 
  148.8750    54.8950    18.5740    16.8050    18.8830    24.0500     2.4700    -4.2560 
  149.0000    56.7250    18.0420    16.3230    18.7500    24.0980     2.4640    -4.2420 
  149.1250    59.5840    17.5030    15.9180    17.2000    24.1290     2.4530    -4.2480 
  149.2500    58.7660    17.1990    15.7080    16.4860    24.1170     2.4440    -4.2300 
  149.3750    55.5870    17.3090    15.8010    17.1640    24.1060     2.4390    -4.2020 
  149.5000    54.0410    17.8820    16.2500    19.6430    24.1400     2.4380    -4.1750 
  149.6250    56.6020    18.8240    17.0590    20.2510    24.1590     2.4370    -4.1270 
  149.7500    58.7640    19.7830    17.9970    20.4930    24.1600     2.4370    -4.0990 
  149.8750    57.1660    20.4560    18.8140    21.3900    24.1330     2.4390    -4.0420 
  150.0000    52.2920    20.6280    19.2600    22.7270    24.0940     2.4440    -4.0040 
  150.1250    50.4520    20.2360    19.1600    22.1210    24.0990     2.4460    -3.9750 
  150.2500    52.9370    19.6170    18.7300    19.7840    24.1100     2.4400    -3.9310 
  150.3750    54.4350    19.0450    18.1800    18.6200    24.1170     2.4270    -3.9140 
  150.5000    53.8820    18.7330    17.7050    18.5200    24.1240     2.4150    -3.8820 
  150.6250    53.9440    18.8430    17.4920    18.7910    24.1180     2.4130    -3.8570 
  150.7500    54.6520    19.2560    17.5470    19.2150    24.0790     2.4210    -3.8540 
  150.8750    55.0390    19.8170    17.8220    19.9300    24.0580     2.4330    -3.8560 
  151.0000    55.0760    20.3600    18.2230    21.2200    24.1350     2.4390    -3.8880 
  151.1250    53.2800    20.6920    18.6160    21.3780    24.2000     2.4350    -3.9120 
