~V
VERS. 2.00: Ver 2.00
~W
STRT.M 55.0000:
STOP.M 247.0000:
STEP.M 0.1250:
NULL. -999.2500:
UWI. F10032:
~C
DEPT.M :
GR.API :
RML.OHMM :
RI. :
RXO.OHMM :
CALI.CM :
DEN.GM/CC :
SP.MV :
~A
# ...
  156.2500    52.9780     6.4280     5.9150     5.2040    25.4480     2.3020   -10.5720 
  156.3750    52.5370     6.8250     6.2860     5.3610    25.8820     2.3010   -10.6080 
  156.5000    52.1360     7.1130     6.6130     5.6770    26.0950     2.3110   -10.6850 
  156.6250    52.9230     7.2650     6.8390     6.1070    26.0660     2.3310   -10.8040 
  156.7500    51.9670     7.3270     6.9880     6.4210    25.8330     2.3450   -10.9530 
  156.8750    49.2570     7.3400     7.0620     6.5020    25.5150     2.3430   -11.1390 
  157.0000    49.0070     7.3710     7.0890     6.5270    25.2690     2.3240   -11.3560 
  157.1250    54.0060     7.4920     7.1140     6.6390    25.0140     2.3020   -11.5930 
  157.2500    60.1140     7.6870     7.1380     6.8770    24.7640     2.2870   -11.8290 
  157.3750    66.0220     7.4510     7.1470     7.3420    24.5700     2.2760   -12.0570 
  157.5000    71.4240     7.4530     7.1610     7.9650    24.3890     2.2640   -12.2410 
  157.6250    75.2460     7.4950     7.1790     8.0840    24.2600     2.2500   -12.3830 
  157.7500    76.2440     7.4650     7.1670     7.5750    24.1410     2.2440   -12.5010 
  157.8750    73.6220     7.4400     7.1420     7.0110    24.0610     2.2530   -12.5680 
  158.0000    67.7400     7.4950     7.1570     6.9230    23.9790     2.2730   -12.5770 
  158.1250    61.3700     7.6540     7.2280     7.0590    24.0090     2.2920   -12.5330 
  158.2500    56.7910     7.8400     7.3020     7.3450    24.2930     2.3040   -12.4580 
  158.3750    52.4160     7.9720     7.3380     7.5880    24.6290     2.3080   -12.3690 
  158.5000    46.9430     7.9730     7.3000     7.4570    24.7590     2.3130   -12.2660 
  158.6250    44.2030     7.7910     7.1600     6.9970    24.8620     2.3240   -12.1330 
  158.7500    44.7930     7.5190     6.9790     6.7250    24.9550     2.3380   -11.9850 
  158.8750    46.3350     7.2580     6.8200     6.5740    24.9770     2.3480   -11.8320 
  159.0000    46.8070     7.0790     6.7040     6.5360    24.8180     2.3490   -11.6800 
  159.1250    46.8380     7.0160     6.6130     6.4670    24.8230     2.3380   -11.5440 
  159.2500    46.9950     7.0060     6.5270     6.3360    25.0010     2.3220   -11.3960 
  159.3750    46.6900     6.9760     6.4480     6.2750    25.1180     2.3050   -11.2110 
  159.5000    45.4060     6.8700     6.3600     6.1540    24.9560     2.2910   -11.0570 
  159.6250    42.0230     6.6950     6.2470     5.8440    24.7370     2.2810   -10.9260 
  159.7500    37.3970     6.5270     6.1350     5.6180    24.5980     2.2780   -10.7950 
  159.8750    33.6020     6.4190     6.0550     5.5470    24.4320     2.2830   -10.6950 
  160.0000    31.8710     6.4040     6.0120     5.6460    24.1150     2.2970   -10.6480 
  160.1250    33.1060     6.5000     6.0230     5.9600    24.3060     2.3170   -10.6450 
  160.2500    35.5130     6.6510     6.0980     6.1930    24.9830     2.3370   -10.6760 
  160.3750    37.8580     6.8100     6.2160     6.3770    25.7010     2.3540   -10.7430 
  160.5000    38.9720     6.9490     6.3220     6.5750    25.8620     2.3690   -10.8430 
  160.6250    39.5470     7.0530     6.3950     6.7360    25.4740     2.3790   -11.0070 
  160.7500    40.8200     7.1290     6.4640     6.7070    25.0340     2.3800   -11.1730 
  160.8750    42.5160     7.1880     6.5300     6.6290    24.8580     2.3660   -11.3160 
  161.0000    43.6980     7.2390     6.5780     6.5630    24.8370     2.3390   -11.4540 
  161.1250    42.7600     7.2730     6.6130     6.4900    24.9590     2.3130   -11.6000 
  161.2500    40.7890     7.2890     6.6350     6.3720    25.1750     2.3030   -11.7440 
  161.3750    40.0140     7.2970     6.6220     6.2990    25.3350     2.3110   -11.8690 
  161.5000    40.8680     7.3050     6.5890     6.2050    25.1380     2.3300   -11.9970 
  161.6250    39.9600     7.3220     6.5770     6.2030    24.7820     2.3430   -12.1660 
  161.7500    37.4870     7.3550     6.5730     6.2240    24.5720     2.3420   -12.3820 
  161.8750    35.5620     7.3920     6.5430     6.2020    24.5900     2.3340   -12.6240 
  162.0000    34.8910     7.4110     6.4940     6.1960    24.8460     2.3300   -12.8880 
  162.1250    34.7230     7.3840     6.4490     6.2600    25.1060     2.3370   -13.2020 
  162.2500    34.9920     7.3170     6.3930     6.2810    25.1500     2.3470   -13.5660 
  162.3750    37.1080     7.2320     6.3300     6.2380    25.1320     2.3480   -13.9470 
  162.5000    41.1780     7.1850     6.3050     6.2540    25.3070     2.3380   -14.3220 
  162.6250    46.1170     7.2890     6.3770     6.3600    25.7830     2.3220   -14.6900 
  162.7500    51.5160     7.5880     6.5540     6.4610    26.0760     2.3080   -15.0610 
  162.8750    57.0290     8.0830     6.8500     6.7430    26.1260     2.2930   -15.3810 
  163.0000    63.5510     8.7030     7.2380     7.3320    25.9930     2.2680   -15.6100 
  163.1250    72.6100     9.2540     7.5930     7.9830    25.6100     2.2340   -15.7520 
  163.2500    79.9280     9.5500     7.8070     8.2850    24.9940     2.2100   -15.8330 
  163.3750    78.9420     9.5200     7.8630     8.3620    24.4350     2.2130   -15.8360 
  163.5000    69.2930     9.2190     7.7780     8.1480    24.1830     2.2450   -15.7200 
  163.6250    60.1180     8.7900     7.5710     7.6530    24.3670     2.2890   -15.5220 
  163.7500    57.0850     8.4260     7.3480     7.4660    24.7300     2.3210   -15.2680 
  163.8750    57.8220     8.2210     7.1820     7.6040    24.9090     2.3330   -14.9650 
  164.0000    58.2970     8.1780     7.0890     7.4890    24.9140     2.3290   -14.6760 
  164.1250    56.4000     8.2440     7.0590     7.4080    24.9230     2.3180   -14.4340 
  164.2500    52.1310     8.3160     7.0690     7.7020    24.8810     2.3070   -14.1910 
  164.3750    47.9610     8.3300     7.0740     7.8930    24.8220     2.2960   -13.9440 
  164.5000    45.8450     8.2650     7.0290     7.7840    24.8750     2.2860   -13.7300 
  164.6250    45.6500     8.1540     6.9610     7.3070    25.0020     2.2830   -13.5500 
  164.7500    47.5720     8.0550     6.9250     7.0270    24.8340     2.2900   -13.3980 
  164.8750    50.9170     7.9820     6.9060     7.0170    24.5250     2.3080   -13.2910 
  165.0000    52.9550     7.9280     6.8790     7.0160    24.3820     2.3320   -13.2060 
  165.1250    50.4000     7.8820     6.8420     6.7540    24.5580     2.3440   -13.1260 
  165.2500    45.6760     7.8290     6.7850     6.4650    24.8300     2.3370   -13.0740 
  165.3750    42.5090     7.7660     6.7010     6.3050    24.9430     2.3100   -13.0590 
  165.5000    41.8800     7.7060     6.6200     6.3190    24.9450     2.2800   -13.0830 
  165.6250    43.7460     7.6580     6.5660     6.5160    24.8780     2.2720   -13.1280 
  165.7500    45.9730     7.6070     6.5160     6.7160    24.8270     2.2900   -13.1480 
  165.8750    47.8240     7.5520     6.4780     6.8740    24.7450     2.3190   -13.1170 
  166.0000    49.2510     7.5200     6.4860     6.9050    24.6810     2.3370   -13.0590 
  166.1250    49.1960     7.5730     6.5460     6.7560    24.6250     2.3240   -12.9600 
  166.2500    47.5810     7.7200     6.6380     6.7760    24.5970     2.2930   -12.8270 
  166.3750    45.7050     7.9400     6.7690     7.1590    24.6400     2.2650   -12.6810 
  166.5000    45.5010     8.1670     6.9210     7.9380    24.7660     2.2540   -12.5100 
  166.6250    45.6380     8.2720     7.0120     8.3670    24.8540     2.2580   -12.2920 
  166.7500    44.3390     8.2060     7.0090     8.1920    24.8830     2.2610   -12.0640 
  166.8750    43.1870     8.0000     6.9220     7.5680    24.8210     2.2560   -11.8460 
  167.0000    43.1890     7.7380     6.7640     6.8950    24.7390     2.2500   -11.5880 
  167.1250    43.2950     7.5270     6.5850     6.5360    24.6460     2.2540   -11.3270 
  167.2500    43.7330     7.4230     6.4740     6.4270    24.5480     2.2710   -11.1000 
  167.3750    44.4340     7.4250     6.4510     6.4340    24.3410     2.2960   -10.9000 
