~V
VERS. 2.00: Ver 2.00
~W
STRT.M 64.0000:
STOP.M 287.0000:
STEP.M 0.1250:
NULL. -999.2500:
UWI. F10052:
~C
DEPT.M :
SP.MV :
DEN.GM/CC :
GR.API :
RML.OHMM :
RI. :
RXO.OHMM :
CALI.CM :
~A
# ...
  165.2500   -22.1780     2.3990    90.5510     6.7150     5.6860     8.3750    22.7830 
  165.3750   -22.2240     2.4150    88.5210     7.1610     6.2550     9.4750    22.6450 
  165.5000   -22.2790     2.3870    86.9790     7.0300     6.4290     9.0350    22.4850 
  165.6250   -22.3510     2.3300    83.2500     6.4270     6.1180     7.3360    22.3290 
  165.7500   -22.4230     2.2730    80.0930     5.7880     5.6080     6.2400    22.1960 
  165.8750   -22.4860     2.2330    81.6340     5.3070     5.1010     5.8270    22.0880 
  166.0000   -22.5480     2.2110    87.0610     5.0210     4.7030     5.6270    21.9910 
  166.1250   -22.6170     2.2030    90.8680     4.9240     4.4650     5.4470    21.9100 
  166.2500   -22.6770     2.1990    90.6100     4.9800     4.3780     5.3820    21.8770 
  166.3750   -22.7500     2.1930    88.1850     5.2350     4.4820     5.3990    21.9480 
  166.5000   -22.8360     2.1840    84.9250     5.7760     4.8400     5.3280    22.1590 
  166.6250   -22.8990     2.1840    80.2300     6.7210     5.5620     5.7870    22.4930 
  166.7500   -22.9060     2.2090    73.3140     7.9290     6.5400     6.9340    22.8080 
  166.8750   -22.8870     2.2680    66.1760     9.0730     7.5470     8.2360    22.9840 
  167.0000   -22.8910     2.3470    63.1630     9.5970     8.2040     8.7490    22.9690 
  167.1250   -22.9370     2.3950    66.6170     8.9630     8.0560     7.7300    22.7980 
  167.2500   -22.9990     2.3870    75.8850     7.7240     7.3130     6.7820    22.5910 
  167.3750   -23.0370     2.3410    85.9040     6.5180     6.3580     6.3400    22.3930 
  167.5000   -23.0510     2.2900    90.1170     5.7130     5.5320     5.9740    22.2070 
  167.6250   -23.0570     2.2560    88.9210     5.4140     5.0390     5.7690    22.0120 
  167.7500   -23.0850     2.2400    89.9050     5.4100     4.8220     5.6960    21.7930 
  167.8750   -23.1210     2.2330    92.1410     5.5600     4.8050     5.7480    21.5460 
  168.0000   -23.1370     2.2310    90.3960     5.7660     4.8990     5.8940    21.2840 
  168.1250   -23.1400     2.2360    86.8260     5.9950     5.0160     6.0690    21.0370 
  168.2500   -23.1400     2.2470    86.4770     6.2140     5.0930     6.0140    20.8590 
  168.3750   -23.1400     2.2580    89.2190     6.3650     5.1130     5.8860    20.7970 
  168.5000   -23.1440     2.2660    91.5830     6.3830     5.0870     5.8470    20.8640 
  168.6250   -23.1530     2.2660    89.5930     6.2100     5.0390     6.0040    21.0460 
  168.7500   -23.1990     2.2570    84.1780     5.9270     4.9970     6.1710    21.2770 
  168.8750   -23.2810     2.2420    79.6470     5.6510     4.9740     6.1460    21.5220 
  169.0000   -23.3950     2.2240    80.9570     5.4960     4.9710     5.9790    21.7500 
  169.1250   -23.4920     2.2050    86.1330     5.5150     4.9850     6.1930    21.9180 
  169.2500   -23.5690     2.1900    88.0050     5.6220     5.0180     6.5730    22.0040 
  169.3750   -23.6360     2.1810    86.3660     5.7950     5.1160     7.0230    21.9990 
  169.5000   -23.7000     2.1820    83.0190     6.1120     5.3760     7.4500    21.9330 
  169.6250   -23.7830     2.2000    81.0160     6.7950     5.9960     8.2660    21.8780 
  169.7500   -23.8260     2.2410    78.7790     7.9650     7.0550    10.3790    21.8920 
  169.8750   -23.8230     2.3080    74.8350     9.6760     8.5860    15.2830    21.9770 
  170.0000   -23.8110     2.3810    69.2930    11.7250    10.4500    24.0960    22.1000 
  170.1250   -23.8280     2.4100    65.8710    13.2090    12.0030    32.6940    22.2410 
  170.2500   -23.8720     2.3790    66.1080    13.0950    12.3970    30.3790    22.4040 
  170.3750   -23.9210     2.3110    68.6730     9.7790    10.0520    16.1980    22.5950 
  170.5000   -23.9700     2.2410    70.8190     7.1270     7.6710    10.3960    22.7990 
  170.6250   -23.9960     2.2040    74.8570     5.7790     6.1120     8.4400    22.9950 
  170.7500   -24.0350     2.1970    80.8060     5.1400     5.1590     6.3010    23.1790 
  170.8750   -24.0870     2.2050    86.2750     5.0650     4.7600     5.2660    23.3590 
  171.0000   -24.1110     2.2070    89.1170     5.4070     4.8160     5.4500    23.5330 
  171.1250   -24.1210     2.1930    86.4340     6.0390     5.2490     6.5400    23.6690 
  171.2500   -24.1270     2.1680    79.9080     6.7210     5.8440     7.6330    23.7510 
  171.3750   -24.1470     2.1390    72.3790     7.2820     6.4320     8.4560    23.7880 
  171.5000   -24.1850     2.1120    66.3850     7.6440     6.8700     9.0290    23.8000 
  171.6250   -24.2310     2.0930    64.4930     7.8190     7.0750     8.6120    23.8010 
  171.7500   -24.2590     2.0870    68.1280     7.9110     7.1410     8.4180    23.7940 
  171.8750   -24.2770     2.0960    74.4310     7.9630     7.1560     8.4360    23.7860 
  172.0000   -24.2960     2.1170    77.1210     7.9910     7.1800     8.5150    23.7750 
  172.1250   -24.2880     2.1370    73.0800     7.9960     7.2330     8.6120    23.7480 
  172.2500   -24.2660     2.1460    68.8990     7.9900     7.2930     8.9520    23.6560 
  172.3750   -24.2380     2.1420    68.3960     7.9700     7.3300     9.5400    23.4570 
  172.5000   -24.2050     2.1330    70.0220     7.9210     7.3210     9.8220    23.1400 
  172.6250   -24.1530     2.1280    72.2300     7.8090     7.2460     9.4470    22.7280 
  172.7500   -24.0750     2.1300    74.4970     7.6680     7.1250     8.7000    22.3270 
  172.8750   -24.0290     2.1340    75.3230     7.5410     6.9910     7.8630    22.0390 
  173.0000   -24.0310     2.1350    74.6640     7.4690     6.8820     7.2540    21.8600 
  173.1250   -24.0160     2.1210    72.2400     7.4980     6.8500     7.1950    21.7450 
  173.2500   -23.9730     2.1090    70.1000     7.6070     6.8910     7.3280    21.6620 
  173.3750   -23.8900     2.0980    69.7170     7.7350     6.9730     7.6420    21.6050 
  173.5000   -23.8060     2.0930    70.6280     7.7970     7.0380     8.1030    21.5800 
  173.6250   -23.7620     2.1030    71.4010     7.7100     7.0130     8.1330    21.5910 
  173.7500   -23.7420     2.1280    72.1860     7.5370     6.9080     7.8490    21.6360 
  173.8750   -23.7090     2.1570    73.8260     7.3750     6.7700     7.5690    21.7260 
  174.0000   -23.6720     2.1730    75.0630     7.3110     6.6670     7.3530    21.8640 
  174.1250   -23.6630     2.1680    74.7780     7.4140     6.6760     7.3080    22.0300 
  174.2500   -23.6730     2.1550    73.8980     7.6460     6.8080     7.7530    22.1920 
  174.3750   -23.6910     2.1470    71.5690     7.9680     7.0510     8.5330    22.3460 
  174.5000   -23.6970     2.1450    68.5380     8.3380     7.3650     9.1480    22.5130 
  174.6250   -23.6620     2.1410    69.1510     8.7120     7.7010     9.6300    22.7250 
  174.7500   -23.5880     2.1260    72.9280     9.0300     8.0120    10.8670    22.9580 
  174.8750   -23.4950     2.1070    73.6640     9.2390     8.2630    12.6100    23.1430 
  175.0000   -23.3930     2.0980    67.5410     9.3050     8.4170    12.3260    23.1950 
  175.1250   -23.2800     2.1090    59.6810     9.2300     8.4230    11.5630    23.0620 
  175.2500   -23.1670     2.1340    58.7140     9.1270     8.3060    10.9470    22.8280 
  175.3750   -23.0820     2.1640    63.1390     9.1270     8.1180    10.5990    22.5670 
  175.5000   -23.0030     2.1890    68.1030     9.3140     7.9530    10.3940    22.3450 
  175.6250   -22.9210     2.2040    69.7410     9.6780     7.9400    10.4640    22.2500 
  175.7500   -22.8290     2.2050    68.0180    10.0740     8.1160    10.8140    22.3180 
  175.8750   -22.7420     2.1950    65.3300    10.4020     8.4630    11.3470    22.5530 
  176.0000   -22.6740     2.1780    63.4870    10.5990     8.9020    12.0310    22.9050 
  176.1250   -22.6120     2.1640    65.0160    10.6240     9.2650    12.5920    23.2940 
  176.2500   -22.5130     2.1580    66.0830    10.4650     9.3930    12.2290    23.6530 
  176.3750   -22.3630     2.1640    63.7810    10.0450     9.1950    11.2870    23.9430 
