~V
VERS. 2.00: Ver 2.00
~W
STRT.M 60.0000:
STOP.M 217.0000:
STEP.M 0.1250:
NULL. -999.2500:
UWI. F10010:
~C
DEPT.M :
DEN.GM/CC :
GR.API :
RML.OHMM :
RI. :
RXO.OHMM :
CALI.CM :
SP.MV :
~A
# ...
  138.7500     2.4830    54.8210    18.2240    17.1460    17.8340    23.7310   -34.2290 
  138.8750     2.4890    53.6490    18.1870    17.1770    16.5060    23.3770   -34.2030 
  139.0000     2.5050    53.3720    17.8080    16.9580    15.0260    23.1920   -34.1620 
  139.1250     2.5210    52.0540    17.0450    16.3950    14.0350    23.2010   -34.0640 
  139.2500     2.5280    51.0710    16.2130    15.7120    13.1530    23.2560   -33.9960 
  139.3750     2.5220    52.5640    15.5540    15.1130    12.6620    23.2450   -33.9650 
  139.5000     2.5000    55.6860    15.1780    14.7280    13.3140    23.2180   -33.9100 
  139.6250     2.4640    57.3430    15.1170    14.6230    15.2280    23.2690   -33.8110 
  139.7500     2.4240    55.0780    15.2770    14.7580    16.2630    23.4080   -33.6840 
  139.8750     2.3920    50.9630    15.6540    15.1320    15.6620    23.6710   -33.5750 
  140.0000     2.3820    49.1250    16.2740    15.7480    15.4560    23.9050   -33.4880 
  140.1250     2.4030    51.4000    17.1640    16.6280    17.7910    23.8770   -33.4540 
  140.2500     2.4430    55.1810    18.1390    17.6200    20.6650    23.5620   -33.4290 
  140.3750     2.4870    58.0510    18.9270    18.4780    20.7310    23.1500   -33.3770 
  140.5000     2.5220    58.8680    19.2100    18.8820    18.3980    22.8540   -33.3280 
  140.6250     2.5350    58.4190    18.6640    18.4780    16.4130    22.7610   -33.3440 
  140.7500     2.5320    59.0130    17.5210    17.4440    14.4040    22.8440   -33.3970 
  140.8750     2.5180    61.5660    16.1060    16.0840    12.1670    22.9430   -33.4410 
  141.0000     2.4980    63.3180    14.7570    14.7480    10.4220    22.7870   -33.4730 
  141.1250     2.4780    61.3460    13.7740    13.7150     9.6680    22.7070   -33.4710 
  141.2500     2.4630    59.4050    13.1760    13.0180     9.4880    22.6350   -33.4810 
  141.3750     2.4540    59.4980    12.9320    12.6340     9.6400    22.5720   -33.5470 
  141.5000     2.4520    60.5830    12.9750    12.5230    10.1380    22.5280   -33.6360 
  141.6250     2.4570    58.3000    13.2690    12.6850    10.6500    22.5470   -33.6850 
  141.7500     2.4650    54.5880    13.7230    13.0440    10.8480    22.5020   -33.7210 
  141.8750     2.4730    52.2150    14.2870    13.5860    10.9950    22.4520   -33.7940 
  142.0000     2.4790    51.4450    14.9270    14.2670    11.6380    22.4270   -33.9220 
  142.1250     2.4830    53.6070    15.6700    15.0760    12.7320    22.4330   -34.1000 
  142.2500     2.4860    58.9850    16.5810    16.0240    13.1060    22.4360   -34.2750 
  142.3750     2.4940    66.2460    17.7850    17.1690    13.0110    22.4360   -34.4140 
  142.5000     2.5080    71.7500    19.4160    18.6070    13.7620    22.4270   -34.5490 
  142.6250     2.5240    72.4350    21.5730    20.4420    16.5950    22.4160   -34.7340 
  142.7500     2.5310    70.5220    23.9040    22.4560    20.8840    22.4410   -34.9640 
  142.8750     2.5200    68.1950    25.8280    24.1960    25.1740    22.5680   -35.1990 
  143.0000     2.4850    68.8240    26.6390    25.0040    27.9880    22.8320   -35.4090 
  143.1250     2.4290    73.0290    25.7050    24.2110    26.9580    23.1010   -35.5640 
  143.2500     2.3750    74.8310    23.7640    22.4110    22.3040    23.4620   -35.6650 
  143.3750     2.3420    72.7690    21.7660    20.4440    17.2620    23.8940   -35.7740 
  143.5000     2.3410    71.0230    20.5580    19.0650    14.5600    24.3260   -35.9080 
  143.6250     2.3750    72.7900    20.4200    18.8200    15.3320    24.4470   -35.9730 
  143.7500     2.4200    74.9650    20.6370    19.4870    18.3630    24.3780   -35.9410 
  143.8750     2.4590    77.1830    22.1170    20.7070    22.5410    24.2330   -35.8540 
  144.0000     2.4800    80.2120    23.4600    22.0020    27.1820    24.1360   -35.7480 
  144.1250     2.4790    82.4150    24.1910    22.8680    27.5080    24.1790   -35.6590 
  144.2500     2.4650    83.0860    24.4490    23.2730    22.7810    24.2810   -35.5730 
  144.3750     2.4430    83.1430    24.5800    23.4680    18.7570    24.3390   -35.4370 
  144.5000     2.4180    82.7320    24.9380    23.7540    18.9360    24.2740   -35.2710 
  144.6250     2.3940    81.4460    25.7580    24.3870    22.6970    24.2870   -35.1540 
  144.7500     2.3690    81.0710    26.9030    25.2990    23.6980    24.3250   -35.0690 
  144.8750     2.3360    81.2740    28.1630    26.3230    20.3220    24.3000   -35.0150 
  145.0000     2.2910    80.1300    29.2300    27.1850    17.3250    24.2250   -34.9890 
  145.1250     2.2380    78.6870    29.6110    27.4050    18.1200    24.2010   -34.9470 
  145.2500     2.2010    78.6690    29.1570    26.8740    21.9850    24.0660   -34.8970 
  145.3750     2.1980    80.1060    27.9460    25.6790    25.5570    23.7730   -34.8820 
  145.5000     2.2320    83.5330    26.2930    24.0800    23.8560    23.5950   -34.8900 
  145.6250     2.2890    86.6560    24.7070    22.5090    19.2700    23.6290   -34.8390 
  145.7500     2.3360    86.1710    23.6690    21.3560    17.2320    23.6760   -34.7700 
  145.8750     2.3610    83.2280    23.4960    20.8910    19.0150    23.6120   -34.6920 
  146.0000     2.3650    81.6490    24.3530    21.2790    23.4850    23.4140   -34.6080 
  146.1250     2.3620    85.3920    26.4160    22.6980    27.3340    23.3440   -34.5190 
  146.2500     2.3660    88.8650    29.3240    24.8800    30.2670    23.4950   -34.4060 
  146.3750     2.3830    88.8770    32.6750    27.5120    34.3550    23.7730   -34.2790 
  146.5000     2.4090    86.1910    35.8560    30.0920    39.6980    24.0160   -34.1490 
  146.6250     2.4300    83.5750    37.9690    31.9150    42.9020    23.9010   -34.0290 
  146.7500     2.4340    83.9860    38.7030    32.6760    41.1490    23.6900   -33.9280 
  146.8750     2.4170    86.5550    38.0590    32.3220    36.7680    23.4860   -33.8590 
  147.0000     2.3900    88.5320    36.4270    31.0980    34.1030    23.3490   -33.8180 
  147.1250     2.3700    88.2200    34.4680    29.4400    34.1410    23.2230   -33.7750 
  147.2500     2.3630    88.3750    32.7060    27.8180    31.9200    22.9310   -33.7960 
  147.3750     2.3650    92.1140    31.0090    26.2090    26.9330    22.7750   -33.8210 
  147.5000     2.3670    96.6260    28.8040    24.2440    23.5860    22.8220   -33.7860 
  147.6250     2.3580    96.6770    25.3040    21.3940    23.8930    22.8820   -33.7280 
  147.7500     2.3390    93.6110    20.8450    17.8710    22.6510    22.7090   -33.6910 
  147.8750     2.3140    88.9230    16.2270    14.2360    16.9030    22.3970   -33.6360 
  148.0000     2.2910    81.8380    12.2760    11.0780    10.5160    22.0000   -33.5100 
  148.1250     2.2790    71.8650     9.6140     8.8230     7.1980    21.4180   -33.4110 
  148.2500     2.2800    61.3640     7.9970     7.3240     6.0320    20.5330   -33.3390 
  148.3750     2.2910    53.1270     7.1830     6.4540     6.1180    19.7530   -33.2620 
  148.5000     2.3000    48.3390     6.9050     6.0550     6.3990    19.2620   -33.2040 
  148.6250     2.2880    47.1940     6.9120     5.9810     6.0040    19.1170   -33.2110 
  148.7500     2.2440    47.9930     6.9230     5.9940     5.3640    19.1750   -33.2460 
  148.8750     2.1690    48.2430     6.8330     5.9760     4.9350    19.4930   -33.2710 
  149.0000     2.0790    47.2520     6.6460     5.9010     4.7150    20.0620   -33.3000 
  149.1250     2.0070    45.7040     6.4300     5.8010     4.5060    20.8080   -33.3210 
  149.2500     1.9850    44.5360     6.2480     5.7320     4.3750    21.4640   -33.3510 
  149.3750     2.0250    43.7510     6.1350     5.7220     4.5790    21.9520   -33.4270 
  149.5000     2.1140    43.9660     6.1170     5.7710     5.0590    22.2190   -33.5310 
  149.6250     2.2220    49.3580     6.2090     5.8770     5.3940    22.2970   -33.6370 
  149.7500     2.3110    57.6970     6.3540     5.9930     5.5050    22.2930   -33.7560 
  149.8750     2.3640    65.2450     6.4970     6.0780     5.5730    22.2610   -33.9160 
