~V
VERS. 2.00: Ver 2.00
~W
STRT.M 50.0000:
STOP.M 237.0000:
STEP.M 0.1250:
NULL. -999.2500:
UWI. F10006:
~C
DEPT.M :
GR.API :
RML.OHMM :
RI. :
RXO.OHMM :
CALI.CM :
DEN.GM/CC :
SP.MV :
~A
# ...
   95.0000    94.6920     7.4730     6.8880     6.0440    23.2620     2.3270   -19.2500 
   95.1250    97.0480     7.9120     7.1350     6.5850    23.6610     2.3030   -18.9960 
   95.2500    95.1700     8.5210     7.5170     7.3760    23.9410     2.2810   -18.7270 
   95.3750    91.1360     9.0910     7.9020     7.8770    24.0580     2.2700   -18.4490 
   95.5000    89.1710     9.3910     8.1290     7.9400    24.0300     2.2720   -18.1730 
   95.6250    91.6570     9.2090     8.0230     7.4790    23.9500     2.2900   -17.9090 
   95.7500    94.1440     8.6950     7.6560     7.0510    23.9460     2.3170   -17.6560 
   95.8750    93.6540     8.0810     7.1740     6.6700    24.0380     2.3440   -17.4220 
   96.0000    93.2830     7.6200     6.7520     6.5230    24.1460     2.3640   -17.2370 
   96.1250    96.3420     7.5310     6.5500     7.0850    24.1880     2.3670   -17.1280 
   96.2500    98.3610     7.7560     6.5550     7.6240    24.1930     2.3600   -17.0430 
   96.3750    95.8820     8.1600     6.7080     8.2180    24.1610     2.3490   -16.9720 
   96.5000    92.4800     8.5490     6.9060     8.6280    24.0510     2.3460   -16.9050 
   96.6250    93.7970     8.6810     7.0200     7.6490    23.8480     2.3520   -16.8280 
   96.7500    97.9970     8.5090     6.9950     7.1740    23.6400     2.3580   -16.7450 
   96.8750   100.4800     8.1140     6.8530     6.9210    23.4600     2.3550   -16.6660 
   97.0000    98.8930     7.6920     6.6810     6.5400    23.3560     2.3440   -16.5720 
   97.1250    94.2330     7.5250     6.6400     6.5790    23.3320     2.3410   -16.4620 
   97.2500    89.5650     7.7330     6.8370     6.9820    23.3510     2.3530   -16.3640 
   97.3750    85.3530     8.3270     7.3270     8.0000    23.3650     2.3730   -16.2650 
   97.5000    81.8040     9.1980     8.0840     9.4430    23.5910     2.3840   -16.1550 
   97.6250    80.9380    10.1120     8.9710    10.5050    24.0010     2.3670   -16.0260 
   97.7500    82.6250    10.7790     9.7180     9.7220    24.3440     2.3320   -15.8910 
   97.8750    85.4400    11.0150    10.1170     9.3790    24.3250     2.2970   -15.7380 
   98.0000    88.7170    10.7550    10.0650     9.1460    24.3250     2.2810   -15.5660 
   98.1250    92.0730    10.0120     9.5420     8.5420    24.4000     2.2910   -15.3650 
   98.2500    95.4730     9.0470     8.7790     7.5330    24.4090     2.3160   -15.1530 
   98.3750    98.4770     8.0840     7.9690     6.7870    24.4280     2.3450   -14.9540 
   98.5000   100.7560     7.3750     7.3120     6.4140    24.4380     2.3720   -14.7940 
   98.6250   100.3950     7.2690     7.0780     6.2380    24.4300     2.3950   -14.6750 
   98.7500    95.9460     7.8610     7.3710     7.4410    24.4550     2.4110   -14.5640 
   98.8750    88.2340     9.1790     8.2750    11.0710    24.4980     2.4120   -14.4580 
   99.0000    79.0170    11.0960     9.7930    17.8160    24.5130     2.3890   -14.3460 
   99.1250    72.7920    13.3480    11.8630    17.8050    24.4560     2.3450   -14.2230 
   99.2500    70.2110    15.5950    14.1680    16.5820    24.4180     2.3070   -14.0880 
   99.3750    68.5610    17.8080    16.5650    16.5070    24.5080     2.3080   -13.9260 
   99.5000    66.2810    20.2120    19.1000    19.6400    24.6540     2.3630   -13.7330 
   99.6250    63.5000    23.4790    22.0310    31.4280    24.6350     2.4610   -13.5340 
   99.7500    62.6450    27.5330    25.3040    46.6150    24.5530     2.5460   -13.3780 
   99.8750    62.5500    31.3160    28.4320    46.7930    24.4710     2.5750   -13.2630 
  100.0000    61.7400    33.4090    30.5320    31.9160    24.3540     2.5290   -13.1750 
  100.1250    61.7720    32.8470    30.5130    21.1070    24.2360     2.4200   -13.1070 
  100.2500    63.8800    30.6440    28.8400    18.1130    24.2970     2.3040   -13.0390 
  100.3750    67.1270    27.8310    26.3830    19.2950    24.5530     2.2160   -12.9760 
  100.5000    68.1360    25.3620    24.0460    20.8740    24.7750     2.1670   -12.9220 
  100.6250    65.5650    23.8800    22.4930    20.6590    24.8020     2.1520   -12.8800 
  100.7500    62.6270    23.2400    21.7010    18.7890    24.6850     2.1490   -12.7990 
  100.8750    61.4560    23.2640    21.5570    19.2080    24.5490     2.1500   -12.6760 
  101.0000    62.7720    23.7910    21.9390    20.7490    24.6600     2.1500   -12.5530 
  101.1250    65.2280    24.7790    22.8290    22.6500    24.7620     2.1520   -12.4590 
  101.2500    65.7640    26.0780    24.0810    24.6540    24.7630     2.1540   -12.3960 
  101.3750    63.7440    27.5730    25.5840    26.5600    24.7950     2.1540   -12.3700 
  101.5000    59.8890    29.0770    27.1570    27.7440    24.9580     2.1500   -12.3670 
  101.6250    56.5160    30.2870    28.5020    28.9870    25.2350     2.1410   -12.3910 
  101.7500    55.3330    31.0140    29.4150    30.3140    25.4750     2.1310   -12.4610 
  101.8750    56.0380    31.1620    29.7890    31.3590    25.6180     2.1220   -12.5580 
  102.0000    58.7050    30.7660    29.6340    31.2630    25.6710     2.1180   -12.6580 
  102.1250    60.6610    29.9780    29.0510    29.9450    25.6180     2.1190   -12.7680 
  102.2500    61.2600    29.1460    28.3560    28.5830    25.4860     2.1220   -12.8940 
  102.3750    60.7220    28.5070    27.7680    27.8190    25.3870     2.1270   -13.0200 
  102.5000    59.9910    28.2200    27.4430    27.4310    25.4400     2.1340   -13.1310 
  102.6250    61.8740    28.4120    27.5170    26.7750    25.5570     2.1420   -13.1950 
  102.7500    64.8390    28.9480    27.9130    26.9440    25.5310     2.1500   -13.2400 
  102.8750    66.5600    29.6770    28.5330    28.0620    25.3270     2.1550   -13.3080 
  103.0000    65.6220    30.3910    29.2270    29.0350    25.1690     2.1550   -13.3850 
  103.1250    63.1100    30.8130    29.7730    29.2950    25.2540     2.1530   -13.4160 
  103.2500    60.9250    30.8420    30.0310    29.2950    25.4210     2.1560   -13.4110 
  103.3750    59.6570    30.5030    29.9590    28.8950    25.4300     2.1640   -13.3970 
  103.5000    60.8520    29.9520    29.6290    28.1350    25.2070     2.1720   -13.3940 
  103.6250    63.6840    29.4360    29.2110    27.7190    24.9750     2.1710   -13.4390 
  103.7500    64.4730    29.1270    28.8950    28.8410    24.8750     2.1590   -13.5090 
  103.8750    63.0890    29.0660    28.7640    31.8810    24.8220     2.1410   -13.5830 
  104.0000    62.0520    29.1780    28.7910    36.5730    24.7130     2.1240   -13.6970 
  104.1250    62.5730    29.2860    28.8200    30.2790    24.5920     2.1150   -13.9050 
  104.2500    63.1330    29.2030    28.6530    26.8220    24.5830     2.1150   -14.1530 
  104.3750    63.0300    28.8360    28.1860    26.0370    24.6250     2.1190   -14.4100 
  104.5000    62.5040    28.2310    27.4600    26.4260    24.6780     2.1250   -14.6770 
  104.6250    61.7810    27.7020    26.7490    26.1400    24.7160     2.1380   -14.9570 
  104.7500    62.2970    27.7670    26.4950    26.3380    24.7370     2.1700   -15.2640 
  104.8750    64.0220    28.9640    27.1500    28.0830    24.7420     2.2350   -15.5860 
  105.0000    65.8300    31.7650    29.1700    34.4160    24.7060     2.3350   -15.8830 
  105.1250    66.1080    36.7960    33.3250    55.5330    24.5680     2.4520   -16.1340 
  105.2500    64.1740    43.6250    39.5290    80.6750    24.4010     2.5570   -16.3880 
  105.3750    60.9970    51.6440    47.4760    88.3170    24.3200     2.6330   -16.6700 
  105.5000    57.9340    59.9070    56.3400    85.3550    24.3070     2.6790   -16.9720 
  105.6250    56.6910    67.4800    65.0350    88.2580    24.3070     2.7080   -17.2540 
  105.7500    55.9370    74.5480    73.2240    90.2080    24.3140     2.7360   -17.4810 
  105.8750    54.9530    81.6980    81.2270    90.3680    24.3170     2.7670   -17.6480 
  106.0000    55.1640    88.6320    88.8290    91.4440    24.3120     2.7950   -17.7630 
  106.1250    56.7000    91.7450    92.9660    97.8550    24.2940     2.8020   -17.8590 
