~V
VERS. 2.00: Ver 2.00
~W
STRT.M 64.0000:
STOP.M 220.0000:
STEP.M 0.1250:
NULL. -999.2500:
UWI. F10051:
~C
DEPT.M :
SP.MV :
GR.API :
RML.OHMM :
RI. :
RXO.OHMM :
CALI.CM :
DEN.GM/CC :
~A
# ...
   97.7500   -10.3580    87.5670     5.5610     4.8330     5.4380    24.4570     2.3290 
   97.8750    -9.3630    89.1110     5.4570     4.6630     5.4700    24.3770     2.3640 
   98.0000    -8.5690    88.8980     5.4770     4.6170     5.6480    24.3090     2.3830 
   98.1250    -8.0410    87.4650     5.5170     4.6300     5.5190    24.3080     2.3890 
   98.2500    -7.7510    85.1120     5.5130     4.6340     5.0780    24.3350     2.3910 
   98.3750    -7.7270    83.8290     5.4510     4.6030     4.7860    24.3470     2.3960 
   98.5000    -7.8800    87.5850     5.3410     4.5310     4.6270    24.3490     2.4070 
   98.6250    -8.0410    93.8300     5.1920     4.4210     4.5190    24.3760     2.4170 
   98.7500    -8.2000    94.6660     5.0170     4.2870     4.4360    24.4600     2.4210 
   98.8750    -8.4460    90.2490     4.8360     4.1430     4.3400    24.5840     2.4160 
   99.0000    -8.7830    86.4220     4.6920     4.0160     4.2140    24.6920     2.3990 
   99.1250    -9.2560    87.7630     4.6700     3.9630     4.2160    24.9720     2.3720 
   99.2500    -9.8570    90.2570     4.8030     4.0160     4.4250    25.2210     2.3380 
   99.3750   -10.5540    90.6740     5.0890     4.1820     4.8850    25.0410     2.3020 
   99.5000   -11.3280    86.0200     5.4800     4.4420     5.6200    24.5870     2.2730 
   99.6250   -12.1030    75.8950     5.8990     4.7570     6.4140    24.3170     2.2610 
   99.7500   -12.8750    68.8000     6.2740     5.0680     6.8660    24.2250     2.2650 
   99.8750   -13.6380    69.2230     6.5880     5.3520     6.6940    24.1810     2.2820 
  100.0000   -14.3740    73.7870     6.8610     5.6080     6.4020    24.1050     2.3020 
  100.1250   -15.0880    74.5860     7.1290     5.8530     6.5550    24.0210     2.3110 
  100.2500   -15.6740    70.8790     7.3970     6.0960     7.1190    23.9540     2.3040 
  100.3750   -16.1130    66.5860     7.6350     6.3240     7.8440    23.9350     2.2850 
  100.5000   -16.4430    62.7730     7.7990     6.5090     8.4160    23.9350     2.2640 
  100.6250   -16.7370    59.9570     7.8470     6.6190     8.5940    23.9140     2.2500 
  100.7500   -17.0010    58.8890     7.8320     6.6740     8.5830    23.8800     2.2460 
  100.8750   -17.1920    59.2180     7.8280     6.7160     8.5150    23.8440     2.2470 
  101.0000   -17.2240    59.4670     7.9100     6.7930     8.4320    23.7980     2.2490 
  101.1250   -17.0650    60.6170     8.1290     6.9460     8.4110    23.7470     2.2480 
  101.2500   -16.8180    64.3490     8.4060     7.1340     8.4530    23.6970     2.2460 
  101.3750   -16.4290    67.9630     8.6110     7.2770     8.5860    23.7370     2.2510 
  101.5000   -15.8570    68.1110     8.5820     7.2610     8.7070    23.9100     2.2710 
  101.6250   -15.0820    65.4410     8.1430     6.9480     8.5840    24.1510     2.3050 
  101.7500   -14.1510    64.8050     7.3910     6.3830     8.0490    24.2320     2.3350 
  101.8750   -13.1420    68.7350     6.4960     5.6730     7.0050    24.2310     2.3460 
  102.0000   -12.2250    75.8950     5.6810     4.9710     5.7420    24.3980     2.3360 
  102.1250   -11.4620    80.5970     5.1760     4.4530     4.7440    24.5510     2.3180 
  102.2500   -10.8060    80.6910     4.9950     4.1660     4.6120    24.4280     2.3080 
  102.3750   -10.3420    78.6580     5.0930     4.1110     4.9190    24.2020     2.3050 
  102.5000   -10.1680    76.0280     5.3960     4.2600     5.2720    24.0620     2.2970 
  102.6250   -10.3420    72.0420     5.8830     4.6170     5.6560    23.9630     2.2710 
  102.7500   -10.7910    68.0690     6.5770     5.1730     6.1680    23.7340     2.2380 
  102.8750   -11.3770    65.2590     7.6150     6.0040     6.9110    23.3930     2.2240 
  103.0000   -11.9810    63.3250     9.1360     7.2010     7.8750    23.1360     2.2510 
  103.1250   -12.4830    62.8070    11.1780     8.8180     9.1150    23.0560     2.3360 
  103.2500   -12.9550    63.2070    13.3110    10.5720    10.7290    22.9900     2.4470 
  103.3750   -13.4440    62.5160    14.9940    12.0730    12.6270    22.8530     2.5440 
  103.5000   -13.9220    61.5320    15.6900    12.8830    14.5960    22.6330     2.5820 
  103.6250   -14.3910    63.7310    14.9770    12.5860    15.2340    22.2690     2.5400 
  103.7500   -14.8710    66.5060    13.4390    11.5330    12.8410    21.9770     2.4580 
  103.8750   -15.3380    65.3580    11.7360    10.1940     9.2350    21.8590     2.3710 
  104.0000   -15.7840    61.9380    10.4060     9.0030     7.8620    21.7930     2.3010 
  104.1250   -16.2830    62.0650     9.7370     8.2450     7.7100    21.7040     2.2620 
  104.2500   -16.7600    65.3840     9.5100     7.8410     7.6830    21.6430     2.2460 
  104.3750   -17.1100    68.6360     9.5110     7.6700     7.5630    21.6480     2.2440 
  104.5000   -17.3400    69.4690     9.5430     7.5990     7.4970    21.6900     2.2480 
  104.6250   -17.4480    68.0560     9.4560     7.5110     7.5160    21.7890     2.2500 
  104.7500   -17.4470    64.9340     9.2290     7.3520     7.6350    22.0230     2.2470 
  104.8750   -17.3770    60.8480     8.8860     7.1230     7.8220    22.5040     2.2430 
  105.0000   -17.2240    58.3990     8.4740     6.8440     7.9770    23.2510     2.2410 
  105.1250   -16.9490    59.6540     8.0710     6.5610     7.8860    23.8740     2.2420 
  105.2500   -16.6080    62.3580     7.7620     6.3270     7.5380    24.1860     2.2450 
  105.3750   -16.2890    63.7300     7.6000     6.1800     7.1570    24.1800     2.2480 
  105.5000   -15.9610    64.7060     7.5940     6.1330     7.0120    24.0370     2.2510 
  105.6250   -15.5900    66.0820     7.6860     6.1660     7.3510    23.9010     2.2510 
  105.7500   -15.1790    67.5560     7.7320     6.1900     7.6610    23.8700     2.2500 
  105.8750   -14.7280    68.3690     7.6240     6.1350     7.9610    24.0170     2.2500 
  106.0000   -14.2210    67.7360     7.3200     5.9580     8.0300    24.2370     2.2550 
  106.1250   -13.6280    64.8050     6.8680     5.6650     7.5300    24.3570     2.2670 
  106.2500   -13.0370    63.4760     6.4380     5.3550     6.5420    24.3270     2.2830 
  106.3750   -12.5060    67.4000     6.1480     5.1100     5.6040    24.1540     2.2960 
  106.5000   -11.9870    74.2980     6.0510     4.9800     5.2900    23.8780     2.2980 
  106.6250   -11.4810    78.3430     6.1370     4.9880     5.4610    23.7700     2.2880 
  106.7500   -10.9590    80.1380     6.2870     5.0660     5.6610    23.8600     2.2760 
  106.8750   -10.4510    81.7050     6.4040     5.1540     5.6760    24.0060     2.2690 
  107.0000   -10.0520    84.0130     6.4220     5.1990     5.6200    24.0460     2.2740 
  107.1250    -9.8340    84.4820     6.3030     5.1570     5.6340    24.0380     2.2890 
  107.2500    -9.6530    83.1300     6.1050     5.0510     5.6460    24.0390     2.3060 
  107.3750    -9.4620    81.7080     5.8850     4.9140     5.5610    24.0340     2.3220 
  107.5000    -9.2900    82.0580     5.7010     4.7870     5.3650    23.9960     2.3340 
  107.6250    -9.1920    83.8270     5.6190     4.7180     5.1240    23.9140     2.3390 
  107.7500    -9.1860    84.6630     5.6480     4.7220     5.0030    23.8040     2.3370 
  107.8750    -9.2390    82.4720     5.7690     4.7970     5.0230    23.7410     2.3260 
  108.0000    -9.2900    78.0770     5.9330     4.9130     5.1590    23.7430     2.3100 
  108.1250    -9.2540    74.8550     6.0490     5.0150     5.4180    23.8040     2.2960 
  108.2500    -9.2010    74.6650     6.0540     5.0510     5.5660    23.8620     2.2910 
  108.3750    -9.1290    76.0470     5.9320     4.9980     5.4780    23.8950     2.2970 
  108.5000    -9.0210    76.0780     5.7170     4.8670     5.2880    23.9320     2.3110 
  108.6250    -8.8520    76.4140     5.4840     4.6970     5.0470    23.9720     2.3260 
  108.7500    -8.6490    77.9520     5.3060     4.5430     4.8970    23.9930     2.3370 
  108.8750    -8.4590    79.0040     5.2130     4.4330     4.8610    23.9930     2.3420 
