~V
VERS. 2.00: Ver 2.00
~W
STRT.M 55.0000:
STOP.M 292.0000:
STEP.M 0.1250:
NULL. -999.2500:
UWI. F10078:
~C
DEPT.M :
GR.API :
RML.OHMM :
RI. :
RXO.OHMM :
CALI.CM :
DEN.GM/CC :
SP.MV :
~A
# ...
  268.7500   106.4590     4.5270     3.9590     3.9700    23.7170     2.3590    -4.7520 
  268.8750   106.0760     4.4250     3.9080     3.9700    23.7170     2.3440    -4.8320 
  269.0000   105.0750     4.3260     3.8680     3.9900    23.7190     2.3260    -4.9320 
  269.1250   105.0320     4.2920     3.8310     3.9970    23.7240     2.3150    -5.0290 
  269.2500   104.4080     4.2910     3.7970     3.9960    23.7380     2.3140    -5.1240 
  269.3750   102.4530     4.3220     3.7760     3.9900    23.7570     2.3220    -5.2550 
  269.5000    98.4120     4.3790     3.7770     3.9650    23.7640     2.3340    -5.4020 
  269.6250    93.5140     4.4070     3.8030     3.9290    23.7540     2.3410    -5.5660 
  269.7500    91.6960     4.4450     3.8380     3.8900    23.7420     2.3430    -5.7890 
  269.8750    94.0900     4.4810     3.8710     3.8730    23.7530     2.3400    -6.0030 
  270.0000    98.5050     4.5040     3.8930     3.8800    23.7870     2.3330    -6.2190 
  270.1250   100.5820     4.5040     3.8920     3.8770    23.8400     2.3250    -6.4880 
  270.2500   100.0350     4.4800     3.8700     3.8790    23.8600     2.3160    -6.7990 
  270.3750    98.6660     4.4390     3.8320     3.8730    23.8580     2.3070    -7.0920 
  270.5000    98.3900     4.3950     3.7920     3.8450    23.8400     2.3000    -7.3360 
  270.6250    99.3110     4.3700     3.7690     3.7830    23.8110     2.2950    -7.4400 
  270.7500    99.0830     4.3700     3.7690     3.7190    23.7920     2.2920    -7.3730 
  270.8750    96.8360     4.3900     3.7870     3.7240    23.7850     2.2940    -7.2420 
  271.0000    94.1510     4.4210     3.8160     3.8030    23.7840     2.3020    -7.0190 
  271.1250    92.8660     4.4580     3.8500     3.8860    23.7840     2.3150    -6.5770 
  271.2500    93.0270     4.4980     3.8870     3.9300    23.7840     2.3280    -6.0330 
  271.3750    95.9770     4.5340     3.9200     3.9320    23.7850     2.3360    -5.4760 
  271.5000   101.7600     4.5550     3.9400     3.9260    23.7860     2.3370    -4.9320 
  271.6250   105.9570     4.5490     3.9340     3.9130    23.7900     2.3340    -4.4860 
  271.7500   104.5470     4.5220     3.9100     3.9060    23.7980     2.3320    -4.1350 
  271.8750    98.8850     4.4900     3.8790     3.9030    23.8130     2.3310    -3.8210 
  272.0000    95.7800     4.4670     3.8590     3.9000    23.8260     2.3280    -3.6010 
  272.1250    98.5120     4.4670     3.8580     3.9080    23.8370     2.3160    -3.5520 
  272.2500   101.5240     4.4760     3.8670     3.8970    23.8380     2.2990    -3.5460 
  272.3750   100.3600     4.4830     3.8730     3.8460    23.8250     2.2840    -3.5310 
  272.5000    95.8320     4.4780     3.8680     3.7930    23.8000     2.2790    -3.5580 
  272.6250    93.3100     4.4490     3.8420     3.8240    23.7880     2.2880    -3.6330 
  272.7500    92.1880     4.4010     3.7970     3.8920    23.7840     2.3060    -3.7020 
  272.8750    90.2740     4.3500     3.7500     3.9740    23.7840     2.3250    -3.7840 
  273.0000    88.2680     4.3230     3.7250     4.0730    23.7840     2.3430    -3.8640 
  273.1250    88.4990     4.3430     3.7430     4.1590    23.7840     2.3550    -3.9570 
  273.2500    89.5520     4.4010     3.7970     4.1930    23.7840     2.3630    -4.1020 
  273.3750    90.2730     4.4810     3.8710     4.1860    23.7840     2.3640    -4.2690 
  273.5000    91.2710     4.5680     3.9510     4.1840    23.7840     2.3590    -4.4190 
  273.6250    92.8210     4.6500     4.0280     4.2050    23.7840     2.3470    -4.5810 
  273.7500    93.5610     4.7220     4.0950     4.2170    23.7840     2.3330    -4.7820 
  273.8750    93.7640     4.7720     4.1410     4.1970    23.7840     2.3210    -4.9330 
  274.0000    94.8280     4.7890     4.1570     4.1410    23.7840     2.3170    -5.0170 
  274.1250    95.9840     4.7900     4.1580     4.0540    23.7840     2.3200    -5.0540 
  274.2500    95.2280     4.8150     4.1780     4.0380    23.7840     2.3260    -5.0410 
  274.3750    92.0680     4.8800     4.2380     4.0510    23.7840     2.3290    -4.9790 
  274.5000    89.1840     4.9760     4.3240     4.0650    23.7840     2.3260    -4.8460 
  274.6250    89.9300     5.0370     4.3920     4.1020    23.7840     2.3170    -4.6570 
  274.7500    92.4570     5.0280     4.4070     4.1670    23.7850     2.3080    -4.4430 
  274.8750    93.4860     4.9300     4.3630     4.2440    23.7880     2.3060    -4.2760 
  275.0000    92.0630     4.7640     4.2780     4.3060    23.7930     2.3130    -4.1750 
  275.1250    89.1810     4.6340     4.1860     4.3520    23.8050     2.3290    -4.0570 
  275.2500    86.0960     4.5490     4.1270     4.4190    23.8220     2.3470    -3.9400 
  275.3750    83.1220     4.5960     4.1430     4.5420    23.8290     2.3610    -3.8860 
  275.5000    82.2830     4.8640     4.2960     4.7430    23.8150     2.3660    -3.9490 
  275.6250    83.8790     5.4120     4.7150     5.3470    23.7810     2.3690    -4.1260 
  275.7500    81.8970     6.0940     5.4600     6.8480    23.7540     2.3780    -4.3520 
  275.8750    75.0540     7.2630     6.6320     9.3490    23.7280     2.4000    -4.5870 
  276.0000    68.3370     9.0790     8.3730    12.7510    23.7130     2.4290    -4.8100 
  276.1250    67.1290    12.8020    11.1380    17.2990    23.7070     2.4530    -5.1280 
  276.2500    67.7780    18.6540    15.3960    23.0990    23.6970     2.4650    -5.4990 
  276.3750    67.4320    27.7190    21.9540    33.1340    23.6400     2.4680    -5.8790 
  276.5000    66.6850    40.5440    31.5610    52.1940    23.5540     2.4740    -6.2740 
  276.6250    67.9500    54.8930    44.7210    78.2210    23.5940     2.4950    -6.6670 
  276.7500    70.5030    70.4190    59.3640   104.1360    23.6250     2.5270    -7.0590 
  276.8750    72.4320    84.3550    72.7790   121.5890    23.5700     2.5590    -7.4510 
  277.0000    71.7640    93.6410    81.9940   123.3170    23.4560     2.5810    -7.8800 
  277.1250    68.5130    95.7680    84.5380   114.6220    23.4280     2.5900    -8.2470 
  277.2500    66.2640    93.6990    82.9190   102.0490    23.4770     2.5950    -8.5880 
  277.3750    66.1090    90.6110    79.8630    92.5120    23.5380     2.5990    -8.8640 
  277.5000    67.2390    88.7450    77.4180    89.1500    23.5920     2.6020    -9.0580 
  277.6250    67.5210    89.1750    76.7700    89.6840    23.6200     2.5970    -9.2150 
  277.7500    67.0480    91.2790    77.7800    90.4710    23.6230     2.5860    -9.3200 
  277.8750    66.5300    94.5120    80.2920    89.3150    23.6020     2.5700    -9.3800 
  278.0000    66.0330    98.2650    83.9310    86.6990    23.5750     2.5520    -9.4050 
  278.1250    66.4470   101.3660    87.6920    81.3550    23.5420     2.5390    -9.4380 
  278.2500    68.3090   102.1750    89.7880    85.8200    23.4880     2.5370    -9.4480 
  278.3750    71.0150    98.8530    88.3280   101.4830    23.4310     2.5500    -9.5140 
  278.5000    72.2220    90.1050    81.9150   118.7890    23.3990     2.5740    -9.5950 
  278.6250    72.3320    75.8060    70.0570   118.6410    23.4050     2.5940    -9.5870 
  278.7500    73.8370    59.7480    55.9760   101.9230    23.4120     2.5920    -9.5950 
  278.8750    74.7520    44.9030    42.4610    73.8870    23.4160     2.5630    -9.6210 
  279.0000    74.7820    32.9430    31.3440    49.6300    23.4090     2.5200    -9.6130 
  279.1250    74.7820    24.5650    23.4890    36.8360    23.3800     2.4900    -9.6150 
  279.2500    74.7820    18.6330    17.8730    30.7790    23.3370     2.4900    -9.5950 
  279.3750    74.7820    14.5180    13.8660    25.7230    23.3050     2.5160    -9.4700 
  279.5000    74.7820    11.7320    10.9870    18.4920    23.2870     2.5470    -9.3080 
  279.6250    74.7820     9.9690     9.0160    10.2200    23.2630     2.5530    -9.1670 
  279.7500    74.7820     8.7450     7.6120     6.5790    23.1710     2.5280    -9.0120 
  279.8750    74.7820     7.8090     6.6530     5.1340    22.9830     2.4860    -8.8740 
