~V
VERS. 2.00: Ver 2.00
~W
STRT.M 50.0000:
STOP.M 313.0000:
STEP.M 0.1250:
NULL. -999.2500:
UWI. F10034:
~C
DEPT.M :
GR.API :
RML.OHMM :
RI. :
RXO.OHMM :
CALI.CM :
DEN.GM/CC :
SP.MV :
~A
# ...
  196.2500    44.4050    23.4870    22.4170    22.2490    23.0940     2.5380   -16.1270 
  196.3750    45.5000    24.0590    22.7090    22.3860    23.1490     2.5540   -16.0350 
  196.5000    47.8940    24.5760    23.0020    23.2020    23.2120     2.5640   -15.8750 
  196.6250    49.1850    25.0460    23.3100    23.9010    23.2650     2.5670   -15.6580 
  196.7500    50.1710    25.5230    23.6740    24.5290    23.3620     2.5650   -15.4060 
  196.8750    49.8280    26.0450    24.1210    25.5410    23.5290     2.5620   -15.1110 
  197.0000    47.6170    26.6160    24.6470    27.0880    23.7260     2.5590   -14.8020 
  197.1250    46.4260    27.1720    25.1860    29.0170    23.8760     2.5580   -14.5170 
  197.2500    47.1380    27.6030    25.6170    30.7120    23.9450     2.5620   -14.2470 
  197.3750    47.9900    27.8000    25.8280    31.5210    23.9540     2.5710   -14.0010 
  197.5000    46.9610    27.7160    25.7590    31.6380    23.9260     2.5840   -13.8090 
  197.6250    44.8530    27.4230    25.4520    30.0890    23.8650     2.5940   -13.6760 
  197.7500    44.1810    27.2100    25.1650    28.3140    23.7580     2.5970   -13.5680 
  197.8750    45.5650    27.3400    25.1330    27.2330    23.6400     2.5950   -13.4880 
  198.0000    46.2900    27.9800    25.5250    27.4100    23.5930     2.5920   -13.4200 
  198.1250    44.3280    29.1800    26.4400    30.0570    23.6400     2.5940   -13.3320 
  198.2500    42.5500    30.5920    27.6380    33.5840    23.7290     2.6010   -13.2130 
  198.3750    42.5020    31.8640    28.8470    36.0880    23.8250     2.6100   -13.0850 
  198.5000    43.1220    32.6940    29.7870    37.3410    23.9110     2.6160   -12.9570 
  198.6250    44.2120    32.8610    30.1970    36.0240    23.9450     2.6160   -12.8080 
  198.7500    45.8240    32.5730    30.1710    34.4810    23.9310     2.6140   -12.6740 
  198.8750    46.9290    32.0320    29.8460    32.5380    23.8860     2.6100   -12.5680 
  199.0000    47.8230    31.3940    29.3560    30.7570    23.8330     2.6070   -12.4890 
  199.1250    48.3170    30.7020    28.7590    29.9260    23.7660     2.6060   -12.4440 
  199.2500    46.9950    29.9500    28.0840    29.2500    23.6810     2.6080   -12.4350 
  199.3750    43.3660    29.1580    27.3660    28.1750    23.5810     2.6110   -12.4490 
  199.5000    39.6410    28.3840    26.6660    26.9090    23.4860     2.6150   -12.4720 
  199.6250    40.6880    27.6880    26.0450    26.4890    23.3890     2.6160   -12.5180 
  199.7500    44.0790    27.0310    25.4670    27.3210    23.3270     2.6110   -12.5520 
  199.8750    46.1450    26.3170    24.8440    28.5320    23.2960     2.6040   -12.5770 
  200.0000    45.0820    25.4320    24.0710    28.7180    23.2870     2.5990   -12.5960 
  200.1250    44.2640    24.2990    23.0660    26.4410    23.2860     2.6030   -12.6150 
  200.2500    46.1330    23.0590    21.9430    23.7360    23.2770     2.6150   -12.6360 
  200.3750    47.8840    21.9120    20.8630    21.8940    23.2530     2.6280   -12.6490 
  200.5000    46.8570    21.0640    19.9980    20.8780    23.2180     2.6340   -12.6580 
  200.6250    44.4200    20.7140    19.5330    20.7220    23.2520     2.6260   -12.6540 
  200.7500    44.8800    20.7790    19.4370    21.1370    23.3880     2.6070   -12.6620 
  200.8750    47.2790    21.1590    19.6610    21.7000    23.5510     2.5830   -12.6840 
  201.0000    48.8570    21.7420    20.1220    21.8400    23.6590     2.5630   -12.7330 
  201.1250    47.4680    22.4390    20.7410    21.9210    23.6750     2.5550   -12.7960 
  201.2500    44.4780    23.1490    21.4020    22.4450    23.6450     2.5570   -12.8620 
  201.3750    41.8060    23.7980    22.0310    23.2010    23.6080     2.5680   -12.9330 
  201.5000    40.3420    24.3230    22.5700    23.9130    23.6140     2.5830   -12.9970 
  201.6250    40.4350    24.6770    22.9690    24.7280    23.6360     2.5960   -13.0570 
  201.7500    39.5770    24.9450    23.2770    25.2760    23.6620     2.6060   -13.1020 
  201.8750    37.6930    25.2520    23.5740    25.4810    23.6830     2.6130   -13.1420 
  202.0000    36.9260    25.7410    23.9700    25.7270    23.6870     2.6180   -13.1700 
  202.1250    39.1580    26.5020    24.5490    26.5140    23.6640     2.6230   -13.1930 
  202.2500    42.2750    27.3390    25.1950    27.9490    23.6260     2.6260   -13.2070 
  202.3750    43.3350    27.9450    25.6810    29.1690    23.5790     2.6270   -13.2210 
  202.5000    42.1080    27.9560    25.7170    29.4240    23.5080     2.6240   -13.2450 
  202.6250    41.5150    26.9920    24.9680    28.5290    23.4710     2.6180   -13.2830 
  202.7500    42.6870    25.3330    23.6160    26.2290    23.4860     2.6100   -13.3520 
  202.8750    43.5210    23.4540    22.0180    23.5930    23.4970     2.6030   -13.4300 
  203.0000    44.0180    21.9710    20.6640    21.1620    23.4910     2.5990   -13.5210 
  203.1250    46.2780    21.6150    20.1460    19.7230    23.4810     2.6020   -13.6220 
  203.2500    50.0380    22.4190    20.5600    20.7020    23.4680     2.6110   -13.7230 
  203.3750    51.1330    24.1450    21.8110    23.5970    23.4330     2.6230   -13.8290 
  203.5000    46.8650    26.2470    23.5500    27.3300    23.3860     2.6320   -13.9430 
  203.6250    41.1620    27.8730    25.1290    30.2860    23.3270     2.6340   -14.0490 
  203.7500    39.3250    28.4830    25.9670    30.7640    23.2910     2.6290   -14.1400 
  203.8750    41.3420    27.9810    25.8420    29.2720    23.2760     2.6200   -14.2250 
  204.0000    44.1080    26.7020    24.9360    27.0620    23.2630     2.6110   -14.3050 
  204.1250    45.8140    25.2860    23.7480    25.2890    23.2260     2.6050   -14.3940 
  204.2500    46.3510    24.3270    22.8420    23.9480    23.1780     2.6000   -14.4950 
  204.3750    45.2660    24.0860    22.4860    23.9090    23.1300     2.5940   -14.5830 
  204.5000    43.4820    24.6100    22.7720    25.0670    23.0870     2.5890   -14.6300 
  204.6250    41.9940    25.8490    23.7240    26.0700    23.0900     2.5870   -14.6700 
  204.7500    41.3530    27.3800    25.0120    27.3480    23.1470     2.5880   -14.7040 
  204.8750    41.7380    28.7890    26.2950    28.8230    23.2530     2.5930   -14.7340 
  205.0000    42.5470    29.6260    27.1670    29.5120    23.3010     2.6010   -14.7720 
  205.1250    41.6840    29.3860    27.1340    28.9390    23.2270     2.6080   -14.8050 
  205.2500    40.3800    28.2040    26.2400    27.1270    23.0940     2.6150   -14.8490 
  205.3750    41.8730    26.3710    24.6970    24.4970    23.0160     2.6190   -14.9400 
  205.5000    46.1670    24.3250    22.8770    21.5700    22.9950     2.6180   -15.0970 
  205.6250    48.6090    22.5730    21.2210    19.3340    22.9950     2.6110   -15.3230 
  205.7500    48.0880    21.3270    19.9610    18.4690    22.9950     2.5990   -15.6290 
  205.8750    47.9330    20.6100    19.1560    18.5140    22.9920     2.5840   -16.0260 
  206.0000    49.0790    20.3380    18.7720    18.7210    22.9730     2.5680   -16.4780 
  206.1250    47.8420    20.4070    18.7650    19.2070    22.8950     2.5520   -16.9620 
  206.2500    45.1140    20.6120    18.9550    19.8500    22.7830     2.5360   -17.4490 
  206.3750    45.4900    20.8590    19.2420    20.4280    22.7420     2.5200   -17.9140 
  206.5000    49.2790    21.1140    19.5640    21.0180    22.8390     2.5050   -18.3170 
  206.6250    50.8500    21.4120    19.9090    21.8020    23.0620     2.4940   -18.5980 
  206.7500    48.5190    21.7760    20.2830    22.5490    23.2380     2.4930   -18.7600 
  206.8750    45.8980    22.1800    20.6670    22.8950    23.3530     2.5030   -18.7800 
  207.0000    45.9720    22.5150    20.9900    22.9440    23.4110     2.5220   -18.6790 
  207.1250    47.9360    22.5510    21.0710    23.0020    23.4670     2.5430   -18.5000 
  207.2500    49.6990    22.1780    20.8090    23.1230    23.5430     2.5530   -18.2980 
  207.3750    49.3240    21.3810    20.1730    22.7140    23.5640     2.5470   -18.0950 
