~V
VERS. 2.00: Ver 2.00
~W
STRT.M 57.0000:
STOP.M 177.0000:
STEP.M 0.1250:
NULL. -999.2500:
UWI. F10011:
~C
DEPT.M :
DEN.GM/CC :
SP.MV :
GR.API :
CALI.CM :
RXO.OHMM :
RI. :
RML.OHMM :
~A
# ...
  124.5000     2.4380   -17.8550    65.5260    23.5980    21.9600    23.1310    24.4630 
  124.6250     2.4390   -17.9930    67.7340    23.6920    22.3960    22.6730    24.0260 
  124.7500     2.4450   -18.0830    69.8420    23.6440    22.3110    22.5590    23.9780 
  124.8750     2.4490   -18.1780    71.5060    23.6320    22.8380    22.7950    24.2720 
  125.0000     2.4320   -18.2080    72.1760    23.7280    24.9280    23.2630    24.7530 
  125.1250     2.3810   -18.2450    70.9280    23.7380    27.1000    23.7080    25.1410 
  125.2500     2.3330   -18.2330    67.7430    23.7730    26.7450    23.8860    25.2210 
  125.3750     2.3170   -18.2250    63.5970    23.7480    24.7120    23.6960    24.9260 
  125.5000     2.3260   -18.1540    60.8120    23.6120    23.0020    23.2020    24.3610 
  125.6250     2.3140   -17.9660    62.3240    23.5300    22.1500    22.6520    23.8430 
  125.7500     2.2770   -17.7170    65.6140    23.3500    21.1470    22.3430    23.7030 
  125.8750     2.2480   -17.3910    67.7670    23.0070    20.5590    22.3980    24.0730 
  126.0000     2.2550   -17.0620    69.2910    22.5610    21.0100    22.7410    24.8330 
  126.1250     2.2960   -16.6940    70.3560    22.1440    23.2050    23.0630    25.5410 
  126.2500     2.3430   -16.3390    70.1250    21.9370    24.3880    22.9640    25.6520 
  126.3750     2.3880   -15.9560    69.0770    21.9860    23.2180    22.2410    24.9040 
  126.5000     2.4290   -15.6650    68.6790    22.3260    20.6930    21.0100    23.4570 
  126.6250     2.4690   -15.4500    69.0430    22.7980    18.1210    19.6790    21.8500 
  126.7500     2.5030   -15.2650    67.6990    23.1790    16.3780    18.6770    20.6550 
  126.8750     2.5270   -15.1540    65.1340    23.3280    16.2060    18.2020    20.1340 
  127.0000     2.5360   -15.0910    62.5470    23.4410    17.4640    18.2760    20.2900 
  127.1250     2.5390   -15.0590    62.2620    23.5120    18.2730    18.7570    20.8870 
  127.2500     2.5350   -15.0000    63.8720    23.4870    18.3100    19.2090    21.3580 
  127.3750     2.5190   -14.9450    65.2000    23.4520    18.4030    19.2830    21.2830 
  127.5000     2.4910   -14.8960    66.1320    23.5250    18.9460    18.7910    20.4900 
  127.6250     2.4670   -14.8930    68.0560    23.7280    18.6830    17.7570    19.1280 
  127.7500     2.4530   -14.8810    69.0360    23.9190    17.1490    16.5710    17.7130 
  127.8750     2.4380   -14.8780    67.0000    23.9770    15.3580    15.5040    16.5230 
  128.0000     2.4190   -14.8350    63.4640    23.9680    14.5360    14.7170    15.6760 
  128.1250     2.4120   -14.8170    62.7030    23.9080    14.1970    14.3010    15.2450 
  128.2500     2.4200   -14.8020    64.5580    23.7950    14.0170    14.1560    15.1340 
  128.3750     2.4310   -14.8000    66.8550    23.7360    14.1150    14.2100    15.2770 
  128.5000     2.4390   -14.8230    69.3330    23.8210    14.5400    14.3620    15.5620 
  128.6250     2.4500   -14.8890    71.3400    23.8380    14.2660    14.4710    15.7990 
  128.7500     2.4670   -15.0090    71.9820    23.6730    13.5290    14.4410    15.8340 
  128.8750     2.4820   -15.0840    70.9020    23.4760    12.7950    14.2460    15.6370 
  129.0000     2.4880   -15.2130    68.0810    23.5450    12.2070    13.9070    15.2840 
  129.1250     2.4870   -15.3250    64.5790    23.7950    11.8260    13.4760    14.9070 
  129.2500     2.4790   -15.4270    61.7480    23.9380    11.6550    13.0350    14.6000 
  129.3750     2.4650   -15.5020    61.3230    23.9740    11.6130    12.6330    14.3750 
  129.5000     2.4460   -15.5730    62.8570    23.9730    11.5570    12.3050    14.2090 
  129.6250     2.4260   -15.6360    64.5360    23.9360    11.6700    12.1080    14.1150 
  129.7500     2.4100   -15.6710    65.7210    23.8530    12.0330    12.0830    14.1690 
  129.8750     2.4050   -15.7560    66.1780    23.7680    12.5000    12.3160    14.5120 
  130.0000     2.4150   -15.8420    65.7700    23.7420    13.2330    12.9300    15.3270 
  130.1250     2.4340   -15.9900    67.9550    23.7700    15.0440    14.2030    16.9890 
  130.2500     2.4430   -16.1710    74.9570    23.7880    18.5150    16.2500    19.6390 
  130.3750     2.4350   -16.3890    84.7870    23.7430    23.6070    19.2580    23.4520 
  130.5000     2.4190   -16.5370    91.6690    23.6490    29.1100    23.3380    28.4340 
  130.6250     2.4110   -16.6620    90.1050    23.5600    33.6460    28.3240    34.1560 
  130.7500     2.4120   -16.7900    86.3380    23.5250    36.8330    32.9370    39.0220 
  130.8750     2.4100   -16.8950    84.9140    23.5700    38.6980    35.5280    41.1000 
  131.0000     2.3950   -16.9210    85.1460    23.6440    38.1780    34.8660    39.2250 
  131.1250     2.3730   -16.9150    85.4960    23.6020    32.9140    30.9880    34.0220 
  131.2500     2.3660   -16.9240    86.8160    23.5030    24.6270    26.2340    28.3500 
  131.3750     2.3780   -16.9020    87.4690    23.3670    17.9080    22.0610    23.7350 
  131.5000     2.3990   -16.8910    83.4060    23.3000    15.1700    19.1610    20.7970 
  131.6250     2.4150   -16.8800    75.9730    23.3900    16.0800    17.8860    19.8380 
  131.7500     2.4280   -16.9060    72.4900    23.4360    18.0680    17.8620    20.2930 
  131.8750     2.4430   -16.9000    76.0980    23.3860    20.6140    18.8610    21.7380 
  132.0000     2.4560   -16.9460    84.4920    23.2680    23.7810    20.5280    23.5830 
  132.1250     2.4590   -16.9870    93.4340    23.1770    26.3520    22.3680    25.1330 
  132.2500     2.4520   -17.0680    97.9950    23.2140    27.2060    23.9390    26.1260 
  132.3750     2.4440   -17.1940    96.7300    23.3070    26.1460    25.0480    26.5690 
  132.5000     2.4390   -17.3730    92.7680    23.3700    24.8130    25.4940    26.3630 
  132.6250     2.4280   -17.5420    90.5260    23.3910    25.3960    24.7420    24.9880 
  132.7500     2.4110   -17.7170    91.1110    23.4000    24.7230    22.7130    22.4160 
  132.8750     2.3950   -17.9430    92.2080    23.3010    20.2020    19.6620    19.0000 
  133.0000     2.3910   -18.1470    93.2000    23.1910    13.6940    16.2700    15.4750 
  133.1250     2.3960   -18.3410    96.3230    23.1090     9.4010    13.3570    12.6620 
  133.2500     2.3950   -18.4860    99.6310    23.0650     7.8330    11.2010    10.7370 
  133.3750     2.3860   -18.6450   100.2300    23.0490     7.3080     9.8150     9.6440 
  133.5000     2.3750   -18.7390    99.0200    23.0490     7.1230     9.0750     9.2020 
  133.6250     2.3690   -18.8350   100.8320    23.0500     7.1370     8.8180     9.1830 
  133.7500     2.3640   -18.8950   103.5010    23.0430     7.1870     8.6930     9.2150 
  133.8750     2.3600   -18.9410   102.7530    23.0050     7.1910     8.5010     9.0970 
  134.0000     2.3590   -18.9830    98.8630    22.9130     7.0910     8.1790     8.7870 
  134.1250     2.3600   -18.9980    98.7940    22.7410     7.0520     7.8700     8.4760 
  134.2500     2.3590   -18.9860   102.5910    22.4950     7.4220     7.8230     8.5090 
  134.3750     2.3550   -18.9420   105.1130    22.1870     8.6730     8.2790     9.2120 
  134.5000     2.3520   -18.9530   101.9090    22.0320    11.8670     9.5440    10.9360 
  134.6250     2.3610   -18.9370    93.6420    22.1230    19.9400    12.4180    14.4230 
  134.7500     2.3870   -18.9620    86.0930    22.4040    33.0470    17.4490    19.9910 
  134.8750     2.4260   -19.0000    79.0900    22.7180    46.5720    25.0900    27.9610 
  135.0000     2.4550   -19.1050    74.2470    23.0180    55.5750    34.8060    37.8650 
  135.1250     2.4350   -19.2170    75.3960    23.2150    59.4480    44.2520    47.4130 
  135.2500     2.3730   -19.3310    80.8430    23.2980    62.4060    51.1450    54.1310 
  135.3750     2.2950   -19.4450    84.6270    23.2340    61.5080    55.2940    57.8870 
  135.5000     2.2340   -19.5500    82.1960    23.1040    55.3570    57.8860    60.2570 
  135.6250     2.2090   -19.6830    75.8720    22.9300    46.4020    60.1930    62.8270 
