~V
VERS. 2.00: Ver 2.00
~W
STRT.M 50.0000:
STOP.M 250.0000:
STEP.M 0.1250:
NULL. -999.2500:
UWI. F10033:
~C
DEPT.M :
SP.MV :
GR.API :
RML.OHMM :
RI. :
RXO.OHMM :
CALI.CM :
DEN.GM/CC :
~A
# ...
  128.7500    -0.8180    62.8290    23.6830    23.0080    26.8010    25.5130     2.1360 
  128.8750    -0.8540    60.9490    23.2240    22.5700    23.2940    25.4130     2.1440 
  129.0000    -0.8790    59.7400    22.9060    22.2380    22.3710    25.3850     2.1370 
  129.1250    -0.8720    60.2670    22.8900    22.1590    22.7480    25.5460     2.0970 
  129.2500    -0.8570    61.0490    23.1170    22.3000    24.9510    25.6930     2.0470 
  129.3750    -0.8290    61.9020    23.4210    22.5360    25.8570    25.7460     2.0190 
  129.5000    -0.8510    62.4490    23.5520    22.6540    23.4410    25.6680     2.0330 
  129.6250    -0.9730    63.4340    23.1770    22.3500    22.3440    25.4610     2.0890 
  129.7500    -1.1400    65.8090    22.2890    21.5790    23.0630    25.4110     2.1480 
  129.8750    -1.3030    68.7660    21.0490    20.4570    22.8600    25.4120     2.1850 
  130.0000    -1.4730    69.6950    19.7760    19.2490    20.3960    25.3760     2.1990 
  130.1250    -1.6840    68.9970    18.8980    18.3180    18.9180    25.3540     2.2000 
  130.2500    -1.9010    69.2010    18.5960    17.8420    18.9920    25.3650     2.2000 
  130.3750    -2.0840    70.2620    18.9100    17.8840    19.4880    25.3970     2.1910 
  130.5000    -2.1790    70.5550    19.7450    18.4040    20.0260    25.4320     2.1670 
  130.6250    -2.1330    68.5600    20.9340    19.3070    20.8120    25.4620     2.1260 
  130.7500    -1.9980    66.4980    22.1950    20.3510    23.3370    25.4930     2.0870 
  130.8750    -1.8390    65.6030    23.3460    21.3810    24.5760    25.4480     2.0600 
  131.0000    -1.6730    65.1820    24.2490    22.2700    23.9630    25.3960     2.0520 
  131.1250    -1.4360    62.3010    24.7810    22.8990    23.9310    25.3710     2.0630 
  131.2500    -1.1730    57.8110    25.0380    23.3060    25.8960    25.3260     2.0800 
  131.3750    -0.9320    57.1850    25.1640    23.5750    28.0520    25.2730     2.0940 
  131.5000    -0.7240    61.5150    25.3830    23.8540    28.0840    25.2390     2.1000 
  131.6250    -0.6110    64.9870    26.0290    24.3780    27.3190    25.3230     2.1000 
  131.7500    -0.5710    64.0580    27.1960    25.2480    28.2160    25.4980     2.1030 
  131.8750    -0.6010    61.4810    28.7990    26.4320    29.6760    25.5970     2.1190 
  132.0000    -0.7240    60.2130    30.4430    27.6720    30.9400    25.4960     2.1550 
  132.1250    -0.9760    59.3860    31.0980    28.1550    32.9550    25.2490     2.2100 
  132.2500    -1.2680    58.9220    29.9280    27.1080    33.8630    25.0540     2.2680 
  132.3750    -1.5760    60.9790    26.7640    24.3410    32.2070    24.9730     2.3160 
  132.5000    -1.9180    65.6670    22.4350    20.6110    30.7280    24.9270     2.3480 
  132.6250    -2.2470    70.3690    18.4690    17.2440    21.1270    24.9000     2.3620 
  132.7500    -2.5370    72.5360    15.8780    14.9780    13.5920    24.8550     2.3640 
  132.8750    -2.7270    72.9870    15.0150    14.0250    10.3740    24.8260     2.3520 
  133.0000    -2.7560    72.3670    15.8740    14.4180    13.1330    24.9420     2.3240 
  133.1250    -2.6110    68.9790    18.3730    16.3440    22.4540    25.2040     2.2800 
  133.2500    -2.3950    63.7450    21.6570    19.3620    29.9640    25.4560     2.2320 
  133.3750    -2.1470    59.0180    24.9150    22.8930    31.5970    25.5610     2.1900 
  133.5000    -1.8900    56.6770    27.2450    25.9660    30.6950    25.5570     2.1560 
  133.6250    -1.6710    55.6850    27.7570    27.3270    30.6490    25.5260     2.1320 
  133.7500    -1.5260    55.1100    26.8600    27.0450    30.4480    25.4950     2.1170 
  133.8750    -1.5020    55.4660    25.0800    25.5770    28.9250    25.4400     2.1230 
  134.0000    -1.6230    56.8070    22.8060    23.3590    25.7730    25.3700     2.1600 
  134.1250    -1.9220    60.8750    20.1540    20.5770    21.2150    25.3520     2.2310 
  134.2500    -2.3290    68.5890    17.3180    17.5770    18.7290    25.3330     2.3090 
  134.3750    -2.7810    76.2430    14.4890    14.6440    19.6010    25.3350     2.3650 
  134.5000    -3.2170    80.4080    11.9190    12.0590    15.1970    25.3710     2.3840 
  134.6250    -3.5530    84.1220    10.0600    10.2190    10.9530    25.4480     2.3640 
  134.7500    -3.7870    89.6860     9.0340     9.1610     8.7580    25.4990     2.3370 
  134.8750    -3.9450    92.5470     8.8740     8.8930     8.4150    25.5170     2.3280 
  135.0000    -4.0670    89.5360     9.6060     9.4430     8.9390    25.5060     2.3480 
  135.1250    -4.1480    82.7550    11.4190    11.0670    11.8380    25.4330     2.3960 
  135.2500    -4.1750    75.0570    13.9240    13.5830    17.1980    25.3110     2.4500 
  135.3750    -4.1660    68.4710    16.4870    16.5350    20.2910    25.2280     2.4950 
  135.5000    -4.1390    66.6680    18.1880    18.9540    18.4950    25.2130     2.5210 
  135.6250    -4.1450    70.1200    17.9060    19.3020    23.2130    25.2440     2.5180 
  135.7500    -4.1780    74.0530    15.9440    17.5660    24.0110    25.2570     2.4940 
  135.8750    -4.2200    78.7700    13.1460    14.6860    16.9640    25.2690     2.4550 
  136.0000    -4.2450    86.8990    10.4910    11.8430    10.6940    25.2960     2.4130 
  136.1250    -4.2550    95.8600     8.7260     9.8440     7.5110    25.3300     2.3790 
  136.2500    -4.2750    99.0640     7.8500     8.6740     6.8300    25.2910     2.3540 
  136.3750    -4.3090    96.7720     7.7440     8.2250     7.0080    25.1680     2.3370 
  136.5000    -4.3780    91.7240     8.1270     8.3050     7.3800    24.9750     2.3200 
  136.6250    -4.4960    86.9320     8.6010     8.6470     8.8710    24.8020     2.3010 
  136.7500    -4.6480    85.3350     8.9240     8.9860    10.1500    24.7130     2.2840 
  136.8750    -4.8070    86.9580     9.2490     9.3650    10.0530    24.7010     2.2790 
  137.0000    -4.9780    86.5210    10.0370    10.0590     9.3610    24.7400     2.3010 
  137.1250    -5.1700    79.7320    12.2650    11.7730    10.4240    24.8010     2.3630 
  137.2500    -5.3470    71.8100    16.5080    15.1340    17.3020    24.8960     2.4510 
  137.3750    -5.5130    65.0800    23.1650    20.8240    35.9110    25.0320     2.5470 
  137.5000    -5.6390    58.2920    31.9150    28.9830    59.4270    25.2090     2.6280 
  137.6250    -5.7380    52.9520    40.6530    37.9160    62.5880    25.3520     2.6750 
  137.7500    -5.8470    51.7860    46.0110    43.9000    55.8600    25.4090     2.6880 
  137.8750    -5.9780    53.2530    46.5180    45.0790    54.5650    25.3860     2.6700 
  138.0000    -6.1330    54.0690    43.6000    42.6430    51.4750    25.2510     2.6290 
  138.1250    -6.3080    53.1750    40.1130    39.2350    41.9090    24.9940     2.5780 
  138.2500    -6.4780    52.9250    38.0170    36.8260    33.2450    24.8140     2.5370 
  138.3750    -6.6180    54.4200    37.9500    36.0800    29.6850    24.7590     2.5230 
  138.5000    -6.7660    55.6380    40.1230    37.2790    30.9120    24.7960     2.5380 
  138.6250    -6.9150    55.0350    44.5620    40.6270    40.6610    24.9270     2.5730 
  138.7500    -7.0440    53.6180    49.8630    45.0500    56.2770    25.1020     2.6060 
  138.8750    -7.1730    53.1830    54.3160    49.1600    72.6820    25.2600     2.6250 
  139.0000    -7.2940    53.4430    56.1290    51.3560    75.1210    25.3610     2.6220 
  139.1250    -7.3680    53.0480    54.2650    50.4690    61.4370    25.4030     2.6010 
  139.2500    -7.4410    51.5160    50.7970    47.9380    49.6580    25.4310     2.5700 
  139.3750    -7.5520    50.6910    47.6120    45.2890    44.4730    25.4400     2.5390 
  139.5000    -7.7000    52.5320    45.8890    43.6340    43.4750    25.4310     2.5140 
  139.6250    -7.8650    54.6500    46.1620    43.6170    43.4370    25.4020     2.5070 
  139.7500    -8.0110    54.2170    47.5720    44.6780    45.3800    25.3770     2.5170 
  139.8750    -8.1110    51.9880    49.1730    46.0750    48.8920    25.3400     2.5380 
