~V
VERS. 2.00: Ver 2.00
~W
STRT.M 64.0000:
STOP.M 287.0000:
STEP.M 0.1250:
NULL. -999.2500:
UWI. F10052:
~C
DEPT.M :
SP.MV :
DEN.GM/CC :
GR.API :
RML.OHMM :
RI. :
RXO.OHMM :
CALI.CM :
~A
# ...
  176.5000   -22.1920     2.1790    61.6400     9.3020     8.6700    10.3360    24.1400 
  176.6250   -22.0260     2.2010    66.2490     8.2960     7.8930     9.3890    24.2530 
  176.7500   -21.8940     2.2270    74.6520     7.2880     7.0630     8.3560    24.3430 
  176.8750   -21.7790     2.2530    82.3280     6.4510     6.3040     7.1960    24.4320 
  177.0000   -21.6740     2.2730    86.6990     5.8710     5.6950     6.2440    24.5090 
  177.1250   -21.5860     2.2830    88.8750     5.5740     5.2920     5.8920    24.5510 
  177.2500   -21.5430     2.2840    89.4510     5.4420     5.0500     5.8970    24.5630 
  177.3750   -21.5370     2.2820    88.8600     5.4000     4.9320     6.0030    24.5550 
  177.5000   -21.5530     2.2830    90.8790     5.3960     4.8980     6.0480    24.5330 
  177.6250   -21.5760     2.2840    95.7070     5.4110     4.9240     6.0040    24.5060 
  177.7500   -21.5840     2.2850    98.2420     5.4690     4.9900     6.0140    24.4870 
  177.8750   -21.5780     2.2890    97.2850     5.6060     5.1010     6.0680    24.4760 
  178.0000   -21.5470     2.3010    94.5130     5.8340     5.2610     6.2440    24.4680 
  178.1250   -21.5030     2.3180    94.4670     6.1020     5.4670     6.6640    24.4640 
  178.2500   -21.4560     2.3270    95.2210     6.3010     5.6690     7.0790    24.4670 
  178.3750   -21.4140     2.3170    93.2600     6.3630     5.8040     7.1920    24.4740 
  178.5000   -21.3830     2.2930    89.1900     6.2730     5.8100     6.9030    24.4810 
  178.6250   -21.4020     2.2720    85.2960     6.0700     5.6420     6.7990    24.4880 
  178.7500   -21.4510     2.2680    83.4610     5.8480     5.3760     6.6540    24.4980 
  178.8750   -21.4860     2.2820    82.8330     5.6480     5.0930     6.2610    24.5110 
  179.0000   -21.5120     2.3030    84.2050     5.4840     4.8620     5.8900    24.5250 
  179.1250   -21.5500     2.3120    87.2890     5.3640     4.7300     5.8510    24.5370 
  179.2500   -21.6100     2.3030    88.0760     5.2790     4.6710     6.1790    24.5430 
  179.3750   -21.6650     2.2770    86.0500     5.2510     4.6710     6.5830    24.5420 
  179.5000   -21.6900     2.2410    82.9940     5.3540     4.7580     6.6490    24.5310 
  179.6250   -21.6660     2.2070    83.2040     5.7640     5.0520     6.5600    24.4990 
  179.7500   -21.6230     2.1940    86.4910     6.5170     5.6050     7.3340    24.4450 
  179.8750   -21.5900     2.2220    87.2330     7.5470     6.3990     9.8120    24.3600 
  180.0000   -21.5740     2.3010    81.3830     8.5940     7.2710    13.9010    24.2390 
  180.1250   -21.5580     2.3990    70.8560     9.0190     7.7850    18.1680    24.0800 
  180.2500   -21.5170     2.4560    64.6520     8.5140     7.6420    16.4860    23.9010 
  180.3750   -21.4710     2.4480    64.9670     7.3380     6.9000    11.5710    23.7210 
  180.5000   -21.4470     2.3900    70.6730     6.1050     5.9340     6.7770    23.5730 
  180.6250   -21.4620     2.3170    79.1520     5.3420     5.1730     5.5090    23.5060 
  180.7500   -21.5050     2.2580    85.1810     5.0610     4.7480     5.3930    23.5210 
  180.8750   -21.5760     2.2190    88.0550     5.1540     4.6500     5.6610    23.5990 
  181.0000   -21.6550     2.2030    89.0500     5.4410     4.7970     5.9090    23.7140 
  181.1250   -21.7270     2.2070    89.4280     5.6670     5.0320     6.1640    23.8440 
  181.2500   -21.7990     2.2230    88.5600     5.6680     5.1690     6.2530    23.9590 
  181.3750   -21.8750     2.2430    88.7150     5.4370     5.1310     6.0830    24.0350 
  181.5000   -21.9550     2.2650    92.4950     5.0610     4.9290     5.9860    24.0640 
  181.6250   -22.0040     2.2890    99.6960     4.6520     4.6240     5.5920    24.0600 
  181.7500   -22.0100     2.3150   105.2520     4.2900     4.3140     5.1990    24.0480 
  181.8750   -21.9940     2.3380   108.2840     4.0250     4.0560     4.9150    24.0370 
  182.0000   -21.9860     2.3520   109.9310     3.9100     3.8930     4.8270    24.0310 
  182.1250   -21.9980     2.3500   109.9040     4.0130     3.8830     5.0050    24.0340 
  182.2500   -22.0200     2.3390   109.3930     4.2940     4.0120     5.3640    24.0490 
  182.3750   -22.0410     2.3250   108.1370     4.7100     4.2630     5.8310    24.0720 
  182.5000   -22.0420     2.3110   105.0000     5.2210     4.6010     6.4620    24.0960 
  182.6250   -22.0370     2.2990    99.2960     5.8040     4.9950     6.9780    24.1080 
  182.7500   -22.0790     2.2970    96.3240     6.3880     5.4020     7.0760    24.1060 
  182.8750   -22.1430     2.3070    96.7560     6.8800     5.7880     7.1120    24.0960 
  183.0000   -22.1890     2.3250    94.6830     7.1600     6.1040     7.6840    24.0840 
  183.1250   -22.2130     2.3350    88.8450     7.0790     6.2550     8.6980    24.0810 
  183.2500   -22.2260     2.3340    87.4570     6.7230     6.2050     8.7330    24.0970 
  183.3750   -22.2290     2.3240    93.5060     6.2360     5.9670     7.5760    24.1360 
  183.5000   -22.2500     2.3170   100.6980     5.7700     5.6080     6.6020    24.1900 
  183.6250   -22.2690     2.3210   102.5660     5.4260     5.2340     6.2610    24.2430 
  183.7500   -22.2450     2.3330    99.6410     5.2150     4.9370     6.1560    24.2880 
  183.8750   -22.1980     2.3450    96.3940     5.1380     4.7600     6.0710    24.3240 
  184.0000   -22.1470     2.3510    96.8460     5.1810     4.7110     5.9240    24.3530 
  184.1250   -22.0990     2.3500   100.4360     5.3160     4.7800     5.9830    24.3770 
  184.2500   -22.0620     2.3480   100.0810     5.4820     4.9060     6.3070    24.4020 
  184.3750   -22.0400     2.3480    95.6900     5.6370     5.0550     6.4930    24.4190 
  184.5000   -22.0200     2.3540    94.0920     5.7240     5.1850     6.5530    24.4160 
  184.6250   -22.0310     2.3650    97.6720     5.6550     5.2150     6.5500    24.3810 
  184.7500   -22.0840     2.3730    99.7270     5.4750     5.1390     6.4870    24.3210 
  184.8750   -22.1650     2.3730    97.4540     5.3370     5.0430     6.4500    24.2420 
  185.0000   -22.2460     2.3730    93.5230     5.4480     5.0820     6.7310    24.1480 
  185.1250   -22.3060     2.3910    90.3370     6.0360     5.4520     7.1320    24.0380 
  185.2500   -22.3440     2.4270    86.3970     7.0100     6.1430     7.8260    23.9300 
  185.3750   -22.3870     2.4650    81.5740     8.1490     7.0560    10.0010    23.8440 
  185.5000   -22.4550     2.4800    77.5250     9.0720     7.9540    14.1750    23.7940 
  185.6250   -22.5190     2.4620    75.7730     9.2610     8.4520    14.0690    23.7730 
  185.7500   -22.5370     2.4330    78.8540     8.7730     8.4230    10.6610    23.7590 
  185.8750   -22.5330     2.4150    86.1210     8.2200     7.9250     8.5750    23.7460 
  186.0000   -22.5410     2.4130    91.1380     7.9280     7.1300     9.2800    23.7350 
  186.1250   -22.5800     2.4160    89.2310     7.1400     6.2580    10.1030    23.7230 
  186.2500   -22.6480     2.4110    86.6410     6.2800     5.5070     8.5830    23.7100 
  186.3750   -22.7150     2.3990    88.7380     5.7570     4.9920     6.4810    23.6960 
  186.5000   -22.7670     2.3880    93.1510     5.6790     4.7900     5.6300    23.6840 
  186.6250   -22.8220     2.3830    93.6030     6.2370     5.0410     6.4480    23.6760 
  186.7500   -22.9110     2.3800    88.6020     7.3460     5.7170     8.2820    23.6760 
  186.8750   -23.0000     2.3800    82.9530     8.8150     6.7370    10.2440    23.6830 
  187.0000   -23.0610     2.3840    81.6940    10.1750     7.8400    11.6770    23.6930 
  187.1250   -23.1100     2.3910    81.8750    10.6750     8.5200    12.1680    23.7010 
  187.2500   -23.1590     2.3980    81.4510    10.4050     8.6470    11.5550    23.7080 
  187.3750   -23.1940     2.4080    83.8540     9.9670     8.4720    10.3570    23.7100 
  187.5000   -23.2020     2.4260    88.3710     9.9690     8.3900     9.2090    23.7040 
  187.6250   -23.1870     2.4580    87.6780    10.8730     8.7730    10.0080    23.6920 
