~V
VERS. 2.00: Ver 2.00
~W
STRT.M 62.0000:
STOP.M 254.0000:
STEP.M 0.1250:
NULL. -999.2500:
UWI. F10030:
~C
DEPT.M :
DEN.GM/CC :
GR.API :
RML.OHMM :
RI. :
RXO.OHMM :
CALI.CM :
SP.MV :
~A
   62.0000     2.4020    49.7080     0.2200     0.0950     0.6440    23.6850    54.2730 
   62.1250     2.4360    53.1910     0.3750     0.1640     0.6690    23.5930    45.0630 
   62.2500     2.3770    55.3340     0.6410     0.2880     4.6710    23.4880    35.4780 
   62.3750     2.2720    56.1580     1.0040     0.4870     9.5640    23.3520    25.8920 
   62.5000     2.1770    57.8010     2.0480     1.2470     9.7930    23.1710    16.6820 
   62.6250     2.1320    62.6430     4.1980     3.1100     9.5020    22.9490     8.5410 
   62.7500     2.1250    68.7830     6.8000     5.5910     9.4640    22.7970     1.9140 
   62.8750     2.1350    71.3320     7.9670     6.9810     9.8450    22.7310    -2.8950 
   63.0000     2.1490    69.7890     8.1960     7.4440    10.0680    22.7130    -5.9990 
   63.1250     2.1570    70.6890     8.3120     7.5390     9.9810    22.6840    -7.7860 
   63.2500     2.1620    75.0000     8.3760     7.5530     9.7730    22.6250    -8.9650 
   63.3750     2.1610    78.7110     8.4830     7.5940     9.4330    22.5310    -9.7650 
   63.5000     2.1590    79.9210     8.6080     7.7360     9.3660    22.4220   -10.2900 
   63.6250     2.1590    80.9180     8.7790     7.9930    10.2800    22.3840   -10.5360 
   63.7500     2.1660    82.6330     8.9930     8.2480    11.1660    22.5100   -10.5950 
   63.8750     2.1820    83.0700     9.0910     8.3760    10.9930    22.8210   -10.5950 
   64.0000     2.2060    83.9700     8.8680     8.2900     9.9770    23.2370   -10.5770 
   64.1250     2.2340    89.6290     8.3110     7.9650     8.7200    23.6240   -10.6000 
   64.2500     2.2610    97.4540     7.6990     7.5320     7.8920    23.8890   -10.6290 
   64.3750     2.2850   103.3390     7.2080     7.1010     6.9220    24.0190   -10.6260 
   64.5000     2.3040   107.0550     6.9230     6.7450     6.3490    24.0560   -10.6260 
   64.6250     2.3160   108.8760     6.8590     6.5150     6.4450    24.0660   -10.6750 
   64.7500     2.3220   107.8110     6.9130     6.3830     6.8220    24.0860   -10.8490 
   64.8750     2.3220   103.6440     7.0340     6.3250     7.3220    24.1070   -11.0920 
   65.0000     2.3180    98.5670     7.2150     6.3280     7.5150    24.1200   -11.3890 
   65.1250     2.3140    96.3050     7.5040     6.4150     8.0080    24.1590   -11.7460 
   65.2500     2.3160    97.3180     7.9030     6.5950     9.2360    24.2780   -12.1160 
   65.3750     2.3300    99.5970     8.3580     6.8510    10.8460    24.4340   -12.4940 
   65.5000     2.3560    98.8080     8.7540     7.1230    11.1380    24.5060   -12.9220 
   65.6250     2.3820    93.1590     8.9200     7.3030    13.6520    24.4930   -13.4190 
   65.7500     2.3940    88.3670     8.8590     7.3580    14.5990    24.4600   -13.9100 
   65.8750     2.3800    86.9530     8.7000     7.3490    10.9880    24.4460   -14.4380 
   66.0000     2.3400    87.6760     8.6470     7.4080     8.3060    24.4160   -14.9790 
   66.1250     2.2910    87.8490     8.9160     7.7010     8.2460    24.2870   -15.4210 
   66.2500     2.2520    86.0310     9.4440     8.2110     9.6590    24.0860   -15.7940 
   66.3750     2.2350    83.2990    10.0310     8.8130    11.5880    23.8550   -16.0420 
   66.5000     2.2350    80.9040    10.3880     9.2880    12.2930    23.6680   -16.1200 
   66.6250     2.2450    81.1150    10.1970     9.3450    11.5670    23.6360   -16.0460 
   66.7500     2.2530    85.2560     9.5800     8.9950     9.8600    23.7780   -15.8760 
   66.8750     2.2560    92.3960     8.7890     8.3840     8.3080    24.0310   -15.6430 
   67.0000     2.2580    98.4940     8.1030     7.7270     7.6250    24.2770   -15.3940 
   67.1250     2.2580    98.5120     7.7550     7.2410     7.5120    24.4650   -15.1680 
   67.2500     2.2550    96.7290     7.7220     6.9870     7.8250    24.6910   -15.0100 
   67.3750     2.2480    96.0990     7.9190     6.9490     8.5530    24.9810   -14.9660 
   67.5000     2.2390    95.6330     8.2070     7.0520     9.7250    25.1960   -14.9980 
   67.6250     2.2340    95.0130     8.4100     7.1670     9.2140    24.9650   -15.1120 
   67.7500     2.2350    95.9240     8.4360     7.1800     8.7500    24.6020   -15.3120 
   67.8750     2.2450    99.3760     8.2830     7.0560     8.3260    24.4130   -15.4850 
   68.0000     2.2640   103.2960     8.0180     6.8270     8.3420    24.5830   -15.6510 
   68.1250     2.2910   106.4720     7.7430     6.5670     8.1510    25.2760   -15.8720 
   68.2500     2.3200   107.9370     7.5330     6.3550     7.5520    25.8940   -16.0810 
   68.3750     2.3430   105.9970     7.4040     6.2160     7.3550    25.8110   -16.3450 
   68.5000     2.3520   101.4250     7.3300     6.1480     7.4950    25.2080   -16.7310 
   68.6250     2.3400    96.3850     7.2790     6.1430     7.7100    24.7520   -17.1620 
   68.7500     2.3180    92.0980     7.2640     6.2010     7.9290    24.9030   -17.6320 
   68.8750     2.2960    88.4650     7.3750     6.3790     8.1990    25.3610   -18.2300 
   69.0000     2.2850    85.9990     7.7560     6.7610     8.6330    25.6970   -18.8740 
   69.1250     2.2860    82.4310     8.6060     7.4700     8.9900    25.2030   -19.5350 
   69.2500     2.2910    76.7310     9.8490     8.4630     9.5960    24.6070   -20.2720 
   69.3750     2.2870    71.9230    11.2800     9.6190    11.3720    24.1470   -20.9680 
   69.5000     2.2690    69.8010    12.5300    10.6930    15.7080    23.7680   -21.5540 
   69.6250     2.2380    68.7420    13.0830    11.2880    15.3120    23.2820   -22.1120 
   69.7500     2.2100    69.4850    12.9180    11.3040    12.9480    22.7420   -22.6190 
   69.8750     2.1930    74.7170    12.2640    10.8430    10.7600    22.3040   -23.0070 
   70.0000     2.1890    81.3140    11.4940    10.1640     9.7100    22.0500   -23.3790 
   70.1250     2.1960    81.7550    10.9720     9.5590     9.5870    21.9860   -23.7090 
   70.2500     2.2060    78.5980    10.7610     9.1490     9.8970    22.0380   -23.9740 
   70.3750     2.2160    76.1290    10.7870     8.9250    10.2210    22.1890   -24.2670 
   70.5000     2.2270    75.2550    10.9300     8.8290    10.4970    22.4430   -24.5880 
   70.6250     2.2370    74.9410    11.0880     8.8260    10.7010    22.7480   -24.9480 
   70.7500     2.2440    75.0430    11.2250     8.8990    10.9210    23.0120   -25.3480 
   70.8750     2.2420    74.1540    11.3550     9.0640    11.3090    23.1950   -25.7700 
   71.0000     2.2320    71.2040    11.4950     9.3200    11.8830    23.3370   -26.1810 
   71.1250     2.2130    67.2990    11.6390     9.6290    12.3060    23.5000   -26.6070 
   71.2500     2.1930    65.2470    11.7400     9.8970    12.6370    23.6740   -26.9840 
   71.3750     2.1740    64.8300    11.7440    10.0460    13.1290    23.8260   -27.3010 
   71.5000     2.1590    65.9500    11.6150    10.0190    13.5550    23.9190   -27.6150 
   71.6250     2.1510    69.4230    11.3460     9.7860    13.6130    23.9470   -27.8600 
   71.7500     2.1500    72.4650    11.0270     9.4370    13.4030    23.9400   -28.0790 
   71.8750     2.1550    71.5180    10.7460     9.0580    13.1760    23.9110   -28.3540 
   72.0000     2.1630    66.5460    10.5790     8.7350    13.2940    23.8610   -28.6170 
   72.1250     2.1670    61.0130    10.5870     8.5510    13.4080    23.8220   -28.8640 
   72.2500     2.1670    58.6470    10.7190     8.4960    13.1940    23.7930   -29.1290 
   72.3750     2.1640    59.5620    10.9180     8.5400    12.9470    23.7510   -29.3450 
   72.5000     2.1630    63.2080    11.1160     8.6380    13.2340    23.6800   -29.5320 
   72.6250     2.1660    67.5360    11.2440     8.7520    13.8640    23.5970   -29.6830 
   72.7500     2.1710    69.5190    11.2780     8.8600    14.2200    23.5390   -29.7550 
   72.8750     2.1760    68.4740    11.1910     8.9420    14.2200    23.5230   -29.7490 
   73.0000     2.1770    65.6020    10.9590     8.9670    14.1730    23.5480   -29.6850 
   73.1250     2.1710    63.0340    10.5750     8.8750    14.0680    23.5810   -29.5490 
