~V
VERS. 2.00: Ver 2.00
~W
STRT.M 57.0000:
STOP.M 208.0000:
STEP.M 0.1250:
NULL. -999.2500:
UWI. F10012:
~C
DEPT.M :
DEN.GM/CC :
SP.MV :
GR.API :
CALI.CM :
RXO.OHMM :
RI. :
RML.OHMM :
~A
# ...
  192.0000     2.3290   -19.5020    66.0630    23.6390     6.9050     6.4580     8.4350 
  192.1250     2.3350   -19.5790    66.0620    23.6390     6.7880     6.3340     8.3060 
  192.2500     2.3340   -19.6760    66.0910    23.6370     6.6910     6.2300     8.2170 
  192.3750     2.3260   -19.7990    65.6120    23.6350     6.6630     6.1570     8.1770 
  192.5000     2.3180   -19.9230    66.0490    23.6350     6.6830     6.1150     8.1670 
  192.6250     2.3110   -20.0340    67.6450    23.6350     6.7190     6.1020     8.1620 
  192.7500     2.3000   -20.1640    69.3350    23.6340     6.7100     6.1040     8.1630 
  192.8750     2.2840   -20.4030    70.9340    23.6350     6.5860     6.1200     8.1910 
  193.0000     2.2690   -20.6850    74.5330    23.6350     6.4300     6.1480     8.2630 
  193.1250     2.2630   -20.9640    80.8400    23.6350     6.4120     6.1920     8.3820 
  193.2500     2.2630   -21.2680    86.4190    23.6350     6.5570     6.2520     8.5130 
  193.3750     2.2580   -21.5710    87.4680    23.6320     6.7500     6.3300     8.6330 
  193.5000     2.2450   -21.8810    88.1140    23.6180     6.8800     6.4320     8.7330 
  193.6250     2.2320   -22.2920    91.3600    23.5810     6.9870     6.5560     8.8130 
  193.7500     2.2280   -22.7590    96.8630    23.5320     7.1430     6.6890     8.8790 
  193.8750     2.2320   -23.2170   101.3800    23.5290     7.3960     6.8140     8.9380 
  194.0000     2.2310   -23.6920   104.2030    23.5530     7.6440     6.9120     8.9920 
  194.1250     2.2250   -24.2080   105.8630    23.5670     7.6700     6.9620     9.0240 
  194.2500     2.2170   -24.8760   106.3830    23.5840     7.5710     6.9830     9.0220 
  194.3750     2.2170   -25.6220   106.9330    23.6130     7.5140     7.0150     9.0120 
  194.5000     2.2340   -26.4070   107.8770    23.6570     7.7150     7.1170     9.0720 
  194.6250     2.2700   -27.1180   109.0980    23.7530     8.1820     7.3840     9.3510 
  194.7500     2.3140   -27.7340   110.4260    23.9320     8.8850     7.8530     9.8970 
  194.8750     2.3370   -28.2860   111.3610    24.0000     9.9470     8.5370    10.6920 
  195.0000     2.3330   -28.7370   111.1810    23.9940    11.4420     9.3740    11.6040 
  195.1250     2.3130   -29.0510   111.0440    24.0150    13.0890    10.1710    12.3330 
  195.2500     2.2900   -29.1850   111.5490    24.0610    14.6180    10.6910    12.6490 
  195.3750     2.2760   -29.2280   112.3820    24.0980    15.5670    10.7940    12.4930 
  195.5000     2.2700   -29.1700   112.7130    24.0730    15.3490    10.4990    11.9890 
  195.6250     2.2710   -29.0880   112.7360    24.0570    14.1130     9.9630    11.3790 
  195.7500     2.2730   -28.9630   113.8410    24.0880    12.7430     9.4370    10.8840 
  195.8750     2.2690   -28.8060   114.5550    24.1650    11.8590     9.0420    10.5710 
  196.0000     2.2630   -28.6640   113.4170    24.2290    11.6400     8.8230    10.4370 
  196.1250     2.2620   -28.6350   111.6460    24.2720    12.2180     8.7790    10.4610 
  196.2500     2.2720   -28.6640   110.8350    24.3030    12.6510     8.8190    10.5520 
  196.3750     2.2810   -28.6750   111.4410    24.3160    12.5170     8.8780    10.6310 
  196.5000     2.2750   -28.6940   112.2710    24.3050    12.0890     8.9090    10.6410 
  196.6250     2.2540   -28.6400   114.1450    24.3240    11.6220     8.8880    10.5510 
  196.7500     2.2320   -28.6060   116.0890    24.4000    11.5570     8.8240    10.4010 
  196.8750     2.2240   -28.6410   115.0230    24.3940    11.6860     8.7280    10.2300 
  197.0000     2.2260   -28.6880   115.0230    24.3410    11.4010     8.6110    10.0690 
  197.1250     2.2270   -28.6560   115.0230    24.3230    10.4190     8.4880     9.9370 
  197.2500     2.2220   -28.6060   115.0230    24.3110     9.6640     8.3730     9.8290 
  197.3750     2.2210   -28.6330   115.0230    24.2620     9.3870     8.2710     9.7450 
  197.5000     2.2270   -28.7250   115.0230    24.2220     9.3660     8.1810     9.6790 
  197.6250     2.2360   -28.9260   115.0230    24.2270     9.3650     8.1050     9.6200 
  197.7500     2.2410   -29.1580   115.0230    24.2650     9.4000     8.0410     9.5610 
  197.8750     2.2450   -29.3490   115.0230    24.2590     9.6890     7.9920     9.5110 
  198.0000     2.2510   -29.4870   115.0230    24.1770    10.0260     7.9720     9.4870 
  198.1250     2.2600   -29.6490   115.0230    24.0920     9.7790     7.9990     9.5130 
  198.2500     2.2660   -29.8320   115.0230    24.0620     9.1340     8.0610     9.5830 
  198.3750     2.2660   -29.9330   115.0230    24.0950     8.8290     8.1390     9.6920 
  198.5000     2.2580   -29.9450   115.0230    24.1400     9.2090     8.2030     9.8180 
  198.6250     2.2430   -29.7890   115.0230    24.1470    10.3790     8.1980     9.8910 
  198.7500     2.2260   -29.4900   115.0230    24.1080    11.5690     8.1060     9.8480 
  198.8750     2.2120   -29.0860   115.0230    24.1110    11.7130     7.9310     9.6590 
  199.0000     2.2040   -28.6700   115.0230    24.1420    10.4690     7.7040     9.3640 
  199.1250     2.2030   -28.2230   115.0230    24.1530     9.0510     7.4820     9.0660 
  199.2500     2.2120   -27.5930   115.0230    24.1470     8.5990     7.3050     8.8530 
  199.3750     2.2320   -26.7810   115.0230    24.1390     8.8320     7.1840     8.7450 
  199.5000     2.2560   -25.8580   115.0230    24.1250     9.0810     7.1020     8.7120 
  199.6250     2.2770   -24.9700   115.0230    24.1240     8.8210     7.0340     8.6920 
  199.7500     2.2920   -24.1530   115.0230    24.1630     8.1520     6.9520     8.6390 
  199.8750     2.3030   -23.4180   115.0230    24.1840     7.4760     6.8490     8.5470 
  200.0000     2.3050   -22.7100   115.0230    24.1950     7.0120     6.7270     8.4410 
  200.1250     2.2990   -22.0260   115.0230    24.1950     6.7780     6.5990     8.3530 
  200.2500     2.2930   -21.4900   115.0230    24.1930     6.7060     6.4880     8.2960 
  200.3750     2.2960   -21.1240   115.0230    24.1810     6.8020     6.4050     8.2700 
  200.5000     2.3020   -20.8990   115.0230    24.1580     7.0500     6.3510     8.2530 
  200.6250     2.3120   -20.6970   115.0230    24.1340     7.3440     6.3140     8.2120 
  200.7500     2.3360   -20.5600   115.0230    24.1160     7.5880     6.2740     8.1450 
  200.8750     2.3820   -20.4140   115.0230    24.0920     7.7530     6.2230     8.0560 
  201.0000     2.4340   -20.2700   115.0230    24.0630     7.8720     6.1660     7.9500 
  201.1250     2.4680   -20.1330   115.0230    24.0600     8.3170     6.1210     7.8200 
  201.2500     2.4690   -20.0050   115.0230    24.0900     9.9200     6.0970     7.6870 
  201.3750     2.4320   -20.0100   115.0230    24.1540    13.4710     6.0950     7.5950 
  201.5000     2.3770   -20.1120   115.0230    24.1830    18.6220     6.1070     7.5860 
  201.6250     2.3290   -20.2870   115.0230    24.1900    21.1150     6.1220     7.6720 
  201.7500     2.3050   -20.5230   115.0230    24.1900    19.2770     6.1280     7.7800 
  201.8750     2.3070   -20.8420   115.0230    24.1900    14.9300     6.1230     7.8340 
  202.0000     2.3090   -21.2040   115.0230    24.1900    11.3620     6.1070     7.7830 
  202.1250     2.3040   -21.5990   115.0230    24.1900    10.1470     6.0790     7.6410 
  202.2500     2.2990   -21.9630   115.0230    24.1900     9.8980     6.0470     7.5070 
  202.3750     2.3060   -22.2220   115.0230    24.1900     9.8910     6.0190     7.4400 
  202.5000     2.3180   -22.3990   115.0230    24.1900     9.9290     6.0000     7.4490 
  202.6250     2.3280   -22.5750   115.0230    24.1900    10.2180     5.9920     7.5060 
  202.7500     2.3340   -22.7350   115.0230    24.1900    10.6600     5.9880     7.5610 
  202.8750     2.3360   -22.8350   115.0230    24.1900    10.9910     5.9880     7.5870 
  203.0000     2.3320   -22.8810   115.0230    24.1890    11.0620     5.9880     7.5900 
  203.1250     2.3230   -22.8780   115.0230    24.1870    11.1790     5.9880     7.5900 
