~V
VERS. 2.00: Ver 2.00
~W
STRT.M 63.0000:
STOP.M 195.0000:
STEP.M 0.1250:
NULL. -999.2500:
UWI. F10020:
~C
DEPT.M :
GR.API :
CALI.CM :
RXO.OHMM :
RI. :
RML.OHMM :
DEN.GM/CC :
SP.MV :
~A
# ...
  130.5000    52.4290    23.5700     6.0350     5.9820     7.9860     2.3720   -23.8820 
  130.6250    52.0850    23.5460     6.1840     6.1210     8.3430     2.3630   -23.7140 
  130.7500    50.0590    23.5530     6.2210     6.2580     8.5710     2.3650   -23.6190 
  130.8750    48.6460    23.5940     6.1400     6.3370     8.6080     2.3790   -23.5610 
  131.0000    50.9100    23.6140     5.9700     6.3540     8.4750     2.3910   -23.5890 
  131.1250    54.5850    23.5460     5.7790     6.3110     8.2430     2.3920   -23.6100 
  131.2500    55.5640    23.4390     5.5950     6.2350     7.9950     2.3870   -23.6800 
  131.3750    56.6610    23.3860     5.4750     6.1410     7.7900     2.3850   -23.7870 
  131.5000    61.8770    23.3950     5.4880     6.0390     7.6790     2.3840   -23.9060 
  131.6250    68.3110    23.4340     5.6980     5.9460     7.7020     2.3780   -24.0860 
  131.7500    71.2220    23.4690     6.0100     5.8940     7.8190     2.3660   -24.3080 
  131.8750    72.0700    23.5100     6.3670     5.9090     7.9810     2.3500   -24.5770 
  132.0000    76.6590    23.5790     6.8090     5.9980     8.1360     2.3380   -24.8450 
  132.1250    85.3420    23.7420     7.3220     6.1410     8.2370     2.3400   -25.1870 
  132.2500    91.6030    23.9330     7.6780     6.2810     8.2800     2.3520   -25.5500 
  132.3750    92.3840    24.0590     7.7460     6.3640     8.2560     2.3680   -25.9080 
  132.5000    88.3690    24.0970     7.5980     6.3620     8.1490     2.3740   -26.2670 
  132.6250    85.9740    24.0980     7.4690     6.2810     7.9710     2.3680   -26.6100 
  132.7500    88.1570    24.0940     7.4490     6.1890     7.8120     2.3630   -26.9890 
  132.8750    93.5100    24.0900     7.3580     6.1280     7.7490     2.3650   -27.3830 
  133.0000    96.8300    24.0910     7.2290     6.1300     7.8320     2.3690   -27.7980 
  133.1250    94.0910    24.0920     7.4120     6.2230     8.0730     2.3700   -28.2030 
  133.2500    89.1010    24.0940     8.0810     6.3820     8.3820     2.3670   -28.5850 
  133.3750    86.8610    24.0950     8.9780     6.5750     8.6800     2.3660   -28.9660 
  133.5000    89.8940    24.0980     9.6880     6.7660     8.9100     2.3690   -29.3350 
  133.6250    94.4100    24.0940    10.0460     6.9320     9.0760     2.3780   -29.6990 
  133.7500    95.9740    24.0940     9.8010     7.1060     9.2700     2.3820   -29.9780 
  133.8750    95.9400    24.0950     9.4490     7.3510     9.5810     2.3710   -30.2300 
  134.0000    95.0200    24.0890     9.4910     7.7300    10.0490     2.3490   -30.4390 
  134.1250    91.8790    24.0370    10.1270     8.2810    10.6040     2.3390   -30.5930 
  134.2500    88.1990    23.9200    11.1860     8.9110    11.0830     2.3510   -30.7380 
  134.3750    86.0290    23.7830    12.1110     9.5250    11.4120     2.3720   -30.8550 
  134.5000    86.6210    23.7160    12.4380    10.0470    11.6350     2.3850   -30.9820 
  134.6250    90.1670    23.8310    12.1470    10.4360    11.8920     2.3800   -31.0340 
  134.7500    94.0390    23.9900    11.8490    10.7280    12.2100     2.3660   -31.1070 
  134.8750    94.1540    24.0690    11.8120    10.9280    12.4750     2.3520   -31.1390 
  135.0000    89.2050    24.0820    11.8070    11.0020    12.5260     2.3510   -31.1280 
  135.1250    83.8680    24.0980    11.4830    10.8710    12.2270     2.3690   -31.0870 
  135.2500    82.6890    24.1610    10.7120    10.5750    11.7180     2.3920   -31.0430 
  135.3750    87.4160    24.1990     9.7620    10.1890    11.1710     2.4040   -31.0030 
  135.5000    94.9510    24.1800     9.0310     9.8040    10.7380     2.4010   -30.9450 
  135.6250   100.6090    24.1340     8.8300     9.5010    10.4920     2.3930   -30.9570 
  135.7500   102.2380    24.1390     8.8890     9.2910    10.3470     2.3970   -30.9670 
  135.8750    99.9380    24.1660     8.7630     9.1650    10.2470     2.4080   -31.0170 
  136.0000    95.1910    24.1940     8.4340     9.0980    10.1680     2.4100   -31.0860 
  136.1250    91.5350    24.2010     8.3730     9.0680    10.1260     2.3880   -31.1950 
  136.2500    92.8140    24.1990     8.8640     9.0480    10.1450     2.3560   -31.2780 
  136.3750    96.2290    24.1930     9.6130     9.0810    10.2940     2.3300   -31.3510 
  136.5000    96.8890    24.1970    10.2070     9.3170    10.7250     2.3160   -31.4090 
  136.6250    94.8430    24.1860    10.5670    10.1530    11.8680     2.3110   -31.4210 
  136.7500    94.8230    24.1670    12.0190    12.0450    14.1930     2.3120   -31.3660 
  136.8750    94.7640    24.1420    17.6580    15.9620    18.4920     2.3290   -31.2520 
  137.0000    89.8670    24.1100    35.6040    23.5510    25.9570     2.3710   -31.0860 
  137.1250    80.6150    24.0970    74.5960    38.1630    39.5960     2.4380   -30.9130 
  137.2500    72.7530    24.0930   112.3290    59.7460    60.8440     2.5020   -30.7440 
  137.3750    67.1310    24.0930   130.4510    84.9720    88.7190     2.5300   -30.5660 
  137.5000    62.4260    24.1090   132.7880   106.4330   115.0110     2.5040   -30.3720 
  137.6250    60.4650    24.1600   138.5070   116.2880   126.3460     2.4420   -30.1950 
  137.7500    60.2220    24.2250   148.1980   117.5660   126.3140     2.3950   -30.0390 
  137.8750    59.3850    24.2170   148.6790   114.3210   121.6650     2.3860   -29.8930 
  138.0000    58.1210    24.1090   131.6710   109.0840   115.5610     2.4090   -29.7620 
  138.1250    58.7390    23.9830   112.1270   102.8570   108.8230     2.4340   -29.6250 
  138.2500    60.5660    23.9390   103.6680    96.5460   102.1860     2.4310   -29.4900 
  138.3750    63.1160    23.9090    98.7820    90.8010    96.2380     2.3900   -29.3610 
  138.5000    65.8720    23.7430    89.8890    86.2550    91.5880     2.3240   -29.2500 
  138.6250    68.8350    23.5920    82.0050    83.7310    88.9380     2.2630   -29.1370 
  138.7500    71.1460    23.5310    79.2790    82.9770    87.8530     2.2230   -29.0480 
  138.8750    71.8750    23.5300    81.8180    83.5710    87.8320     2.2040   -28.9730 
  139.0000    70.4610    23.5820    89.5860    84.7970    88.1840     2.2060   -28.9020 
  139.1250    67.6850    23.7470   100.5320    85.4890    87.7400     2.2270   -28.8500 
  139.2500    65.9610    23.9630   100.8750    84.7540    85.7530     2.2490   -28.8260 
  139.3750    66.9100    24.1230    90.7870    82.3380    82.2610     2.2590   -28.8470 
  139.5000    69.1280    24.2210    79.6900    78.6560    77.9480     2.2550   -28.8530 
  139.6250    70.3760    24.2800    71.7620    73.9980    74.2740     2.2390   -28.8700 
  139.7500    70.0650    24.3010    67.5670    70.4150    70.7330     2.2220   -28.8870 
  139.8750    68.1480    24.3050    65.4700    67.7070    68.1440     2.2130   -28.9220 
  140.0000    65.8250    24.3070    63.9630    65.8460    66.5420     2.2200   -28.9630 
  140.1250    65.0100    24.3060    62.4810    64.8430    65.8760     2.2310   -29.0020 
  140.2500    66.1620    24.3060    62.1570    64.5110    65.8370     2.2310   -29.0300 
  140.3750    67.5390    24.3080    61.8850    64.8200    66.3460     2.2210   -29.0210 
  140.5000    67.3950    24.3140    62.4170    65.7830    67.4270     2.2090   -29.0360 
  140.6250    67.7220    24.3120    64.2750    67.6100    69.3180     2.2060   -29.0270 
  140.7500    68.5050    24.3080    67.7520    70.1530    71.8950     2.2170   -29.0210 
  140.8750    67.9700    24.2900    71.5250    73.0790    74.8730     2.2400   -29.0060 
  141.0000    66.3180    24.2540    76.2660    75.7900    77.7520     2.2630   -29.0120 
  141.1250    66.2470    24.2360    82.3950    77.3970    79.8070     2.2680   -29.0130 
  141.2500    66.7640    24.2460    84.9320    77.8000    80.8570     2.2540   -28.9960 
  141.3750    65.8170    24.2970    82.8160    77.4590    81.1250     2.2310   -28.9980 
  141.5000    64.4340    24.3530    78.1970    77.1520    81.1770     2.2080   -28.9750 
  141.6250    67.3600    24.3780    76.5580    77.6050    81.7060     2.1910   -28.9870 
