~V
VERS. 2.00: Ver 2.00
~W
STRT.M 57.0000:
STOP.M 208.0000:
STEP.M 0.1250:
NULL. -999.2500:
UWI. F10012:
~C
DEPT.M :
DEN.GM/CC :
SP.MV :
GR.API :
CALI.CM :
RXO.OHMM :
RI. :
RML.OHMM :
~A
# ...
  135.7500     2.4040   -21.5450    71.7730    23.7090    13.2270    13.8910    15.9390 
  135.8750     2.4350   -21.6890    76.4320    23.6320    13.8860    14.8290    17.0890 
  136.0000     2.4530   -21.8200    81.1100    23.5570    15.4350    16.1900    18.7060 
  136.1250     2.4470   -21.9130    83.5950    23.4650    17.9000    18.0550    20.8830 
  136.2500     2.4250   -22.0000    85.7520    23.2890    19.4680    20.2760    23.4250 
  136.3750     2.4040   -22.0450    89.1890    23.1090    19.8660    22.6510    26.0640 
  136.5000     2.3890   -22.0450    89.3050    23.1850    20.5950    24.8500    28.4190 
  136.6250     2.3780   -21.9570    85.0500    23.5370    23.8450    26.3150    29.8860 
  136.7500     2.3750   -21.8500    81.5700    23.9740    26.9480    26.7820    30.1980 
  136.8750     2.3870   -21.7390    81.2850    24.1910    27.1440    26.1850    29.2980 
  137.0000     2.4090   -21.6310    79.8430    24.2630    24.7330    24.7430    27.4900 
  137.1250     2.4280   -21.5670    77.0550    24.2680    21.8490    22.8460    25.3180 
  137.2500     2.4350   -21.5480    76.8070    24.2320    19.7330    20.9990    23.3800 
  137.3750     2.4270   -21.6120    79.9350    24.1870    17.9530    19.4890    21.9640 
  137.5000     2.4120   -21.7280    83.2910    24.1780    16.7900    18.4840    21.1840 
  137.6250     2.3930   -21.9170    85.5950    24.1470    16.7060    18.1350    21.1370 
  137.7500     2.3770   -22.1370    87.5890    24.0980    16.5480    18.3120    21.6440 
  137.8750     2.3650   -22.3790    90.0350    23.9800    16.5220    18.8990    22.5370 
  138.0000     2.3510   -22.6370    92.8750    23.7700    16.7290    19.6450    23.4490 
  138.1250     2.3380   -22.8800    95.0880    23.5930    17.1790    20.0960    23.7110 
  138.2500     2.3310   -23.0980    95.4110    23.6060    17.7430    20.0110    23.1660 
  138.3750     2.3360   -23.2610    94.4110    23.7950    17.7480    19.4900    22.1790 
  138.5000     2.3410   -23.4120    95.3710    24.0310    16.9230    18.9180    21.4290 
  138.6250     2.3350   -23.5340    97.6170    24.2270    16.6920    18.8240    21.6430 
  138.7500     2.3160   -23.6010    99.3170    24.3330    19.7000    19.2690    22.6830 
  138.8750     2.3000   -23.5810    98.1690    24.3880    24.9880    19.8680    23.8520 
  139.0000     2.2980   -23.4550    98.2360    24.4390    31.1110    19.7810    23.9000 
  139.1250     2.3090   -23.2270   101.5670    24.5490    30.6480    17.9370    21.4670 
  139.2500     2.3180   -22.9210   104.5620    24.6740    23.3040    14.8840    17.5940 
  139.3750     2.3160   -22.5410   100.9910    24.6010    13.7970    11.6410    13.7520 
  139.5000     2.3070   -22.1000    93.6750    24.4020     8.1810     8.9850    10.8740 
  139.6250     2.2960   -21.6720    90.4320    24.2600     6.5690     7.2940     9.3050 
  139.7500     2.2860   -21.2920    93.7940    24.1580     6.1900     6.3310     8.6180 
  139.8750     2.2820   -20.9900    98.0110    24.1150     6.2170     5.9330     8.5270 
  140.0000     2.2880   -20.7640    96.2230    24.1040     6.2990     5.9200     8.7460 
  140.1250     2.3040   -20.6060    87.9990    24.0990     6.3510     6.1060     8.9940 
  140.2500     2.3220   -20.5050    77.8870    24.0640     6.3120     6.2830     9.1000 
  140.3750     2.3340   -20.4730    69.1560    23.9710     6.1980     6.3730     9.0420 
  140.5000     2.3370   -20.4840    62.0270    23.8660     6.0860     6.3730     8.8800 
  140.6250     2.3350   -20.4490    57.8300    23.7800     5.9970     6.3140     8.7000 
  140.7500     2.3350   -20.4200    57.5260    23.7200     5.9670     6.2440     8.5670 
  140.8750     2.3400   -20.4590    60.5700    23.6460     5.9560     6.1920     8.5040 
  141.0000     2.3420   -20.5200    65.1500    23.5040     5.9540     6.1810     8.5200 
  141.1250     2.3420   -20.5940    72.0740    23.3340     5.9910     6.2200     8.6210 
  141.2500     2.3460   -20.6330    80.9400    23.3190     6.1810     6.2770     8.7580 
  141.3750     2.3510   -20.6090    88.2030    23.4870     6.4780     6.3110     8.8820 
  141.5000     2.3490   -20.5450    91.0180    23.6770     6.7270     6.2900     8.9430 
  141.6250     2.3400   -20.4880    89.6220    23.8840     6.6950     6.1990     8.9140 
  141.7500     2.3280   -20.3830    88.1770    24.0810     6.5810     6.0800     8.8490 
  141.8750     2.3230   -20.1640    90.9400    24.1870     6.5250     5.9690     8.7990 
  142.0000     2.3270   -19.8800    95.5520    24.1950     6.5370     5.8870     8.7920 
  142.1250     2.3370   -19.5870    97.6110    24.1710     6.6110     5.8440     8.8170 
  142.2500     2.3410   -19.3520    96.1130    24.1770     6.7530     5.8260     8.8370 
  142.3750     2.3280   -19.2360    92.9180    24.2510     6.8750     5.8270     8.8590 
  142.5000     2.3110   -19.1660    92.3710    24.3250     6.8790     5.8390     8.9110 
  142.6250     2.3060   -19.1230    94.9680    24.3950     6.8870     5.8600     9.0120 
  142.7500     2.3150   -19.1780    96.7950    24.3980     6.9450     5.8860     9.1250 
  142.8750     2.3240   -19.2840    95.5960    24.3500     7.0920     5.9360     9.2150 
  143.0000     2.3240   -19.4160    95.4470    24.3200     7.3220     6.0340     9.2880 
  143.1250     2.3280   -19.6100    97.1310    24.3150     7.5330     6.2310     9.4260 
  143.2500     2.3510   -19.8190    97.7160    24.3130     7.7830     6.5570     9.7360 
  143.3750     2.3910   -19.9410    94.9340    24.3120     8.3710     7.0520    10.2990 
  143.5000     2.4220   -20.0750    92.3010    24.3090     9.6110     7.7320    11.1090 
  143.6250     2.4300   -20.2900    90.3380    24.2950    10.9860     8.5490    12.0460 
  143.7500     2.4130   -20.4530    89.1060    24.2650    11.9640     9.3100    12.8390 
  143.8750     2.3830   -20.5570    91.1700    24.2600    12.2950     9.8250    13.2580 
  144.0000     2.3520   -20.6670    95.4970    24.2780    11.9860     9.9740    13.1960 
  144.1250     2.3280   -20.7550    97.6230    24.3040    11.5870     9.7770    12.7590 
  144.2500     2.3120   -20.7710    95.6410    24.3100    11.3800     9.5100    12.3270 
  144.3750     2.3010   -20.8180    91.6740    24.2890    11.5090     9.3620    12.1340 
  144.5000     2.2870   -20.8800    87.3590    24.2620    11.8200     9.4480    12.2920 
  144.6250     2.2730   -20.8700    84.4370    24.2490    12.6550     9.8440    12.8400 
  144.7500     2.2660   -20.8410    84.3400    24.2440    13.9470    10.4720    13.6180 
  144.8750     2.2600   -20.8760    85.8470    24.2460    15.2690    11.2720    14.5110 
  145.0000     2.2430   -20.9110    86.6420    24.2470    15.9930    12.1900    15.4450 
  145.1250     2.2150   -20.9540    88.1690    24.2480    16.2440    13.2320    16.4570 
  145.2500     2.1870   -21.0110    90.6210    24.2470    17.1440    14.4000    17.6010 
  145.3750     2.1750   -21.0560    90.8220    24.2440    18.5870    15.6760    18.8760 
  145.5000     2.1810   -21.0630    89.2160    24.2500    19.9510    16.9690    20.1770 
  145.6250     2.2000   -21.0630    87.3030    24.2680    20.8100    18.0520    21.2050 
  145.7500     2.2220   -21.1180    85.7410    24.2870    21.2190    18.6990    21.6870 
  145.8750     2.2330   -21.1500    87.5500    24.2880    21.0190    18.7570    21.4930 
  146.0000     2.2310   -21.1850    92.7330    24.2900    20.4440    18.2840    20.7740 
  146.1250     2.2210   -21.2580    96.5910    24.2990    19.3390    17.5060    19.8620 
  146.2500     2.1960   -21.3770    95.9810    24.2950    18.1200    16.7470    19.0870 
  146.3750     2.1510   -21.4960    91.4760    24.2600    17.1520    16.2410    18.6800 
  146.5000     2.1150   -21.6730    86.1340    24.1740    17.7130    16.2000    18.8580 
  146.6250     2.1140   -21.8640    81.4050    23.9510    18.8320    16.8750    19.8780 
  146.7500     2.1480   -22.0450    79.8270    23.5860    18.7080    18.2060    21.6450 
  146.8750     2.1820   -22.2950    81.3890    23.4510    18.2620    20.1940    24.1310 
