~V
VERS. 2.00: Ver 2.00
~W
STRT.M 55.0000:
STOP.M 181.0000:
STEP.M 0.1250:
NULL. -999.2500:
UWI. F10008:
~C
DEPT.M :
SP.MV :
GR.API :
RML.OHMM :
RI. :
RXO.OHMM :
CALI.CM :
DEN.GM/CC :
~A
# ...
  145.0000    -2.7760    74.7760    17.6790    16.3370    24.4210    24.3050     2.3930 
  145.1250    -2.5740    76.5710    17.9940    16.5020    20.3510    24.4300     2.4000 
  145.2500    -2.4500    77.3680    18.2600    16.5440    16.7090    24.4460     2.4050 
  145.3750    -2.4270    77.0310    18.3460    16.4240    17.0690    24.3900     2.4110 
  145.5000    -2.3860    75.1350    18.1150    16.0850    17.9490    24.2380     2.4230 
  145.6250    -2.2640    72.3210    17.4590    15.4860    20.3120    23.9080     2.4350 
  145.7500    -2.1210    70.1820    16.5770    14.7620    21.6110    23.6290     2.4380 
  145.8750    -2.0090    69.8800    15.7370    14.0780    18.7280    23.5220     2.4320 
  146.0000    -1.9570    72.2370    15.1750    13.5870    14.9200    23.6480     2.4220 
  146.1250    -1.8800    75.5230    15.0580    13.4180    14.5310    23.8670     2.4110 
  146.2500    -1.6820    77.4820    15.3120    13.5420    15.9220    24.1560     2.3960 
  146.3750    -1.3780    76.2140    15.8840    13.9420    17.2270    24.3480     2.3740 
  146.5000    -1.0440    72.4590    16.6510    14.5550    17.7850    24.3490     2.3540 
  146.6250    -0.7160    69.9430    17.4000    15.2390    18.7930    24.3560     2.3510 
  146.7500    -0.3820    70.7380    17.9100    15.7790    19.3420    24.3940     2.3710 
  146.8750    -0.0380    73.5640    18.0280    16.0030    19.7810    24.4100     2.4050 
  147.0000     0.2590    75.7930    17.6960    15.8110    21.8070    24.4870     2.4350 
  147.1250     0.4280    75.8950    16.9190    15.1880    21.7480    24.5350     2.4460 
  147.2500     0.5240    74.5810    15.9880    14.3970    19.6220    24.5000     2.4430 
  147.3750     0.5940    73.0120    15.1800    13.6720    16.5800    24.4150     2.4370 
  147.5000     0.6410    71.6120    14.7510    13.2110    13.3610    24.3800     2.4340 
  147.6250     0.5580    69.3480    14.9340    13.1980    12.3050    24.4740     2.4300 
  147.7500     0.2960    66.8500    15.5800    13.5660    14.4890    24.5030     2.4200 
  147.8750    -0.0170    66.6120    16.4920    14.2150    17.6650    24.4070     2.4020 
  148.0000    -0.2650    69.1770    17.4140    14.9790    17.5350    24.2510     2.3830 
  148.1250    -0.4530    70.8840    18.1170    15.6640    19.2180    24.1380     2.3770 
  148.2500    -0.6040    70.2020    18.6680    16.2250    24.0040    24.1370     2.3860 
  148.3750    -0.7200    69.1960    19.1960    16.7190    26.3290    24.2320     2.4080 
  148.5000    -0.8490    70.5390    19.7630    17.1980    20.3220    24.2610     2.4350 
  148.6250    -0.9350    74.2070    20.2480    17.6110    19.2190    24.2010     2.4600 
  148.7500    -0.8990    78.1370    20.4210    17.8200    17.5700    24.1960     2.4740 
  148.8750    -0.8340    80.4890    20.0800    17.6630    19.3860    24.3280     2.4740 
  149.0000    -0.7750    79.3340    19.1840    17.0560    18.2600    24.4040     2.4620 
  149.1250    -0.7010    74.9830    17.9070    16.0410    17.8080    24.3160     2.4430 
  149.2500    -0.6440    71.5940    16.6460    14.9220    16.8900    24.2270     2.4250 
  149.3750    -0.5970    71.3300    15.6210    13.9200    14.7850    24.1820     2.4110 
  149.5000    -0.5130    73.4310    14.9490    13.1970    13.5110    24.1360     2.4010 
  149.6250    -0.3980    74.8880    14.7410    12.9060    12.9290    24.1270     2.3930 
  149.7500    -0.2920    74.6600    14.9310    12.9950    12.1080    24.1310     2.3880 
  149.8750    -0.2010    70.9500    15.4870    13.4050    13.0960    24.1010     2.3850 
  150.0000    -0.1440    65.8500    16.3010    14.0230    14.6950    24.0460     2.3840 
  150.1250    -0.1710    64.6820    17.1640    14.6780    16.2440    24.0130     2.3820 
  150.2500    -0.3090    67.6080    17.8580    15.2230    17.0170    23.9790     2.3830 
  150.3750    -0.5470    70.5460    18.3180    15.6300    16.8330    23.9190     2.3870 
  150.5000    -0.8690    70.8700    18.6390    15.9650    15.0910    23.8700     2.3950 
  150.6250    -1.1830    70.1860    19.0190    16.3530    13.7890    23.8650     2.4040 
  150.7500    -1.4060    69.7820    19.5260    16.8220    15.1320    23.8920     2.4100 
  150.8750    -1.5040    68.8850    20.0380    17.2790    21.4140    23.9760     2.4070 
  151.0000    -1.5000    68.9990    20.3270    17.5510    30.6340    24.1070     2.3920 
  151.1250    -1.4470    70.7000    20.1320    17.4150    34.1580    24.2040     2.3700 
  151.2500    -1.3790    71.1440    19.5280    16.9210    29.1930    24.2130     2.3530 
  151.3750    -1.3320    70.1830    18.7040    16.2120    23.4100    24.1790     2.3510 
  151.5000    -1.3190    70.0550    17.9070    15.4830    18.0750    24.0850     2.3640 
  151.6250    -1.3060    71.3890    17.3460    14.9350    17.1470    24.0070     2.3830 
  151.7500    -1.3260    71.5290    17.0120    14.6070    18.9930    24.0100     2.3930 
  151.8750    -1.3960    71.2040    16.8450    14.4570    20.0080    24.0980     2.3920 
  152.0000    -1.5000    72.6150    16.7570    14.3970    18.8680    24.1490     2.3830 
  152.1250    -1.6700    74.3720    16.6380    14.3260    16.5180    24.1860     2.3740 
  152.2500    -1.8860    72.7650    16.4640    14.2110    15.5080    24.2450     2.3700 
  152.3750    -2.0880    68.3520    16.2980    14.0910    15.0100    24.2600     2.3700 
  152.5000    -2.2460    64.5000    16.2540    14.0400    13.5680    24.2200     2.3740 
  152.6250    -2.4180    64.9870    16.4690    14.1610    11.8440    24.1720     2.3850 
  152.7500    -2.5580    68.9780    16.9380    14.4730    11.3840    24.1870     2.3980 
  152.8750    -2.6670    73.1670    17.6070    14.9590    13.3090    24.2370     2.4110 
  153.0000    -2.7760    75.1880    18.3390    15.5230    18.2120    24.2580     2.4150 
  153.1250    -2.8090    74.7680    18.8600    15.9250    20.4250    24.2130     2.4080 
  153.2500    -2.7620    74.9110    18.9380    15.9330    20.4360    24.1390     2.3940 
  153.3750    -2.6750    76.8960    18.3780    15.3900    18.0990    24.0520     2.3780 
  153.5000    -2.4940    79.3150    17.1010    14.2700    15.0310    23.9820     2.3670 
  153.6250    -2.2370    80.4360    15.2050    12.7180    12.2900    23.9470     2.3620 
  153.7500    -2.0680    79.7180    13.2640    11.1870    10.6330    23.9060     2.3590 
  153.8750    -2.0090    78.2780    11.8350    10.0470     9.5660    23.8480     2.3530 
  154.0000    -2.0240    76.6590    11.4530     9.6020     8.9590    23.7920     2.3450 
  154.1250    -2.0810    74.1870    12.7950    10.2820     9.8720    23.7740     2.3460 
  154.2500    -2.0980    72.7330    15.7120    12.1160    12.7320    23.7840     2.3700 
  154.3750    -2.0440    72.3980    19.7550    15.0250    19.2430    23.8470     2.4160 
  154.5000    -2.0370    70.1980    23.6130    18.2770    30.9190    24.0020     2.4710 
  154.6250    -2.1150    67.4780    24.6210    19.7850    46.0850    24.1820     2.5050 
  154.7500    -2.1880    68.8690    22.2990    18.6260    43.4220    24.2250     2.5040 
  154.8750    -2.2320    72.5780    18.2200    15.7770    26.4050    24.1530     2.4710 
  155.0000    -2.2390    74.9700    14.4490    12.8450    13.7010    24.0630     2.4210 
  155.1250    -2.1530    75.3730    12.3110    10.8920    10.5380    24.0310     2.3760 
  155.2500    -2.0170    75.4810    11.5830     9.8880     9.4450    24.0370     2.3500 
  155.3750    -1.8510    74.6340    11.8770     9.6700     8.7040    24.0520     2.3490 
  155.5000    -1.6410    71.5790    12.6830    10.0000     8.5760    24.0500     2.3730 
  155.6250    -1.3710    67.0640    13.4340    10.5790     9.4570    24.0340     2.4130 
  155.7500    -1.0500    62.2340    13.8290    11.0690    10.9820    24.0580     2.4480 
  155.8750    -0.7200    60.0720    13.8940    11.3610    13.2960    24.0940     2.4620 
  156.0000    -0.3860    62.6460    13.7880    11.4850    13.6560    24.0960     2.4460 
  156.1250    -0.1190    67.8440    13.6370    11.5000    11.4680    24.0850     2.4080 
