~V
VERS. 2.00: Ver 2.00
~W
STRT.M 60.0000:
STOP.M 242.0000:
STEP.M 0.1250:
NULL. -999.2500:
UWI. F10022:
~C
DEPT.M :
GR.API :
RML.OHMM :
RI. :
RXO.OHMM :
CALI.CM :
DEN.GM/CC :
SP.MV :
~A
# ...
  206.2500    59.7770    32.2370    29.8380    35.0730    23.8350     2.3150    -9.6550 
  206.3750    59.4600    33.7260    31.2450    35.2320    23.8340     2.3110    -9.6860 
  206.5000    58.5150    35.1210    32.4630    35.6160    23.8870     2.3150    -9.7540 
  206.6250    57.3690    36.7520    33.7840    37.5010    23.9350     2.3290    -9.8160 
  206.7500    56.3350    38.7680    35.3970    39.8890    23.9230     2.3480    -9.8780 
  206.8750    55.4690    41.1520    37.3250    41.9290    23.8890     2.3680    -9.9850 
  207.0000    53.7320    43.7380    39.4400    43.5650    23.8870     2.3860   -10.1230 
  207.1250    51.5910    46.2260    41.4850    45.8810    23.8650     2.3970   -10.2600 
  207.2500    52.4740    48.3470    43.2330    48.8210    23.8580     2.3980   -10.4330 
  207.3750    55.7680    49.9420    44.5680    52.4120    23.9200     2.3830   -10.6560 
  207.5000    57.5300    50.9700    45.4900    55.3540    23.9660     2.3520   -10.8890 
  207.6250    57.8630    51.4980    46.0920    55.6250    23.9970     2.3100   -11.1090 
  207.7500    58.6560    51.9220    46.6640    56.3760    24.0090     2.2710   -11.3690 
  207.8750    58.4940    52.7020    47.5290    58.2410    24.0090     2.2510   -11.6470 
  208.0000    56.9120    54.4430    49.1550    60.9260    23.9990     2.2620   -11.8620 
  208.1250    56.4120    58.0160    52.2930    64.3150    23.9640     2.3080   -12.0350 
  208.2500    57.8520    63.1190    56.7440    70.3680    23.8920     2.3670   -12.2110 
  208.3750    57.2370    68.6350    61.6010    78.8300    23.7830     2.4120   -12.3140 
  208.5000    54.7380    72.3440    64.9710    87.3350    23.7580     2.4270   -12.2920 
  208.6250    53.8950    70.3310    63.3830    96.2820    23.8620     2.4170   -12.1700 
  208.7500    55.4320    61.6540    55.8270    88.6080    23.9670     2.4160   -11.9790 
  208.8750    57.4130    47.7580    43.4920    71.8350    24.0020     2.4420   -11.7000 
  209.0000    56.8130    32.6360    30.0560    52.6580    23.9540     2.4910   -11.3660 
  209.1250    56.7450    21.0040    19.7930    29.6540    23.7830     2.5360   -10.9370 
  209.2500    59.2020    13.5990    13.1640    13.9510    23.5740     2.5540   -10.3970 
  209.3750    61.4570     9.5750     9.3400     7.8320    23.4610     2.5450    -9.8210 
  209.5000    60.0030     7.7370     7.3440     6.7310    23.4400     2.5200    -9.3180 
  209.6250    55.1830     7.2120     6.5490     6.8840    23.4110     2.4940    -8.8930 
  209.7500    51.1250     7.1300     6.2670     6.8200    23.4180     2.4720    -8.4710 
  209.8750    49.2260     7.1410     6.1980     6.3540    23.4020     2.4570    -8.0770 
  210.0000    49.4610     7.0570     6.1360     5.7740    23.3270     2.4480    -7.7710 
  210.1250    50.6540     6.7970     5.9670     5.4890    23.2960     2.4470    -7.6320 
  210.2500    50.9390     6.4570     5.7180     5.3640    23.3010     2.4470    -7.5980 
  210.3750    50.9270     6.1460     5.4590     5.3230    23.3090     2.4440    -7.6230 
  210.5000    52.6630     5.9660     5.2750     5.3310    23.3110     2.4360    -7.7000 
  210.6250    58.4860     6.0470     5.2860     5.5660    23.3370     2.4220    -7.8590 
  210.7500    66.7990     6.3390     5.5270     6.1580    23.4080     2.4080    -8.0800 
  210.8750    74.6800     6.8130     6.0100     7.0210    23.5090     2.4000    -8.3090 
  211.0000    80.1820     7.4120     6.6880     8.2460    23.5950     2.3990    -8.5020 
  211.1250    83.2630     8.0230     7.4390     9.5430    23.6570     2.4070    -8.6600 
  211.2500    85.5400     8.6910     8.0860    10.0470    23.6960     2.4170    -8.8330 
  211.3750    87.1650     9.1030     8.5070    10.1100    23.7100     2.4250    -8.9880 
  211.5000    88.4890     9.2290     8.6640    10.0750    23.6890     2.4310    -9.0600 
  211.6250    90.0870     9.1270     8.5850     9.9770    23.6730     2.4330    -9.0260 
  211.7500    91.1980     8.9500     8.4240     9.7450    23.6680     2.4340    -8.9700 
  211.8750    90.4920     8.7910     8.2730     9.4970    23.6630     2.4350    -8.9420 
  212.0000    89.7540     8.6650     8.1790     9.3460    23.6490     2.4370    -8.9470 
  212.1250    89.0090     8.5900     8.1570     9.2540    23.6060     2.4390    -8.9610 
  212.2500    87.1540     8.6140     8.1790     9.1180    23.5350     2.4420    -8.9570 
  212.3750    85.5050     8.6720     8.2290     9.0740    23.4170     2.4430    -8.9490 
  212.5000    85.3000     8.7350     8.2890     9.1640    23.3390     2.4430    -8.9620 
  212.6250    85.9450     8.7890     8.3510     9.1730    23.3510     2.4390    -9.0200 
  212.7500    86.6150     8.8740     8.4230     9.3260    23.4260     2.4310    -9.0940 
  212.8750    88.3930     8.9820     8.5180     9.6410    23.5210     2.4190    -9.1640 
  213.0000    90.4910     9.1010     8.6440     9.7240    23.6180     2.4040    -9.2080 
  213.1250    89.2420     9.2380     8.7920     9.7000    23.6990     2.3930    -9.2300 
  213.2500    87.6800     9.3690     8.9230     9.8930    23.7280     2.3890    -9.2430 
  213.3750    87.6060     9.4620     9.0030    10.1630    23.7240     2.3930    -9.2560 
  213.5000    87.9300     9.5380     9.0430    10.4210    23.7100     2.4040    -9.2480 
  213.6250    85.3770     9.8060     9.1950    10.7620    23.6790     2.4180    -9.2180 
  213.7500    80.6960    10.5650     9.7030    11.6800    23.6740     2.4390    -9.1820 
  213.8750    76.2470    12.0840    10.7960    14.1850    23.6710     2.4700    -9.1370 
  214.0000    74.9630    14.4070    12.5600    18.8690    23.6320     2.5100    -9.0730 
  214.1250    75.6430    17.1380    14.7980    25.2220    23.6020     2.5490    -9.0270 
  214.2500    74.3110    19.3200    16.7910    30.7320    23.6120     2.5740    -9.0040 
  214.3750    72.2210    20.1570    17.8430    31.3990    23.6190     2.5790    -9.0050 
  214.5000    72.1630    19.3450    17.5440    27.4340    23.6320     2.5640    -9.0450 
  214.6250    73.1390    17.3170    16.1070    23.3930    23.6510     2.5320    -9.1540 
  214.7500    73.9140    15.7590    14.7510    20.0440    23.6730     2.4890    -9.3030 
  214.8750    75.2890    15.8970    14.4280    19.1110    23.6900     2.4400    -9.4970 
  215.0000    76.7610    18.9310    15.9030    24.1410    23.6700     2.3890    -9.7560 
  215.1250    75.0180    25.6300    20.2690    35.8950    23.6610     2.3450   -10.0300 
  215.2500    71.4010    35.5830    27.4130    50.7510    23.7290     2.3110   -10.2880 
  215.3750    67.6080    47.4960    36.8560    63.7360    23.8010     2.2860   -10.5560 
  215.5000    64.4630    58.3620    47.1920    69.2420    23.8040     2.2680   -10.8760 
  215.6250    63.5280    65.9030    55.6900    71.6470    23.7760     2.2550   -11.2090 
  215.7500    62.5370    69.2340    60.4990    76.8210    23.7740     2.2450   -11.5060 
  215.8750    60.7020    68.4090    61.2060    81.0520    23.7900     2.2380   -11.7340 
  216.0000    60.7030    64.5860    58.6840    79.3770    23.7940     2.2370   -11.9160 
  216.1250    64.9340    59.4110    54.3130    67.6480    23.7710     2.2420   -12.1360 
  216.2500    69.6760    54.6480    49.8760    55.5320    23.7420     2.2530   -12.4210 
  216.3750    71.3910    50.9980    46.1590    48.8500    23.7420     2.2730   -12.7280 
  216.5000    70.3300    48.5040    43.3910    47.8990    23.7640     2.3020   -12.9990 
  216.6250    67.3860    46.8820    41.6110    51.2740    23.7890     2.3340   -13.2240 
  216.7500    65.4720    46.0380    40.6170    54.6010    23.7630     2.3570   -13.4730 
  216.8750    66.6260    46.3150    40.6310    55.2780    23.7640     2.3600   -13.7820 
  217.0000    68.8550    48.9580    42.1950    51.4010    23.8290     2.3450   -14.0940 
  217.1250    68.6480    55.1350    46.5240    56.7860    23.9260     2.3190   -14.3050 
  217.2500    66.6190    65.2810    53.7640    73.2440    23.9850     2.2940   -14.4060 
  217.3750    65.0590    78.4320    63.6790    96.3750    24.0040     2.2730   -14.4390 
