~V
VERS. 2.00: Ver 2.00
~W
STRT.M 50.0000:
STOP.M 280.0000:
STEP.M 0.1250:
NULL. -999.2500:
UWI. F10023:
~C
DEPT.M :
SP.MV :
DEN.GM/CC :
GR.API :
CALI.CM :
RXO.OHMM :
RI. :
RML.OHMM :
~A
# ...
  263.7500   -13.5630     2.3490    44.3790    23.6620     4.3190     3.9340     5.4380 
  263.8750   -13.5420     2.3400    41.6880    23.6910     4.2260     4.1160     5.6660 
  264.0000   -13.5910     2.3330    39.6900    23.7120     4.2810     4.3900     5.9770 
  264.1250   -13.6050     2.3350    40.2850    23.6950     4.3640     4.6540     6.2250 
  264.2500   -13.5330     2.3440    42.3440    23.6740     4.3370     4.7860     6.2910 
  264.3750   -13.4570     2.3460    42.8950    23.6550     4.1690     4.7290     6.1520 
  264.5000   -13.4570     2.3310    40.5170    23.6700     3.9620     4.5110     5.8710 
  264.6250   -13.5480     2.3110    36.0320    23.7490     3.8770     4.2240     5.5730 
  264.7500   -13.6330     2.2990    31.4650    23.8580     3.8740     3.9770     5.3750 
  264.8750   -13.6780     2.2840    28.2300    23.9230     3.8750     3.8160     5.3160 
  265.0000   -13.6340     2.2580    27.4390    24.0020     3.8560     3.7480     5.3750 
  265.1250   -13.5890     2.2380    29.0540    24.0810     3.8560     3.7590     5.4840 
  265.2500   -13.6460     2.2430    31.6350    24.1700     3.9240     3.8060     5.5710 
  265.3750   -13.7520     2.2570    32.9520    24.2920     3.9890     3.8710     5.6210 
  265.5000   -13.8100     2.2570    32.4160    24.4590     4.0090     3.9400     5.6510 
  265.6250   -13.7920     2.2440    33.5500    24.4410     4.0270     4.0030     5.6760 
  265.7500   -13.7590     2.2410    35.9350    24.2680     4.0680     4.0490     5.6870 
  265.8750   -13.7570     2.2470    36.7960    24.1750     4.1030     4.0690     5.6660 
  266.0000   -13.8470     2.2510    34.2540    24.1720     4.1050     4.0570     5.6060 
  266.1250   -13.9190     2.2510    31.7670    24.1720     4.0950     4.0100     5.5170 
  266.2500   -13.8810     2.2480    33.0160    24.1890     4.0700     3.9440     5.4330 
  266.3750   -13.8240     2.2450    36.6260    24.1890     4.0420     3.8690     5.3750 
  266.5000   -13.8530     2.2480    38.7900    24.1620     4.0340     3.7940     5.3320 
  266.6250   -13.8730     2.2580    36.4840    24.0930     4.0760     3.7130     5.2600 
  266.7500   -13.8590     2.2660    33.4510    24.0040     4.1240     3.6230     5.1360 
  266.8750   -13.8730     2.2690    33.9260    23.9080     4.1750     3.5490     5.0080 
  267.0000   -13.9080     2.2790    37.0150    23.8310     4.2720     3.5550     4.9930 
  267.1250   -13.9960     2.3050    37.3250    23.8240     4.6170     3.7810     5.2850 
  267.2500   -14.1090     2.3420    35.2340    23.8280     5.4120     4.2900     5.9290 
  267.3750   -14.2310     2.3840    34.3360    23.8170     7.0040     5.1010     6.9010 
  267.5000   -14.3410     2.4280    35.1960    23.7730     9.7350     6.0970     7.9970 
  267.6250   -14.4680     2.4510    36.5840    23.7360    11.8220     6.8840     8.6370 
  267.7500   -14.6160     2.4310    37.6220    23.7180    11.1060     7.0700     8.4500 
  267.8750   -14.7270     2.3680    38.2340    23.7070     8.1610     6.6050     7.6030 
  268.0000   -14.7560     2.2880    37.6720    23.6570     5.5740     5.7840     6.6220 
  268.1250   -14.7650     2.2330    36.2760    23.6250     4.7130     5.0040     5.9740 
  268.2500   -14.8200     2.2200    34.6210    23.6230     4.3540     4.4630     5.7110 
  268.3750   -14.8430     2.2400    33.7730    23.6890     4.1190     4.1990     5.7560 
  268.5000   -14.8110     2.2640    34.6430    23.8740     4.0210     4.1870     5.9880 
  268.6250   -14.8440     2.2680    35.4240    24.0790     4.2770     4.3760     6.2780 
  268.7500   -14.8660     2.2570    35.0790    24.0580     4.8160     4.6250     6.5130 
  268.8750   -14.8780     2.2400    35.6160    23.8800     5.4350     4.8280     6.6200 
  269.0000   -14.9210     2.2260    38.0910    23.6960     5.8450     4.8910     6.5470 
  269.1250   -14.8700     2.2190    38.9420    23.6530     5.5000     4.7460     6.2710 
  269.2500   -14.8140     2.2170    37.5160    23.8250     4.8550     4.4780     5.9100 
  269.3750   -14.7670     2.2110    35.8140    24.3760     4.3720     4.1840     5.5740 
  269.5000   -14.7250     2.1990    35.4960    25.2520     4.2060     3.9440     5.3450 
  269.6250   -14.6490     2.1920    35.4960    25.7940     4.1520     3.8100     5.2740 
  269.7500   -14.6060     2.1930    35.4960    25.9620     4.0680     3.7600     5.3010 
  269.8750   -14.6050     2.1910    35.4960    26.0260     4.0260     3.7650     5.3670 
  270.0000   -14.5970     2.1810    35.4960    26.1480     4.0760     3.7940     5.4230 
  270.1250   -14.6830     2.1830    35.4960    26.1150     4.1490     3.8190     5.4420 
  270.2500   -14.7440     2.2090    35.4960    25.8890     4.2130     3.8230     5.4400 
  270.3750   -14.7730     2.2390    35.4960    25.4970     4.2330     3.8000     5.4290 
  270.5000   -14.8350     2.2390    35.4960    25.1170     4.2120     3.7520     5.4130 
  270.6250   -14.9160     2.1970    35.4960    24.8740     4.1660     3.6910     5.3860 
  270.7500   -14.9540     2.1600    35.4960    24.7610     4.1290     3.6400     5.3500 
  270.8750   -14.9510     2.1520    35.4960    24.8380     4.1210     3.6120     5.3190 
  271.0000   -14.9570     2.1650    35.4960    24.9730     4.0900     3.6060     5.3000 
  271.1250   -14.9220     2.1900    35.4960    24.6390     3.9690     3.6060     5.2710 
  271.2500   -14.9330     2.2220    35.4960    24.1400     3.9100     3.5960     5.1970 
  271.3750   -15.0030     2.2460    35.4960    23.8310     4.0050     3.5740     5.0650 
  271.5000   -15.0060     2.2500    35.4960    23.7310     4.1220     3.5500     4.9010 
  271.6250   -14.9470     2.2510    35.4960    23.6550     4.1580     3.5370     4.7860 
  271.7500   -14.9080     2.2710    35.4960    23.6020     4.1780     3.5380     4.7690 
  271.8750   -14.8840     2.2880    35.4960    23.8080     4.3250     3.5470     4.8300 
  272.0000   -14.8780     2.2690    35.4960    24.3880     4.4920     3.5550     4.9030 
  272.1250   -14.9190     2.2220    35.4960    25.1810     4.5780     3.5600     4.9200 
  272.2500   -14.8720     2.1860    35.4960    25.6250     4.5080     3.5600     4.8880 
  272.3750   -14.7470     2.1640    35.4960    25.8440     4.3650     3.5590     4.8410 
  272.5000   -14.6710     2.1400    35.4960    25.8380     4.2540     3.5600     4.7990 
  272.6250   -14.6260     2.1180    35.4960    25.3400     4.2510     3.5650     4.7610 
  272.7500   -14.5880     2.1180    35.4960    24.0700     4.3290     3.5720     4.7240 
  272.8750   -14.5130     2.1290    35.4960    22.1860     4.4150     3.5780     4.7140 
  273.0000   -14.3590     2.1040    35.4960    20.3450     4.4800     3.5810     4.7410 
  273.1250   -14.2360     2.0170    35.4960    18.9550     4.5180     3.5800     4.7670 
  273.2500   -14.2280     1.9250    35.4960    17.6780     4.5410     3.5750     4.7460 
  273.3750   -14.2850     1.8800    35.4960    16.5680     4.5860     3.5700     4.6840 
  273.5000   -14.3410     1.8800    35.4960    15.5310     4.6780     3.5660     4.6520 
  273.6250   -14.3790     1.8940    35.4960    14.5970     4.8290     3.5660     4.7500 
  273.7500   -14.3840     1.9090    35.4960    13.9840     5.0230     3.5650     4.9400 
  273.8750   -14.4250     1.9300    35.4960    13.6780     5.2110     3.5570     5.1070 
  274.0000   -14.5550     1.9580    35.4960    13.5160     5.2940     3.5360     5.1410 
  274.1250   -14.6310     1.9770    35.4960    13.4410     5.2580     3.5040     5.0150 
  274.2500   -14.6580     1.9820    35.4960    13.4160     5.1640     3.4790     4.8570 
  274.3750   -14.7220     1.9730    35.4960    13.4110     5.0990     3.4710     4.7710 
  274.5000   -14.7860     1.9540    35.4960    13.4110     5.0950     3.4850     4.7880 
  274.6250   -14.8500     1.9300    35.4960    13.4110     5.1570     3.5180     4.8620 
  274.7500   -14.9660     1.9130    35.4960    13.4290     5.2190     3.5500     4.9110 
  274.8750   -15.1010     1.9010    35.4960    13.4810     5.1750     3.5620     4.9130 
