~V
VERS. 2.00: Ver 2.00
~W
STRT.M 55.0000:
STOP.M 310.0000:
STEP.M 0.1250:
NULL. -999.2500:
UWI. F10049:
~C
DEPT.M :
GR.API :
RML.OHMM :
RI. :
RXO.OHMM :
CALI.CM :
DEN.GM/CC :
SP.MV :
~A
# ...
  223.7500    68.7030    13.6970    12.1960    14.4640    24.3910     2.2670   -27.0140 
  223.8750    67.5540    13.8290    12.4680    15.1290    24.3840     2.2800   -26.9950 
  224.0000    66.1200    13.7830    12.5960    15.7690    24.3820     2.2840   -27.0610 
  224.1250    67.0160    13.5690    12.5070    15.8500    24.3820     2.2800   -27.0940 
  224.2500    70.6290    13.3590    12.3140    14.9210    24.3820     2.2780   -26.9900 
  224.3750    73.9190    13.3020    12.1400    14.2520    24.3820     2.2840   -26.8050 
  224.5000    73.2360    13.4730    12.0950    14.1860    24.3820     2.2990   -26.6380 
  224.6250    70.1060    13.8440    12.2780    15.1500    24.3870     2.3150   -26.6110 
  224.7500    68.9040    14.2500    12.6360    17.3230    24.4100     2.3270   -26.7050 
  224.8750    70.6300    14.5870    13.0630    19.8250    24.4570     2.3300   -26.8140 
  225.0000    72.6560    14.8000    13.4000    18.0710    24.5150     2.3280   -26.8320 
  225.1250    72.6740    14.8330    13.4580    16.5170    24.5030     2.3220   -26.8050 
  225.2500    70.2710    14.6910    13.2360    15.4900    24.4500     2.3180   -26.8220 
  225.3750    67.0740    14.3780    12.8220    14.9620    24.3680     2.3130   -26.8890 
  225.5000    65.4420    13.9480    12.3620    14.7710    24.3040     2.3070   -26.9530 
  225.6250    68.5500    13.5400    11.9930    14.4800    24.2740     2.3020   -26.9230 
  225.7500    73.7970    13.2840    11.7610    14.2460    24.2570     2.2960   -26.7790 
  225.8750    75.2490    13.2260    11.6670    14.1890    24.2390     2.2910   -26.6340 
  226.0000    71.8480    13.3190    11.6820    14.1190    24.2100     2.2870   -26.5710 
  226.1250    69.0970    13.4440    11.7580    13.9510    24.1850     2.2850   -26.5200 
  226.2500    69.7650    13.4850    11.8400    13.8570    24.1680     2.2840   -26.4700 
  226.3750    71.9470    13.4140    11.9000    13.8080    24.1720     2.2840   -26.4190 
  226.5000    73.9500    13.2770    11.9270    13.6890    24.1830     2.2810   -26.4160 
  226.6250    75.1490    13.1440    11.9210    13.4470    24.2030     2.2740   -26.4770 
  226.7500    73.7330    13.0350    11.9000    13.1390    24.2220     2.2640   -26.5440 
  226.8750    70.4140    12.9230    11.8700    12.8980    24.2280     2.2550   -26.5860 
  227.0000    66.9240    12.7770    11.8290    13.0860    24.2250     2.2490   -26.5770 
  227.1250    64.2840    12.6130    11.7720    13.3010    24.2750     2.2530   -26.5860 
  227.2500    63.8420    12.4990    11.6950    13.1630    24.3890     2.2630   -26.6410 
  227.3750    65.9250    12.4900    11.5970    13.0020    24.5230     2.2760   -26.7220 
  227.5000    69.1590    12.5850    11.4850    13.0330    24.6590     2.2870   -26.7380 
  227.6250    71.0270    12.7220    11.3740    13.5390    24.6770     2.2930   -26.6480 
  227.7500    71.0520    12.8400    11.2950    14.4660    24.5650     2.2940   -26.5000 
  227.8750    69.3580    12.9470    11.2760    14.7180    24.3740     2.2900   -26.2820 
  228.0000    67.3180    13.0760    11.3210    14.5190    24.1940     2.2820   -26.0600 
  228.1250    66.3080    13.2210    11.4020    14.1370    24.0880     2.2720   -25.8820 
  228.2500    65.4110    13.3090    11.4650    14.0410    24.0450     2.2620   -25.6680 
  228.3750    64.7830    13.2840    11.4970    13.9100    24.0190     2.2570   -25.3470 
  228.5000    66.9550    13.1620    11.5090    13.5040    24.0260     2.2570   -24.9930 
  228.6250    70.5630    13.0420    11.5310    13.0300    24.0700     2.2650   -24.7020 
  228.7500    71.4720    13.0110    11.5820    12.9250    24.1010     2.2740   -24.4990 
  228.8750    70.3940    13.0690    11.6570    13.2340    24.0480     2.2820   -24.3570 
  229.0000    69.5400    13.1560    11.7380    13.5250    24.0300     2.2850   -24.1870 
  229.1250    69.3270    13.2160    11.8100    13.9110    24.1200     2.2820   -24.0490 
  229.2500    69.2280    13.2600    11.8620    14.2390    24.2660     2.2780   -24.0460 
  229.3750    69.9690    13.3220    11.8860    14.5620    24.4080     2.2740   -24.1230 
  229.5000    71.0770    13.4080    11.8720    14.9460    24.5250     2.2730   -24.1800 
  229.6250    70.9190    13.4550    11.8090    14.7280    24.5990     2.2710   -24.2510 
  229.7500    69.7280    13.3800    11.7140    14.2400    24.6030     2.2650   -24.3820 
  229.8750    67.7200    13.1340    11.5940    13.4970    24.5580     2.2510   -24.5730 
  230.0000    65.9700    12.7380    11.4540    12.8960    24.5220     2.2320   -24.8450 
  230.1250    66.5540    12.2950    11.3110    12.8850    24.5100     2.2130   -25.0280 
  230.2500    67.5670    11.9660    11.1920    13.4490    24.5060     2.2010   -25.0900 
  230.3750    66.4440    11.8590    11.1200    14.2770    24.4910     2.2000   -25.1920 
  230.5000    64.2730    12.0150    11.1170    14.5170    24.4610     2.2140   -25.4160 
  230.6250    64.0150    12.4150    11.2150    15.0120    24.4470     2.2400   -25.6520 
  230.7500    65.9100    12.9120    11.3930    15.3050    24.4470     2.2670   -25.8150 
  230.8750    68.9950    13.4050    11.6230    14.9570    24.4590     2.2880   -25.9530 
  231.0000    72.0350    13.8190    11.8710    14.7050    24.4760     2.2970   -26.0540 
  231.1250    73.1710    14.0840    12.0810    15.1580    24.4720     2.2950   -26.2160 
  231.2500    71.5480    14.2040    12.2150    15.6370    24.4530     2.2860   -26.4770 
  231.3750    68.7520    14.1840    12.2660    15.4990    24.4140     2.2760   -26.7570 
  231.5000    66.2430    14.0420    12.2440    14.8120    24.3880     2.2680   -27.0140 
  231.6250    65.0650    13.7860    12.1530    14.4210    24.3700     2.2630   -27.1970 
  231.7500    65.3950    13.4620    12.0130    13.6530    24.3300     2.2580   -27.3900 
  231.8750    66.2370    13.1020    11.8520    13.0080    24.2650     2.2510   -27.6380 
  232.0000    65.6640    12.7460    11.7070    12.9870    24.2090     2.2400   -27.9540 
  232.1250    63.0090    12.4520    11.6130    13.2630    24.1900     2.2270   -28.2250 
  232.2500    61.8620    12.2540    11.5720    13.2680    24.1860     2.2170   -28.3770 
  232.3750    64.7240    12.1650    11.5630    13.1460    24.1870     2.2120   -28.4920 
  232.5000    67.7140    12.1470    11.5670    12.8790    24.2150     2.2130   -28.6920 
  232.6250    65.5310    12.1050    11.5920    12.6360    24.3300     2.2170   -28.9660 
  232.7500    61.2800    11.9830    11.6560    12.2350    24.4960     2.2220   -29.2090 
  232.8750    58.8580    11.7970    11.7670    12.4420    24.5800     2.2280   -29.4070 
  233.0000    59.2900    11.6220    11.9110    13.3180    24.5900     2.2340   -29.5920 
  233.1250    62.0470    11.5600    12.0570    13.9090    24.5860     2.2420   -29.7980 
  233.2500    65.5070    11.6220    12.1740    14.1390    24.5720     2.2500   -29.9780 
  233.3750    67.8370    11.7660    12.2540    14.0300    24.5580     2.2550   -30.0920 
  233.5000    67.5200    11.9240    12.2950    13.8920    24.5660     2.2560   -30.0890 
  233.6250    65.6550    12.0260    12.2970    14.0240    24.5920     2.2490   -30.0130 
  233.7500    63.4850    12.0360    12.2650    14.0200    24.6320     2.2380   -29.9380 
  233.8750    62.0210    11.9200    12.1840    14.0840    24.6700     2.2290   -29.8220 
  234.0000    62.2230    11.6600    12.0180    14.0210    24.6920     2.2250   -29.5780 
  234.1250    64.3230    11.2940    11.7240    13.6370    24.6770     2.2280   -29.2060 
  234.2500    66.2690    11.0310    11.4500    13.4870    24.6050     2.2330   -28.8200 
  234.3750    66.6790    11.2280    11.4850    13.4730    24.4730     2.2430   -28.4190 
  234.5000    65.3610    12.6400    12.2320    13.7810    24.2950     2.2650   -27.9940 
  234.6250    63.2830    16.5390    14.5570    15.3590    24.0800     2.3180   -27.5570 
  234.7500    61.4560    22.7100    18.9540    21.7050    23.9060     2.3970   -27.0740 
  234.8750    60.2890    29.9130    25.5410    44.0840    23.9460     2.4810   -26.5860 
