~V
VERS. 2.00: Ver 2.00
~W
STRT.M 56.0000:
STOP.M 269.0000:
STEP.M 0.1250:
NULL. -999.2500:
UWI. F10026:
~C
DEPT.M :
GR.API :
RML.OHMM :
RI. :
RXO.OHMM :
CALI.CM :
DEN.GM/CC :
SP.MV :
~A
# ...
  247.2500    34.3060     5.2080     4.5650     4.6800    23.8860     2.3980   -19.5140 
  247.3750    34.8860     5.2060     4.5180     4.7270    23.5730     2.3870   -19.5950 
  247.5000    37.6320     5.2070     4.4740     4.7330    23.2890     2.3740   -19.6510 
  247.6250    38.5850     5.1890     4.4340     4.6560    23.1530     2.3600   -19.6950 
  247.7500    36.2340     5.1680     4.3990     4.5270    22.9010     2.3460   -19.7330 
  247.8750    33.6690     5.1750     4.3730     4.3960    22.4310     2.3330   -19.7750 
  248.0000    34.6770     5.2270     4.3560     4.3630    22.1190     2.3210   -19.8020 
  248.1250    38.2020     5.2980     4.3430     4.5110    22.1410     2.3110   -19.7710 
  248.2500    39.2640     5.3270     4.3230     4.7750    22.3530     2.3020   -19.6950 
  248.3750    36.9770     5.2770     4.2860     5.0550    22.4780     2.2960   -19.5910 
  248.5000    33.9380     5.1590     4.2300     5.2890    22.5900     2.2970   -19.4960 
  248.6250    34.0950     5.0460     4.1730     5.0000    22.5310     2.3080   -19.4490 
  248.7500    35.6930     5.0200     4.1500     4.5310    22.4300     2.3230   -19.4370 
  248.8750    36.3120     5.1230     4.1920     4.4280    22.5610     2.3360   -19.4110 
  249.0000    36.2880     5.3450     4.3200     4.5270    23.0620     2.3430   -19.3600 
  249.1250    37.5320     5.6410     4.5310     4.8890    23.5420     2.3480   -19.3550 
  249.2500    39.5740     5.9220     4.7590     5.1040    23.7620     2.3580   -19.4170 
  249.3750    39.4210     6.1200     4.9360     5.1450    23.8050     2.3740   -19.5340 
  249.5000    36.8970     6.1840     5.0020     5.1080    23.7570     2.3940   -19.6450 
  249.6250    36.2010     6.0620     4.9160     5.0960    23.6010     2.4060   -19.7030 
  249.7500    37.7730     5.8170     4.7380     5.0250    23.4260     2.4040   -19.7510 
  249.8750    39.6280     5.5350     4.5300     4.7600    23.3880     2.3890   -19.8180 
  250.0000    41.0010     5.3180     4.3550     4.4460    23.3860     2.3680   -19.9060 
  250.1250    42.7170     5.2630     4.2710     4.3340    23.3700     2.3530   -19.9400 
  250.2500    43.1530     5.3500     4.2810     4.4390    23.3650     2.3510   -19.9060 
  250.3750    41.1770     5.5250     4.3770     4.6770    23.3340     2.3600   -19.8400 
  250.5000    38.6190     5.7240     4.5390     4.9070    23.2310     2.3730   -19.7950 
  250.6250    38.4560     5.8910     4.7310     4.9070    23.2910     2.3780   -19.7500 
  250.7500    38.9770     6.0140     4.9010     5.0520    23.4510     2.3760   -19.6690 
  250.8750    38.5080     6.0910     5.0030     5.3140    23.6590     2.3700   -19.5510 
  251.0000    36.7690     6.1050     5.0090     5.4170    23.8830     2.3640   -19.4210 
  251.1250    35.8370     6.0180     4.9000     5.2330    24.0700     2.3620   -19.3610 
  251.2500    35.5140     5.8390     4.7200     4.9070    24.2020     2.3610   -19.3320 
  251.3750    33.9130     5.5970     4.5110     4.6150    24.2290     2.3610   -19.2710 
  251.5000    30.9130     5.3480     4.3130     4.3770    24.2250     2.3620   -19.1760 
  251.6250    28.5370     5.1650     4.1600     4.3730    24.1970     2.3630   -19.1330 
  251.7500    27.0040     5.0610     4.0510     4.2670    24.2140     2.3630   -19.1380 
  251.8750    25.5950     5.0130     3.9700     3.9950    24.2180     2.3580   -19.1530 
  252.0000    24.5600     4.9710     3.8990     3.5990    24.1790     2.3500   -19.1620 
  252.1250    25.1020     4.8850     3.8290     3.4160    24.1280     2.3390   -19.1720 
  252.2500    27.1630     4.7630     3.7630     3.4410    24.0260     2.3310   -19.2010 
  252.3750    29.2400     4.6450     3.7170     3.5670    24.0260     2.3230   -19.2480 
  252.5000    29.5870     4.5820     3.7030     3.5540    24.1140     2.3120   -19.3320 
  252.6250    28.7720     4.6080     3.7270     3.4950    24.2160     2.2970   -19.4350 
  252.7500    29.9160     4.6810     3.7740     3.5000    24.3640     2.2840   -19.5260 
  252.8750    32.7370     4.7470     3.8280     3.6300    24.4620     2.2780   -19.6400 
  253.0000    33.4420     4.7670     3.8710     3.9140    24.3140     2.2820   -19.7820 
  253.1250    30.4700     4.7330     3.8900     3.9310    24.2130     2.2900   -19.8840 
  253.2500    28.1100     4.6840     3.8820     3.8280    24.1910     2.2920   -19.9820 
  253.3750    28.3400     4.6390     3.8500     3.6600    24.2490     2.2860   -20.1130 
  253.5000    29.2010     4.5940     3.8020     3.6890    24.3370     2.2730   -20.2380 
  253.6250    28.2020     4.5390     3.7500     3.8840    24.3980     2.2650   -20.3280 
  253.7500    26.8630     4.4850     3.7080     3.9280    24.2900     2.2680   -20.4210 
  253.8750    26.5320     4.4620     3.6880     3.8930    24.2160     2.2810   -20.5180 
  254.0000    27.6440     4.4940     3.6970     3.8470    24.1810     2.3020   -20.6400 
  254.1250    29.7270     4.5770     3.7410     4.0050    24.1270     2.3290   -20.8210 
  254.2500    30.8620     4.6680     3.8090     4.1550    24.1180     2.3550   -20.9840 
  254.3750    30.6640     4.7410     3.8930     4.2300    24.1540     2.3760   -21.1420 
  254.5000    31.4860     4.8000     3.9830     4.2460    24.3040     2.3810   -21.3400 
  254.6250    34.6040     4.8700     4.0690     4.3660    24.4470     2.3590   -21.5760 
  254.7500    35.7380     4.9500     4.1390     4.5320    24.3490     2.3220   -21.8060 
  254.8750    33.5480     5.0120     4.1860     4.6870    24.1340     2.2840   -22.0320 
  255.0000    31.7610     5.0180     4.2030     4.7300    23.9500     2.2610   -22.2240 
  255.1250    33.2520     4.9560     4.1950     4.6170    23.8350     2.2610   -22.3790 
  255.2500    37.5410     4.8950     4.1940     4.4670    23.7460     2.2710   -22.6040 
  255.3750    44.4170     4.9090     4.2310     4.4690    23.7410     2.2780   -22.8620 
  255.5000    50.9940     5.0490     4.3270     4.7130    23.7780     2.2770   -23.0770 
  255.6250    52.0390     5.3110     4.4960     5.1340    23.7930     2.2700   -23.3110 
  255.7500    51.0330     5.5990     4.7040     5.5140    23.7880     2.2640   -23.5830 
  255.8750    53.6590     5.8360     4.9150     5.8910    23.8350     2.2600   -23.9090 
  256.0000    57.8710     5.9900     5.1010     6.2930    23.9370     2.2600   -24.2650 
  256.1250    57.7160     6.0940     5.2580     6.5560    24.0370     2.2640   -24.6430 
  256.2500    55.3260     6.2530     5.4350     6.8160    24.0700     2.2720   -24.9940 
  256.3750    54.7320     6.5600     5.7040     6.9790    24.0700     2.2820   -25.3540 
  256.5000    55.9360     7.0780     6.1350     7.3940    24.0630     2.2930   -25.7470 
  256.6250    57.1410     7.8560     6.7890     8.5400    24.0600     2.3020   -26.0490 
  256.7500    58.1670     8.7560     7.5590    10.3760    24.0740     2.3100   -26.2710 
  256.8750    57.6770     9.5660     8.2700    12.1480    24.0980     2.3230   -26.3470 
  257.0000    55.5730    10.0050     8.6950    12.7050    24.1520     2.3400   -26.3190 
  257.1250    54.2610     9.7590     8.5860    12.0930    24.3220     2.3560   -26.1920 
  257.2500    54.9960     8.9870     8.0550    10.5940    24.5010     2.3560   -25.9590 
  257.3750    55.8040     7.9820     7.3040     8.7140    24.4530     2.3320   -25.6420 
  257.5000    55.2830     7.0970     6.5830     6.8510    24.3540     2.2870   -25.2680 
  257.6250    55.3770     6.6840     6.1550     6.5530    24.1890     2.2420   -24.9200 
  257.7500    56.2450     6.7820     6.0970     7.0890    24.0280     2.2190   -24.6420 
  257.8750    56.7310     7.3440     6.4350     8.0110    23.9500     2.2240   -24.4600 
  258.0000    56.0630     8.2390     7.1270     8.7270    23.9400     2.2500   -24.3510 
  258.1250    54.9450     9.2450     8.0520     9.6200    23.9430     2.2810   -24.2640 
  258.2500    54.3130    10.0530     8.9200    11.1170    23.9420     2.3030   -24.2010 
  258.3750    54.2910    10.4190     9.4640    12.5540    23.9310     2.3150   -24.1290 
