~V
VERS. 2.00: Ver 2.00
~W
STRT.M 50.0000:
STOP.M 250.0000:
STEP.M 0.1250:
NULL. -999.2500:
UWI. F10033:
~C
DEPT.M :
SP.MV :
GR.API :
RML.OHMM :
RI. :
RXO.OHMM :
CALI.CM :
DEN.GM/CC :
~A
# ...
   83.7500    -8.4380    58.1480    14.8560    12.4660    14.7040    25.4770     2.3920 
   83.8750    -8.9370    60.1970    13.9480    12.1680    12.4410    25.6220     2.2720 
   84.0000    -9.4440    62.4140    12.7190    11.4370    12.1780    25.7070     2.1800 
   84.1250    -9.9140    62.0620    11.9570    10.8600    12.3870    25.7160     2.1370 
   84.2500   -10.3270    59.7500    11.7770    10.6200    12.2840    25.6850     2.1270 
   84.3750   -10.6600    57.6310    12.0100    10.6730    12.4410    25.6350     2.1290 
   84.5000   -10.9100    57.0140    12.4300    10.9010    12.8220    25.6020     2.1300 
   84.6250   -11.0670    56.8280    12.8740    11.1940    13.2370    25.5760     2.1270 
   84.7500   -11.1770    55.2430    13.2610    11.4740    13.5810    25.5080     2.1270 
   84.8750   -11.2740    54.9320    13.5660    11.7070    13.7710    25.3850     2.1320 
   85.0000   -11.3820    57.9580    13.7790    11.8780    13.8890    25.2950     2.1410 
   85.1250   -11.5080    61.0500    13.8880    11.9730    14.1220    25.2950     2.1480 
   85.2500   -11.6460    61.5670    13.9300    12.0160    14.1150    25.3850     2.1480 
   85.3750   -11.8000    60.7520    13.9420    12.0290    14.0570    25.4940     2.1410 
   85.5000   -11.9710    60.4130    13.9600    12.0360    14.2830    25.5860     2.1310 
   85.6250   -12.1400    61.1990    14.0180    12.0630    14.3480    25.6490     2.1220 
   85.7500   -12.2680    60.8450    14.1210    12.1270    14.1560    25.6690     2.1170 
   85.8750   -12.3120    59.2090    14.2650    12.2340    14.1960    25.6480     2.1180 
   86.0000   -12.2820    57.9990    14.4330    12.3770    14.7480    25.6810     2.1250 
   86.1250   -12.2280    58.6200    14.6090    12.5380    15.2800    25.7300     2.1340 
   86.2500   -12.1850    59.8670    14.7760    12.6960    15.0120    25.7230     2.1430 
   86.3750   -12.1580    59.6870    14.9190    12.8350    14.4930    25.6730     2.1460 
   86.5000   -12.1150    57.7090    15.0100    12.9290    14.3160    25.6550     2.1380 
   86.6250   -12.0390    55.6190    14.9820    12.9260    14.6270    25.6340     2.1130 
   86.7500   -11.9680    54.4770    14.7950    12.7960    14.8630    25.5630     2.0830 
   86.8750   -11.9140    54.1510    14.4310    12.5250    14.6660    25.4240     2.0630 
   87.0000   -11.8710    54.4380    13.9320    12.1450    14.0850    25.1680     2.0630 
   87.1250   -11.7960    56.6170    13.4230    11.7410    13.1230    24.8980     2.0890 
   87.2500   -11.6870    60.0010    13.0570    11.4250    12.8450    24.8490     2.1230 
   87.3750   -11.5580    60.8710    12.9320    11.2720    12.4600    24.9400     2.1540 
   87.5000   -11.4600    58.6420    13.0770    11.3200    12.3560    25.0230     2.1710 
   87.6250   -11.3990    57.7820    13.4430    11.5750    12.9580    25.0610     2.1730 
   87.7500   -11.3600    59.1970    13.8420    11.9110    13.5310    25.1350     2.1660 
   87.8750   -11.3830    60.7180    14.1310    12.2140    13.7930    25.3040     2.1580 
   88.0000   -11.4600    61.6640    14.2290    12.3910    13.2900    25.5400     2.1510 
   88.1250   -11.5810    63.0750    14.1190    12.3900    13.6770    25.6990     2.1470 
   88.2500   -11.7150    64.3540    13.9140    12.2800    14.0350    25.7560     2.1450 
   88.3750   -11.8580    64.6890    13.6850    12.1180    14.2550    25.7370     2.1410 
   88.5000   -11.9820    64.9800    13.4750    11.9460    14.0380    25.6790     2.1370 
   88.6250   -12.0510    63.9320    13.3240    11.8080    13.9150    25.6060     2.1330 
   88.7500   -12.0790    61.1780    13.2640    11.7400    13.5230    25.5040     2.1320 
   88.8750   -12.0570    58.4390    13.3190    11.7650    13.0840    25.4050     2.1370 
   89.0000   -11.9820    57.7690    13.4910    11.8870    13.0280    25.3490     2.1480 
   89.1250   -11.8610    58.7950    13.7400    12.0790    13.1880    25.2820     2.1610 
   89.2500   -11.7320    60.9540    13.9330    12.2500    13.3670    25.2400     2.1710 
   89.3750   -11.5900    64.7220    13.9300    12.2990    13.6170    25.2070     2.1710 
   89.5000   -11.4150    66.6320    13.6470    12.1480    13.8990    25.1770     2.1630 
   89.6250   -11.2350    64.3450    13.1190    11.7960    13.8210    25.1150     2.1530 
   89.7500   -11.0520    62.9350    12.5960    11.4050    13.3140    25.0550     2.1480 
   89.8750   -10.8640    65.4680    12.2540    11.1010    12.3320    25.0430     2.1480 
   90.0000   -10.6930    68.2710    12.1310    10.9290    11.6340    25.0580     2.1480 
   90.1250   -10.5790    67.4140    12.0600    10.8000    11.4410    25.0840     2.1440 
   90.2500   -10.4630    65.2410    11.7620    10.5190    12.7740    25.1370     2.1430 
   90.3750   -10.2880    63.6920    11.1180     9.9880    13.0320    25.2270     2.1580 
   90.5000   -10.0660    64.0910    10.2440     9.2800    11.3930    25.3050     2.1920 
   90.6250    -9.8190    68.4760     9.4730     8.6310     9.3190    25.3350     2.2340 
   90.7500    -9.5990    74.3590     9.0680     8.2310     8.0900    25.3450     2.2610 
   90.8750    -9.4300    77.0060     9.1160     8.1580     8.7240    25.3310     2.2600 
   91.0000    -9.2830    74.6190     9.5450     8.3940    13.0780    25.2330     2.2340 
   91.1250    -9.1100    70.3530    10.1360     8.8390    24.8200    25.0580     2.2010 
   91.2500    -8.9710    68.3820    10.5810     9.2550    30.6860    24.8500     2.1810 
   91.3750    -8.9240    69.6760    10.7360     9.4860    18.8250    24.6900     2.1770 
   91.5000    -8.9830    71.0810    10.5950     9.4630    12.3550    24.6170     2.1840 
   91.6250    -9.1520    69.5030    10.2290     9.1900    10.6860    24.6390     2.1920 
   91.7500    -9.3600    67.6560     9.7990     8.8090    10.1970    24.6860     2.1970 
   91.8750    -9.5480    68.5780     9.3950     8.4230     9.4360    24.7370     2.2020 
   92.0000    -9.6940    71.8660     9.1080     8.1260     9.0040    24.7610     2.2090 
   92.1250    -9.8500    73.3390     9.1140     8.0530     8.3450    24.7570     2.2140 
   92.2500   -10.0680    71.3850     9.5130     8.2640     8.8360    24.7990     2.2120 
   92.3750   -10.3070    67.5100    10.3210     8.7910    10.1980    24.9010     2.2010 
   92.5000   -10.5210    64.3440    11.3590     9.5620    11.7350    25.0400     2.1830 
   92.6250   -10.6660    64.7190    12.1790    10.3090    14.3380    25.0930     2.1670 
   92.7500   -10.7790    66.7140    12.4120    10.6910    19.3270    24.9730     2.1590 
   92.8750   -10.8930    68.0350    12.0050    10.5830    22.6610    24.7750     2.1620 
   93.0000   -10.9880    67.1440    11.2500    10.1390    16.1280    24.6810     2.1760 
   93.1250   -11.0490    65.7720    10.6440     9.6950    11.6590    24.6850     2.1940 
   93.2500   -11.0630    66.2680    10.4770     9.4970    10.1570    24.6650     2.2060 
   93.3750   -11.0640    67.1070    10.7520     9.5990    10.9550    24.6440     2.2080 
   93.5000   -11.0770    66.2070    11.2610     9.9080    11.8990    24.7040     2.1980 
   93.6250   -11.0320    65.5490    11.5960    10.1600    11.9610    24.8320     2.1820 
   93.7500   -10.8790    67.4510    11.4400    10.0660    11.2650    24.9610     2.1690 
   93.8750   -10.6310    70.0150    10.7240     9.5250    10.1050    25.0860     2.1680 
   94.0000   -10.3430    71.7930     9.6510     8.6680     8.6290    25.1140     2.1830 
   94.1250   -10.0060    73.9600     8.5960     7.7850     7.4420    25.0200     2.2080 
   94.2500    -9.6100    77.4190     7.8100     7.0910     6.8350    24.9110     2.2340 
   94.3750    -9.1940    81.1940     7.3540     6.6520     6.3720    24.7840     2.2520 
   94.5000    -8.7990    83.7270     7.2360     6.4840     6.4420    24.5580     2.2590 
   94.6250    -8.4920    83.8240     7.5230     6.6430     7.0220    24.3110     2.2520 
   94.7500    -8.2660    81.0620     8.1640     7.0880     7.1550    24.1640     2.2380 
   94.8750    -8.1650    78.1840     9.1110     7.7950     7.4560    24.1030     2.2210 
