~V
VERS. 2.00: Ver 2.00
~W
STRT.M 50.0000:
STOP.M 216.0000:
STEP.M 0.1250:
NULL. -999.2500:
UWI. F10015:
~C
DEPT.M :
GR.API :
RML.OHMM :
RI. :
RXO.OHMM :
CALI.CM :
DEN.GM/CC :
SP.MV :
~A
# ...
  196.2500    73.0170    61.5420    61.9700    62.2980    24.5900     2.3800   -16.8300 
  196.3750    73.5350    56.1020    56.1990    60.2070    24.5680     2.3770   -16.6500 
  196.5000    73.6340    51.5820    51.1350    58.4530    24.5490     2.3690   -16.4130 
  196.6250    74.0430    49.4980    48.3920    47.6500    24.5460     2.3390   -16.1470 
  196.7500    74.4900    48.9160    47.1780    41.4130    24.5450     2.3090   -15.8310 
  196.8750    74.4240    49.7980    47.4820    42.3110    24.5400     2.3000   -15.4220 
  197.0000    74.1020    51.8850    49.0440    47.1650    24.5250     2.3180   -15.0080 
  197.1250    73.9120    54.9340    51.6090    53.0160    24.5000     2.3530   -14.6550 
  197.2500    73.7020    58.9450    55.1860    63.1010    24.4770     2.3900   -14.2570 
  197.3750    73.0620    63.0990    58.9790    68.6480    24.4700     2.4070   -13.9150 
  197.5000    70.6860    66.0540    61.7220    72.6020    24.4680     2.4070   -13.5610 
  197.6250    66.3900    67.3750    63.0220    73.5920    24.4720     2.4060   -13.2000 
  197.7500    62.1120    66.7860    62.6200    67.0050    24.4860     2.4090   -12.8630 
  197.8750    60.1700    64.5040    60.6770    52.2630    24.5120     2.4210   -12.5730 
  198.0000    61.5100    61.5730    58.0740    40.1030    24.5370     2.4380   -12.3250 
  198.1250    66.0910    59.3100    55.8990    47.3380    24.5310     2.4650   -12.0890 
  198.2500    70.1900    58.0070    54.5040    62.5660    24.5040     2.4970   -11.9050 
  198.3750    70.8510    57.7250    53.9720    74.4430    24.4820     2.5280   -11.7150 
  198.5000    68.6460    58.0300    53.9610    74.3230    24.4710     2.5520   -11.5220 
  198.6250    66.3880    58.1030    53.8010    62.0940    24.4680     2.5620   -11.3590 
  198.7500    67.8360    56.8510    52.5860    52.0210    24.4680     2.5540   -11.2420 
  198.8750    70.2260    53.5480    49.6440    44.8850    24.4670     2.5370   -11.1480 
  199.0000    71.2250    49.6510    46.0920    40.0580    24.4660     2.5230   -11.0360 
  199.1250    70.8320    46.6260    43.1790    33.1110    24.4660     2.5180   -10.8990 
  199.2500    68.3540    45.7000    41.9890    23.9650    24.4670     2.5310   -10.7220 
  199.3750    63.7600    47.2330    42.9050    16.4330    24.4680     2.5620   -10.5070 
  199.5000    59.0440    50.0940    45.0660    17.7590    24.4680     2.6000   -10.3040 
  199.6250    56.5160    49.3970    44.5730    40.3610    24.4680     2.6030   -10.0510 
  199.7500    53.1670    43.6510    39.8230    88.0800    24.4680     2.5660    -9.8020 
  199.8750    47.2130    34.7200    32.1050    95.3080    24.4680     2.4980    -9.5590 
  200.0000    39.2070    25.3720    23.7800    60.8850    24.4680     2.4260    -9.2930 
  200.1250    30.9460    17.8900    17.0800    18.5260    24.4710     2.3770    -9.0130 
  200.2500    24.3730    12.6900    12.8990     7.2090    24.4870     2.3670    -8.8190 
  200.3750    20.4400    10.0470    10.5190     5.1940    24.5400     2.3710    -8.6100 
  200.5000    18.6100     8.8180     9.0990     4.8020    24.6060     2.3560    -8.3930 
  200.6250    18.5320     8.0750     8.1220     4.8370    24.6580     2.3260    -8.1560 
  200.7500    19.8510     7.3790     7.2950     4.8870    24.6850     2.2920    -7.8870 
  200.8750    22.0650     6.6180     6.5020     4.9290    24.6900     2.2640    -7.5930 
  201.0000    24.3740     5.8540     5.7430     4.9200    24.6900     2.2500    -7.3330 
  201.1250    26.7230     5.3460     5.2180     4.9080    24.6900     2.2530    -7.0640 
  201.2500    28.5630     5.0760     4.9030     4.7340    24.6900     2.2630    -6.8070 
  201.3750    28.6060     5.0480     4.8190     4.6120    24.6900     2.2760    -6.5850 
  201.5000    27.1470     5.1930     4.9100     4.6570    24.6900     2.2900    -6.4200 
  201.6250    25.5420     5.4110     5.0880     4.8680    24.6900     2.3040    -6.3210 
  201.7500    25.6890     5.6230     5.2750     5.1190    24.6900     2.3150    -6.2860 
  201.8750    27.3120     5.7290     5.3530     5.1710    24.6900     2.3240    -6.2230 
  202.0000    28.0140     5.6970     5.2860     5.0410    24.6900     2.3280    -6.1970 
  202.1250    27.9630     5.5760     5.1260     4.8260    24.6900     2.3280    -6.1890 
  202.2500    27.9200     5.4160     4.9240     4.6570    24.6900     2.3260    -6.1960 
  202.3750    28.3070     5.2620     4.7250     4.6250    24.6900     2.3220    -6.2200 
  202.5000    28.2870     5.1460     4.5630     4.6910    24.6890     2.3160    -6.2550 
  202.6250    26.5810     5.0900     4.4630     4.6660    24.6880     2.3130    -6.2040 
  202.7500    25.3820     5.0970     4.4180     4.6560    24.6880     2.3160    -6.1710 
  202.8750    25.6450     5.2570     4.4910     4.6940    24.6890     2.3300    -6.1190 
  203.0000    26.5560     5.6060     4.7060     4.8300    24.6900     2.3570    -6.0480 
  203.1250    26.6840     6.1320     5.0630     5.2560    24.6890     2.3880    -5.9780 
  203.2500    25.1340     6.7830     5.5390     6.4250    24.6870     2.4120    -5.9410 
  203.3750    23.6990     7.2410     5.9110     7.9800    24.6870     2.4070    -5.9080 
  203.5000    23.2370     7.2180     5.9330     7.5030    24.6870     2.3790    -5.8920 
  203.6250    23.3470     6.8350     5.6690     6.2560    24.6870     2.3440    -5.8950 
  203.7500    23.8110     6.2790     5.2390     5.2440    24.6860     2.3200    -5.9230 
  203.8750    24.4120     5.7510     4.7910     4.9330    24.6850     2.3130    -5.9940 
  204.0000    24.7570     5.4230     4.4640     4.9840    24.6880     2.3200    -6.1320 
  204.1250    23.6010     5.4550     4.4000     5.1310    24.6880     2.3280    -6.2700 
  204.2500    22.8930     5.6310     4.4640     5.2770    24.6850     2.3300    -6.3370 
  204.3750    23.7550     5.8710     4.6040     5.4390    24.6830     2.3300    -6.4030 
  204.5000    26.0210     6.1040     4.7610     5.6130    24.6820     2.3270    -6.4760 
  204.6250    28.5200     6.2750     4.8850     5.7340    24.6820     2.3220    -6.5480 
  204.7500    29.3650     6.3370     4.9360     5.6430    24.6820     2.3110    -6.6340 
  204.8750    28.0900     6.2800     4.8980     5.5600    24.6820     2.2920    -6.7440 
  205.0000    26.5550     6.1470     4.7970     5.4660    24.6820     2.2770    -6.8210 
  205.1250    25.7000     5.9920     4.6700     5.2880    24.6820     2.2720    -6.9420 
  205.2500    25.4850     5.8660     4.5550     5.1190    24.6820     2.2830    -7.1010 
  205.3750    25.4850     5.8020     4.4780     5.0790    24.6830     2.3090    -7.2660 
  205.5000    25.4850     5.8070     4.4500     5.1600    24.6890     2.3400    -7.4350 
  205.6250    25.4850     5.9020     4.4960     5.2210    24.7150     2.3450    -7.6520 
  205.7500    25.4850     6.0340     4.5780     5.2230    24.7400     2.3230    -7.8170 
  205.8750    25.4850     6.1930     4.6910     5.3010    24.7520     2.2830    -7.9220 
  206.0000    25.4850     6.3630     4.8220     5.4350    24.7390     2.2460    -7.9920 
  206.1250    25.4850     6.5210     4.9510     5.5610    24.6830     2.2340    -8.0410 
  206.2500    25.4850     6.6400     5.0580     5.6850    24.5480     2.2620    -8.0100 
  206.3750    25.4850     6.6790     5.1080     5.8180    24.3900     2.3090    -7.9700 
  206.5000    25.4850     6.6230     5.0860     5.8000    24.2950     2.3420    -7.9120 
  206.6250    25.4850     6.5080     5.0150     5.6890    24.2450     2.3580    -7.8710 
  206.7500    25.4850     6.3710     4.9180     5.5480    24.2140     2.3610    -7.8540 
  206.8750    25.4850     6.2510     4.8230     5.4280    24.1890     2.3590    -7.8500 
  207.0000    25.4850     6.1790     4.7530     5.3530    24.1780     2.3620    -7.8500 
  207.1250    25.4850     6.1880     4.7380     5.4290    24.1780     2.3660    -7.8570 
  207.2500    25.4850     6.2190     4.7460     5.6200    24.1780     2.3680    -7.8750 
  207.3750    25.4850     6.2430     4.7590     5.7600    24.1780     2.3640    -7.8610 
