~V
VERS. 2.00: Ver 2.00
~W
STRT.M 50.0000:
STOP.M 274.0000:
STEP.M 0.1250:
NULL. -999.2500:
UWI. F10029:
~C
DEPT.M :
DEN.GM/CC :
SP.MV :
GR.API :
CALI.CM :
RXO.OHMM :
RI. :
RML.OHMM :
~A
   50.0000  -999.2500    32.5560  -999.2500  -999.2500  -999.2500  -999.2500  -999.2500 
   50.1250  -999.2500    30.7460  -999.2500  -999.2500  -999.2500  -999.2500  -999.2500 
   50.2500  -999.2500    28.8960  -999.2500  -999.2500  -999.2500  -999.2500  -999.2500 
   50.3750  -999.2500    27.0690  -999.2500  -999.2500  -999.2500  -999.2500  -999.2500 
   50.5000  -999.2500    25.3090  -999.2500  -999.2500  -999.2500  -999.2500  -999.2500 
   50.6250  -999.2500    23.7760  -999.2500  -999.2500  -999.2500  -999.2500  -999.2500 
   50.7500  -999.2500    22.4750  -999.2500  -999.2500  -999.2500  -999.2500  -999.2500 
   50.8750  -999.2500    21.2160  -999.2500  -999.2500  -999.2500  -999.2500  -999.2500 
   51.0000  -999.2500    19.8430    50.4700    24.3760     0.5110     1.7480     1.2450 
   51.1250  -999.2500    18.2300    50.4700    24.3760     0.5110     1.7480     1.2450 
   51.2500  -999.2500    16.4060    50.3750    24.7500     0.5980     1.7660     1.2630 
   51.3750  -999.2500    14.4130    49.9560    25.1970     0.8550     1.7570     1.2540 
   51.5000  -999.2500    12.3830    49.8390    25.4790     1.4090     1.7420     1.2380 
   51.6250  -999.2500    10.2070    48.5770    25.5570     4.4560     1.7490     1.2450 
   51.7500  -999.2500     7.9570    48.1340    25.5830    10.1950     1.7860     1.2860 
   51.8750  -999.2500     5.8680    49.7640    25.6200    16.2540     1.8520     1.3560 
   52.0000  -999.2500     4.1050    52.0130    25.6480    27.7260     1.9330     1.4430 
   52.1250     1.8170     2.8780    49.5960    25.6570    47.6970     2.0190     1.5350 
   52.2500     1.8170     2.0280    47.0170    25.6580    38.8720     2.1040     1.6260 
   52.3750     1.8070     1.5540    48.7600    25.6580    14.4280     2.1860     1.7130 
   52.5000     1.7960     1.3660    50.8030    25.6580     3.7650     2.2660     1.7990 
   52.6250     1.7860     1.5630    47.9210    25.6580     1.0720     2.3420     1.8810 
   52.7500     1.7680     1.9030    44.6880    25.6580     0.4220     2.4110     1.9540 
   52.8750     1.7450     2.2480    44.9360    25.6580     0.6770     2.4710     2.0190 
   53.0000     1.7190     2.5860    47.6790    25.6580    48.3100     2.5220     2.0740 
   53.1250     1.6920     2.9420    47.8250    25.6580   881.3190     2.5610     2.1150 
   53.2500     1.6620     3.4250    46.1590    25.6580  1690.4810     2.5930     2.1500 
   53.3750     1.6320     4.0820    44.9920    25.6580  1861.7590     2.6310     2.1900 
   53.5000     1.6090     4.9170    45.8230    25.6480  1360.2470     2.6900     2.2530 
   53.6250     1.6050     5.9150    46.4950    25.6180   710.9760     2.7900     2.3610 
   53.7500     1.6150     7.2010    46.2910    25.5770   552.8430     2.9350     2.5150 
   53.8750     1.6410     8.6740    47.0950    25.5470  1056.9970     3.1200     2.7150 
   54.0000     1.6840    10.1380    50.4100    25.5120  1037.8210     3.3380     2.9480 
   54.1250     1.7360    11.3670    52.4020    25.4750   512.7000     3.5750     3.2010 
   54.2500     1.7760    12.2370    50.7220    25.4570    10.3650     3.8120     3.4550 
   54.3750     1.7990    12.6440    47.2860    25.4530     5.6350     4.0480     3.7080 
   54.5000     1.8120    12.7000    44.6150    25.4650     9.2980     4.2990     3.9770 
   54.6250     1.8210    12.5310    43.6700    25.5010   185.0180     4.6130     4.3140 
   54.7500     1.8240    12.3100    42.5210    25.5610  1014.1630     5.0190     4.7480 
   54.8750     1.8220    12.2720    41.5440    25.6180  1836.1860     5.5270     5.2930 
   55.0000     1.8220    12.6820    42.7900    25.6420  2000.0000     6.1150     5.9230 
   55.1250     1.8330    13.8350    44.6260    25.6270  2000.0000     6.7160     6.5660 
   55.2500     1.8500    15.5340    44.6680    25.5900  2000.0000     7.2380     7.1250 
   55.3750     1.8620    17.5390    43.4750    25.5760  2000.0000     7.6150     7.5290 
   55.5000     1.8560    19.5870    43.0880    25.5950  2000.0000     7.8030     7.7310 
   55.6250     1.8190    21.6520    43.2420    25.6360  2000.0000     7.7320     7.6540 
   55.7500     1.7610    23.7440    43.2160    25.6540  2000.0000     7.3560     7.2520 
   55.8750     1.7040    25.8550    44.5760    25.6580  2000.0000     6.5260     6.3630 
   56.0000     1.6740    27.8400    48.0020    25.6580  2000.0000     5.1700     4.9100 
   56.1250     1.6890    29.2310    49.8800    25.6490  2000.0000     3.5630     3.1880 
   56.2500     1.7170    30.1130    48.6920    25.6230  1691.3370     2.2190     1.7490 
   56.3750     1.7220    30.6600    46.9210    25.5860   883.8940     1.3400     0.8070 
   56.5000     1.7160    30.7500    47.5400    25.5640    51.2430     0.9250     0.3630 
   56.6250     1.7840    29.6480    51.7840    25.5470     2.0990     0.9730     0.4150 
   56.7500     1.9270    27.2910    57.4240    25.5280     1.7330     1.3840     0.8550 
   56.8750     2.0620    23.8330    64.2850    25.4240     3.0220     2.1510     1.6760 
   57.0000     2.1120    19.5380    73.0800    25.0670     5.1700     3.2270     2.8280 
   57.1250     2.0970    14.8790    81.4690    24.3310     6.6390     4.3980     4.0830 
   57.2500     2.1010    10.0680    86.0830    23.7420     6.9600     5.2740     5.0220 
   57.3750     2.1330     5.2290    89.4670    23.3560     6.4360     5.6970     5.4740 
   57.5000     2.1680     0.6590    99.1380    23.1800     6.1480     5.8020     5.5870 
   57.6250     2.1830    -2.9980   111.1450    23.0460     6.5210     5.7940     5.5790 
   57.7500     2.1850    -5.7310   112.1980    22.8220     7.0420     5.7570     5.5390 
   57.8750     2.1880    -7.7270   103.4060    22.5070     7.3290     5.6510     5.4250 
   58.0000     2.2000    -9.1930    98.2740    22.3850     7.2990     5.4480     5.2080 
   58.1250     2.2270   -10.3380   107.5530    22.8080     6.6970     5.1860     4.9270 
   58.2500     2.2600   -11.2540   119.2660    23.2770     6.2520     4.9780     4.7050 
   58.3750     2.2850   -12.0610   125.5650    23.5390     5.9970     4.9320     4.6550 
   58.5000     2.2930   -12.7920   125.3950    23.5130     5.8230     5.1230     4.8600 
   58.6250     2.2820   -13.4430   122.3970    23.3270     6.1670     5.6310     5.4040 
   58.7500     2.2620   -14.0760   120.6620    22.9880     7.0120     6.3630     6.1880 
   58.8750     2.2380   -14.7220   118.7520    22.5170     8.3370     7.1830     7.0660 
   59.0000     2.2070   -15.3660   114.1460    21.9710    10.2020     7.8720     7.8040 
   59.1250     2.1650   -15.9230   107.9920    21.5720    10.9680     8.1250     8.0760 
   59.2500     2.1350   -16.3720   102.0650    21.3780    10.3060     7.9370     7.8740 
   59.3750     2.1340   -16.6990    99.2750    21.3350     8.4300     7.4490     7.3520 
   59.5000     2.1630   -16.9760   103.2940    21.3980     6.5010     6.8810     6.7420 
   59.6250     2.1960   -17.2720   113.2610    21.6490     5.5940     6.4480     6.2790 
   59.7500     2.2090   -17.5440   118.5830    22.0490     5.2720     6.2180     6.0330 
   59.8750     2.1970   -17.7510   115.5160    22.3710     5.3560     6.1820     5.9940 
   60.0000     2.1750   -17.9030   110.2830    22.5820     5.6720     6.2840     6.1030 
   60.1250     2.1670   -18.0770   108.9430    22.6850     5.8920     6.4510     6.2820 
   60.2500     2.1740   -18.3370   110.2800    22.8310     5.8630     6.6060     6.4480 
   60.3750     2.1850   -18.6600   111.1870    23.0380     5.7630     6.7270     6.5780 
   60.5000     2.1850   -18.9830   110.5220    23.2250     5.9760     6.8190     6.6770 
   60.6250     2.1750   -19.2210   111.1100    23.2120     6.4670     6.8860     6.7490 
   60.7500     2.1670   -19.4130   111.2030    23.0540     6.7540     6.9090     6.7730 
   60.8750     2.1670   -19.6330   108.0160    22.9470     6.6830     6.8370     6.6950 
   61.0000     2.1660   -19.8490   103.3740    22.9720     6.4380     6.6120     6.4550 
   61.1250     2.1620   -20.0900   104.8030    23.0730     6.3200     6.2040     6.0180 
