~V
VERS. 2.00: Ver 2.00
~W
STRT.M 59.0000:
STOP.M 275.0000:
STEP.M 0.1250:
NULL. -999.2500:
UWI. F10021:
~C
DEPT.M :
GR.API :
RML.OHMM :
RI. :
RXO.OHMM :
CALI.CM :
DEN.GM/CC :
SP.MV :
~A
# ...
  182.7500    44.7560    15.3010    14.1330    14.5640    23.3080     2.3950   -11.6680 
  182.8750    45.8850    15.3530    14.2100    15.2860    23.5520     2.4030   -11.8380 
  183.0000    46.7430    15.3630    14.2820    15.6650    23.6560     2.4060   -11.9720 
  183.1250    48.2660    15.3660    14.3350    15.0720    23.6560     2.4090   -12.0560 
  183.2500    50.4850    15.4220    14.3990    14.7330    23.6360     2.4140   -12.1240 
  183.3750    50.4540    15.5650    14.5030    14.9860    23.5960     2.4220   -12.1830 
  183.5000    46.7510    15.7860    14.6550    15.6420    23.5190     2.4280   -12.2450 
  183.6250    42.0810    16.0370    14.8230    16.1430    23.3700     2.4320   -12.2720 
  183.7500    40.0490    16.2270    14.9370    16.1670    23.1970     2.4410   -12.2770 
  183.8750    41.7680    16.2780    14.9350    15.7530    23.0040     2.4580   -12.2810 
  184.0000    46.4660    16.1440    14.7790    15.3740    22.8500     2.4780   -12.2920 
  184.1250    50.0540    15.8060    14.4580    15.0930    22.9140     2.4930   -12.3350 
  184.2500    50.1030    15.3720    14.0590    14.8350    23.1090     2.4960   -12.3650 
  184.3750    48.8870    14.9450    13.6630    14.4790    23.3380     2.4870   -12.4030 
  184.5000    47.6370    14.6260    13.3490    14.2960    23.4960     2.4730   -12.4240 
  184.6250    45.9050    14.5160    13.2060    14.4250    23.5620     2.4650   -12.4620 
  184.7500    44.3790    14.5980    13.2330    14.7530    23.5440     2.4680   -12.5110 
  184.8750    44.1710    14.8300    13.4090    15.1600    23.4690     2.4810   -12.5560 
  185.0000    45.1080    15.1310    13.6730    15.7510    23.3850     2.4980   -12.6020 
  185.1250    46.2030    15.3890    13.9290    16.1820    23.3490     2.5150   -12.6300 
  185.2500    48.0250    15.5380    14.0900    16.3130    23.3400     2.5270   -12.6780 
  185.3750    49.6170    15.5560    14.1140    16.0520    23.3270     2.5330   -12.7130 
  185.5000    49.4340    15.4620    14.0090    15.4670    23.3080     2.5380   -12.7500 
  185.6250    47.4430    15.2980    13.8150    14.7700    23.3360     2.5420   -12.7680 
  185.7500    45.6060    15.1370    13.6140    14.3640    23.4320     2.5470   -12.7950 
  185.8750    44.2210    15.0170    13.4520    14.2230    23.5650     2.5530   -12.8390 
  186.0000    42.9230    14.9540    13.3500    14.0210    23.6900     2.5590   -12.9160 
  186.1250    43.4100    14.9500    13.3110    13.8590    23.7240     2.5650   -12.9840 
  186.2500    45.4440    14.9750    13.3110    13.5830    23.6570     2.5710   -13.0390 
  186.3750    47.6090    15.0170    13.3430    13.3540    23.5460     2.5750   -13.1010 
  186.5000    48.4160    15.0890    13.4120    13.2510    23.4280     2.5750   -13.1930 
  186.6250    47.1610    15.2270    13.5450    13.1640    23.2920     2.5680   -13.3170 
  186.7500    44.8650    15.4430    13.7430    13.0980    23.1400     2.5560   -13.4450 
  186.8750    42.3910    15.7160    13.9920    12.9850    22.9550     2.5390   -13.5790 
  187.0000    41.5780    15.9900    14.2490    12.9340    22.6450     2.5210   -13.6960 
  187.1250    43.4930    16.1560    14.4310    12.9380    22.2690     2.5060   -13.8280 
  187.2500    47.5190    16.1490    14.4770    13.0450    21.9670     2.5000   -13.9180 
  187.3750    52.6270    15.9420    14.3560    13.1610    21.9130     2.5050   -14.0060 
  187.5000    56.3240    15.5660    14.0810    13.1440    22.2900     2.5170   -14.0740 
  187.6250    56.9880    15.1000    13.7020    13.0430    22.9340     2.5250   -14.1240 
  187.7500    56.1320    14.6640    13.3210    12.9560    23.4480     2.5160   -14.1820 
  187.8750    54.6910    14.3260    13.0010    12.9090    23.6400     2.4850   -14.2470 
  188.0000    52.2890    14.1130    12.7790    12.8320    23.4900     2.4380   -14.3410 
  188.1250    48.7150    14.0330    12.6730    12.7340    23.0210     2.3950   -14.4590 
  188.2500    45.7830    14.0410    12.6450    12.8150    22.4220     2.3700   -14.6860 
  188.3750    45.6780    14.1320    12.6800    13.1400    21.8850     2.3680   -14.9880 
  188.5000    48.7940    14.3270    12.7810    13.4510    21.5700     2.3840   -15.3940 
  188.6250    52.4030    14.6680    12.9840    13.5610    21.4690     2.4080   -15.9430 
  188.7500    53.5610    15.0850    13.2690    13.7110    21.4410     2.4300   -16.6120 
  188.8750    52.0930    15.4620    13.5790    14.1400    21.4910     2.4450   -17.3860 
  189.0000    49.4140    15.6520    13.8220    14.9370    21.6930     2.4500   -18.2650 
  189.1250    47.9870    15.4800    13.8660    15.9110    22.0750     2.4350   -19.2270 
  189.2500    48.3040    14.9970    13.6860    15.7610    22.6090     2.4010   -20.1910 
  189.3750    49.4880    14.3260    13.3220    13.6780    23.1720     2.3550   -21.1320 
  189.5000    51.0820    13.6400    12.8720    12.0720    23.5510     2.3090   -22.0120 
  189.6250    52.5080    13.1240    12.4710    11.6580    23.6250     2.2810   -22.7800 
  189.7500    53.8420    12.8170    12.1970    11.5570    23.5190     2.2730   -23.4220 
  189.8750    54.0430    12.6960    12.0650    11.3240    23.3710     2.2800   -23.9500 
  190.0000    53.5200    12.6910    12.0470    11.0180    23.3100     2.2960   -24.3260 
  190.1250    53.6710    12.7190    12.0850    10.9560    23.4290     2.3080   -24.6130 
  190.2500    53.7500    12.7110    12.1100    11.1420    23.6730     2.3110   -24.8130 
  190.3750    53.4860    12.6270    12.0790    11.5290    23.9110     2.3070   -24.9270 
  190.5000    52.5390    12.4290    11.9520    11.9330    24.0540     2.2990   -24.9270 
  190.6250    49.8730    12.0740    11.6750    12.1310    24.0970     2.2940   -24.7830 
  190.7500    47.5290    11.6390    11.2890    12.1080    24.0980     2.2910   -24.5230 
  190.8750    46.8650    11.2990    10.8960    11.9080    24.0730     2.2870   -24.0930 
  191.0000    47.4740    11.3850    10.7210    11.6640    24.0190     2.2780   -23.5140 
  191.1250    46.6410    12.5000    11.2150    11.7160    23.9310     2.2650   -22.7170 
  191.2500    46.0070    14.7020    12.5230    12.7570    23.8340     2.2560   -21.7650 
  191.3750    48.8400    17.6380    14.5090    16.5020    23.7720     2.2660   -20.6540 
  191.5000    54.0710    20.3970    16.6020    26.1670    23.7860     2.3090   -19.4240 
  191.6250    56.7600    21.3760    17.6320    37.4110    23.9020     2.3930   -18.1360 
  191.7500    55.1230    19.9600    16.8960    47.7820    24.0620     2.4930   -16.8310 
  191.8750    50.8070    16.4940    14.4460    52.3270    24.2040     2.5760   -15.5830 
  192.0000    47.4800    12.2910    11.2190    33.8550    24.2860     2.6140   -14.4230 
  192.1250    46.4230     8.9760     8.5080    13.9190    24.3110     2.5910   -13.4390 
  192.2500    45.5470     6.9570     6.7350     7.0210    24.3000     2.5420   -12.6230 
  192.3750    45.0580     6.0340     5.8290     5.7780    24.2680     2.4920   -12.0230 
  192.5000    47.8610     5.8750     5.6020     5.8400    24.2400     2.4560   -11.6140 
  192.6250    53.1780     6.2580     5.9370     6.0560    24.2420     2.4400   -11.4060 
  192.7500    56.7900     6.9070     6.5840     6.4230    24.2390     2.4380   -11.3280 
  192.8750    57.2010     7.6900     7.3990     6.8580    24.2100     2.4430   -11.3670 
  193.0000    55.8690     8.4660     8.2240     7.3880    24.1800     2.4510   -11.4670 
  193.1250    55.7540     9.0060     8.8210     8.0660    24.1760     2.4570   -11.5620 
  193.2500    57.1550     9.1590     9.0290     8.3510    24.2040     2.4590   -11.6470 
  193.3750    58.9950     8.8510     8.7680     8.1400    24.2270     2.4610   -11.6890 
  193.5000    60.7850     8.1510     8.0870     7.6280    24.2080     2.4690   -11.7230 
  193.6250    62.1330     7.2430     7.1550     6.7140    24.1150     2.4890   -11.6810 
  193.7500    60.3830     6.4010     6.2470     5.6940    23.9870     2.5130   -11.6140 
  193.8750    54.4250     5.7640     5.5110     4.8420    23.8670     2.5320   -11.4950 
