~V
VERS. 2.00: Ver 2.00
~W
STRT.M 51.0000:
STOP.M 242.0000:
STEP.M 0.1250:
NULL. -999.2500:
UWI. F10056:
~C
DEPT.M :
GR.API :
RML.OHMM :
RI. :
RXO.OHMM :
CALI.CM :
SP.MV :
DEN.GM/CC :
~A
# ...
   84.7500    67.2670    10.0750     8.6210     9.7680    24.9810   -15.5540     2.1770 
   84.8750    66.7680     9.9360     8.4520     9.2210    25.1170   -16.2150     2.1850 
   85.0000    65.0950     9.9080     8.3930     8.8030    25.1710   -16.6520     2.1900 
   85.1250    61.2620     9.9090     8.3790     8.7460    25.2120   -17.0090     2.1870 
   85.2500    56.3520     9.9090     8.3760     8.8360    25.3460   -17.2510     2.1780 
   85.3750    54.2190     9.9010     8.3760     8.7660    25.6350   -17.3560     2.1650 
   85.5000    56.6520     9.8820     8.3740     8.4700    25.8560   -17.4170     2.1530 
   85.6250    59.5680     9.8440     8.3610     8.3130    25.7360   -17.4410     2.1470 
   85.7500    58.7040     9.7860     8.3330     8.4290    25.4610   -17.3870     2.1470 
   85.8750    56.1250     9.7150     8.2900     8.4220    25.2890   -17.2560     2.1500 
   86.0000    55.5180     9.6400     8.2380     8.3860    25.2400   -17.0920     2.1560 
   86.1250    57.4810     9.5720     8.1790     8.3900    25.2390   -16.9010     2.1620 
   86.2500    58.1330     9.5180     8.1190     8.3950    25.2280   -16.7500     2.1670 
   86.3750    56.0850     9.4830     8.0660     8.4430    25.2000   -16.6700     2.1700 
   86.5000    53.7240     9.4750     8.0310     8.5400    25.1720   -16.5840     2.1710 
   86.6250    55.5540     9.5140     8.0350     8.5630    25.1520   -16.4890     2.1730 
   86.7500    59.0300     9.6040     8.0840     8.6110    25.1500   -16.4520     2.1750 
   86.8750    60.8960     9.7440     8.1790     8.8050    25.1600   -16.4700     2.1790 
   87.0000    61.0750     9.9120     8.3040     8.9920    25.2750   -16.5160     2.1840 
   87.1250    62.3910    10.0620     8.4260     9.1200    25.4000   -16.5360     2.1910 
   87.2500    65.3640    10.1430     8.5040     9.3060    25.3650   -16.5470     2.1970 
   87.3750    69.0710    10.1330     8.5140     9.4660    25.0830   -16.4550     2.2010 
   87.5000    71.3240    10.0380     8.4560     9.4860    24.8780   -16.3400     2.2030 
   87.6250    70.4540     9.8990     8.3510     9.4660    24.7810   -16.1870     2.2010 
   87.7500    69.1420     9.7820     8.2450     9.5120    24.6460   -15.9470     2.1990 
   87.8750    68.6200     9.7230     8.1650     9.5680    24.5460   -15.6810     2.1960 
   88.0000    68.1330     9.7350     8.1280     9.6410    24.4860   -15.4390     2.1920 
   88.1250    65.6610     9.8090     8.1350     9.6610    24.4720   -15.1560     2.1890 
   88.2500    62.9890     9.9020     8.1630     9.6740    24.4740   -14.7750     2.1890 
   88.3750    60.9290     9.9820     8.1950     9.7480    24.4460   -14.3430     2.1930 
   88.5000    60.1380    10.0310     8.2190     9.9440    24.3430   -13.9140     2.2000 
   88.6250    60.4060    10.0430     8.2330     9.8650    24.1470   -13.6590     2.2080 
   88.7500    61.3380    10.0460     8.2510     9.9110    24.0280   -13.4570     2.2170 
   88.8750    62.4940    10.0760     8.2930     9.7540    24.0920   -13.2910     2.2280 
   89.0000    63.0260    10.1700     8.3790     9.6060    24.3260   -13.1900     2.2410 
   89.1250    61.8440    10.3600     8.5340     9.5850    24.5070   -13.1570     2.2520 
   89.2500    59.9510    10.5940     8.7390     9.7650    24.5710   -13.2340     2.2500 
   89.3750    58.7560    10.7970     8.9520     9.8160    24.5670   -13.4060     2.2320 
   89.5000    58.8810    10.8880     9.1210     9.6470    24.5470   -13.5150     2.1990 
   89.6250    60.8570    10.8050     9.1800     9.3770    24.4710   -13.4370     2.1630 
   89.7500    63.9420    10.6250     9.1460     9.4460    24.4150   -13.2810     2.1380 
   89.8750    64.3750    10.4460     9.0650     9.6030    24.4190   -12.9780     2.1310 
   90.0000    60.9380    10.3340     8.9810     9.6310    24.4560   -12.5390     2.1400 
   90.1250    58.6390    10.2450     8.8720     9.7260    24.4780   -11.9290     2.1600 
   90.2500    60.4560    10.0280     8.6540     9.7460    24.4840   -11.1330     2.1830 
   90.3750    63.9830     9.5480     8.2410     9.4580    24.5240   -10.0380     2.2080 
   90.5000    68.6050     8.7570     7.6020     8.7550    24.6230    -8.6980     2.2370 
   90.6250    74.8140     7.7510     6.8040     7.3260    24.7760    -7.1600     2.2690 
   90.7500    79.5160     6.8110     6.0450     5.9860    24.8780    -5.6530     2.2980 
   90.8750    81.2550     6.1420     5.4700     5.3900    24.8460    -4.3590     2.3170 
   91.0000    80.2230     5.8760     5.1720     5.0090    24.7730    -3.4270     2.3180 
   91.1250    76.1750     6.1750     5.2730     5.2590    24.6600    -3.0360     2.3010 
   91.2500    70.2240     6.9700     5.7430     6.2690    24.4350    -3.0710     2.2740 
   91.3750    66.1350     8.1740     6.5530     7.6280    24.1760    -3.5440     2.2450 
   91.5000    63.7370     9.5900     7.6000     9.2320    24.0380    -4.4360     2.2220 
   91.6250    60.8350    10.8400     8.6500    12.5670    24.0890    -5.6370     2.2140 
   91.7500    59.0690    11.5880     9.4040    17.9950    24.2820    -6.8960     2.2240 
   91.8750    60.2360    11.6950     9.6960    20.1620    24.5050    -8.0830     2.2480 
   92.0000    63.9370    11.2860     9.5560    14.6560    24.6430    -9.0770     2.2730 
   92.1250    66.1750    10.6560     9.1600    11.4860    24.6280    -9.8650     2.2830 
   92.2500    64.5590    10.1360     8.7640    10.1530    24.5360   -10.5070     2.2720 
   92.3750    59.9590     9.8630     8.4830     9.3960    24.4600   -11.0980     2.2490 
   92.5000    56.1000     9.8580     8.3600     9.0630    24.5280   -11.5910     2.2280 
   92.6250    57.7500    10.0430     8.3750     9.0590    24.6770   -12.1210     2.2230 
   92.7500    61.6760    10.2330     8.4280     9.0480    24.7370   -12.7220     2.2310 
   92.8750    64.3940    10.3140     8.4460     9.3690    24.6860   -13.3490     2.2420 
   93.0000    63.9260    10.2370     8.3870    10.4720    24.6310   -13.9080     2.2450 
   93.1250    61.5040    10.0190     8.2410    10.8840    24.5640   -14.3090     2.2330 
   93.2500    59.5000     9.7790     8.0700     9.7850    24.5360   -14.5920     2.2130 
   93.3750    59.0580     9.5990     7.9240     9.0320    24.5300   -14.7830     2.1940 
   93.5000    61.3220     9.5230     7.8360     8.9830    24.5310   -14.9310     2.1800 
   93.6250    64.3900     9.5700     7.8280     9.1090    24.5290   -14.9190     2.1720 
   93.7500    63.8180     9.6810     7.8720     9.0650    24.5350   -14.7750     2.1670 
   93.8750    61.4860     9.8010     7.9340     9.1120    24.5600   -14.5700     2.1650 
   94.0000    62.7200     9.8730     7.9760     9.0830    24.5820   -14.2870     2.1670 
   94.1250    67.7820     9.8360     7.9500     8.9880    24.5900   -13.9690     2.1730 
   94.2500    69.3420     9.6820     7.8430     8.8560    24.5880   -13.6300     2.1800 
   94.3750    65.2730     9.4180     7.6530     8.6550    24.5680   -13.2200     2.1870 
   94.5000    60.1220     9.0930     7.4110     8.2030    24.5280   -12.7760     2.1960 
   94.6250    60.3700     8.8000     7.1810     7.6300    24.5040   -12.4220     2.2070 
   94.7500    64.3820     8.6140     7.0160     7.1990    24.5620   -12.1600     2.2150 
   94.8750    68.4640     8.5700     6.9430     6.7520    24.7090   -11.9840     2.2130 
   95.0000    68.9730     8.6580     6.9620     7.1290    24.9320   -11.8820     2.1980 
   95.1250    66.5940     8.8140     7.0420     7.8200    25.1270   -11.7630     2.1750 
   95.2500    65.1500     8.9330     7.1110     8.2730    25.2260   -11.6180     2.1570 
   95.3750    65.5970     8.9610     7.1280     8.1720    25.2040   -11.4980     2.1490 
   95.5000    67.2450     8.8930     7.0800     7.9430    24.9260   -11.3810     2.1500 
   95.6250    67.7350     8.7750     6.9890     7.7230    24.5910   -11.3150     2.1540 
   95.7500    66.9890     8.6880     6.9090     7.8080    24.3610   -11.3100     2.1550 
   95.8750    67.4330     8.6740     6.8750     8.0800    24.2900   -11.2640     2.1530 
