~V
VERS. 2.00: Ver 2.00
~W
STRT.M 64.0000:
STOP.M 287.0000:
STEP.M 0.1250:
NULL. -999.2500:
UWI. F10052:
~C
DEPT.M :
SP.MV :
DEN.GM/CC :
GR.API :
RML.OHMM :
RI. :
RXO.OHMM :
CALI.CM :
~A
# ...
   75.2500   -26.6740     2.1660    89.5230     5.4450     4.6580     5.6570    21.4950 
   75.3750   -26.6540     2.2390    85.7200     5.7100     4.9150     6.0350    21.7280 
   75.5000   -26.6160     2.3040    81.5260     6.3390     5.4760     6.4640    22.0370 
   75.6250   -26.5180     2.3250    80.1270     7.4410     6.5070     7.5200    22.4730 
   75.7500   -26.4270     2.2960    81.3780     8.8740     7.9020    10.5240    23.0380 
   75.8750   -26.3770     2.2260    82.2370    10.3240     9.3720    16.5310    23.6940 
   76.0000   -26.3540     2.1410    78.6020    11.1680    10.3650    20.2090    24.3320 
   76.1250   -26.3450     2.0700    70.4280    10.7260    10.2260    15.1700    24.7710 
   76.2500   -26.3510     2.0320    64.4430     9.5960     9.3200     9.5880    24.9810 
   76.3750   -26.3350     2.0310    61.8850     8.5140     8.2200     7.5300    25.0300 
   76.5000   -26.2750     2.0560    61.6780     7.9180     7.3580     7.0410    25.0040 
   76.6250   -26.2190     2.0860    62.2360     7.9270     6.9480     7.0030    24.9320 
   76.7500   -26.1630     2.1070    61.5990     8.2060     6.8390     7.0880    24.8090 
   76.8750   -26.0650     2.1190    61.3800     8.4520     6.8650     7.1110    24.6340 
   77.0000   -25.9040     2.1250    62.7160     8.4400     6.8630     7.0750    24.4320 
   77.1250   -25.6930     2.1280    66.2500     8.1120     6.7160     6.9260    24.2640 
   77.2500   -25.4920     2.1310    70.6890     7.6830     6.4560     6.5280    24.1550 
   77.3750   -25.3320     2.1410    77.5000     7.3010     6.1430     5.9930    24.0900 
   77.5000   -25.2330     2.1610    86.0700     7.0320     5.8390     5.9230    24.0440 
   77.6250   -25.1810     2.1880    90.8670     6.8780     5.5870     5.9630    24.0010 
   77.7500   -25.1140     2.2120    92.5670     6.7840     5.3870     5.7470    23.9520 
   77.8750   -25.0470     2.2280    93.8110     6.7410     5.2380     5.4870    23.8890 
   78.0000   -25.0320     2.2430    94.2760     6.7510     5.1440     5.4190    23.8100 
   78.1250   -25.0600     2.2700    92.6420     6.7950     5.1100     5.5250    23.7250 
   78.2500   -25.0940     2.3100    90.9940     6.8080     5.1160     5.4910    23.6640 
   78.3750   -25.1230     2.3440    93.1580     6.7200     5.1350     5.3590    23.6470 
   78.5000   -25.1430     2.3550    96.8180     6.4800     5.1260     5.3570    23.6740 
   78.6250   -25.1580     2.3330    97.1290     6.1180     5.0500     5.3890    23.7360 
   78.7500   -25.1610     2.2980    96.6670     5.8200     4.9220     5.2260    23.8090 
   78.8750   -25.1650     2.2610    98.0200     5.7090     4.7780     5.1090    23.8800 
   79.0000   -25.1500     2.2270    99.2560     5.8060     4.6640     5.2270    23.9530 
   79.1250   -25.1500     2.2050    96.9440     6.0610     4.6590     5.3710    24.0410 
   79.2500   -25.1740     2.2100    92.6300     6.3610     4.7940     5.6080    24.1400 
   79.3750   -25.2220     2.2510    91.1430     6.6660     5.0650     5.8280    24.2270 
   79.5000   -25.2910     2.3180    94.2990     6.9840     5.4170     6.2490    24.2880 
   79.6250   -25.3380     2.3650    96.4980     7.3020     5.7390     7.2330    24.3390 
   79.7500   -25.3790     2.3560    93.3730     7.5400     5.9250     7.9370    24.3990 
   79.8750   -25.4300     2.3000    87.9610     7.6430     5.9370     7.3720    24.4700 
   80.0000   -25.5170     2.2290    87.5270     7.6460     5.8250     6.4120    24.5410 
   80.1250   -25.6070     2.1800    91.8890     7.6240     5.6920     6.3370    24.5910 
   80.2500   -25.6730     2.1620    92.6650     7.6240     5.6060     6.5880    24.5990 
   80.3750   -25.7070     2.1750    87.7700     7.6180     5.5740     6.6440    24.5600 
   80.5000   -25.6950     2.2070    82.3840     7.5450     5.5580     6.4760    24.4850 
   80.6250   -25.6770     2.2360    84.7930     7.3490     5.4950     6.1430    24.3870 
   80.7500   -25.6680     2.2440    91.3830     7.0880     5.3620     5.8160    24.2690 
   80.8750   -25.6540     2.2350    95.2880     6.8200     5.1740     5.5420    24.1230 
   81.0000   -25.6160     2.2250    97.0480     6.5670     4.9600     5.6260    23.9520 
   81.1250   -25.5750     2.2310    96.7820     6.3360     4.7570     5.7500    23.7820 
   81.2500   -25.5400     2.2450    95.6190     6.1460     4.5960     5.6050    23.6450 
   81.3750   -25.5280     2.2490    97.1760     6.0400     4.5080     5.2050    23.5450 
   81.5000   -25.5680     2.2360   103.1370     6.0640     4.5190     5.0460    23.4540 
   81.6250   -25.6430     2.2150   103.9720     6.2820     4.6910     5.4490    23.3290 
   81.7500   -25.7300     2.2060    94.7230     6.7060     5.0380     6.2510    23.1760 
   81.8750   -25.8170     2.2120    83.3010     7.3670     5.5510     6.9880    23.0590 
   82.0000   -25.9040     2.2220    74.3120     8.1970     6.1700     7.6700    23.0590 
   82.1250   -25.9730     2.2160    67.6460     8.8920     6.7370     9.7440    23.2350 
   82.2500   -26.0300     2.1930    65.1530     9.0880     7.0750    13.5620    23.5130 
   82.3750   -26.0680     2.1640    69.2630     8.6400     7.0890    14.6070    23.8220 
   82.5000   -26.0700     2.1400    77.9640     7.7640     6.8110    10.0080    24.1130 
   82.6250   -26.0470     2.1320    86.3590     6.9630     6.3790     7.1170    24.3610 
   82.7500   -26.0180     2.1370    91.5040     6.5610     5.9750     6.0750    24.5560 
   82.8750   -26.0170     2.1530    91.7630     6.5740     5.6800     5.9240    24.6660 
   83.0000   -26.0400     2.1770    88.8510     6.8510     5.5170     6.1420    24.6670 
   83.1250   -26.0640     2.2030    88.5930     7.2000     5.4740     6.3520    24.5730 
   83.2500   -26.0770     2.2210    91.9940     7.4800     5.4900     6.2990    24.4660 
   83.3750   -26.0890     2.2250    94.8760     7.6800     5.5510     6.0150    24.3870 
   83.5000   -26.1260     2.2130    92.5200     7.8740     5.6690     5.9740    24.3460 
   83.6250   -26.1800     2.1880    85.2730     8.1400     5.8690     6.5440    24.3330 
   83.7500   -26.2480     2.1630    79.1700     8.4460     6.1250     7.6710    24.3310 
   83.8750   -26.2900     2.1460    76.1860     8.7280     6.3920     9.0320    24.3350 
   84.0000   -26.3040     2.1390    73.9080     8.9310     6.6130     8.9320    24.3440 
   84.1250   -26.3180     2.1420    71.3150     9.0400     6.7370     7.6880    24.3590 
   84.2500   -26.3500     2.1470    68.0570     9.1160     6.7960     7.0490    24.3760 
   84.3750   -26.3870     2.1460    64.9310     9.1980     6.8340     6.9570    24.3860 
   84.5000   -26.4020     2.1390    63.9700     9.2880     6.8880     7.1150    24.3700 
   84.6250   -26.3950     2.1300    67.0840     9.3320     6.9630     7.2150    24.3000 
   84.7500   -26.3660     2.1260    71.6390     9.3220     7.0260     7.1870    24.1690 
   84.8750   -26.3090     2.1300    73.6150     9.3030     7.0500     7.1050    23.9750 
   85.0000   -26.2260     2.1390    72.7620     9.3250     7.0230     7.0840    23.7340 
   85.1250   -26.1280     2.1490    70.6170     9.4280     6.9520     7.0570    23.4800 
   85.2500   -26.0250     2.1530    69.1330     9.5590     6.8730     7.0720    23.2570 
   85.3750   -25.9260     2.1540    68.8440     9.6360     6.8040     7.1580    23.0930 
   85.5000   -25.8300     2.1560    68.4660     9.5970     6.7490     7.2080    23.0230 
   85.6250   -25.7530     2.1640    66.2010     9.4400     6.7070     7.1660    23.1190 
   85.7500   -25.7050     2.1750    62.7390     9.2630     6.6780     7.0410    23.3690 
   85.8750   -25.6840     2.1830    59.8310     9.1380     6.6720     6.8270    23.7140 
   86.0000   -25.6840     2.1820    60.3170     9.1040     6.6990     6.7000    24.0620 
   86.1250   -25.6750     2.1660    63.5390     9.1800     6.7690     6.8140    24.3090 
   86.2500   -25.6510     2.1390    64.9580     9.2950     6.8540     7.0510    24.4310 
   86.3750   -25.6400     2.1030    62.0180     9.3810     6.9310     7.2770    24.4400 
