~V
VERS. 2.00: Ver 2.00
~W
STRT.M 60.0000:
STOP.M 271.0000:
STEP.M 0.1250:
NULL. -999.2500:
UWI. F10035:
~C
DEPT.M :
GR.API :
RML.OHMM :
RI. :
RXO.OHMM :
CALI.CM :
DEN.GM/CC :
SP.MV :
~A
# ...
  172.5000    53.7740    45.3720    44.4830    45.4510    24.5980     2.5940    -3.2900 
  172.6250    53.6940    46.2040    45.1780    45.1580    24.5980     2.6170    -3.0440 
  172.7500    53.4540    46.8230    45.7020    51.0180    24.6070     2.6390    -2.7850 
  172.8750    52.6890    46.9190    45.7680    56.3380    24.5990     2.6550    -2.4860 
  173.0000    51.0640    46.2650    45.1650    50.7750    24.5860     2.6600    -2.1900 
  173.1250    49.1140    44.6570    43.6870    44.5450    24.5720     2.6550    -1.9860 
  173.2500    47.7950    42.4790    41.6550    41.7150    24.5710     2.6470    -1.8730 
  173.3750    47.0590    40.1840    39.4570    40.6940    24.5950     2.6410    -1.8310 
  173.5000    46.2830    38.2630    37.5400    37.1020    24.6260     2.6380    -1.7770 
  173.6250    45.2960    37.2160    36.3850    33.9860    24.6390     2.6380    -1.7170 
  173.7500    45.4440    36.9870    35.9980    33.8360    24.6400     2.6360    -1.7050 
  173.8750    47.8720    37.4210    36.2770    35.6230    24.6360     2.6330    -1.7430 
  174.0000    51.2300    38.2700    37.0290    38.9590    24.6210     2.6300    -1.8010 
  174.1250    51.7450    39.2270    38.0060    41.0530    24.6040     2.6340    -1.8140 
  174.2500    48.3300    39.9400    38.8410    40.6030    24.6060     2.6440    -1.7860 
  174.3750    44.8210    40.1500    39.2370    40.0130    24.6080     2.6580    -1.7530 
  174.5000    44.8460    39.7060    38.9940    40.7630    24.6120     2.6700    -1.7110 
  174.6250    48.0950    38.5030    37.9660    42.4520    24.6150     2.6750    -1.6180 
  174.7500    49.2900    36.8120    36.4120    40.3980    24.6270     2.6710    -1.4720 
  174.8750    48.4640    34.8670    34.5500    33.5500    24.6020     2.6570    -1.3070 
  175.0000    48.0750    32.8710    32.5850    27.9320    24.5210     2.6380    -1.1490 
  175.1250    47.2140    30.9450    30.6460    25.9860    24.4060     2.6210    -1.0130 
  175.2500    45.7760    29.1110    28.7890    25.9510    24.3420     2.6090    -0.8650 
  175.3750    45.6430    27.4050    27.0770    24.9390    24.3230     2.6030    -0.7390 
  175.5000    47.3620    25.9160    25.6100    22.9880    24.2960     2.6030    -0.7060 
  175.6250    48.1650    24.8460    24.5760    20.0080    24.1900     2.6050    -0.7960 
  175.7500    48.3530    24.2490    24.0010    18.6880    24.0560     2.6060    -0.9520 
  175.8750    48.4330    24.1350    23.8870    19.4940    23.9580     2.6050    -1.1200 
  176.0000    47.0280    24.4230    24.1620    21.3800    23.8880     2.6040    -1.2920 
  176.1250    45.5590    24.9970    24.7350    22.6740    23.8600     2.6050    -1.4390 
  176.2500    46.9540    25.6320    25.3940    24.0580    23.8580     2.6090    -1.6120 
  176.3750    49.9600    26.1580    25.9600    24.5570    23.9180     2.6160    -1.7810 
  176.5000    51.1250    26.3910    26.2370    25.1330    23.9810     2.6240    -1.9090 
  176.6250    48.8960    26.0300    25.9220    26.7390    24.0550     2.6260    -1.9800 
  176.7500    47.5530    25.0170    24.9650    26.9700    24.1460     2.6210    -2.0070 
  176.8750    48.7260    23.4320    23.4490    23.7130    24.2540     2.6090    -2.0390 
  177.0000    50.2660    21.5880    21.6720    20.0520    24.3860     2.5920    -2.0820 
  177.1250    49.8410    20.0100    20.1010    17.4390    24.4450     2.5770    -2.1820 
  177.2500    50.3100    19.0570    19.0570    16.3170    24.4380     2.5690    -2.2850 
  177.3750    54.0450    18.8600    18.6700    16.8200    24.4190     2.5710    -2.3660 
  177.5000    58.0840    19.3320    18.9070    18.4530    24.4800     2.5810    -2.4350 
  177.6250    57.1590    20.2190    19.6160    21.4950    24.4660     2.5980    -2.5110 
  177.7500    53.4600    21.0720    20.4010    22.7260    24.3010     2.6140    -2.5810 
  177.8750    50.9920    21.6100    20.9840    23.6790    24.1450     2.6250    -2.6070 
  178.0000    51.1370    21.7130    21.2070    22.0960    24.0940     2.6310    -2.6140 
  178.1250    53.3600    21.4190    21.0430    20.4990    24.1300     2.6330    -2.6020 
  178.2500    55.8000    21.0060    20.7130    19.7570    24.1470     2.6350    -2.5700 
  178.3750    57.0420    20.6300    20.3570    19.8840    24.1350     2.6330    -2.5370 
  178.5000    55.6540    20.3480    20.0490    20.3210    24.1760     2.6250    -2.5070 
  178.6250    51.3070    20.1340    19.8010    19.7240    24.3360     2.6110    -2.4410 
  178.7500    47.3180    19.9080    19.5650    18.9140    24.4570     2.6000    -2.3510 
  178.8750    46.3780    19.6170    19.2950    18.5430    24.4880     2.5970    -2.2570 
  179.0000    48.7410    19.2500    18.9650    18.5510    24.4540     2.5960    -2.1360 
  179.1250    53.2030    18.8660    18.6100    17.5680    24.4350     2.5850    -2.0160 
  179.2500    55.4680    18.5940    18.3350    17.8690    24.4290     2.5570    -1.9380 
  179.3750    55.6410    18.5750    18.2590    17.5360    24.4360     2.5170    -1.8740 
  179.5000    55.7600    18.9490    18.5020    17.2440    24.4410     2.4820    -1.8130 
  179.6250    56.0210    19.8390    19.1890    18.5610    24.4550     2.4670    -1.8070 
  179.7500    54.8070    20.9860    20.1330    21.8360    24.4640     2.4710    -1.8550 
  179.8750    51.2680    22.0400    21.0620    24.7610    24.3550     2.4830    -1.9740 
  180.0000    48.4220    22.6550    21.6790    25.2180    24.1620     2.4930    -2.1840 
  180.1250    49.4080    22.6090    21.7610    26.1170    24.1910     2.4970    -2.4380 
  180.2500    51.6140    22.2420    21.5300    24.8130    24.4130     2.5010    -2.6920 
  180.3750    53.4310    21.9560    21.2870    22.5950    24.6230     2.5080    -2.9370 
  180.5000    54.5710    22.0660    21.3020    22.3930    24.7270     2.5210    -3.1290 
  180.6250    55.6490    22.6010    21.6570    25.2530    24.7620     2.5370    -3.2620 
  180.7500    56.8620    23.0690    22.0150    27.1710    24.7470     2.5510    -3.3680 
  180.8750    56.5220    22.9730    21.9690    26.1370    24.7320     2.5590    -3.3930 
  181.0000    54.8150    22.0170    21.2240    24.9830    24.7220     2.5580    -3.3140 
  181.1250    53.1140    20.2700    19.7670    22.2610    24.6860     2.5460    -3.1140 
  181.2500    53.7050    18.4050    18.1360    18.1280    24.6520     2.5280    -2.8420 
  181.3750    55.9200    16.8810    16.7220    14.8980    24.6300     2.5090    -2.5380 
  181.5000    57.1630    15.8980    15.7250    14.2500    24.5780     2.4920    -2.2610 
  181.6250    55.8310    15.4750    15.2120    16.1130    24.5890     2.4760    -2.0060 
  181.7500    54.1170    15.3400    14.9920    16.2650    24.6110     2.4610    -1.7530 
  181.8750    53.3570    15.3250    14.9340    16.2310    24.6180     2.4470    -1.5410 
  182.0000    52.5430    15.3250    14.9350    15.1540    24.6040     2.4420    -1.3700 
  182.1250    50.7270    15.3340    14.9550    14.6170    24.5690     2.4510    -1.2720 
  182.2500    49.7510    15.3900    14.9910    15.1980    24.5650     2.4690    -1.2510 
  182.3750    50.6820    15.4830    15.0300    16.4230    24.5430     2.4890    -1.3010 
  182.5000    51.9870    15.5500    15.0200    17.3240    24.5600     2.5050    -1.3940 
  182.6250    51.9130    15.5010    14.8880    17.2120    24.6170     2.5140    -1.5090 
  182.7500    50.3260    15.3570    14.6620    15.9070    24.6620     2.5190    -1.6390 
  182.8750    48.0470    15.1990    14.4080    15.1700    24.6880     2.5250    -1.7740 
  183.0000    47.3840    15.1060    14.2020    14.9100    24.6850     2.5310    -1.9210 
  183.1250    49.7290    15.1270    14.1020    15.8940    24.6540     2.5370    -2.0510 
  183.2500    52.1310    15.2390    14.1090    16.7370    24.6350     2.5390    -2.1630 
  183.3750    53.4580    15.4400    14.2340    17.1750    24.6280     2.5410    -2.2660 
  183.5000    53.5080    15.7700    14.5020    16.6970    24.6030     2.5460    -2.3810 
  183.6250    51.3290    16.3720    15.0060    16.3060    24.4940     2.5600    -2.5780 
