~V
VERS. 2.00: Ver 2.00
~W
STRT.M 55.0000:
STOP.M 264.0000:
STEP.M 0.1250:
NULL. -999.2500:
UWI. F10017:
~C
DEPT.M :
DEN.GM/CC :
SP.MV :
GR.API :
CALI.CM :
RXO.OHMM :
RI. :
RML.OHMM :
~A
# ...
  257.5000     2.2250   -41.5780    27.2100    24.3360     3.9880     3.8300     4.6130 
  257.6250     2.2260   -41.6870    27.2100    24.3270     4.0770     3.8320     4.8860 
  257.7500     2.2460   -41.8030    27.2100    24.0030     4.2620     3.8370     5.0670 
  257.8750     2.2730   -41.9880    27.2100    23.7900     4.5840     3.8440     5.0970 
  258.0000     2.2970   -42.1450    27.2100    23.7190     5.1070     3.8480     5.0070 
  258.1250     2.3170   -42.2550    27.2100    23.6900     5.2780     3.8400     4.8790 
  258.2500     2.3360   -42.3550    27.2100    23.6300     5.1170     3.8250     4.7980 
  258.3750     2.3510   -42.4380    27.2100    23.4790     4.9350     3.8100     4.7970 
  258.5000     2.3680   -42.5540    27.2100    23.2470     4.9540     3.8000     4.8590 
  258.6250     2.3970   -42.6680    27.2100    23.2560     5.1490     3.7940     4.9310 
  258.7500     2.4300   -42.7700    27.2100    23.4310     5.3790     3.7870     4.9670 
  258.8750     2.4530   -42.7990    27.2100    23.5850     5.8040     3.7850     4.9740 
  259.0000     2.4630   -42.7610    27.2100    23.5990     7.1730     3.7850     4.9740 
  259.1250     2.4710   -42.7590    27.2100    23.5840     9.5120     3.7850     4.9740 
  259.2500     2.4810   -42.7580    27.2100    23.6010    11.0010     3.7850     4.9740 
  259.3750     2.4860   -42.7660    27.2100    23.6000    10.6120     3.7850     4.9740 
  259.5000     2.4780   -42.7550    27.2100    23.5620     9.4240     3.7850     4.9740 
  259.6250     2.4530   -42.7290    27.2100    23.4790     8.9730     3.7850     4.9740 
  259.7500     2.4280   -42.7240    27.2100    23.4230     8.4910     3.7850     4.9740 
  259.8750     2.4120   -42.7240    27.2100    23.3950     7.3720     3.7850     4.9740 
  260.0000     2.4030   -42.7490    27.2100    23.3690     6.0060     3.7850     4.9740 
  260.1250     2.3940   -42.8100    27.2100    23.3270     5.1960     3.7850     4.9740 
  260.2500     2.3850   -42.8830    27.2100    23.3080     5.0720     3.7850     4.9740 
  260.3750     2.3770   -42.9060    27.2100    23.3010     5.1580     3.7850     4.9740 
  260.5000     2.3670   -42.9010    27.2100    23.2950     5.1680     3.7850     4.9740 
  260.6250     2.3510   -42.8770    27.2100    23.2780     5.1010     3.7850     4.9740 
  260.7500     2.3250   -42.8430    27.2100    23.2490     5.1450     3.7850     4.9740 
  260.8750     2.3110   -42.8240    27.2100    23.2140     5.1750     3.7850     4.9740 
  261.0000     2.2260   -42.8160    27.2100    23.2060     5.1150     3.7850     4.9740 
  261.1250     2.1570   -42.7430    27.2100    23.2140     5.0220     3.7850     4.9740 
  261.2500     2.0830   -42.6240    27.2100    23.2140     5.1140     3.7850     4.9740 
  261.3750     2.0020   -42.5050    27.2100    23.2080     5.5040     3.7850     4.9740 
  261.5000     1.9090   -42.4800    27.2100    23.1640     6.4780     3.7850     4.9740 
  261.6250     1.7900   -42.4800    27.2100    23.0260     7.9340     3.7850     4.9740 
  261.7500     1.6510  -999.2500    27.2100    22.8390     9.3320     3.7850     4.9740 
  261.8750     1.5810  -999.2500    27.2100    22.5560     9.8040     3.7850     4.9740 
  262.0000     1.7430  -999.2500    27.2100    22.1820     9.3860     3.7850     4.9740 
  262.1250     2.2460  -999.2500    27.2100    21.6360     8.5930     3.7850     4.9740 
  262.2500     2.8340  -999.2500    27.2100    21.1530     8.1040     3.7850     4.9740 
  262.3750     3.2610  -999.2500    27.2100    20.9570     7.9550     3.7850     4.9740 
  262.5000     3.4430  -999.2500    27.2100    20.9100     7.9340     3.7850     4.9740 
  262.6250     3.4700  -999.2500    27.2100    20.9060     7.9330     3.7850     4.9740 
  262.7500     3.4660  -999.2500    27.2100    20.9120     7.9320     3.7850     4.9740 
  262.8750     3.3880  -999.2500    27.2100    20.9070     7.9310     3.7850     4.9740 
  263.0000     3.1630  -999.2500    27.2100    20.8950     7.9310     3.7850     4.9740 
  263.1250     2.9140  -999.2500    27.2100    20.8830     7.9290     3.7850     4.9740 
  263.2500     2.8880  -999.2500    27.2100    20.8770     7.9220     3.7850     4.9740 
  263.3750     3.1200  -999.2500    27.2100    20.8670     7.9150     3.7850     4.9740 
  263.5000     3.3900  -999.2500    27.2100    20.8590     7.9100     3.7850     4.9740 
  263.6250     3.3140  -999.2500    27.2100    20.8550     7.9100     3.7850     4.9740 
  263.7500     2.9490  -999.2500    27.2100    20.8550     7.9100     3.7850     4.9740 
  263.8750     2.5750  -999.2500  -999.2500  -999.2500  -999.2500  -999.2500  -999.2500 
  264.0000     2.4070  -999.2500  -999.2500  -999.2500  -999.2500  -999.2500  -999.2500 
