~V
VERS. 2.00: Ver 2.00
~W
STRT.M 57.0000:
STOP.M 255.0000:
STEP.M 0.1250:
NULL. -999.2500:
UWI. F10046:
~C
DEPT.M :
GR.API :
RML.OHMM :
RI. :
RXO.OHMM :
CALI.CM :
DEN.GM/CC :
SP.MV :
~A
# ...
  147.0000    55.5070    26.8320    24.6920    26.3060    23.5660     2.5030    -8.2950 
  147.1250    58.7660    26.7980    25.0220    23.2050    23.3220     2.4290    -8.5720 
  147.2500    57.8330    26.3390    24.5710    21.4440    23.1270     2.3480    -8.8290 
  147.3750    53.8440    26.0190    24.0120    21.3700    22.9870     2.2840    -9.0940 
  147.5000    53.3770    26.1640    23.8100    22.2450    22.9750     2.2460    -9.3750 
  147.6250    57.5710    26.9230    24.2310    23.7210    23.2730     2.2340    -9.6570 
  147.7500    59.2840    28.0840    25.1150    25.3680    23.6170     2.2340    -9.9270 
  147.8750    57.0470    29.4800    26.2940    26.4890    23.8750     2.2390   -10.1650 
  148.0000    54.6930    30.9440    27.5810    27.8010    24.0580     2.2430   -10.3820 
  148.1250    53.3440    32.2730    28.7760    29.4610    24.1450     2.2420   -10.5320 
  148.2500    51.1320    33.3220    29.7540    30.8310    24.1110     2.2350   -10.6350 
  148.3750    50.4090    33.9810    30.4380    30.9710    23.9830     2.2250   -10.7480 
  148.5000    52.4900    34.1740    30.7870    30.6910    23.8430     2.2170   -10.8830 
  148.6250    54.4260    33.7840    30.7510    30.6480    23.7290     2.2160   -10.9820 
  148.7500    54.3150    32.9580    30.4570    30.2140    23.5910     2.2210   -10.9890 
  148.8750    54.9200    31.8410    29.9990    28.9290    23.3980     2.2260   -10.9150 
  149.0000    58.1650    30.5730    29.4500    26.9670    23.1660     2.2280   -10.7850 
  149.1250    59.8220    29.3160    28.7850    24.8540    22.9880     2.2250   -10.6890 
  149.2500    57.7620    28.0570    27.9050    23.1490    22.9450     2.2210   -10.6380 
  149.3750    55.1170    26.7230    26.6370    21.8910    22.9240     2.2190   -10.5650 
  149.5000    55.2620    25.0340    24.8310    20.5890    22.8790     2.2220   -10.4310 
  149.6250    57.0400    23.0200    22.4030    18.4980    22.8390     2.2320   -10.2490 
  149.7500    56.3030    20.7040    19.6800    15.8300    22.8240     2.2470   -10.0890 
  149.8750    53.7090    18.0600    17.0000    12.9830    22.8730     2.2620    -9.9840 
  150.0000    52.0660    15.5020    14.6600    10.4240    23.0090     2.2700    -9.9430 
  150.1250    53.8070    13.6380    12.9210     8.9150    23.2450     2.2650    -9.9560 
  150.2500    56.8350    12.4090    11.7100     8.3450    23.5560     2.2470   -10.0010 
  150.3750    58.8910    11.7460    10.9630     8.2090    23.8000     2.2230   -10.0590 
  150.5000    58.6450    11.5490    10.6130     8.2090    23.8160     2.2030   -10.1200 
  150.6250    56.6030    11.8040    10.6820     8.2660    23.5870     2.1950   -10.1680 
  150.7500    56.0480    12.4350    11.1250     8.4460    23.2810     2.2000   -10.1930 
  150.8750    58.8000    13.4790    11.9770     8.9280    22.9840     2.2140   -10.1940 
  151.0000    60.8950    14.9500    13.2450     9.9120    22.7980     2.2310   -10.1620 
  151.1250    57.7570    16.7770    14.8890    11.6120    22.7470     2.2430   -10.0710 
  151.2500    53.9160    18.6260    16.6200    13.7730    22.7420     2.2470    -9.8880 
  151.3750    52.6340    20.1780    18.1490    15.8850    22.7250     2.2390    -9.6270 
  151.5000    53.3510    21.2140    19.2420    17.1990    22.6940     2.2220    -9.3260 
  151.6250    54.5390    21.7750    19.8240    17.4320    22.6460     2.2030    -9.0360 
  151.7500    55.8050    22.4740    20.3560    17.4590    22.6110     2.1960    -8.7800 
  151.8750    58.2310    23.9890    21.4080    18.2440    22.6110     2.2120    -8.5010 
  152.0000    60.6720    26.8550    23.4980    21.0860    22.6480     2.2570    -8.1600 
  152.1250    60.3560    31.2500    26.9540    27.4070    22.7510     2.3300    -7.7240 
  152.2500    55.4820    36.0320    31.0100    36.6680    23.0160     2.4130    -7.2630 
  152.3750    48.8750    39.8170    34.5900    46.5250    23.4320     2.4890    -6.8480 
  152.5000    45.1040    41.2740    36.4780    51.5020    23.7800     2.5470    -6.4820 
  152.6250    45.7530    39.4100    35.5520    47.0440    23.7520     2.5830    -6.1430 
  152.7500    47.8970    35.5730    32.7410    36.9340    23.5430     2.6030    -5.7920 
  152.8750    48.8820    31.1870    29.2270    26.9860    23.4310     2.6140    -5.4500 
  153.0000    48.1380    27.3830    26.0300    22.0510    23.5070     2.6160    -5.1150 
  153.1250    47.4800    24.8090    23.7820    21.4250    23.7100     2.6040    -4.8490 
  153.2500    47.7880    23.2280    22.3680    21.3600    23.8140     2.5830    -4.6690 
  153.3750    48.5430    22.4420    21.6440    20.6130    23.8320     2.5420    -4.5350 
  153.5000    48.4610    22.2310    21.4120    19.5740    23.8280     2.5200    -4.4190 
  153.6250    48.5280    22.3780    21.4430    19.8530    23.8440     2.5170    -4.3140 
  153.7500    49.8910    22.5380    21.4390    20.6820    23.8870     2.5230    -4.2140 
  153.8750    51.1020    22.4670    21.2400    21.9700    23.9470     2.5300    -4.1200 
  154.0000    50.0930    22.0110    20.7960    22.6120    24.0190     2.5370    -4.0410 
  154.1250    48.8060    21.1340    20.1630    21.3680    24.0740     2.5430    -3.9720 
  154.2500    50.1260    20.1380    19.5370    19.4960    24.0940     2.5500    -3.9090 
  154.3750    52.4910    19.3000    19.0520    18.4980    24.0760     2.5580    -3.8650 
  154.5000    52.2580    18.7950    18.7450    18.0620    24.0390     2.5610    -3.8210 
  154.6250    50.2140    18.6540    18.5680    17.9610    23.9970     2.5550    -3.7350 
  154.7500    48.9740    18.6650    18.4100    18.1170    24.0070     2.5400    -3.6560 
  154.8750    48.6530    18.7320    18.2460    18.5470    24.0160     2.5220    -3.6270 
  155.0000    49.1400    18.8890    18.1530    18.8470    23.9380     2.5110    -3.6680 
  155.1250    48.7700    19.3440    18.3570    19.2520    23.8230     2.5160    -3.7510 
  155.2500    46.7680    20.2050    18.9750    20.5830    23.7930     2.5330    -3.8060 
  155.3750    43.4620    21.4470    20.0010    23.0600    23.8290     2.5570    -3.7920 
  155.5000    41.6680    22.8420    21.2460    25.9650    23.8330     2.5800    -3.7410 
  155.6250    42.8940    23.9110    22.2960    28.2720    23.8430     2.5910    -3.7460 
  155.7500    45.2490    24.3060    22.7990    29.0600    23.8850     2.5900    -3.7990 
  155.8750    46.8250    23.9160    22.6120    28.6660    23.9270     2.5820    -3.8480 
  156.0000    47.6150    22.9260    21.8480    26.4340    23.9790     2.5710    -3.8940 
  156.1250    47.9590    21.7620    20.8270    23.0460    23.9860     2.5620    -3.9250 
  156.2500    48.8860    20.8720    19.9440    20.7040    23.9590     2.5560    -3.9610 
  156.3750    50.3270    20.3930    19.3610    19.9070    23.8950     2.5560    -4.0250 
  156.5000    51.9970    20.2280    19.0720    19.8980    23.8340     2.5610    -4.1260 
  156.6250    52.2340    20.1030    18.9390    20.0300    23.8060     2.5670    -4.2750 
  156.7500    50.7820    19.7620    18.7420    19.9960    23.7800     2.5690    -4.4490 
  156.8750    47.9140    19.1680    18.3800    19.2190    23.7210     2.5600    -4.6330 
  157.0000    45.4880    18.4850    17.8860    18.2820    23.6260     2.5400    -4.8220 
  157.1250    46.8250    18.0720    17.4520    16.8500    23.4050     2.5180    -5.0260 
  157.2500    49.3950    18.1280    17.2770    16.3910    23.3440     2.5050    -5.2220 
  157.3750    50.3360    18.6630    17.4560    17.2890    23.5360     2.5070    -5.3990 
  157.5000    48.6770    19.5240    17.9620    19.2380    23.8120     2.5230    -5.5480 
  157.6250    46.5210    20.4470    18.6750    21.5030    23.9850     2.5470    -5.6290 
  157.7500    45.3220    21.1710    19.3510    23.7080    24.0810     2.5730    -5.6550 
  157.8750    44.3760    21.5600    19.8280    25.1340    24.1580     2.5960    -5.6580 
  158.0000    44.5190    21.5780    20.0270    25.6320    24.2410     2.6110    -5.6340 
  158.1250    45.9070    21.2670    19.9520    25.2520    24.3160     2.6100    -5.5440 
