~V
VERS. 2.00: Ver 2.00
~W
STRT.M 55.0000:
STOP.M 247.0000:
STEP.M 0.1250:
NULL. -999.2500:
UWI. F10032:
~C
DEPT.M :
GR.API :
RML.OHMM :
RI. :
RXO.OHMM :
CALI.CM :
DEN.GM/CC :
SP.MV :
~A
# ...
  201.2500    80.2910    11.5060    10.5740    14.8640    24.6340     2.4350    -6.9860 
  201.3750    83.2810    11.3380    10.4390    15.0120    24.6120     2.4200    -7.0170 
  201.5000    84.1070    11.1720    10.2980    14.2800    24.5890     2.4080    -7.0290 
  201.6250    81.7240    11.0500    10.2190    12.7690    24.5390     2.4080    -7.0200 
  201.7500    80.4400    10.9880    10.2310    12.6680    24.5150     2.4210    -6.9980 
  201.8750    80.8580    10.9860    10.3030    13.9960    24.5160     2.4380    -6.9540 
  202.0000    82.1330    11.0220    10.3960    14.5650    24.5310     2.4520    -6.8820 
  202.1250    83.9290    11.0510    10.4810    11.3990    24.5430     2.4500    -6.7890 
  202.2500    84.6630    11.0300    10.5060     9.3270    24.5780     2.4360    -6.6870 
  202.3750    83.6990    10.9340    10.4400     8.3140    24.6760     2.4130    -6.5890 
  202.5000    82.0010    10.7610    10.3110     7.5230    24.8760     2.3930    -6.4670 
  202.6250    82.0770    10.5250    10.1500     6.8690    24.4240     2.3870    -6.3250 
  202.7500    83.2350    10.2730     9.9590     6.5850    24.2260     2.3960    -6.2320 
  202.8750    82.4750    10.0310     9.7500     6.5260    24.2240     2.4190    -6.1390 
  203.0000    78.9480     9.8220     9.5660     6.5450    24.3290     2.4480    -6.0400 
  203.1250    74.3070     9.6780     9.4300     7.0320    24.4760     2.4720    -5.9650 
  203.2500    70.7710     9.6180     9.3370     7.9990    24.5690     2.4830    -5.9360 
  203.3750    67.8260     9.6520     9.3230     8.6770    24.5820     2.4820    -5.9120 
  203.5000    64.6450     9.7640     9.3980     9.0740    24.5170     2.4750    -5.8940 
  203.6250    62.4000     9.9140     9.4990     9.1380    24.4530     2.4700    -5.9190 
  203.7500    61.9140    10.0490     9.5830     8.3800    24.4470     2.4710    -5.9420 
  203.8750    62.8060    10.1780     9.6990     7.9480    24.4800     2.4770    -5.9380 
  204.0000    64.4010    10.3660     9.9220     9.4380    24.5070     2.4880    -5.9790 
  204.1250    66.9080    10.7370    10.3410    13.0580    24.5150     2.4990    -6.0840 
  204.2500    70.5390    11.3160    10.9730    16.1360    24.5330     2.5110    -6.1650 
  204.3750    73.0450    12.0620    11.7860    16.6560    24.5620     2.5220    -6.2140 
  204.5000    73.4950    12.8540    12.6450    15.9260    24.5560     2.5310    -6.3210 
  204.6250    74.4300    13.4820    13.3530    16.3450    24.5250     2.5320    -6.4810 
  204.7500    76.8000    13.8350    13.8230    17.1780    24.4760     2.5270    -6.6140 
  204.8750    78.5870    13.8870    13.9890    16.7410    24.3930     2.5180    -6.7740 
  205.0000    79.4160    13.6850    13.8430    15.4200    24.3340     2.5060    -6.9490 
  205.1250    81.3160    13.3110    13.4710    15.2150    24.3150     2.4880    -7.0790 
  205.2500    81.9470    12.9040    13.0580    16.4180    24.3410     2.4630    -7.1870 
  205.3750    79.8610    12.5400    12.6680    17.3630    24.2940     2.4330    -7.3230 
  205.5000    78.0910    12.2760    12.3450    16.2110    24.1820     2.4060    -7.4190 
  205.6250    81.1510    12.1730    12.1640    13.2080    24.0480     2.3980    -7.4090 
  205.7500    85.3960    12.1890    12.0870    12.5590    23.9280     2.4080    -7.3950 
  205.8750    86.3300    12.2540    12.0450    14.0190    23.8340     2.4250    -7.3810 
  206.0000    85.5720    12.2600    11.9800    15.1560    23.8260     2.4340    -7.3160 
  206.1250    88.4820    12.0630    11.8170    15.5730    23.8640     2.4190    -7.2320 
  206.2500    93.1900    11.6970    11.5380    15.2980    23.9030     2.3840    -7.1780 
  206.3750    94.6920    11.2950    11.2160    14.2220    23.9510     2.3420    -7.1020 
  206.5000    91.4250    11.0310    10.9950    11.8770    24.0270     2.3050    -6.9740 
  206.6250    86.5000    11.0640    11.0040    10.0250    24.1230     2.2880    -6.8270 
  206.7500    82.7260    11.3140    11.1780     9.7970    24.1930     2.2940    -6.7080 
  206.8750    81.4360    11.6050    11.4120    11.5760    24.3090     2.3220    -6.5850 
  207.0000    82.4200    11.7140    11.5460    12.7150    24.5030     2.3640    -6.4490 
  207.1250    81.4610    11.4350    11.3500    10.7940    24.6120     2.4090    -6.3180 
  207.2500    77.1380    10.8900    10.8800     8.8360    24.5870     2.4410    -6.1830 
  207.3750    73.2030    10.2760    10.3160     9.3560    24.4910     2.4530    -6.0770 
  207.5000    71.3540     9.7900     9.8340    11.6700    24.3580     2.4490    -6.0160 
  207.6250    69.7010     9.5720     9.5490    14.1550    24.2900     2.4420    -6.0030 
  207.7500    68.9570     9.5510     9.4470    14.8650    24.2730     2.4470    -6.0030 
  207.8750    70.3760     9.6220     9.4630    14.3170    24.2590     2.4650    -6.0080 
  208.0000    72.6880     9.6830     9.4700    12.0150    24.2340     2.4870    -6.0400 
  208.1250    73.9010     9.6520     9.3590    10.6320    24.2120     2.4980    -6.1190 
  208.2500    74.7120     9.5390     9.1730    10.2960    24.2770     2.4940    -6.1990 
  208.3750    76.2680     9.3730     8.9580    10.5080    24.4390     2.4810    -6.2460 
  208.5000    77.6700     9.1990     8.7460     9.9510    24.5430     2.4640    -6.3270 
  208.6250    78.4460     9.0630     8.5960     9.1470    24.5880     2.4500    -6.4520 
  208.7500    77.5260     8.9800     8.5030     9.5650    24.5860     2.4380    -6.5650 
  208.8750    74.5120     8.9480     8.4300    11.0440    24.5500     2.4340    -6.7050 
  209.0000    71.6900     8.9410     8.3630    11.9480    24.4990     2.4380    -6.8460 
  209.1250    72.6030     8.9140     8.2940    11.2040    24.4740     2.4450    -6.9780 
  209.2500    74.4750     8.8540     8.1950     8.8180    24.4490     2.4420    -7.1200 
  209.3750    74.6270     8.7890     8.0860     6.9360    24.4020     2.4190    -7.2390 
  209.5000    74.3860     8.7740     8.0250     5.8290    24.3610     2.3790    -7.3400 
  209.6250    75.7250     8.8820     8.0650     6.0020    24.3740     2.3360    -7.4480 
  209.7500    75.6120     9.0900     8.1950     6.9970    24.4510     2.3090    -7.5080 
  209.8750    72.7830     9.3320     8.3930     8.1060    24.5300     2.3030    -7.5310 
  210.0000    70.9110     9.5170     8.5830     8.7360    24.5080     2.3100    -7.5840 
  210.1250    73.2490     9.5490     8.6380     9.1760    24.4230     2.3240    -7.5860 
  210.2500    78.3860     9.4410     8.5570     9.4770    24.4040     2.3410    -7.5510 
  210.3750    82.7860     9.2360     8.3720     9.9430    24.4030     2.3610    -7.5750 
  210.5000    83.5630     9.0020     8.1240    11.4060    24.4110     2.3860    -7.5780 
  210.6250    81.3690     8.8120     7.8960    10.8020    24.4700     2.4060    -7.5170 
  210.7500    80.6660     8.6980     7.7390    10.3890    24.4890     2.4110    -7.5080 
  210.8750    81.1700     8.6630     7.6210     9.8830    24.4910     2.3990    -7.5220 
  211.0000    80.9030     8.6790     7.5100     8.1740    24.4220     2.3770    -7.4870 
  211.1250    78.7010     8.7070     7.4290     6.8900    24.2160     2.3600    -7.4500 
  211.2500    76.6360     8.7100     7.3710     6.1420    24.0260     2.3600    -7.4410 
  211.3750    74.9770     8.6800     7.3220     5.7870    23.9750     2.3730    -7.3860 
  211.5000    73.2080     8.6340     7.3050     5.9520    23.9990     2.3900    -7.3340 
  211.6250    72.0890     8.6210     7.3480     6.9060    24.0230     2.3990    -7.3250 
  211.7500    71.6630     8.6620     7.4140     8.0600    24.0000     2.4010    -7.2580 
  211.8750    73.1920     8.7630     7.4960     9.1010    23.9160     2.4020    -7.1630 
  212.0000    76.4030     8.9160     7.6100     9.8650    23.8060     2.4080    -7.0840 
  212.1250    78.5440     9.1010     7.7370     9.1490    23.7720     2.4170    -7.0070 
  212.2500    78.4040     9.2860     7.8540     7.4440    23.8020     2.4220    -6.9250 
  212.3750    77.0000     9.4710     7.9930     6.4200    23.8840     2.4210    -6.8290 
