~V
VERS. 2.00: Ver 2.00
~W
STRT.M 50.0000:
STOP.M 278.0000:
STEP.M 0.1250:
NULL. -999.2500:
UWI. F10031:
~C
DEPT.M :
GR.API :
RML.OHMM :
RI. :
RXO.OHMM :
CALI.CM :
DEN.GM/CC :
SP.MV :
~A
# ...
  252.5000    32.2150     4.0260     3.5670     3.6070    23.1080     2.4210    -4.2950 
  252.6250    33.1950     4.0630     3.5960     3.6590    23.0880     2.4140    -4.4900 
  252.7500    32.9950     4.0940     3.6250     3.7200    23.0820     2.4040    -4.6700 
  252.8750    32.6890     4.1200     3.6540     3.7900    23.0870     2.3950    -4.8320 
  253.0000    34.1630     4.1490     3.6870     3.8670    23.1030     2.3900    -4.9640 
  253.1250    37.5160     4.2020     3.7340     3.9460    23.1430     2.3930    -5.0710 
  253.2500    39.3870     4.2890     3.8030     4.0440    23.2100     2.4020    -5.1820 
  253.3750    38.1760     4.4080     3.8920     4.1650    23.2830     2.4160    -5.2940 
  253.5000    36.1000     4.5400     3.9910     4.3170    23.3270     2.4310    -5.4090 
  253.6250    36.2970     4.6420     4.0700     4.4530    23.3320     2.4430    -5.5170 
  253.7500    37.3350     4.6820     4.1050     4.5240    23.3230     2.4520    -5.6100 
  253.8750    37.7370     4.6490     4.0840     4.5060    23.2990     2.4580    -5.6920 
  254.0000    37.4070     4.5640     4.0180     4.3950    23.2570     2.4580    -5.7690 
  254.1250    36.9120     4.4840     3.9450     4.2090    23.2080     2.4470    -5.8350 
  254.2500    37.1160     4.4680     3.9120     4.1030    23.1600     2.4260    -5.8890 
  254.3750    38.8400     4.5430     3.9480     4.1470    23.0980     2.4010    -5.9320 
  254.5000    41.9510     4.7000     4.0520     4.3070    23.0270     2.3810    -5.9610 
  254.6250    44.5950     4.8920     4.2030     4.5600    22.9770     2.3730    -5.9700 
  254.7500    46.8120     5.0540     4.3490     4.8240    22.9770     2.3750    -5.9600 
  254.8750    49.1560     5.1510     4.4580     4.9570    23.0200     2.3830    -5.9310 
  255.0000    50.6760     5.1800     4.5160     4.9330    23.0920     2.3940    -5.8960 
  255.1250    49.9130     5.1640     4.5290     4.9350    23.1950     2.4030    -5.8560 
  255.2500    47.7550     5.1420     4.5270     5.1270    23.2970     2.4090    -5.8180 
  255.3750    46.2330     5.1270     4.5270     5.4280    23.3520     2.4070    -5.7860 
  255.5000    46.6120     5.1230     4.5360     5.6980    23.3770     2.3980    -5.7580 
  255.6250    48.9680     5.1320     4.5600     5.8550    23.3980     2.3830    -5.7280 
  255.7500    51.5130     5.1650     4.6030     5.7420    23.4070     2.3710    -5.7030 
  255.8750    52.7210     5.2380     4.6760     5.6000    23.3920     2.3660    -5.6940 
  256.0000    52.9380     5.3550     4.7800     5.9480    23.3830     2.3690    -5.7010 
  256.1250    53.3500     5.4930     4.9020     6.6930    23.3910     2.3760    -5.7250 
  256.2500    54.7000     5.6020     5.0080     7.4300    23.3890     2.3830    -5.7430 
  256.3750    56.3920     5.6490     5.0680     7.7130    23.3710     2.3870    -5.7520 
  256.5000    56.3850     5.6210     5.0660     7.3800    23.3520     2.3890    -5.7680 
  256.6250    53.5580     5.5220     4.9970     6.6260    23.3360     2.3900    -5.8060 
  256.7500    51.1330     5.3870     4.8870     6.0830    23.3090     2.3920    -5.8550 
  256.8750    51.4420     5.2250     4.7490     5.7710    23.2660     2.3950    -5.9150 
  257.0000    52.3920     5.0360     4.5870     5.5850    23.2160     2.3960    -5.9580 
  257.1250    50.5200     4.8260     4.4070     5.3270    23.1810     2.3960    -5.9660 
  257.2500    46.8390     4.6270     4.2350     4.9260    23.1650     2.3950    -5.9470 
  257.3750    43.8580     4.4870     4.1010     4.5100    23.1650     2.3970    -5.9450 
  257.5000    41.7660     4.4440     4.0370     4.3080    23.1730     2.4000    -5.9930 
  257.6250    39.2690     4.5240     4.0710     4.4870    23.1890     2.4040    -6.0670 
  257.7500    36.6350     4.6660     4.1670     4.8380    23.2160     2.4070    -6.1580 
  257.8750    34.9650     4.8010     4.2800     5.0960    23.2440     2.4090    -6.2300 
  258.0000    35.2350     4.8670     4.3600     5.1170    23.2500     2.4120    -6.2680 
  258.1250    35.9830     4.8200     4.3600     4.9250    23.2320     2.4170    -6.2680 
  258.2500    35.9130     4.7080     4.3000     4.6090    23.2260     2.4240    -6.2290 
  258.3750    36.0800     4.5940     4.2190     4.3780    23.2420     2.4300    -6.1310 
  258.5000    37.6700     4.5380     4.1630     4.3460    23.2800     2.4340    -5.9680 
  258.6250    40.0760     4.5890     4.1790     4.4460    23.3140     2.4370    -5.7790 
  258.7500    41.7570     4.7200     4.2630     4.5560    23.3360     2.4440    -5.5870 
  258.8750    43.2360     4.8870     4.3890     4.6680    23.3420     2.4520    -5.4250 
  259.0000    44.9720     5.0320     4.5160     4.7850    23.3410     2.4570    -5.3160 
  259.1250    47.0450     5.0930     4.5910     4.8170    23.3400     2.4470    -5.2690 
  259.2500    50.0830     5.0740     4.6030     4.7910    23.3410     2.4250    -5.2620 
  259.3750    53.3090     5.0070     4.5650     4.7150    23.3450     2.3990    -5.2900 
  259.5000    54.5900     4.9370     4.5110     4.5850    23.3630     2.3780    -5.3040 
  259.6250    52.1890     4.9100     4.4750     4.7850    23.3850     2.3740    -5.2860 
  259.7500    48.5940     4.9220     4.4690     5.1270    23.3900     2.3790    -5.2520 
  259.8750    46.0100     4.9520     4.4850     5.3470    23.3700     2.3840    -5.1870 
  260.0000    45.5180     4.9810     4.5100     5.2920    23.3050     2.3800    -5.1090 
  260.1250    46.9380     5.0040     4.5380     5.0860    23.1640     2.3690    -4.9950 
  260.2500    47.8490     5.0290     4.5690     4.9260    22.9620     2.3600    -4.8990 
  260.3750    47.3680     5.0570     4.6010     4.9220    22.7590     2.3590    -4.7960 
  260.5000    47.1040     5.0730     4.6220     5.1280    22.6870     2.3690    -4.7080 
  260.6250    49.0810     5.0310     4.5990     5.3450    22.9390     2.3820    -4.6510 
  260.7500    51.2930     4.9160     4.5190     5.2660    23.3100     2.3900    -4.5650 
  260.8750    50.9250     4.7380     4.3810     4.8620    23.5630     2.3910    -4.4800 
  261.0000    47.3410     4.5340     4.2100     4.3850    23.6540     2.3850    -4.3870 
  261.1250    42.3930     4.3620     4.0460     4.0450    23.6460     2.3760    -4.3240 
  261.2500    38.3210     4.2430     3.9160     3.9180    23.5850     2.3670    -4.2380 
  261.3750    35.4950     4.1710     3.8240     3.8520    23.4970     2.3590    -4.1640 
  261.5000    33.2630     4.1160     3.7550     3.7820    23.4570     2.3520    -4.0940 
  261.6250    31.5360     4.0460     3.6890     3.6670    23.5010     2.3440    -4.0190 
  261.7500    30.5190     3.9550     3.6170     3.5290    23.6100     2.3330    -3.9850 
  261.8750    29.3610     3.8590     3.5430     3.4080    23.7460     2.3200    -3.9610 
  262.0000    27.7480     3.7840     3.4850     3.3520    23.8080     2.3080    -3.9520 
  262.1250    26.5530     3.7610     3.4670     3.4380    23.7170     2.3050    -3.9460 
  262.2500    26.1000     3.7900     3.4900     3.6160    23.6150     2.3140    -3.9640 
  262.3750    26.1360     3.8550     3.5460     3.8680    23.5350     2.3310    -3.9750 
  262.5000    26.3400     3.9340     3.6150     4.1220    23.4680     2.3510    -3.9890 
  262.6250    26.3620     3.9980     3.6740     4.1960    23.3930     2.3650    -4.0110 
  262.7500    26.0810     4.0340     3.7100     4.1770    23.3540     2.3710    -4.0390 
  262.8750    26.3190     4.0450     3.7250     4.1030    23.3490     2.3720    -4.0640 
  263.0000    27.8110     4.0470     3.7310     4.0310    23.3770     2.3720    -4.0830 
  263.1250    30.1330     4.0660     3.7510     4.0040    23.4260     2.3710    -4.1280 
  263.2500    31.5700     4.1160     3.7970     3.9720    23.4290     2.3700    -4.1830 
  263.3750    31.4920     4.1940     3.8720     3.9980    23.4090     2.3730    -4.2520 
  263.5000    30.3750     4.2830     3.9620     4.0990    23.3830     2.3790    -4.3200 
  263.6250    29.2730     4.3430     4.0340     4.2290    23.3710     2.3920    -4.3520 
