~V
VERS. 2.00: Ver 2.00
~W
STRT.M 57.0000:
STOP.M 307.0000:
STEP.M 0.1250:
NULL. -999.2500:
UWI. F10042:
~C
DEPT.M :
GR.API :
RML.OHMM :
RI. :
RXO.OHMM :
CALI.CM :
DEN.GM/CC :
SP.MV :
~A
# ...
  214.5000    71.7620    11.3370    10.4160     9.8980    25.9530     2.2310   -10.2480 
  214.6250    69.4230    10.9940    10.2340    10.0170    26.0890     2.2530   -10.3540 
  214.7500    69.6570    11.0470    10.3640    10.1710    26.1460     2.2760   -10.4340 
  214.8750    71.0530    11.3850    10.7250    10.3110    26.0580     2.2920   -10.4590 
  215.0000    72.5500    11.8810    11.2200    10.9410    25.8160     2.3030   -10.4870 
  215.1250    76.1440    12.4030    11.7310    11.1670    25.4500     2.3110   -10.6750 
  215.2500    78.9240    12.8390    12.1520    11.3100    25.1950     2.3190   -11.0490 
  215.3750    78.0830    13.1420    12.4290    11.2720    25.0810     2.3260   -11.4740 
  215.5000    76.5600    13.3090    12.5590    11.6750    25.1230     2.3320   -11.9640 
  215.6250    78.0240    13.3760    12.5700    12.5490    25.3380     2.3360   -12.7060 
  215.7500    78.1660    13.4120    12.5440    13.3110    25.5970     2.3360   -13.6840 
  215.8750    75.3910    13.4280    12.5120    13.9110    25.7640     2.3330   -14.8120 
  216.0000    73.3240    13.3980    12.4780    14.2740    25.7750     2.3300   -16.0220 
  216.1250    75.2470    13.2820    12.4090    14.4760    25.7340     2.3320   -17.2130 
  216.2500    79.4980    13.1140    12.2950    14.3510    25.7220     2.3390   -18.3180 
  216.3750    84.1950    12.9450    12.1460    13.9350    25.7340     2.3430   -19.3320 
  216.5000    87.6240    12.8120    11.9930    13.5910    25.7130     2.3450   -20.1670 
  216.6250    86.2480    12.7180    11.8720    13.2180    25.6120     2.3540   -20.6710 
  216.7500    82.1790    12.6230    11.7770    13.1260    25.4610     2.3680   -20.9420 
  216.8750    80.2150    12.5000    11.6780    13.1060    25.3840     2.3760   -21.0840 
  217.0000    82.0930    12.3390    11.5340    13.0030    25.4850     2.3690   -21.1050 
  217.1250    84.9300    12.1350    11.3030    12.9270    25.7920     2.3410   -20.9170 
  217.2500    85.8260    11.9020    11.0100    12.7140    26.0310     2.3040   -20.5130 
  217.3750    86.4970    11.6500    10.6970    12.2730    26.0660     2.2740   -19.9840 
  217.5000    88.6230    11.3980    10.4130    11.7430    25.9650     2.2630   -19.4950 
  217.6250    89.8650    11.1750    10.2170    11.0290    25.8580     2.2760   -19.0930 
  217.7500    90.3680    11.0040    10.1170    10.6510    25.7380     2.3010   -18.7140 
  217.8750    91.7230    10.9040    10.1050    11.2100    25.6100     2.3280   -18.3540 
  218.0000    92.8030    10.8850    10.1590    11.7110    25.5850     2.3500   -18.0650 
  218.1250    92.5520    10.9500    10.2640    11.6960    25.7000     2.3660   -17.9050 
  218.2500    92.5320    11.0540    10.3940    12.0570    25.7830     2.3790   -17.9150 
  218.3750    94.1900    11.1700    10.5290    12.3640    25.8280     2.3870   -18.1200 
  218.5000    95.0540    11.2920    10.6520    12.5570    25.8380     2.3880   -18.3580 
  218.6250    93.7880    11.4270    10.7330    12.8000    25.9020     2.3800   -18.5260 
  218.7500    92.6300    11.5590    10.7590    13.0710    26.0640     2.3670   -18.6670 
  218.8750    90.8600    11.6560    10.7330    13.1700    26.3120     2.3550   -18.8180 
  219.0000    88.0320    11.6950    10.6760    12.7900    26.5150     2.3450   -18.9900 
  219.1250    85.9350    11.6880    10.6270    12.7310    26.6080     2.3350   -19.1790 
  219.2500    85.7290    11.6990    10.6260    12.3020    26.6790     2.3240   -19.3550 
  219.3750    86.5980    11.7750    10.6940    11.9270    26.7270     2.3150   -19.5570 
  219.5000    87.8530    11.9180    10.8350    12.1200    26.6400     2.3100   -19.8610 
  219.6250    89.0860    12.0880    11.0290    12.3980    26.1720     2.3140   -20.2520 
  219.7500    87.6390    12.2380    11.2070    12.6490    25.4420     2.3260   -20.6660 
  219.8750    83.5450    12.3610    11.3100    12.6070    24.8230     2.3410   -21.0450 
  220.0000    80.8590    12.4640    11.3080    12.0950    24.4880     2.3550   -21.4380 
  220.1250    82.5790    12.5340    11.2140    11.3380    24.4170     2.3650   -21.9520 
  220.2500    85.2660    12.5480    11.1090    11.0680    24.6070     2.3680   -22.5490 
  220.3750    86.4040    12.4850    11.0460    11.9010    25.0540     2.3630   -23.0610 
  220.5000    85.7640    12.3530    11.0320    12.9330    25.4930     2.3520   -23.4740 
  220.6250    84.2000    12.1920    11.0330    13.1670    25.4410     2.3380   -23.9110 
  220.7500    81.6520    12.0520    11.0050    13.2010    25.1100     2.3230   -24.4420 
  220.8750    78.4780    11.9530    10.9360    13.3750    24.8530     2.3070   -25.0820 
  221.0000    75.3270    11.8870    10.8360    13.3760    24.7500     2.2890   -25.7820 
  221.1250    73.2520    11.8330    10.7210    12.9190    24.6580     2.2700   -26.4590 
  221.2500    70.7250    11.7720    10.6100    12.2790    24.5580     2.2570   -27.0730 
  221.3750    67.8760    11.7010    10.5140    11.8880    24.5160     2.2550   -27.6720 
  221.5000    66.6240    11.6300    10.4550    11.7240    24.5350     2.2630   -28.2770 
  221.6250    67.6460    11.5730    10.4600    11.6350    24.5580     2.2720   -28.8310 
  221.7500    68.7010    11.5300    10.5040    11.6630    24.5020     2.2710   -29.2450 
  221.8750    68.1470    11.4900    10.5500    11.7480    24.4000     2.2560   -29.4890 
  222.0000    67.0890    11.4300    10.5500    11.7750    24.3640     2.2300   -29.6270 
  222.1250    67.4990    11.3260    10.4550    11.5380    24.3330     2.2020   -29.6810 
  222.2500    66.9340    11.1850    10.2960    11.0020    24.3040     2.1850   -29.6610 
  222.3750    63.7150    11.0300    10.1210    10.4530    24.2920     2.1810   -29.5960 
  222.5000    60.4890    10.9010     9.9930    10.2670    24.3240     2.1910   -29.5210 
  222.6250    61.9550    10.8550     9.9770    10.5350    24.4110     2.2060   -29.4510 
  222.7500    65.5610    10.9040    10.0620    11.2250    24.4680     2.2140   -29.3710 
  222.8750    67.9890    11.0290    10.2140    12.1760    24.4680     2.2120   -29.3110 
  223.0000    68.1910    11.1730    10.3720    13.1120    24.4210     2.1990   -29.2680 
  223.1250    65.1860    11.2540    10.4620    13.2240    24.4040     2.1800   -29.2770 
  223.2500    61.1110    11.2470    10.4760    12.3930    24.4370     2.1630   -29.3880 
  223.3750    59.5380    11.1800    10.4390    11.6600    24.4750     2.1560   -29.5640 
  223.5000    61.5070    11.1090    10.3950    11.3630    24.5080     2.1580   -29.6810 
  223.6250    62.6030    11.0920    10.3870    11.6960    24.5180     2.1660   -29.6820 
  223.7500    62.5100    11.1270    10.4140    12.8150    24.4550     2.1710   -29.6570 
  223.8750    64.8470    11.1890    10.4640    14.1360    24.3480     2.1750   -29.6270 
  224.0000    69.4840    11.2620    10.5260    14.3960    24.3540     2.1850   -29.5480 
  224.1250    70.9020    11.3670    10.6080    13.3420    24.5120     2.2090   -29.3400 
  224.2500    68.5470    11.5240    10.7080    12.2910    24.6530     2.2340   -28.9790 
  224.3750    67.6510    11.7190    10.8030    12.2030    24.7100     2.2470   -28.4780 
  224.5000    70.7600    11.8880    10.8600    12.5880    24.7170     2.2360   -27.9110 
  224.6250    73.1630    11.9230    10.8460    12.7150    24.7770     2.2060   -27.3870 
  224.7500    72.2360    11.8130    10.7840    12.2620    24.8980     2.1780   -26.8770 
  224.8750    69.6900    11.6220    10.7270    11.3540    25.0230     2.1640   -26.3010 
  225.0000    67.2970    11.4690    10.7390    11.1110    25.0460     2.1690   -25.7360 
  225.1250    67.1470    11.4950    10.8880    11.6290    24.9930     2.1950   -25.3360 
  225.2500    70.6760    11.7030    11.1620    12.5860    24.9630     2.2340   -25.0570 
  225.3750    76.8350    12.0480    11.5280    13.0900    25.0030     2.2770   -24.8570 
  225.5000    81.0470    12.4560    11.9310    13.3800    25.1260     2.3090   -24.8110 
  225.6250    80.4650    12.8420    12.2800    13.7790    25.2930     2.3140   -24.9590 
