~V
VERS. 2.00: Ver 2.00
~W
STRT.M 55.0000:
STOP.M 310.0000:
STEP.M 0.1250:
NULL. -999.2500:
UWI. F10049:
~C
DEPT.M :
GR.API :
RML.OHMM :
RI. :
RXO.OHMM :
CALI.CM :
DEN.GM/CC :
SP.MV :
~A
# ...
  201.2500    67.7600    14.4090    13.4580    14.4130    24.9830     2.5550    -3.4880 
  201.3750    69.6960    14.6370    13.8100    15.3030    24.7080     2.5550    -3.5440 
  201.5000    72.8080    14.9570    14.1030    16.2250    24.4720     2.5530    -3.6160 
  201.6250    75.9710    15.3110    14.3210    15.7490    24.4860     2.5530    -3.7620 
  201.7500    75.7210    15.6370    14.5050    14.7770    24.7090     2.5560    -3.9150 
  201.8750    72.1690    15.9000    14.6760    14.3830    25.0130     2.5620    -4.0220 
  202.0000    69.5180    16.0680    14.8400    14.8880    25.2250     2.5660    -4.0460 
  202.1250    71.5090    16.0770    14.9530    16.5170    25.3220     2.5600    -4.0170 
  202.2500    75.1500    15.9090    14.9510    18.3690    25.3530     2.5440    -3.9520 
  202.3750    76.4910    15.5670    14.7950    19.0200    25.3680     2.5240    -3.8360 
  202.5000    74.6380    15.1110    14.5080    16.8780    25.4100     2.5100    -3.7430 
  202.6250    70.1300    14.6550    14.1900    14.5440    25.4740     2.5090    -3.6750 
  202.7500    65.0370    14.3200    14.0040    14.6560    25.4910     2.5170    -3.7100 
  202.8750    62.0630    14.1850    14.0800    16.3600    25.3910     2.5260    -3.8510 
  203.0000    63.5370    14.2870    14.4740    18.3690    25.2180     2.5270    -4.0660 
  203.1250    69.3340    14.6240    15.1480    16.6520    25.0050     2.5120    -4.2990 
  203.2500    72.9910    15.0470    15.8550    16.5520    24.8350     2.4840    -4.5360 
  203.3750    72.9400    15.4180    16.3670    17.3950    24.7370     2.4520    -4.8330 
  203.5000    72.0510    15.6160    16.5160    18.0930    24.6680     2.4260    -5.1730 
  203.6250    73.2030    15.5380    16.2690    17.2530    24.5540     2.4140    -5.4820 
  203.7500    74.1840    15.2570    15.8630    16.0440    24.4170     2.4110    -5.8350 
  203.8750    73.3700    14.8670    15.4410    14.8560    24.2350     2.4120    -6.1670 
  204.0000    72.2530    14.4490    15.0480    14.0500    24.0390     2.4100    -6.3950 
  204.1250    74.3290    14.0430    14.6350    14.5820    23.8770     2.4030    -6.5900 
  204.2500    78.3870    13.6790    14.2280    14.9660    23.7700     2.3970    -6.8620 
  204.3750    79.8310    13.4920    14.0100    14.0700    23.6850     2.3930    -7.2040 
  204.5000    76.9300    13.8230    14.3170    12.6430    23.5850     2.3910    -7.6110 
  204.6250    72.6790    15.3930    15.9540    12.7100    23.6080     2.3820    -8.2890 
  204.7500    69.8960    19.2160    19.7430    14.8990    23.7820     2.3600    -9.1250 
  204.8750    68.0350    27.4960    26.9730    22.1590    24.0270     2.3250   -10.0910 
  205.0000    66.1860    41.6040    38.8560    44.7020    24.2900     2.2810   -11.2760 
  205.1250    64.9060    59.4730    55.5940    62.2580    24.4730     2.2390   -12.6630 
  205.2500    64.4570    74.7670    72.1850    72.2420    24.6730     2.2080   -14.0320 
  205.3750    65.0970    83.5980    83.0650    80.7640    24.9180     2.1920   -15.3470 
  205.5000    65.0760    85.6120    85.9230    82.0490    25.0910     2.1890   -16.6140 
  205.6250    62.7610    83.1360    83.1980    74.2780    25.1210     2.1970   -17.7380 
  205.7500    60.1710    80.7140    80.3210    70.6390    25.0860     2.2050   -18.6720 
  205.8750    59.0190    80.6110    79.6010    74.6930    25.0630     2.2100   -19.4490 
  206.0000    58.8200    83.4610    81.7310    82.9840    25.0680     2.2070   -20.0510 
  206.1250    59.7610    88.9690    86.6410    92.8550    25.0530     2.1970   -20.5180 
  206.2500    61.1110    95.2150    92.5600   108.3280    25.0370     2.1830   -20.9750 
  206.3750    61.0210   100.5460    97.8740   120.5900    25.0860     2.1700   -21.4560 
  206.5000    60.0000   103.6820   101.2960   125.1400    25.2280     2.1630   -21.9250 
  206.6250    61.1140   103.9360   102.1900   126.0780    25.4180     2.1650   -22.2770 
  206.7500    63.0850   102.6400   101.7510   128.2960    25.5560     2.1740   -22.6330 
  206.8750    62.8290   101.1000   101.0970   127.3630    25.6160     2.1840   -22.9940 
  207.0000    60.9850   100.5060   101.2550   124.5870    25.6410     2.1910   -23.4020 
  207.1250    60.1060   102.0440   103.3620   120.2630    25.6760     2.1930   -23.8180 
  207.2500    59.9050   105.8310   107.7150   127.1250    25.7180     2.1890   -24.1970 
  207.3750    59.5970   111.8980   114.5430   131.0240    25.7790     2.1800   -24.4810 
  207.5000    58.3050   119.7220   123.5840   131.6600    25.8470     2.1670   -24.7240 
  207.6250    56.4520   126.9460   133.1700   148.3160    25.9290     2.1510   -25.0300 
  207.7500    55.7080   129.3380   138.9910   168.3640    26.0180     2.1360   -25.3590 
  207.8750    56.7460   123.1190   135.8580   186.3310    26.1060     2.1230   -25.6880 
  208.0000    58.4560   107.5120   120.9330   192.0090    26.1820     2.1160   -25.8920 
  208.1250    59.7610    85.9430    96.9590   167.9590    26.2020     2.1220   -25.9560 
  208.2500    62.3630    65.6410    73.4880   118.3770    26.1410     2.1400   -25.9760 
  208.3750    67.4260    50.3680    55.5650    70.6850    25.9970     2.1670   -26.0270 
  208.5000    73.0270    41.1800    44.5170    40.5480    25.8240     2.1950   -26.0600 
  208.6250    74.3810    38.1470    40.2880    30.6740    25.6850     2.2100   -25.9860 
  208.7500    71.7260    39.0190    40.3990    29.0580    25.5430     2.2100   -25.7850 
  208.8750    68.8410    42.4710    43.6920    34.3590    25.3370     2.2000   -25.5130 
  209.0000    68.5240    46.9540    48.7920    56.9960    25.0530     2.1890   -25.2550 
  209.1250    69.7430    50.4830    53.4210    73.3210    24.7540     2.1890   -25.0520 
  209.2500    71.0260    52.0140    55.8250    69.0020    24.5000     2.2000   -24.8850 
  209.3750    71.7290    51.6320    55.9210    58.7310    24.2880     2.2170   -24.7340 
  209.5000    70.9450    50.2100    54.7730    53.9870    24.1360     2.2330   -24.6100 
  209.6250    68.8490    48.8540    53.6390    61.9730    24.0990     2.2390   -24.4990 
  209.7500    66.8970    48.1250    53.0910    74.0770    24.1370     2.2370   -24.4290 
  209.8750    66.6300    48.0850    53.1110    77.5540    24.1970     2.2310   -24.3480 
  210.0000    67.8390    48.6870    53.5860    71.5700    24.2360     2.2250   -24.1800 
  210.1250    68.0650    49.9060    54.6350    62.7900    24.2130     2.2210   -23.9770 
  210.2500    67.1710    51.1770    55.8900    69.5540    24.1470     2.2200   -23.7200 
  210.3750    65.9890    51.5210    56.2570    81.6100    24.0820     2.2210   -23.3130 
  210.5000    66.5780    49.7910    54.1820    93.4160    24.0310     2.2300   -22.7500 
  210.6250    68.8650    45.1290    48.5340    89.4780    24.0100     2.2500   -22.0770 
  210.7500    72.0480    39.0050    41.3570    53.3620    24.0040     2.2770   -21.3070 
  210.8750    74.9650    33.1880    34.8240    24.7110    24.0040     2.3010   -20.5620 
  211.0000    75.3320    29.2970    30.4840    14.5580    24.0040     2.3110   -19.9910 
  211.1250    71.7410    28.7610    29.4640    17.0780    24.0020     2.3010   -19.6320 
  211.2500    67.6030    31.1580    31.3680    28.4050    24.0010     2.2770   -19.4470 
  211.3750    66.9330    35.9640    36.0520    43.7290    23.9950     2.2510   -19.4540 
  211.5000    69.1360    42.2090    42.9080    60.9370    23.9680     2.2300   -19.6420 
  211.6250    69.9420    48.3050    50.2590    69.2210    23.8970     2.2170   -20.0600 
  211.7500    68.0010    52.7610    55.8190    71.9160    23.8350     2.2090   -20.5780 
  211.8750    65.1650    54.9370    58.6060    71.5000    23.7820     2.2030   -21.1120 
  212.0000    64.0970    55.0540    58.9690    70.2270    23.7820     2.1970   -21.6360 
  212.1250    66.4610    53.8590    57.8290    70.5280    23.8720     2.1920   -22.0420 
  212.2500    69.4230    52.4700    56.3680    77.2970    24.0080     2.1890   -22.3370 
  212.3750    70.6190    51.3120    54.9790    83.3770    24.1180     2.1860   -22.6030 
