~V
VERS. 2.00: Ver 2.00
~W
STRT.M 56.0000:
STOP.M 268.0000:
STEP.M 0.1250:
NULL. -999.2500:
UWI. F10027:
~C
DEPT.M :
GR.API :
RML.OHMM :
RI. :
RXO.OHMM :
CALI.CM :
DEN.GM/CC :
SP.MV :
~A
   56.0000    38.0140     0.8640     0.6520     6.9450    25.0660     2.4530    72.8880 
   56.1250    39.7560     0.9170     0.6300     3.6590    24.9030     2.4390    72.7490 
   56.2500    42.5420     0.9050     0.5290     1.8540    24.4790     2.4330    71.8410 
   56.3750    42.9630     0.6830     0.3830     1.1770    23.8370     2.4510    69.7800 
   56.5000    42.1390     0.1810     0.2670     1.0470    23.2510     2.5080    66.2900 
   56.6250    44.5370    -0.2030     0.2300     1.1520    23.0110     2.5970    60.9790 
   56.7500    50.3300    -0.2580     0.2610     1.4920    22.9710     2.6720    54.2910 
   56.8750    58.4410     0.0720     0.3860     2.4860    23.0070     2.6930    46.6000 
   57.0000    65.2260     0.8050     0.6720     5.1220    22.9780     2.6370    38.2930 
   57.1250    67.3530     2.0490     1.2850     8.1100    22.9290     2.5110    29.7270 
   57.2500    66.0140     3.6160     2.2610     9.6630    22.9010     2.3730    21.3990 
   57.3750    64.3020     5.1800     3.5190    10.0450    22.9550     2.2620    13.7480 
   57.5000    63.8200     6.3430     4.8290    10.2910    23.1170     2.1910     7.1410 
   57.6250    63.0700     6.9880     5.8830    10.4180    23.3470     2.1570     2.0920 
   57.7500    61.5780     7.3560     6.6320    10.3700    23.4690     2.1370    -1.6330 
   57.8750    60.3440     7.5890     7.1330    10.1600    23.4750     2.1210    -4.3180 
   58.0000    60.9470     7.7790     7.4630     9.9430    23.4800     2.1090    -6.3170 
   58.1250    64.5600     7.9860     7.6620     9.8260    23.5270     2.1030    -7.8230 
   58.2500    68.4540     8.1540     7.7890     9.8840    23.5490     2.1020    -9.0450 
   58.3750    71.5510     8.2820     7.8770     9.8290    23.5470     2.1040   -10.0520 
   58.5000    73.1890     8.4270     7.9550     9.8220    23.5440     2.1100   -10.8890 
   58.6250    73.3640     8.5960     8.0430     9.8210    23.5570     2.1200   -11.5810 
   58.7500    71.5440     8.7490     8.1450     9.8470    23.6000     2.1340   -12.2280 
   58.8750    67.8720     8.9100     8.2570     9.8200    23.7050     2.1480   -12.8570 
   59.0000    64.0560     9.1600     8.3730     9.7690    23.8710     2.1530   -13.4770 
   59.1250    63.2980     9.5250     8.4870     9.8380    23.9720     2.1440   -14.0490 
   59.2500    65.3820     9.8980     8.5850     9.8890    23.9270     2.1260   -14.5690 
   59.3750    66.9390    10.1820     8.6540     9.9490    23.7790     2.1080   -15.0390 
   59.5000    65.3620    10.3170     8.6820    10.0390    23.6360     2.0950   -15.4970 
   59.6250    62.4040    10.2520     8.6600    10.0210    23.6340     2.0870   -15.9350 
   59.7500    61.1940    10.0500     8.6140     9.9550    23.7600     2.0800   -16.3940 
   59.8750    61.8110     9.7960     8.5720    10.0000    23.9410     2.0710   -16.8530 
   60.0000    62.7810     9.6080     8.5510    10.0230    24.1370     2.0640   -17.2480 
   60.1250    63.3210     9.6170     8.5500    10.0480    24.2770     2.0590   -17.5570 
   60.2500    62.7840     9.8120     8.5450    10.0410    24.3270     2.0580   -17.8620 
   60.3750    62.2800    10.1260     8.5230    10.1050    24.3380     2.0600   -18.1900 
   60.5000    63.0710    10.4430     8.4820    10.1940    24.3100     2.0660   -18.5060 
   60.6250    63.3550    10.6050     8.4280    10.1590    24.2330     2.0770   -18.8260 
   60.7500    61.2530    10.5500     8.3750    10.1600    24.1960     2.0900   -19.0890 
   60.8750    60.1840    10.2810     8.3240    10.2270    24.2470     2.1020   -19.2780 
   61.0000    62.7270     9.8780     8.2720    10.2010    24.2890     2.1120   -19.4460 
   61.1250    65.1560     9.4760     8.2160    10.1080    24.2110     2.1200   -19.6460 
   61.2500    64.5710     9.1770     8.1650    10.1380    24.0630     2.1250   -19.8460 
   61.3750    63.0380     9.0010     8.1310    10.2680    23.9850     2.1280   -20.0360 
   61.5000    61.9160     8.9160     8.1240    10.3470    23.9810     2.1290   -20.1960 
   61.6250    60.1360     8.8860     8.1470    10.2710    23.9630     2.1280   -20.2700 
   61.7500    59.5460     8.8840     8.1860    10.1130    23.9200     2.1280   -20.2910 
   61.8750    60.3330     8.9160     8.2320    10.0500    23.8660     2.1270   -20.2990 
   62.0000    61.1490     8.9970     8.2790    10.0920    23.8550     2.1230   -20.2820 
   62.1250    61.9210     9.1240     8.3150    10.1180    23.9040     2.1110   -20.1750 
   62.2500    64.6340     9.2310     8.3170    10.0720    23.9690     2.0940   -19.9860 
   62.3750    68.9200     9.2330     8.2490    10.0310    23.9920     2.0780   -19.7420 
   62.5000    72.6790     9.0620     8.0820    10.0010    23.9680     2.0740   -19.5010 
   62.6250    72.5420     8.6830     7.7980     9.6720    23.8690     2.0880   -19.3110 
   62.7500    70.7310     8.2070     7.4510     9.1590    23.8160     2.1110   -19.1280 
   62.8750    71.4980     7.7410     7.0990     8.7860    23.7790     2.1310   -18.9540 
   63.0000    75.9460     7.3910     6.8100     8.6020    23.7070     2.1370   -18.8350 
   63.1250    79.4100     7.2880     6.6920     8.4390    23.6040     2.1300   -18.8370 
   63.2500    78.2420     7.4780     6.7980     8.3220    23.6090     2.1180   -18.9210 
   63.3750    74.7050     8.0220     7.1730     8.7260    23.7230     2.1090   -19.0370 
   63.5000    70.7600     8.9160     7.8210     9.4060    23.9180     2.1050   -19.1470 
   63.6250    68.5710    10.0400     8.6830    10.1600    24.0230     2.1080   -19.2550 
   63.7500    69.0500    11.0350     9.5190    10.6890    23.8270     2.1180   -19.4180 
   63.8750    70.1900    11.5820    10.0860    10.9570    23.4710     2.1320   -19.6320 
   64.0000    70.6070    11.5070    10.2020    10.8820    23.1240     2.1470   -19.8790 
   64.1250    68.4390    10.8380     9.7990    10.6050    23.0360     2.1560   -20.1350 
   64.2500    64.7800     9.9920     9.1480    10.0410    23.1330     2.1590   -20.3700 
   64.3750    61.4790     9.2570     8.4710     9.4290    23.4270     2.1570   -20.5870 
   64.5000    59.5480     8.7950     7.9330     9.4350    23.9010     2.1520   -20.7890 
   64.6250    61.2590     8.6740     7.6380     9.6880    24.3480     2.1410   -20.9410 
   64.7500    63.4830     8.7600     7.5290     9.9070    24.5850     2.1250   -21.0510 
   64.8750    64.3050     8.9410     7.5450     9.8380    24.4840     2.1080   -21.1240 
   65.0000    62.6130     9.1130     7.6160     9.7100    24.0360     2.0990   -21.1490 
   65.1250    60.1850     9.1960     7.6690    10.0250    23.6250     2.1080   -21.1030 
   65.2500    59.7170     9.1930     7.6650    10.4220    23.6610     2.1270   -21.0170 
   65.3750    60.9090     9.1220     7.6010    10.6660    23.8330     2.1480   -20.9090 
   65.5000    62.3190     9.0070     7.4930    10.4490    23.9620     2.1600   -20.8070 
   65.6250    65.4660     8.8600     7.3690     9.9490    24.0020     2.1570   -20.7470 
   65.7500    69.3440     8.7000     7.2530     9.5940    23.9000     2.1470   -20.7430 
   65.8750    70.1340     8.5450     7.1540     9.4300    23.6510     2.1370   -20.7700 
   66.0000    66.3960     8.4140     7.0750     9.2500    23.4000     2.1340   -20.7950 
   66.1250    64.0130     8.3330     7.0130     9.0340    23.4140     2.1380   -20.7920 
   66.2500    65.8550     8.2870     6.9650     8.8580    23.6340     2.1430   -20.7890 
   66.3750    68.2050     8.2520     6.9350     8.7840    23.7780     2.1450   -20.8130 
   66.5000    66.7700     8.2110     6.9210     8.8020    23.8380     2.1430   -20.8130 
   66.6250    63.7300     8.1630     6.9260     8.9430    23.9160     2.1380   -20.7500 
   66.7500    62.6830     8.1270     6.9420     9.1060    24.0640     2.1330   -20.5690 
   66.8750    63.1450     8.1140     6.9690     9.2880    24.2680     2.1290   -20.2450 
   67.0000    63.5290     8.1320     7.0060     9.3640    24.4420     2.1240   -19.8180 
   67.1250    64.1750     8.1940     7.0670     9.2360    24.4190     2.1170   -19.3180 
