~V
VERS. 2.00: Ver 2.00
~W
STRT.M 56.0000:
STOP.M 312.0000:
STEP.M 0.1250:
NULL. -999.2500:
UWI. F10077:
~C
DEPT.M :
GR.API :
RML.OHMM :
RI. :
RXO.OHMM :
CALI.CM :
DEN.GM/CC :
SP.MV :
~A
# ...
  202.2500    62.6770    15.2010    14.0990    12.2220    23.6810     2.1500    -7.2450 
  202.3750    60.6780    15.7390    14.5440    12.9070    23.6340     2.1700    -7.3120 
  202.5000    58.9830    16.2440    15.0000    13.7550    23.5700     2.1850    -7.3520 
  202.6250    57.6540    16.5380    15.2930    14.7350    23.5350     2.1930    -7.3810 
  202.7500    59.0950    16.5900    15.3700    14.5300    23.5120     2.1990    -7.4230 
  202.8750    62.9920    16.4410    15.2620    13.6900    23.5310     2.2040    -7.4990 
  203.0000    65.5000    16.1990    15.0690    13.1100    23.5780     2.2090    -7.6430 
  203.1250    64.9480    16.0280    14.9380    12.9780    23.6400     2.2110    -7.8210 
  203.2500    64.4670    16.0570    14.9820    12.8580    23.7390     2.2090    -7.9620 
  203.3750    63.6420    16.3590    15.2690    12.7220    23.8300     2.2020    -8.0730 
  203.5000    61.6150    16.9420    15.8120    12.8240    23.8020     2.1930    -8.1650 
  203.6250    59.0800    17.7550    16.5810    13.6040    23.6820     2.1820    -8.2160 
  203.7500    58.4200    18.6010    17.4120    14.4220    23.6400     2.1710    -8.1980 
  203.8750    59.3880    19.2990    18.1380    14.7980    23.6350     2.1630    -8.1060 
  204.0000    59.9570    19.6760    18.5850    14.6110    23.5780     2.1620    -7.9230 
  204.1250    58.7620    19.5500    18.5550    14.4820    23.5470     2.1680    -7.6460 
  204.2500    56.0650    19.0160    18.1110    14.1890    23.6010     2.1770    -7.3190 
  204.3750    53.5950    18.2150    17.3760    13.8850    23.8340     2.1790    -6.9840 
  204.5000    52.7750    17.3590    16.5490    13.4160    24.2530     2.1740    -6.6710 
  204.6250    55.8750    16.7260    15.8850    12.9450    24.6080     2.1610    -6.3930 
  204.7500    60.4600    16.4650    15.5310    12.5830    24.7510     2.1450    -6.1790 
  204.8750    62.2460    16.6340    15.5550    12.7070    24.8060     2.1320    -6.0100 
  205.0000    59.6580    17.1860    15.9470    13.5890    24.8400     2.1310    -5.9020 
  205.1250    57.1660    17.9620    16.6190    15.0050    24.7270     2.1500    -5.8670 
  205.2500    57.3060    18.6640    17.3130    15.0350    24.5540     2.1770    -5.8600 
  205.3750    56.8230    19.1060    17.8440    13.9060    24.5480     2.1870    -5.8330 
  205.5000    54.5510    19.2500    18.1280    13.0210    24.6900     2.1560    -5.7970 
  205.6250    53.1350    19.2100    18.2090    13.2450    24.9690     2.0800    -5.7730 
  205.7500    52.9160    19.2140    18.2770    13.9620    25.2520     2.0060    -5.7290 
  205.8750    53.5220    19.3440    18.4380    13.9490    25.2060     1.9760    -5.6810 
  206.0000    56.1560    19.5320    18.6830    12.9550    24.8650     2.0070    -5.6100 
  206.1250    60.0100    19.5150    18.8210    12.2230    24.5400     2.0780    -5.5290 
  206.2500    59.7700    19.1910    18.7080    13.1920    24.4170     2.1380    -5.4480 
  206.3750    55.8370    18.7280    18.4310    15.1920    24.3550     2.1700    -5.3260 
  206.5000    55.8510    18.4480    18.2360    16.2640    24.2700     2.1870    -5.1270 
  206.6250    61.5620    18.6370    18.3800    15.9100    24.3460     2.2270    -4.8630 
  206.7500    64.3160    19.1100    18.7750    16.0940    24.5350     2.3050    -4.5450 
  206.8750    61.6990    19.4650    19.1160    19.1530    24.7370     2.4030    -4.1810 
  207.0000    58.7710    19.1740    18.9060    24.5920    24.8720     2.4890    -3.7650 
  207.1250    60.8350    17.7780    17.6210    24.4870    24.9430     2.5260    -3.2790 
  207.2500    63.6220    15.7430    15.6700    16.5290    24.9270     2.5180    -2.7790 
  207.3750    64.0640    13.6440    13.6220    12.1130    24.9220     2.4790    -2.3200 
  207.5000    62.8580    11.9590    11.9400    10.2410    24.9990     2.4300    -1.8920 
  207.6250    61.8320    11.0390    10.9540     9.4970    25.0460     2.3920    -1.5100 
  207.7500    62.2960    10.7760    10.5920     8.4840    24.9460     2.3750    -1.2080 
  207.8750    65.4480    11.0890    10.8010     8.5820    24.7380     2.3850    -0.9220 
  208.0000    68.7760    11.9470    11.5420     9.9460    24.5970     2.4190    -0.6500 
  208.1250    66.8920    13.4450    12.8910    12.4850    24.5920     2.4740    -0.4210 
  208.2500    60.3260    15.3990    14.7060    15.5630    24.5830     2.5350    -0.2130 
  208.3750    54.6170    17.5230    16.7790    21.2570    24.4930     2.5920    -0.0350 
  208.5000    52.5230    19.3520    18.7000    26.4000    24.4130     2.6370     0.0910 
  208.6250    52.1340    20.2790    19.8430    26.1780    24.4260     2.6600     0.1960 
  208.7500    51.2610    20.3700    20.1560    22.3470    24.4880     2.6630     0.2890 
  208.8750    50.2890    19.9810    19.9000    19.1660    24.5030     2.6500     0.3000 
  209.0000    49.2360    19.5750    19.4740    18.6030    24.4830     2.6310     0.2120 
  209.1250    48.3190    19.5460    19.2540    21.9730    24.4680     2.6180     0.0790 
  209.2500    46.6900    19.8560    19.3190    25.7610    24.4950     2.6150    -0.0620 
  209.3750    45.9390    20.2980    19.5600    25.8660    24.5440     2.6220    -0.2000 
  209.5000    47.5220    20.6430    19.8060    22.0240    24.6120     2.6300    -0.3540 
  209.6250    50.8190    20.7460    19.9060    21.9420    24.7160     2.6360    -0.5160 
  209.7500    52.7400    20.6620    19.8570    22.0100    24.7970     2.6380    -0.6530 
  209.8750    51.9020    20.4550    19.6880    20.9560    24.8200     2.6340    -0.7570 
  210.0000    50.0240    20.1950    19.4490    20.8830    24.8140     2.6280    -0.8750 
  210.1250    49.3660    19.9470    19.1950    21.6550    24.7830     2.6210    -1.0220 
  210.2500    49.2970    19.7740    18.9930    22.0680    24.7530     2.6150    -1.1420 
  210.3750    47.8240    19.7440    18.9130    21.0140    24.7730     2.6110    -1.2280 
  210.5000    46.0550    19.8980    19.0080    19.5480    24.8360     2.6140    -1.2820 
  210.6250    48.3270    20.2190    19.2870    20.7110    24.8680     2.6230    -1.3150 
  210.7500    53.0070    20.5680    19.6430    21.7760    24.8240     2.6310    -1.3400 
  210.8750    54.9870    20.8400    19.9870    21.8430    24.8600     2.6300    -1.3310 
  211.0000    52.1930    20.9710    20.2410    21.9460    24.9520     2.6100    -1.2430 
  211.1250    48.8130    20.9300    20.3220    20.6370    24.9640     2.5700    -1.1640 
  211.2500    49.0810    20.7670    20.2340    20.7900    24.8620     2.5280    -1.1750 
  211.3750    51.5810    20.5050    19.9930    21.0410    24.6800     2.5030    -1.2350 
  211.5000    53.2550    20.1560    19.6410    20.3150    24.5380     2.5050    -1.2930 
  211.6250    52.2940    19.7660    19.2580    20.3960    24.4130     2.5330    -1.3410 
  211.7500    50.7640    19.4410    18.9530    20.4710    24.3840     2.5630    -1.3840 
  211.8750    49.8790    19.2790    18.7930    20.0100    24.4200     2.5800    -1.4140 
  212.0000    49.7300    19.3410    18.8090    20.6720    24.5180     2.5750    -1.4410 
  212.1250    49.4080    19.6410    19.0140    21.9040    24.7260     2.5500    -1.4330 
  212.2500    47.9720    20.0470    19.3260    22.5480    24.9170     2.5230    -1.3780 
  212.3750    45.9980    20.4670    19.6860    22.1160    25.0050     2.5060    -1.2900 
  212.5000    45.4050    20.8570    20.0630    21.1080    25.0150     2.5040    -1.1990 
  212.6250    47.1350    21.2520    20.4850    21.9540    24.9850     2.5180    -1.0910 
  212.7500    47.8370    21.7120    20.9860    22.1910    24.9360     2.5360    -0.9630 
  212.8750    47.3380    22.2360    21.5620    22.5900    24.8890     2.5520    -0.8640 
  213.0000    48.3820    22.7290    22.1350    22.5460    24.9150     2.5650    -0.8090 
  213.1250    52.1040    22.9710    22.5060    24.7000    24.9230     2.5760    -0.7450 
  213.2500    54.1380    22.8490    22.5460    25.3040    24.9160     2.5870    -0.6890 
  213.3750    53.8220    22.3400    22.2080    24.1010    24.9530     2.5930    -0.6740 
