~V
VERS. 2.00: Ver 2.00
~W
STRT.M 50.0000:
STOP.M 313.0000:
STEP.M 0.1250:
NULL. -999.2500:
UWI. F10034:
~C
DEPT.M :
GR.API :
RML.OHMM :
RI. :
RXO.OHMM :
CALI.CM :
DEN.GM/CC :
SP.MV :
~A
# ...
  230.0000    50.3700     7.0150     6.0600     7.6690    23.1970     2.4410   -12.0490 
  230.1250    57.9560     7.5250     6.5240     8.3460    23.2490     2.4520   -12.0660 
  230.2500    63.7180     7.9210     6.9370     8.8300    23.2880     2.4600   -12.0800 
  230.3750    66.3730     8.1260     7.2120     8.9020    23.3200     2.4660   -12.0800 
  230.5000    68.0840     8.1320     7.3100     8.4440    23.3640     2.4710   -12.0500 
  230.6250    70.8810     7.9820     7.2350     8.1690    23.4440     2.4750   -12.0190 
  230.7500    73.8030     7.7800     7.0790     8.1480    23.4840     2.4760   -12.0020 
  230.8750    74.4350     7.5690     6.8970     8.1790    23.4500     2.4720   -11.9860 
  231.0000    71.9390     7.3570     6.7130     8.0110    23.3530     2.4600   -11.9850 
  231.1250    68.9960     7.1350     6.5270     7.7390    23.1840     2.4440   -12.0340 
  231.2500    68.2510     6.9020     6.3300     7.4680    22.9780     2.4300   -12.1380 
  231.3750    69.3950     6.6740     6.1240     7.2050    22.7600     2.4220   -12.2970 
  231.5000    69.2380     6.4810     5.9320     7.0040    22.5620     2.4180   -12.5170 
  231.6250    66.3740     6.3900     5.8180     7.0020    22.3810     2.4150   -12.7820 
  231.7500    65.7770     6.4520     5.8380     7.1650    22.2220     2.4060   -13.0670 
  231.8750    69.8700     6.7090     6.0340     7.4710    22.1190     2.3920   -13.3710 
  232.0000    76.1510     7.1590     6.4140     8.0910    22.0790     2.3770   -13.6970 
  232.1250    77.4980     7.7380     6.9390     9.1060    22.0680     2.3710   -14.0210 
  232.2500    74.2190     8.2820     7.4750    10.2200    22.0220     2.3770   -14.3020 
  232.3750    69.3010     8.6620     7.9020    10.9390    21.9250     2.3910   -14.5280 
  232.5000    64.9540     8.8020     8.1310    10.8670    21.8360     2.4050   -14.6870 
  232.6250    65.3490     8.6850     8.1050    10.5700    21.8070     2.4090   -14.7560 
  232.7500    68.5610     8.4500     7.9330    10.5920    21.8180     2.4040   -14.7670 
  232.8750    70.8470     8.2130     7.7180    10.4890    21.8500     2.3940   -14.7190 
  233.0000    70.9980     8.0830     7.5670    10.1120    21.8850     2.3870   -14.6220 
  233.1250    71.7740     8.1860     7.6010     9.6310    21.9590     2.3840   -14.4820 
  233.2500    72.8430     8.5160     7.8340     9.4000    22.1370     2.3860   -14.3200 
  233.3750    71.1250     9.0160     8.2300     9.6220    22.5060     2.3910   -14.1590 
  233.5000    67.9400     9.5580     8.6900    10.3350    23.0180     2.4000   -14.0190 
  233.6250    67.4930     9.9200     9.0430    11.5210    23.5190     2.4090   -13.9110 
  233.7500    69.4090     9.9790     9.1840    12.4860    23.8460     2.4110   -13.7910 
  233.8750    70.2720     9.7960     9.1120    12.5010    23.9850     2.4030   -13.6840 
  234.0000    68.2430     9.5590     8.9560    11.8040    24.0410     2.3860   -13.5870 
  234.1250    65.5670     9.7980     9.0020    11.6900    24.0670     2.3760   -13.4910 
  234.2500    64.9910    10.7380     9.4990    12.9040    24.0890     2.3840   -13.4110 
  234.3750    65.1660    12.6150    10.6420    15.3170    24.1140     2.4140   -13.3530 
  234.5000    62.6070    15.4410    12.5450    18.7220    24.1230     2.4510   -13.3200 
  234.6250    57.6530    18.6280    15.2680    22.5720    24.0840     2.4700   -13.3280 
  234.7500    55.9680    22.0230    18.3970    26.0030    24.0090     2.4550   -13.3730 
  234.8750    58.2210    25.1200    21.4860    28.9600    23.9510     2.4100   -13.4400 
  235.0000    59.4470    27.4540    24.0360    31.5310    23.9460     2.3510   -13.5170 
  235.1250    56.5740    28.5420    25.4710    34.2450    24.0100     2.3000   -13.6120 
  235.2500    54.8920    28.5660    25.8380    35.2640    24.1140     2.2670   -13.7100 
  235.3750    57.0530    27.7680    25.3210    33.2950    24.1990     2.2510   -13.7990 
  235.5000    59.4730    26.5190    24.2630    30.1620    24.2700     2.2460   -13.8730 
  235.6250    58.4440    25.2600    23.0720    27.9900    24.3380     2.2470   -13.9170 
  235.7500    58.1080    24.3490    22.1150    26.2170    24.3260     2.2500   -13.9400 
  235.8750    59.8300    23.9570    21.5710    24.6940    24.1920     2.2550   -13.9410 
  236.0000    61.1760    24.0920    21.4920    24.4950    23.8960     2.2630   -13.9290 
  236.1250    58.8250    24.6410    21.8490    25.4160    23.5250     2.2730   -13.9070 
  236.2500    55.9330    25.2820    22.3970    26.4590    23.3160     2.2820   -13.8690 
  236.3750    55.0760    25.7960    22.9490    27.2870    23.4230     2.2850   -13.8080 
  236.5000    56.2020    26.0350    23.3480    27.9150    23.7000     2.2830   -13.7410 
  236.6250    57.2620    25.9210    23.4760    27.8870    23.9420     2.2780   -13.6670 
  236.7500    58.3770    25.6100    23.4110    27.7180    24.0400     2.2750   -13.5990 
  236.8750    59.6330    25.2450    23.2530    27.7330    24.0590     2.2750   -13.5490 
  237.0000    59.3720    24.9270    23.0910    27.8080    24.0580     2.2760   -13.5110 
  237.1250    57.2700    24.6710    22.9490    27.6620    24.0670     2.2770   -13.4760 
  237.2500    55.7690    24.3800    22.7690    27.2530    24.0910     2.2750   -13.4540 
  237.3750    57.2010    23.9470    22.4680    27.1110    24.1140     2.2710   -13.4360 
  237.5000    59.8150    23.2940    21.9820    26.9040    24.1250     2.2660   -13.4030 
  237.6250    59.0430    22.3920    21.2700    25.7220    24.1240     2.2630   -13.3660 
  237.7500    57.4200    21.3660    20.4290    24.0570    24.1140     2.2620   -13.3270 
  237.8750    58.7460    20.3310    19.5530    22.6290    24.0910     2.2640   -13.2790 
  238.0000    63.3020    19.3900    18.7380    21.5550    24.0670     2.2690   -13.2270 
  238.1250    65.6470    18.6330    18.0790    20.7640    24.0590     2.2750   -13.1760 
  238.2500    64.3610    18.0340    17.5730    20.2180    24.0650     2.2800   -13.1300 
  238.3750    62.2000    17.5550    17.1940    19.8610    24.0750     2.2800   -13.1260 
  238.5000    59.3460    17.1540    16.8970    19.5040    24.0670     2.2760   -13.1740 
  238.6250    57.4980    16.8140    16.6510    19.3570    24.0190     2.2710   -13.2400 
  238.7500    59.6670    16.5220    16.4290    18.7570    23.9950     2.2710   -13.3270 
  238.8750    63.3300    16.2740    16.2270    18.0830    23.9880     2.2740   -13.4380 
  239.0000    64.7040    16.0560    16.0360    17.5620    23.9880     2.2810   -13.5660 
  239.1250    64.8970    15.8280    15.8320    17.1900    23.9910     2.2860   -13.7160 
  239.2500    65.9590    15.5530    15.5860    16.8680    23.9990     2.2860   -13.8810 
  239.3750    64.8240    15.2210    15.2770    16.3610    24.0140     2.2840   -14.0230 
  239.5000    60.3180    14.8500    14.9100    15.7980    24.0400     2.2820   -14.1110 
  239.6250    57.8250    14.5040    14.5190    15.5430    24.0520     2.2840   -14.1660 
  239.7500    58.1090    14.2540    14.1740    15.3730    24.0570     2.2930   -14.1790 
  239.8750    58.3960    14.1420    13.9260    15.3910    24.0570     2.3050   -14.1640 
  240.0000    58.1370    14.1700    13.8010    15.5740    24.0570     2.3180   -14.1120 
  240.1250    59.6490    14.3110    13.8040    16.0590    24.0490     2.3270   -14.0090 
  240.2500    62.1870    14.5220    13.8980    16.7830    24.0120     2.3320   -13.8750 
  240.3750    64.1140    14.8690    14.1200    17.7350    23.9250     2.3330   -13.7410 
  240.5000    64.2140    15.5450    14.6010    18.7830    23.8130     2.3310   -13.6260 
  240.6250    62.9350    17.0020    15.6960    20.7540    23.7490     2.3280   -13.5270 
  240.7500    61.4490    19.4490    17.6280    24.7170    23.7660     2.3230   -13.4620 
  240.8750    58.7230    22.9810    20.5830    31.2910    23.8710     2.3140   -13.4150 
  241.0000    55.8640    27.4000    24.5370    39.7920    24.0360     2.3010   -13.3830 
  241.1250    54.6080    32.1600    29.1900    47.2930    24.1950     2.2810   -13.3990 
