~V
VERS. 2.00: Ver 2.00
~W
STRT.M 50.0000:
STOP.M 216.0000:
STEP.M 0.1250:
NULL. -999.2500:
UWI. F10015:
~C
DEPT.M :
GR.API :
RML.OHMM :
RI. :
RXO.OHMM :
CALI.CM :
DEN.GM/CC :
SP.MV :
~A
# ...
  162.5000    66.2510    23.6140    21.5380    18.6580    24.5620     2.3320    -8.3160 
  162.6250    68.7600    22.6930    20.8130    18.3860    24.5620     2.3300    -8.3690 
  162.7500    69.7780    21.6730    20.0190    19.4640    24.5620     2.3300    -8.4370 
  162.8750    69.8770    20.8070    19.3250    18.7080    24.5620     2.3410    -8.4810 
  163.0000    68.7710    20.3080    18.9000    17.6320    24.5620     2.3650    -8.4490 
  163.1250    66.9830    20.0610    18.6750    17.6150    24.5620     2.3910    -8.3500 
  163.2500    65.0290    19.8630    18.5130    18.7370    24.5600     2.4080    -8.2240 
  163.3750    63.5890    19.5120    18.2600    19.9420    24.5520     2.4120    -8.1060 
  163.5000    63.6680    18.8820    17.7990    19.1960    24.5320     2.4060    -7.9790 
  163.6250    66.0710    18.0570    17.1510    16.1230    24.5040     2.3960    -7.9210 
  163.7500    68.5900    17.4150    16.6090    13.3610    24.4890     2.3890    -7.8210 
  163.8750    69.5230    17.0760    16.2780    12.8890    24.4850     2.3820    -7.7420 
  164.0000    69.3380    16.9430    16.1080    14.9820    24.4820     2.3760    -7.7020 
  164.1250    68.9790    16.8170    15.9680    17.9690    24.4670     2.3680    -7.7020 
  164.2500    68.1750    16.5100    15.7280    17.9980    24.4220     2.3630    -7.7460 
  164.3750    67.2090    16.1250    15.4500    15.6110    24.3790     2.3610    -7.8090 
  164.5000    67.8290    16.1510    15.4810    13.9390    24.4280     2.3590    -7.9380 
  164.6250    68.8400    16.8250    16.0090    14.2240    24.4790     2.3530    -8.1060 
  164.7500    68.7010    18.3680    17.2730    17.5310    24.4630     2.3410    -8.3150 
  164.8750    66.7050    20.7830    19.3620    23.0200    24.3720     2.3240    -8.5720 
  165.0000    64.1680    23.6570    22.0270    26.2220    24.2850     2.3060    -8.8550 
  165.1250    62.6680    26.1400    24.6430    26.7450    24.2670     2.2920    -9.1850 
  165.2500    60.8010    27.7970    26.5560    27.4020    24.2630     2.2780    -9.5000 
  165.3750    58.6400    28.5260    27.5310    27.6420    24.2630     2.2680    -9.8060 
  165.5000    56.8080    28.6120    27.7730    27.4940    24.2630     2.2600   -10.0760 
  165.6250    56.2640    28.4490    27.6480    27.2520    24.2670     2.2590   -10.2840 
  165.7500    58.0940    28.2710    27.3970    27.1540    24.2880     2.2650   -10.4390 
  165.8750    60.6020    28.1820    27.1900    26.9240    24.3660     2.2720   -10.5880 
  166.0000    61.7460    28.1410    27.0340    27.0630    24.4810     2.2740   -10.6780 
  166.1250    61.4810    28.1070    26.9010    27.0360    24.5740     2.2680   -10.7450 
  166.2500    61.2740    28.0680    26.7840    26.6990    24.6220     2.2610   -10.7630 
  166.3750    62.7150    28.0400    26.7000    26.2250    24.6280     2.2550   -10.7120 
  166.5000    66.1300    28.0640    26.6790    26.0140    24.6210     2.2560   -10.6460 
  166.6250    66.9830    28.2430    26.8280    26.0510    24.5940     2.2660   -10.5580 
  166.7500    64.6200    28.5090    27.0760    26.4470    24.5690     2.2750   -10.5170 
  166.8750    61.9220    28.7930    27.3640    26.8940    24.5550     2.2770   -10.4570 
  167.0000    60.5660    29.0140    27.6120    27.2070    24.5530     2.2710   -10.3860 
  167.1250    60.6160    29.0900    27.7350    27.2370    24.5560     2.2600   -10.3290 
  167.2500    60.1140    28.9460    27.6540    26.7830    24.5550     2.2460   -10.2590 
  167.3750    60.0220    28.6260    27.3970    26.0130    24.5540     2.2370   -10.2450 
  167.5000    61.0110    28.2570    27.0790    25.5930    24.5530     2.2340   -10.2010 
  167.6250    62.0840    27.9130    26.7670    25.4320    24.5530     2.2340   -10.1330 
  167.7500    62.2870    27.6440    26.5080    25.5300    24.5530     2.2350   -10.0210 
  167.8750    61.2220    27.4690    26.3220    25.8020    24.5530     2.2360    -9.8590 
  168.0000    59.5680    27.3570    26.1880    25.8930    24.5530     2.2360    -9.6860 
  168.1250    59.8300    27.2750    26.0830    25.7330    24.5530     2.2390    -9.4760 
  168.2500    62.2510    27.1560    25.9530    25.5180    24.5500     2.2440    -9.2730 
  168.3750    64.2410    26.9590    25.7670    25.3590    24.5360     2.2520    -9.0730 
  168.5000    64.2720    26.6820    25.5220    25.1640    24.5110     2.2610    -8.9130 
  168.6250    62.2680    26.3500    25.2340    24.7800    24.4780     2.2680    -8.8130 
  168.7500    59.9930    26.0010    24.9280    24.1140    24.4410     2.2710    -8.7150 
  168.8750    60.1070    25.7280    24.6630    23.5930    24.3910     2.2740    -8.7150 
  169.0000    59.0970    25.6100    24.5010    23.2380    24.2900     2.2780    -8.7860 
  169.1250    56.9810    25.6150    24.4360    22.9720    24.1350     2.2840    -8.9060 
  169.2500    56.3930    25.6850    24.4410    22.8220    23.9560     2.2870    -9.0590 
  169.3750    59.4020    25.7490    24.4730    22.8690    23.8090     2.2850    -9.2220 
  169.5000    64.3120    25.7310    24.4690    23.1940    23.7530     2.2790    -9.3440 
  169.6250    64.3090    25.4890    24.3020    23.3170    23.7620     2.2690    -9.4420 
  169.7500    62.3410    25.0800    23.9860    22.6350    23.7700     2.2610    -9.4730 
  169.8750    61.6830    24.4870    23.4900    22.3210    23.7760     2.2530    -9.4620 
  170.0000    62.8450    23.7700    22.8610    22.4080    23.7740     2.2430    -9.4000 
  170.1250    64.7400    23.0660    22.2100    22.2850    23.7520     2.2320    -9.2910 
  170.2500    65.8420    22.5850    21.7090    21.1980    23.6760     2.2250    -9.1980 
  170.3750    66.8610    22.6700    21.6510    20.0790    23.5600     2.2310    -9.0530 
  170.5000    66.7530    23.4000    22.1450    20.0950    23.5330     2.2500    -8.9810 
  170.6250    64.8780    24.4750    22.9770    21.4170    23.6360     2.2730    -8.9520 
  170.7500    62.1460    25.4960    23.8440    23.8160    23.8650     2.2910    -8.9730 
  170.8750    59.9900    26.1020    24.4470    26.3340    24.1380     2.2980    -9.0470 
  171.0000    59.3240    26.1030    24.5750    26.9670    24.2610     2.2950    -9.1360 
  171.1250    59.3260    25.5990    24.2210    23.5240    24.2630     2.2860    -9.2370 
  171.2500    60.5920    25.3680    24.0160    20.9070    24.2630     2.2790    -9.3370 
  171.3750    62.1470    25.8280    24.3230    21.3090    24.2630     2.2730    -9.4530 
  171.5000    62.8200    27.0130    25.2240    24.2460    24.2630     2.2680    -9.5500 
  171.6250    62.0260    28.7050    26.6150    27.5900    24.2630     2.2650    -9.6050 
  171.7500    60.5380    30.5760    28.3010    28.5970    24.2630     2.2620    -9.6750 
  171.8750    59.0420    31.9620    29.7080    28.4880    24.2630     2.2600    -9.6610 
  172.0000    57.3470    32.6370    30.5320    29.0080    24.2620     2.2640    -9.6830 
  172.1250    56.1350    32.8900    30.9590    29.8830    24.2470     2.2750    -9.7330 
  172.2500    56.2900    33.0090    31.2110    30.9070    24.1960     2.2970    -9.8090 
  172.3750    58.2370    33.2220    31.4870    31.8620    24.0930     2.3250    -9.9130 
  172.5000    61.2810    33.6390    31.9170    32.4520    23.9360     2.3500   -10.0510 
  172.6250    61.1960    34.1470    32.4160    31.0010    23.6480     2.3520   -10.2500 
  172.7500    58.5690    34.3830    32.6580    30.3290    23.3710     2.3370   -10.4450 
  172.8750    56.3130    34.0430    32.3520    30.5480    23.2150     2.3110   -10.6750 
  173.0000    55.6450    33.1230    31.4890    30.1600    23.1620     2.2830   -10.8970 
  173.1250    56.7640    31.8110    30.2410    27.8720    23.1400     2.2630   -11.0680 
  173.2500    59.5290    30.3910    28.8550    24.4160    23.1080     2.2560   -11.2080 
  173.3750    62.2800    29.3930    27.8030    21.8270    23.0960     2.2620   -11.3110 
  173.5000    62.3920    29.0350    27.2990    20.8270    23.1100     2.2720   -11.3800 
  173.6250    60.7930    29.0850    27.1800    20.8990    23.1680     2.2820   -11.4490 
