~V
VERS. 2.00: Ver 2.00
~W
STRT.M 50.0000:
STOP.M 216.0000:
STEP.M 0.1250:
NULL. -999.2500:
UWI. F10015:
~C
DEPT.M :
GR.API :
RML.OHMM :
RI. :
RXO.OHMM :
CALI.CM :
DEN.GM/CC :
SP.MV :
~A
# ...
   61.2500    84.7280     7.6190     7.7910     7.3040    24.2790     2.1550    -8.7010 
   61.3750    86.1950     7.4850     7.6410     7.0160    24.2890     2.1400    -8.7900 
   61.5000    86.4070     7.4790     7.6270     7.0460    24.2890     2.1570    -8.9280 
   61.6250    85.3360     7.6570     7.7790     7.6510    24.2910     2.2050    -9.1430 
   61.7500    84.1580     7.9530     8.0300     8.2920    24.3070     2.2480    -9.4070 
   61.8750    81.4000     8.3500     8.3680     8.8260    24.3470     2.2630    -9.7990 
   62.0000    77.0900     8.8170     8.7650     8.9010    24.3950     2.2480   -10.3280 
   62.1250    72.3170     9.3340     9.1970     8.6660    24.4270     2.2110   -10.9660 
   62.2500    68.7900     9.9110     9.6650     9.4820    24.4340     2.1650   -11.6630 
   62.3750    67.4490    10.5060    10.1450    10.3180    24.4340     2.1320   -12.2950 
   62.5000    67.6200    11.0290    10.5750    10.7210    24.4050     2.1100   -12.8400 
   62.6250    67.8850    11.4470    10.9230    10.8020    24.3380     2.0950   -13.3420 
   62.7500    66.8560    11.7450    11.1620    10.7120    24.2670     2.0860   -13.7960 
   62.8750    64.2810    11.9480    11.2980    10.5640    24.2310     2.0840   -14.1660 
   63.0000    62.1630    12.1360    11.3920    10.3490    24.2290     2.0890   -14.3970 
   63.1250    62.3180    12.3790    11.5140    10.1980    24.2670     2.1040   -14.5170 
   63.2500    62.5600    12.6330    11.6590    10.3020    24.3180     2.1190   -14.5870 
   63.3750    62.2690    12.8480    11.7920    10.4990    24.3510     2.1320   -14.7050 
   63.5000    61.7170    12.9880    11.8790    10.7410    24.3640     2.1430   -14.8470 
   63.6250    61.5590    13.0220    11.8840    10.9880    24.3660     2.1510   -14.9560 
   63.7500    62.3220    12.9150    11.7680    11.0960    24.3660     2.1570   -15.0260 
   63.8750    63.5670    12.6940    11.5470    10.9060    24.3660     2.1590   -15.0540 
   64.0000    63.0380    12.4360    11.2890    10.6200    24.3660     2.1560   -15.0040 
   64.1250    61.6640    12.1960    11.0490    10.4100    24.3580     2.1500   -14.8780 
   64.2500    61.0530    12.0260    10.8730    10.2760    24.3320     2.1400   -14.7230 
   64.3750    61.9660    11.9490    10.7900    10.1090    24.2830     2.1280   -14.5770 
   64.5000    62.7980    11.9530    10.7910     9.7550    24.2350     2.1170   -14.4090 
   64.6250    59.6310    12.0350    10.8900    10.0810    24.2230     2.1150   -14.3100 
   64.7500    57.2570    12.1380    11.0240    10.3740    24.2200     2.1220   -14.2420 
   64.8750    57.4090    12.2700    11.1850    10.6550    24.2990     2.1350   -14.2300 
   65.0000    58.4090    12.4360    11.3700    11.0120    24.5110     2.1470   -14.2890 
   65.1250    58.0970    12.6190    11.5580    11.4140    24.8090     2.1520   -14.4110 
   65.2500    56.7590    12.7620    11.7050    11.5250    24.9740     2.1440   -14.5660 
   65.3750    58.3440    12.6120    11.6230    11.4120    24.9820     2.1290   -14.6500 
   65.5000    61.9820    11.9350    11.1210    11.1130    24.8940     2.1270   -14.6000 
   65.6250    67.5720    10.8620    10.2950    10.5420    24.7430     2.1440   -14.3970 
   65.7500    75.8780     9.5820     9.2880     9.3790    24.5810     2.1800   -14.0150 
   65.8750    86.3370     8.3220     8.2700     7.6340    24.4480     2.2300   -13.4550 
   66.0000    94.8680     7.3060     7.4150     6.2030    24.3400     2.2820   -12.8030 
   66.1250    96.8400     6.8410     6.9700     6.3570    24.3030     2.3110   -12.1080 
   66.2500    96.4070     6.6850     6.7860     6.8050    24.2870     2.3220   -11.3680 
   66.3750    94.2400     6.7980     6.8590     6.8020    24.2680     2.3130   -10.6600 
   66.5000    90.7490     7.0870     7.1160     6.5570    24.2450     2.2940   -10.0250 
   66.6250    86.6820     7.4460     7.4650     6.5740    24.2260     2.2740    -9.5150 
   66.7500    83.7320     7.7990     7.8260     6.9860    24.2200     2.2630    -9.2450 
   66.8750    82.9090     8.0290     8.0750     7.3960    24.2200     2.2640    -9.1260 
   67.0000    83.0390     8.0290     8.1010     7.3740    24.2200     2.2720    -9.0500 
   67.1250    83.2650     7.8120     7.9150     7.1380    24.2200     2.2790    -8.9730 
   67.2500    83.6240     7.4060     7.5390     6.8460    24.2120     2.2850    -8.9120 
   67.3750    84.3950     6.8670     7.0260     6.5490    24.1780     2.2900    -8.8890 
   67.5000    85.4530     6.2890     6.4730     6.1570    24.1000     2.2970    -8.8780 
   67.6250    86.6060     5.7910     6.0000     6.0100    23.9910     2.3110    -8.9460 
   67.7500    87.4010     5.5310     5.7210     6.3020    23.9380     2.3270    -8.9980 
   67.8750    87.1730     5.8580     5.8690     6.6570    23.9210     2.3550    -9.0830 
   68.0000    85.6880     7.0080     6.6080     7.1080    23.9210     2.3980    -9.2220 
   68.1250    82.4530     9.3230     8.1610     8.7140    23.9210     2.4540    -9.4180 
   68.2500    76.0180    13.4890    10.9440    14.1630    23.9210     2.5130    -9.6470 
   68.3750    67.5890    18.6090    14.8820    29.1000    23.9210     2.5360    -9.9180 
   68.5000    62.2380    22.0060    18.2960    32.2430    23.9210     2.4980   -10.2250 
   68.6250    59.2820    23.0590    20.0320    25.4090    23.9210     2.4180   -10.5360 
   68.7500    57.9180    21.8440    19.7480    17.1830    23.9160     2.3200   -10.8270 
   68.8750    57.7440    19.1690    17.9240    14.3920    23.8930     2.2280   -11.0810 
   69.0000    59.2880    16.5980    15.8890    13.5840    23.8300     2.1640   -11.2750 
   69.1250    61.1430    15.1300    14.4780    12.9850    23.6810     2.1490   -11.3880 
   69.2500    63.1410    14.2080    13.4790    12.3780    23.5290     2.1560   -11.4400 
   69.3750    66.0370    13.6600    12.8240    11.5400    23.4420     2.1740   -11.4160 
   69.5000    68.4700    13.3500    12.4260    10.5200    23.4170     2.1970   -11.3220 
   69.6250    68.4910    13.2190    12.2380     9.7530    23.4340     2.2150   -11.1950 
   69.7500    65.1030    13.3270    12.3040    10.1650    23.5090     2.2260   -11.1040 
   69.8750    62.2030    13.6630    12.6020    11.1420    23.7320     2.2240   -10.9940 
   70.0000    62.1860    14.1370    13.0390    11.4460    24.1170     2.2060   -10.9400 
   70.1250    63.7000    14.6480    13.5140    11.7070    24.5280     2.1760   -10.9120 
   70.2500    64.1220    15.0900    13.9160    12.2730    24.8180     2.1420   -10.9110 
   70.3750    61.5750    15.3790    14.1590    13.0850    24.9060     2.1100   -10.9460 
   70.5000    56.9450    15.4880    14.2090    13.5470    24.8770     2.0890   -11.0000 
   70.6250    57.2530    15.3380    13.9870    13.1330    24.7700     2.0880   -10.9930 
   70.7500    60.0670    15.0970    13.6730    12.7550    24.6950     2.0990   -10.9340 
   70.8750    61.1220    14.8510    13.3560    12.6080    24.6620     2.1160   -10.8790 
   71.0000    59.9960    14.6960    13.1310    12.7240    24.6560     2.1340   -10.8150 
   71.1250    58.3770    14.7800    13.1300    13.1310    24.6560     2.1470   -10.7140 
   71.2500    58.3310    15.3400    13.5530    14.0250    24.6560     2.1580   -10.6020 
   71.3750    58.1120    16.7690    14.7120    14.6900    24.6320     2.1880   -10.4710 
   71.5000    57.4480    19.4760    17.0000    15.2870    24.5490     2.2570   -10.3540 
   71.6250    56.9640    23.4060    20.4570    17.1770    24.4530     2.3560   -10.2530 
   71.7500    56.6590    28.5410    25.2140    23.1120    24.3850     2.4660   -10.1640 
   71.8750    56.4800    34.5900    31.1170    33.8930    24.3660     2.5680   -10.0830 
   72.0000    56.8930    40.6870    37.3750    45.0360    24.3660     2.6460   -10.0180 
   72.1250    56.6500    44.1450    41.4610    43.2950    24.3770     2.6840    -9.9660 
   72.2500    55.3280    44.3980    42.4790    41.2530    24.4020     2.6990    -9.9560 
   72.3750    54.7490    41.1640    39.9270    41.9130    24.4220     2.6800    -9.9910 
