~V
VERS. 2.00: Ver 2.00
~W
STRT.M 50.0000:
STOP.M 255.0000:
STEP.M 0.1250:
NULL. -999.2500:
UWI. F10005:
~C
DEPT.M :
SP.MV :
GR.API :
RML.OHMM :
RI. :
RXO.OHMM :
CALI.CM :
DEN.GM/CC :
~A
# ...
   83.7500   -10.0820    67.5030    11.9320     9.3460     9.2590    23.9490     2.3010 
   83.8750   -10.1520    66.9990    13.2160    10.4110    10.9070    24.0450     2.3120 
   84.0000   -10.2440    67.1320    14.2120    11.3560    12.0400    24.1130     2.3190 
   84.1250   -10.3000    66.8040    14.5240    11.8340    10.9430    24.1490     2.3150 
   84.2500   -10.3620    67.3320    14.1820    11.7950    10.1630    24.1620     2.2980 
   84.3750   -10.3580    68.2460    13.3230    11.2990    10.8400    24.1690     2.2740 
   84.5000   -10.3540    67.6610    12.1530    10.4730    10.6420    24.1790     2.2510 
   84.6250   -10.2740    65.7290    10.8920     9.4700     9.2240    24.1830     2.2410 
   84.7500   -10.1730    66.4380     9.7310     8.4880     8.3230    24.1680     2.2480 
   84.8750   -10.0170    69.8690     8.7600     7.6290     7.5270    24.1140     2.2710 
   85.0000    -9.8430    72.4880     8.0470     6.9720     6.5500    24.0100     2.3020 
   85.1250    -9.7330    73.5540     7.7090     6.6240     6.1830    23.8580     2.3290 
   85.2500    -9.6180    75.3830     7.6920     6.5520     6.5960    23.7160     2.3460 
   85.3750    -9.5190    77.3820     7.9330     6.7160     7.0140    23.6260     2.3510 
   85.5000    -9.4470    78.0080     8.3570     7.0600     7.4310    23.6020     2.3490 
   85.6250    -9.4260    76.7330     8.8930     7.5360     7.5250    23.6480     2.3430 
   85.7500    -9.4670    75.4460     9.4260     8.0440     8.3690    23.7030     2.3370 
   85.8750    -9.5450    74.6200     9.8600     8.5150     8.9250    23.7510     2.3280 
   86.0000    -9.6070    74.4290    10.1250     8.8910     9.1740    23.8070     2.3180 
   86.1250    -9.5930    74.2050    10.1680     9.1050     9.1820    23.8860     2.3070 
   86.2500    -9.5790    73.1570    10.0700     9.1670     9.1450    23.9650     2.2980 
   86.3750    -9.5330    72.4550     9.9350     9.1140     9.1230    24.0180     2.2950 
   86.5000    -9.4690    71.5740     9.8670     9.0120     8.7800    24.0410     2.2930 
   86.6250    -9.3940    69.9450     9.9330     8.9340     8.5210    24.0290     2.2900 
   86.7500    -9.2850    69.0520    10.0980     8.9180     8.8750    23.9960     2.2810 
   86.8750    -9.1480    69.9430    10.3170     8.9700     9.4900    23.9700     2.2690 
   87.0000    -9.0300    71.7600    10.5200     9.0630     9.6320    23.9790     2.2590 
   87.1250    -8.9130    72.1630    10.6310     9.1470     9.2110    24.0300     2.2530 
   87.2500    -8.7660    71.4750    10.7150     9.2390     9.1710    24.0850     2.2530 
   87.3750    -8.6940    71.1300    10.9500     9.4390     9.7040    24.1300     2.2540 
   87.5000    -8.6070    71.5050    11.5640     9.8980    10.3850    24.1580     2.2530 
   87.6250    -8.5700    71.3120    12.8270    10.8330    11.0530    24.1680     2.2420 
   87.7500    -8.5470    68.6340    14.6190    12.2150    11.9910    24.1720     2.2240 
   87.8750    -8.5560    63.8920    16.6740    13.9090    14.6030    24.1760     2.2050 
   88.0000    -8.5580    59.3540    18.5150    15.5850    21.4010    24.1830     2.1940 
   88.1250    -8.5920    58.0010    19.4400    16.6620    25.3550    24.1960     2.1940 
   88.2500    -8.6730    60.1660    19.4040    16.9700    23.5400    24.2080     2.1970 
   88.3750    -8.7210    63.1130    18.7360    16.6700    18.2720    24.2080     2.1930 
   88.5000    -8.7550    64.6340    17.9350    16.1180    16.4790    24.1870     2.1800 
   88.6250    -8.7530    64.2550    17.4440    15.6890    15.8540    24.1230     2.1650 
   88.7500    -8.7220    63.6370    17.3220    15.5240    14.9310    23.9980     2.1560 
   88.8750    -8.6960    65.0450    17.4710    15.6010    15.2530    23.8150     2.1540 
   89.0000    -8.6840    67.5230    17.7350    15.8120    16.3590    23.6250     2.1560 
   89.1250    -8.7100    67.9700    17.9770    16.0360    17.1390    23.5170     2.1600 
   89.2500    -8.7000    66.1100    18.1450    16.2180    17.2470    23.5090     2.1620 
   89.3750    -8.6870    62.9300    18.2590    16.3800    17.1550    23.5350     2.1620 
   89.5000    -8.6670    60.3520    18.4170    16.5880    17.1050    23.5330     2.1570 
   89.6250    -8.6730    58.8500    18.8500    16.9720    16.7160    23.4790     2.1470 
   89.7500    -8.6840    57.9980    19.6460    17.5730    17.5640    23.4150     2.1370 
   89.8750    -8.6700    56.9160    20.7010    18.3280    19.1440    23.3750     2.1290 
   90.0000    -8.6290    55.0760    21.6870    19.0510    20.3230    23.3730     2.1210 
   90.1250    -8.5420    54.5400    22.1070    19.4310    20.9810    23.4190     2.1070 
   90.2500    -8.4340    54.4190    21.9190    19.4210    21.2540    23.4890     2.0930 
   90.3750    -8.2840    53.8210    21.4050    19.1730    20.3570    23.5600     2.0860 
   90.5000    -8.2060    55.8790    21.0130    18.9590    18.6410    23.6120     2.0940 
   90.6250    -8.1130    63.5310    21.2390    19.1230    18.6320    23.6490     2.1170 
   90.7500    -8.0520    69.5960    22.1120    19.7590    20.9190    23.6660     2.1410 
   90.8750    -7.9920    66.9570    23.4860    20.8420    24.2540    23.6480     2.1570 
   91.0000    -7.9260    58.2200    25.0790    22.2230    25.8920    23.5940     2.1600 
   91.1250    -7.8680    53.1550    26.5280    23.6420    25.1310    23.5250     2.1560 
   91.2500    -7.8350    53.5710    27.6140    24.8570    24.4820    23.4530     2.1530 
   91.3750    -7.8480    54.9490    28.3110    25.7890    24.3600    23.3860     2.1540 
   91.5000    -7.8540    54.5320    28.6180    26.4200    24.5580    23.3290     2.1540 
   91.6250    -7.8860    53.8500    28.1740    26.4340    24.4530    23.2500     2.1480 
   91.7500    -7.8980    53.0200    26.6230    25.4220    23.8770    23.1290     2.1360 
   91.8750    -7.9110    53.0010    23.7770    23.0820    23.2430    23.0160     2.1240 
   92.0000    -7.9640    55.8790    19.9880    19.6600    21.1710    22.9760     2.1230 
   92.1250    -8.0490    62.1240    16.3220    16.0010    16.2520    23.0410     2.1420 
   92.2500    -8.1810    68.4850    13.7380    12.9610    11.0830    23.1580     2.1790 
   92.3750    -8.3210    73.8480    11.5170    10.8300     8.5710    23.2900     2.2200 
   92.5000    -8.4150    78.1170    10.3180     9.5770     7.8520    23.3890     2.2530 
   92.6250    -8.4330    77.8370    10.0190     9.1140     7.9340    23.3780     2.2670 
   92.7500    -8.4420    74.3710    10.0930     9.0460     8.1340    23.2870     2.2660 
   92.8750    -8.4440    72.1970    10.1340     9.0580     8.1010    23.1690     2.2630 
   93.0000    -8.4200    72.9590     9.8460     8.8600     7.7210    23.0890     2.2670 
   93.1250    -8.4090    74.8610     9.1690     8.3300     7.3450    23.0770     2.2830 
   93.2500    -8.3320    77.8040     8.4190     7.7030     6.9610    23.0940     2.3070 
   93.3750    -8.2100    82.8450     7.8510     7.1950     6.1610    23.1100     2.3280 
   93.5000    -8.0630    87.3570     7.6270     6.9470     5.5920    23.1090     2.3380 
   93.6250    -7.9680    86.3270     7.8320     7.0370     6.1730    23.0650     2.3310 
   93.7500    -7.8350    82.7170     8.2820     7.3360     7.6510    22.9890     2.3150 
   93.8750    -7.7350    80.5050     8.8220     7.7190     8.6880    22.9200     2.2960 
   94.0000    -7.6620    79.0680     9.3610     8.1040     8.7340    22.9050     2.2810 
   94.1250    -7.5340    76.7040     9.9310     8.5180     8.6910    22.9700     2.2680 
   94.2500    -7.4860    74.1960    10.6700     9.0750     8.9530    23.0780     2.2520 
   94.3750    -7.4800    73.1340    11.7440     9.9040    10.2860    23.1770     2.2320 
   94.5000    -7.5140    71.9500    13.2760    11.1170    13.0620    23.2160     2.2110 
   94.6250    -7.5290    70.0870    15.2880    12.8010    16.5330    23.1520     2.1990 
   94.7500    -7.5690    69.8440    17.4740    14.7550    18.0370    23.0620     2.1970 
   94.8750    -7.5590    71.1660    19.5370    16.7510    18.5920    23.0200     2.1990 
