~V
VERS. 2.00: Ver 2.00
~W
STRT.M 50.0000:
STOP.M 207.0000:
STEP.M 0.1250:
NULL. -999.2500:
UWI. F10009:
~C
DEPT.M :
GR.API :
RML.OHMM :
RI. :
RXO.OHMM :
CALI.CM :
DEN.GM/CC :
SP.MV :
~A
# ...
   95.0000    75.7560    20.1080    15.8640    22.3720    22.6650     2.2380    -5.8220 
   95.1250    67.7390    25.4640    21.4300    30.0540    22.6650     2.2080    -5.8770 
   95.2500    62.1150    28.9370    25.9150    33.4520    22.6520     2.1940    -5.8940 
   95.3750    60.0380    29.4240    27.5160    29.6300    22.6270     2.1940    -5.8720 
   95.5000    60.8260    26.4800    25.6410    24.5700    22.5930     2.1990    -5.8100 
   95.6250    63.5390    21.8040    21.6240    18.8470    22.5650     2.2040    -5.7080 
   95.7500    65.6700    17.8630    17.9530    14.4950    22.5470     2.2090    -5.5850 
   95.8750    65.4580    15.6040    15.5380    12.6280    22.5410     2.2120    -5.4560 
   96.0000    64.5540    15.2530    14.6010    12.7370    22.5410     2.2110    -5.3090 
   96.1250    66.2880    17.0740    15.4240    14.5930    22.5440     2.2010    -5.1550 
   96.2500    68.3940    20.5440    17.7100    18.2850    22.5520     2.1830    -5.0210 
   96.3750    67.4090    25.1590    21.1910    23.6330    22.5660     2.1630    -4.9320 
   96.5000    64.5560    30.0350    25.2520    29.3530    22.5840     2.1480    -4.8960 
   96.6250    62.5880    33.7100    28.7170    33.9310    22.6010     2.1480    -4.9140 
   96.7500    60.4850    35.3250    30.6030    34.6410    22.6070     2.1600    -4.9670 
   96.8750    59.5970    34.7290    30.5320    31.5650    22.6090     2.1770    -5.0430 
   97.0000    61.8110    32.5850    28.9050    26.9500    22.6090     2.1900    -5.1450 
   97.1250    64.0920    30.1070    26.6980    24.3460    22.6090     2.1950    -5.2830 
   97.2500    64.2520    28.3580    24.9280    24.1630    22.6140     2.1930    -5.4390 
   97.3750    64.4210    27.7260    24.0090    24.6950    22.6360     2.1880    -5.5900 
   97.5000    65.7490    28.2420    24.0630    25.4640    22.6930     2.1820    -5.7160 
   97.6250    65.5060    29.8380    25.1550    27.5530    22.8000     2.1770    -5.8090 
   97.7500    63.4400    32.0130    26.9250    30.4310    22.9450     2.1730    -5.8650 
   97.8750    61.6600    34.4130    29.0960    33.5250    23.0960     2.1700    -5.8800 
   98.0000    61.6020    36.6420    31.3010    35.8200    23.1990     2.1670    -5.8450 
   98.1250    62.4460    38.0500    32.9130    37.3730    23.2650     2.1640    -5.7480 
   98.2500    61.1970    38.1830    33.4240    38.2850    23.3370     2.1670    -5.5910 
   98.3750    58.8520    36.6530    32.4250    38.0630    23.4220     2.1860    -5.3790 
   98.5000    58.9080    33.3690    29.7890    35.4040    23.4810     2.2280    -5.1310 
   98.6250    63.2300    28.5440    25.6880    29.7120    23.4900     2.2900    -4.8700 
   98.7500    68.9710    23.2730    21.1390    22.2780    23.4740     2.3490    -4.6200 
   98.8750    75.4300    18.3800    16.8960    15.9040    23.4530     2.3820    -4.3940 
   99.0000    82.0230    14.4280    13.4410    12.0230    23.4340     2.3790    -4.2080 
   99.1250    86.0110    11.7810    11.0600     9.9460    23.4130     2.3520    -4.0800 
   99.2500    87.8450    10.0890     9.4730     8.6110    23.3840     2.3270    -4.0070 
   99.3750    89.2190     9.0770     8.4870     7.8680    23.3490     2.3180    -3.9720 
   99.5000    90.9900     8.4780     7.9160     7.4030    23.3220     2.3270    -3.9600 
   99.6250    93.0840     8.1010     7.6290     7.0430    23.3250     2.3430    -3.9500 
   99.7500    95.4130     7.7980     7.4570     6.7030    23.3520     2.3550    -3.9290 
   99.8750    97.9660     7.5320     7.3220     6.5380    23.4030     2.3570    -3.9050 
  100.0000   100.0740     7.2890     7.1730     6.4670    23.4760     2.3510    -3.8760 
  100.1250   101.1880     7.0610     6.9870     6.3620    23.5600     2.3430    -3.8330 
  100.2500   101.5460     6.8390     6.7850     6.1790    23.6390     2.3390    -3.7860 
  100.3750   101.6980     6.6390     6.6040     6.0180    23.7160     2.3430    -3.7540 
  100.5000   102.7970     6.4970     6.4860     5.9080    23.7940     2.3530    -3.7450 
  100.6250   105.0130     6.4730     6.4800     5.9370    23.8350     2.3630    -3.7580 
  100.7500   105.9050     6.5740     6.5720     6.1590    23.8420     2.3650    -3.7770 
  100.8750   103.9860     6.7920     6.7390     6.4520    23.8040     2.3640    -3.7910 
  101.0000   100.4050     7.0930     6.9420     6.7340    23.7200     2.3640    -3.7990 
  101.1250    98.0590     7.4190     7.1230     7.0550    23.5800     2.3710    -3.8090 
  101.2500    96.6600     7.7010     7.2400     7.3430    23.4210     2.3810    -3.8300 
  101.3750    95.7750     7.9010     7.2810     7.7860    23.3030     2.3850    -3.8720 
  101.5000    95.3530     8.0120     7.2660     8.1930    23.2680     2.3750    -3.9380 
  101.6250    94.2670     8.0760     7.2450     8.3640    23.3090     2.3490    -4.0160 
  101.7500    91.2830     8.1990     7.2880     8.4230    23.3850     2.3190    -4.0950 
  101.8750    87.2290     8.5150     7.4700     8.9890    23.4750     2.2920    -4.1660 
  102.0000    82.9910     9.2060     7.8930     9.9930    23.5420     2.2740    -4.2190 
  102.1250    78.7010    10.6840     8.8240    11.4730    23.5480     2.2620    -4.2630 
  102.2500    74.6830    13.2070    10.4960    14.1150    23.5120     2.2520    -4.3050 
  102.3750    71.3350    17.0660    13.2480    20.0920    23.4830     2.2390    -4.3460 
  102.5000    67.8010    22.3360    17.3570    32.3760    23.4840     2.2220    -4.3770 
  102.6250    63.6450    28.7840    23.0250    49.7710    23.4780     2.2040    -4.3960 
  102.7500    60.5790    35.3100    29.4520    67.6220    23.4360     2.1870    -4.4090 
  102.8750    59.6950    40.8930    35.6810    78.0590    23.3700     2.1740    -4.4200 
  103.0000    61.5850    44.7850    40.7020    74.2620    23.3230     2.1670    -4.4340 
  103.1250    64.6490    46.7290    43.7130    62.1600    23.3780     2.1660    -4.4530 
  103.2500    65.0850    47.7550    45.3550    57.8640    23.5220     2.1680    -4.4730 
  103.3750    61.7410    48.4270    46.1420    57.9110    23.7260     2.1680    -4.4830 
  103.5000    57.3860    48.5780    46.0990    58.5030    23.9280     2.1660    -4.4760 
  103.6250    56.1110    46.8990    44.2830    57.1950    24.0320     2.1650    -4.4560 
  103.7500    56.9270    42.6550    40.2240    54.2360    24.0590     2.1720    -4.4340 
  103.8750    57.5880    36.0160    34.1320    50.1280    24.0520     2.1910    -4.4050 
  104.0000    58.5000    28.3590    27.2530    43.8970    24.0270     2.2220    -4.3760 
  104.1250    62.3990    21.9240    21.4920    33.8670    23.9860     2.2510    -4.3490 
  104.2500    68.2700    17.7750    17.6190    22.6070    23.9290     2.2650    -4.3170 
  104.3750    73.5800    16.0100    15.6780    16.8530    23.8610     2.2610    -4.2880 
  104.5000    76.7460    16.2210    15.4270    17.6670    23.7880     2.2460    -4.2780 
  104.6250    76.7100    17.9300    16.6920    20.9150    23.7130     2.2420    -4.2980 
  104.7500    74.3950    20.1790    18.7630    23.7210    23.6340     2.2610    -4.3480 
  104.8750    71.5070    22.3440    21.0900    25.5000    23.5500     2.2980    -4.4230 
  105.0000    68.7490    23.9410    23.1050    27.0350    23.4480     2.3350    -4.4970 
  105.1250    66.3120    24.6620    24.2820    28.5650    23.3140     2.3450    -4.5490 
  105.2500    66.4360    24.8330    24.7630    29.5970    23.1710     2.3230    -4.5840 
  105.3750    69.0980    24.8140    24.8590    28.5300    23.0730     2.2810    -4.6080 
  105.5000    70.8190    24.9760    24.9400    25.7400    23.0310     2.2380    -4.6300 
  105.6250    68.7160    25.7530    25.4170    24.8190    23.0330     2.2110    -4.6480 
  105.7500    66.2050    27.3050    26.4770    25.8930    23.0630     2.1980    -4.6450 
  105.8750    65.2660    29.7230    28.2150    28.4420    23.1270     2.1930    -4.6240 
  106.0000    65.3200    32.9710    30.6260    32.0880    23.2180     2.1920    -4.6060 
  106.1250    65.4490    36.9650    33.6890    36.6510    23.2970     2.1920    -4.6120 
