~V
VERS. 2.00: Ver 2.00
~W
STRT.M 57.0000:
STOP.M 296.0000:
STEP.M 0.1250:
NULL. -999.2500:
UWI. F10043:
~C
DEPT.M :
GR.API :
RML.OHMM :
RI. :
RXO.OHMM :
CALI.CM :
DEN.GM/CC :
SP.MV :
~A
# ...
   90.7500    80.2250     7.5130     7.2090     8.0150    23.6190     2.3190   -14.2240 
   90.8750    80.7060     7.0890     6.9450     8.2440    23.6230     2.3080   -14.2760 
   91.0000    85.1160     6.5590     6.5360     6.5300    23.6870     2.3040   -14.2580 
   91.1250    88.3640     6.1080     6.1190     5.5870    23.8310     2.3100   -14.1590 
   91.2500    87.8020     5.8260     5.8050     5.3810    23.9470     2.3220   -14.0170 
   91.3750    88.7470     5.7200     5.6240     5.5180    23.9840     2.3350   -13.8470 
   91.5000    94.8940     5.7340     5.5300     5.5860    23.9830     2.3480   -13.6840 
   91.6250    99.1540     5.7520     5.4290     5.6160    23.9920     2.3640   -13.5380 
   91.7500    95.9510     5.6730     5.2780     5.4840    23.9990     2.3820   -13.4430 
   91.8750    91.6520     5.4860     5.1010     5.1170    24.0020     2.4000   -13.4030 
   92.0000    93.3980     5.2490     4.9210     4.8120    24.0020     2.4150   -13.4460 
   92.1250   100.1050     5.0570     4.7350     4.6840    23.9920     2.4230   -13.5590 
   92.2500   104.9060     4.9640     4.5650     4.7870    23.9770     2.4270   -13.7270 
   92.3750   105.1300     5.0060     4.4820     5.1480    23.9750     2.4240   -13.9860 
   92.5000   100.3930     5.2390     4.5750     5.6430    23.9750     2.4120   -14.3070 
   92.6250    91.9680     5.8400     4.9980     5.9890    23.9410     2.3890   -14.6910 
   92.7500    83.4780     6.9800     5.8470     6.6410    23.8990     2.3630   -15.1240 
   92.8750    76.4510     8.8820     7.2930     8.1390    23.9480     2.3510   -15.6040 
   93.0000    70.7970    11.6440     9.4770    10.7320    24.0960     2.3690   -16.1070 
   93.1250    67.0230    14.9770    12.3240    15.1950    24.2180     2.4280   -16.6660 
   93.2500    66.1600    17.7040    14.9190    19.7910    24.2330     2.5100   -17.2670 
   93.3750    69.8470    18.5980    16.1630    21.5950    24.1100     2.5880   -17.8820 
   93.5000    76.1920    17.2370    15.5290    18.9810    23.8450     2.6360   -18.5240 
   93.6250    77.7510    14.4780    13.5320    14.3520    23.6020     2.6260   -19.2110 
   93.7500    72.4260    11.9290    11.4560    11.1300    23.5140     2.5680   -19.9070 
   93.8750    65.6100    10.1890     9.8190    10.0350    23.5000     2.4800   -20.5980 
   94.0000    63.2050     9.3190     8.7720     9.9950    23.5240     2.3880   -21.2770 
   94.1250    65.7790     9.2060     8.3770    10.2210    23.5640     2.3200   -21.8800 
   94.2500    66.6450     9.4540     8.3990    10.3330    23.6280     2.2810   -22.3880 
   94.3750    65.2380     9.8290     8.6410    10.4940    23.7470     2.2630   -22.7950 
   94.5000    64.2410    10.1490     8.8990    10.7450    23.8860     2.2520   -23.0900 
   94.6250    63.7240    10.2800     9.0460    10.8140    23.8550     2.2370   -23.1960 
   94.7500    62.5020    10.2370     9.1060    10.6250    23.6490     2.2220   -23.1570 
   94.8750    62.0790    10.0640     9.0980    10.2380    23.3530     2.2130   -22.9930 
   95.0000    64.1610     9.8220     9.0090     9.7670    23.0680     2.2170   -22.7290 
   95.1250    66.4530     9.5810     8.8210     9.5030    22.9210     2.2310   -22.3890 
   95.2500    67.0430     9.3840     8.6030     9.1650    22.8590     2.2440   -22.0090 
   95.3750    67.0940     9.2400     8.4200     8.7880    22.8450     2.2460   -21.5930 
   95.5000    67.7980     9.1380     8.2930     8.4330    22.8430     2.2320   -21.1910 
   95.6250    69.0480     9.0710     8.1810     8.0820    22.8430     2.2070   -20.8720 
   95.7500    70.3760     9.0400     8.0590     8.0020    22.8430     2.1830   -20.6270 
   95.8750    71.0380     9.0570     7.9720     7.9900    22.8430     2.1680   -20.4680 
   96.0000    71.1800     9.1320     7.9940     8.1350    22.8430     2.1640   -20.3670 
   96.1250    71.5880     9.2700     8.1530     8.5200    22.8430     2.1710   -20.3640 
   96.2500    72.3280     9.4350     8.3430     8.9250    22.8470     2.1820   -20.4410 
   96.3750    71.7290     9.5870     8.4820     9.1180    22.8700     2.1910   -20.5860 
   96.5000    69.8800     9.6890     8.5400     9.2220    22.9460     2.1940   -20.7580 
   96.6250    68.6780     9.7090     8.5380     9.3990    23.1160     2.1890   -20.9530 
   96.7500    68.7750     9.6630     8.5240     9.7170    23.3340     2.1820   -21.1640 
   96.8750    68.7390     9.5710     8.5140     9.9570    23.4820     2.1800   -21.3790 
   97.0000    67.6020     9.4660     8.5170    10.0620    23.5410     2.1850   -21.5940 
   97.1250    66.9090     9.4040     8.5360     9.9710    23.5390     2.1950   -21.7710 
   97.2500    67.5660     9.4150     8.5510     9.8220    23.5450     2.2040   -21.9090 
   97.3750    68.4770     9.4770     8.5340     9.6830    23.6000     2.2110   -21.9860 
   97.5000    68.8320     9.5170     8.4620     9.6650    23.6880     2.2130   -22.0030 
   97.6250    68.7410     9.4100     8.3340     9.8210    23.8110     2.2130   -21.9240 
   97.7500    70.3200     9.1320     8.1640     9.4800    23.9070     2.2140   -21.7930 
   97.8750    72.4270     8.7340     7.9320     8.3570    23.9690     2.2170   -21.6060 
   98.0000    73.2500     8.3300     7.6390     7.2450    23.9780     2.2210   -21.3930 
   98.1250    73.4520     8.0780     7.3770     7.2390    23.8940     2.2250   -21.1520 
   98.2500    73.8580     8.0200     7.2670     7.9010    23.7250     2.2260   -20.8950 
   98.3750    73.0340     8.1280     7.3600     8.3970    23.5630     2.2230   -20.6620 
   98.5000    70.3230     8.3230     7.6010     9.0180    23.4950     2.2190   -20.4410 
   98.6250    67.9200     8.4820     7.8490     9.7320    23.4710     2.2170   -20.2350 
   98.7500    66.4570     8.5280     7.9920     9.8270    23.4760     2.2170   -20.0190 
   98.8750    65.9030     8.4580     8.0160     9.4890    23.4240     2.2180   -19.8000 
   99.0000    67.3330     8.3340     7.9640     8.8640    23.2390     2.2180   -19.5560 
   99.1250    71.1890     8.2520     7.9160     8.2410    23.0630     2.2170   -19.3080 
   99.2500    74.0620     8.2510     7.9340     7.8030    22.9490     2.2160   -19.0370 
   99.3750    73.3210     8.2870     8.0090     7.7180    22.9160     2.2150   -18.7240 
   99.5000    70.9230     8.2550     8.0570     7.8860    22.9220     2.2140   -18.3840 
   99.6250    69.9900     7.9840     7.8920     7.9970    22.9580     2.2160   -18.0220 
   99.7500    71.8070     7.4400     7.4560     7.6320    23.0210     2.2250   -17.6420 
   99.8750    76.8990     6.6830     6.8050     6.7940    23.0780     2.2450   -17.2440 
  100.0000    83.2100     5.8720     6.0940     5.8740    23.1330     2.2750   -16.8580 
  100.1250    87.9590     5.6720     5.5230     5.4480    23.2690     2.3110   -16.4600 
  100.2500    90.4500     5.3360     5.1870     5.2880    23.5620     2.3410   -16.1010 
  100.3750    93.3810     5.3610     5.1350     5.1650    23.8970     2.3560   -15.8110 
  100.5000    97.7540     5.7080     5.3710     5.0150    23.9880     2.3540   -15.6010 
  100.6250    98.0160     6.2380     5.8210     5.6150    23.5520     2.3360   -15.4820 
  100.7500    91.7750     6.6640     6.2270     6.6500    23.0190     2.3160   -15.4200 
  100.8750    84.3080     6.7610     6.3740     6.8120    22.7300     2.3030   -15.4010 
  101.0000    83.9290     6.4460     6.1720     5.8970    22.7910     2.3040   -15.4050 
  101.1250    93.0120     5.8240     5.6790     5.4560    23.2250     2.3180   -15.4770 
  101.2500   102.3220     5.1960     5.1110     5.2690    23.7550     2.3380   -15.5820 
  101.3750   106.2660     4.7320     4.6060     5.2070    24.1450     2.3570   -15.7240 
  101.5000   105.1850     4.5170     4.2730     5.0430    24.3080     2.3730   -15.9000 
  101.6250   101.1170     4.6540     4.2600     4.9690    24.3250     2.3830   -16.1560 
  101.7500    96.1320     5.1700     4.5980     5.0560    24.2410     2.3840   -16.5440 
  101.8750    89.7740     6.1560     5.3360     5.5900    24.0180     2.3750   -17.0730 
