~V
VERS. 2.00: Ver 2.00
~W
STRT.M 64.0000:
STOP.M 220.0000:
STEP.M 0.1250:
NULL. -999.2500:
UWI. F10051:
~C
DEPT.M :
SP.MV :
GR.API :
RML.OHMM :
RI. :
RXO.OHMM :
CALI.CM :
DEN.GM/CC :
~A
# ...
  131.5000    -9.0090    73.1280    19.8670    18.5150    17.5940    23.3070     2.4910 
  131.6250    -8.9800    71.9950    19.1490    17.8360    17.1300    23.1180     2.4860 
  131.7500    -8.9600    72.1430    18.3950    17.1280    16.6740    22.9580     2.4730 
  131.8750    -8.9580    74.5900    17.7570    16.5110    16.4530    22.8870     2.4560 
  132.0000    -8.9840    78.5000    17.4170    16.1340    16.2860    22.9630     2.4410 
  132.1250    -9.0360    80.8490    17.6270    16.2090    16.0010    23.1090     2.4350 
  132.2500    -9.0450    81.2360    18.3700    16.7400    16.3790    23.2580     2.4340 
  132.3750    -9.0410    80.2530    19.5530    17.6710    17.5330    23.5670     2.4340 
  132.5000    -9.0090    78.4630    20.9310    18.8180    19.0510    23.9080     2.4330 
  132.6250    -8.9580    76.1350    22.0710    19.8280    20.2380    24.0520     2.4300 
  132.7500    -8.8840    74.6080    22.6150    20.3620    20.7380    24.1640     2.4300 
  132.8750    -8.7860    73.3680    22.3700    20.2170    20.3670    24.2700     2.4350 
  133.0000    -8.6550    69.5330    21.3690    19.3880    19.0260    24.3520     2.4440 
  133.1250    -8.4810    65.1650    19.8410    18.0490    17.5490    24.3900     2.4530 
  133.2500    -8.3220    65.5190    18.3000    16.6510    16.4860    24.3340     2.4620 
  133.3750    -8.2000    71.5450    17.1030    15.4990    15.4540    24.2670     2.4720 
  133.5000    -8.1240    77.3710    16.5030    14.8140    14.2260    24.2730     2.4830 
  133.6250    -8.0890    75.4760    16.7390    14.8140    14.1350    24.3600     2.4960 
  133.7500    -8.0930    70.0980    17.6240    15.3870    15.2890    24.4130     2.5040 
  133.8750    -8.1070    65.1070    18.9570    16.4080    17.1960    24.3730     2.5040 
  134.0000    -8.1540    62.9780    20.4420    17.6640    19.0130    24.2980     2.4960 
  134.1250    -8.2230    64.2970    21.6610    18.8160    20.0870    24.2020     2.4880 
  134.2500    -8.2820    66.6780    22.3480    19.5740    20.2660    24.0940     2.4900 
  134.3750    -8.3050    66.9860    22.3950    19.7870    19.6660    23.9470     2.5040 
  134.5000    -8.3010    63.8920    21.8640    19.4590    19.1150    23.8190     2.5230 
  134.6250    -8.2780    60.6700    20.9080    18.6880    18.5640    23.6840     2.5350 
  134.7500    -8.2370    60.0130    19.8150    17.7430    17.4130    23.4270     2.5350 
  134.8750    -8.2410    62.1550    18.7310    16.7680    15.4000    23.0820     2.5290 
  135.0000    -8.2890    64.6610    17.7410    15.8530    13.8850    22.7890     2.5250 
  135.1250    -8.3590    63.4620    16.9190    15.0810    13.2630    22.6530     2.5310 
  135.2500    -8.4440    61.8690    16.2840    14.4740    12.8550    22.5920     2.5410 
  135.3750    -8.5480    63.9630    15.8770    14.0700    12.1200    22.5640     2.5490 
  135.5000    -8.6430    68.5080    15.7300    13.8960    11.4110    22.5200     2.5500 
  135.6250    -8.7310    70.1750    15.8710    13.9850    11.4620    22.4220     2.5440 
  135.7500    -8.8470    68.5540    16.1610    14.2290    11.9080    22.3280     2.5350 
  135.8750    -8.9580    66.4530    16.4470    14.5090    12.4760    22.2500     2.5290 
  136.0000    -9.0510    64.3700    16.5600    14.6770    12.7810    22.2170     2.5270 
  136.1250    -9.1370    63.3030    16.3220    14.5650    12.7460    22.2400     2.5290 
  136.2500    -9.2320    64.1160    15.7990    14.1960    12.5160    22.3000     2.5340 
  136.3750    -9.3170    64.8760    15.1230    13.6660    12.1720    22.3290     2.5400 
  136.5000    -9.4050    64.0940    14.4750    13.1270    11.9470    22.3210     2.5460 
  136.6250    -9.5080    62.2050    14.0480    12.7540    11.9450    22.3190     2.5510 
  136.7500    -9.6010    61.2490    13.8780    12.6060    12.2230    22.2960     2.5560 
  136.8750    -9.7350    60.8520    13.9480    12.6850    12.7370    22.2780     2.5600 
  137.0000    -9.8820    60.6580    14.2000    12.9540    13.6690    22.2620     2.5630 
  137.1250   -10.0220    61.5340    14.5690    13.3610    14.8560    22.2950     2.5640 
  137.2500   -10.1710    62.5620    14.9760    13.8180    15.5920    22.4100     2.5630 
  137.3750   -10.3480    63.4380    15.3850    14.2770    15.7490    22.6730     2.5590 
  137.5000   -10.5650    63.6810    15.7630    14.6960    15.7570    23.0430     2.5510 
  137.6250   -10.7960    63.3650    16.0350    14.9940    15.5940    23.5760     2.5360 
  137.7500   -11.0560    64.1090    16.1280    15.1050    15.3820    24.0800     2.5170 
  137.8750   -11.2850    66.9280    15.9470    14.9530    15.2710    24.3740     2.4970 
  138.0000   -11.5110    69.7930    15.4280    14.4820    14.8070    24.4570     2.4790 
  138.1250   -11.7840    71.6180    14.5550    13.6810    13.9680    24.3970     2.4660 
  138.2500   -12.1060    73.6790    13.5730    12.7800    13.0320    24.4110     2.4560 
  138.3750   -12.4790    74.4370    12.8460    12.0430    12.0880    24.3800     2.4440 
  138.5000   -12.8840    71.8790    12.7510    11.7690    11.5320    24.1940     2.4270 
  138.6250   -13.3120    67.6540    14.0550    12.4310    12.0150    24.0920     2.4030 
  138.7500   -13.7330    65.8270    16.7860    14.1800    14.7500    24.2300     2.3780 
  138.8750   -14.1360    65.5710    21.0120    17.1320    20.2050    24.4050     2.3530 
  139.0000   -14.5390    63.8800    26.4000    21.1690    25.3820    24.4780     2.3320 
  139.1250   -14.9660    61.2130    31.5910    25.8540    30.4670    24.4750     2.3160 
  139.2500   -15.3810    59.3190    36.0670    30.2300    35.1780    24.4670     2.3050 
  139.3750   -15.7550    57.6210    39.1230    33.5260    38.1030    24.4510     2.2980 
  139.5000   -16.0710    55.9140    40.4900    35.3150    38.8040    24.4380     2.2970 
  139.6250   -16.3630    55.4690    40.2970    35.5360    37.9090    24.3740     2.3030 
  139.7500   -16.6380    57.0700    39.5490    35.0310    37.1090    24.3120     2.3130 
  139.8750   -16.9490    58.7140    39.0110    34.4610    37.4260    24.2690     2.3250 
  140.0000   -17.2910    58.6460    39.3360    34.4230    38.4410    24.2710     2.3340 
  140.1250   -17.6420    57.5690    41.2080    35.5620    38.2920    24.2960     2.3380 
  140.2500   -18.0360    57.8070    44.5080    37.9160    38.5070    24.3330     2.3370 
  140.3750   -18.4710    59.5590    48.9800    41.3890    39.8880    24.3640     2.3310 
  140.5000   -18.9640    60.7120    54.1010    45.6240    42.7290    24.3560     2.3240 
  140.6250   -19.4630    62.7170    59.2590    50.1200    47.2130    24.2770     2.3200 
  140.7500   -19.9770    65.9880    64.2780    54.5760    54.0860    24.1780     2.3220 
  140.8750   -20.4770    67.4850    69.7910    59.4410    64.3160    24.1330     2.3320 
  141.0000   -20.9660    65.4580    77.3850    66.0810    77.1140    24.1210     2.3480 
  141.1250   -21.4110    64.9230    90.8910    77.9710    98.4560    24.0920     2.3590 
  141.2500   -21.7990    67.2050   112.6590    97.3160   125.3600    24.0070     2.3590 
  141.3750   -22.1590    67.9160   144.0450   125.2940   155.5720    24.0320     2.3450 
  141.5000   -22.4790    66.5410   183.5970   160.4340   175.3020    24.1670     2.3210 
  141.6250   -22.7940    65.2920   225.6700   197.6000   188.5120    24.3780     2.2940 
  141.7500   -23.0830    62.1710   261.0910   229.0760   205.4760    24.4720     2.2730 
  141.8750   -23.3960    57.0820   283.5320   249.8500   220.1580    24.4150     2.2590 
  142.0000   -23.7240    54.2840   292.0060   259.0810   223.7370    24.4130     2.2530 
  142.1250   -24.0450    55.6960   289.9430   259.2540   211.0220    24.5520     2.2530 
  142.2500   -24.3620    56.8000   283.7820   255.9840   191.6750    24.6470     2.2540 
  142.3750   -24.6700    55.8610   275.8220   251.1430   170.1400    24.6520     2.2510 
  142.5000   -24.9760    55.1100   266.4800   245.1930   150.9210    24.5700     2.2440 
  142.6250   -25.2870    55.6670   256.9210   237.3530   128.1340    24.4450     2.2360 
