~V
VERS. 2.00: Ver 2.00
~W
STRT.M 55.0000:
STOP.M 308.0000:
STEP.M 0.1250:
NULL. -999.2500:
UWI. F10053:
~C
DEPT.M :
GR.API :
RML.OHMM :
RI. :
RXO.OHMM :
CALI.CM :
DEN.GM/CC :
SP.MV :
~A
# ...
  291.2500    60.7380     8.4980     7.3610     9.1050    23.9990     2.4070    -5.5800 
  291.3750    52.7000     7.8910     6.7560     6.8310    23.9720     2.4160    -5.3190 
  291.5000    50.5350     7.5330     6.4140     5.2140    23.9610     2.4120    -5.1990 
  291.6250    55.7070     7.5840     6.4630     5.5660    23.9430     2.3930    -5.1970 
  291.7500    62.6960     7.9020     6.8020     7.4930    23.9250     2.3660    -5.1990 
  291.8750    67.0320     8.2980     7.2820     9.0190    23.8980     2.3340    -5.1760 
  292.0000    66.9570     8.6020     7.7040     8.8010    23.8830     2.3040    -5.2500 
  292.1250    64.3890     8.7460     7.9060     7.7260    23.8850     2.2850    -5.4740 
  292.2500    63.3200     8.8400     7.9710     7.4220    23.8790     2.2830    -5.7790 
  292.3750    64.6060     8.9650     8.0140     7.2270    23.8530     2.3010    -6.0970 
  292.5000    65.9750     9.1060     8.0830     7.8510    23.8020     2.3320    -6.3840 
  292.6250    65.2300     9.1270     8.0760     8.3340    23.7200     2.3690    -6.5810 
  292.7500    63.9600     8.9490     7.8830     8.5380    23.7210     2.3970    -6.7370 
  292.8750    63.7180     8.6150     7.5160     7.3870    23.7930     2.4090    -6.9590 
  293.0000    62.6770     8.2780     7.1130     6.1640    23.8850     2.4040    -7.2750 
  293.1250    60.4140     8.1790     6.8910     5.5570    23.9260     2.3830    -7.6680 
  293.2500    61.0230     8.4040     6.9500     6.4640    23.9350     2.3620    -8.2040 
  293.3750    66.1850     8.9390     7.3200     9.8490    23.9610     2.3520    -8.7220 
  293.5000    73.4700     9.6720     7.9470    14.8420    24.0320     2.3580    -9.2490 
  293.6250    77.7660    10.4250     8.6920    15.2430    24.0490     2.3790    -9.8750 
  293.7500    78.2330    11.0750     9.3820    14.1000    24.0730     2.4010   -10.5470 
  293.8750    77.3580    11.6380     9.9820    13.0010    24.1040     2.4090   -11.2080 
  294.0000    77.7010    12.1970    10.5500    12.4590    24.1290     2.3930   -11.8000 
  294.1250    78.1600    12.7870    11.1330    13.3940    24.2220     2.3480   -12.2640 
  294.2500    76.6440    13.2610    11.6220    15.0220    24.4640     2.2880   -12.5750 
  294.3750    74.1770    13.3860    11.7880    16.5860    24.6670     2.2280   -12.9100 
  294.5000    72.8580    12.9900    11.4350    14.8960    24.4190     2.1780   -13.2990 
  294.6250    72.1630    12.0500    10.5320    12.8670    24.2790     2.1530   -13.7460 
  294.7500    71.8040    10.9320     9.4590    10.4940    24.1990     2.1510   -14.2540 
  294.8750    70.5210     9.9280     8.4880     8.8020    24.1800     2.1660   -14.7380 
  295.0000    67.8360     9.2220     7.7750     8.5540    24.1790     2.1870   -15.2220 
  295.1250    65.8840     8.9040     7.4160     8.7510    24.1870     2.2040   -15.7670 
  295.2500    66.7770     8.8360     7.3080     8.3920    24.2250     2.2140   -16.2920 
  295.3750    68.8900     8.9120     7.3600     8.0410    24.2240     2.2190   -16.7170 
  295.5000    69.2660     9.0380     7.4840     8.0150    24.1560     2.2240   -17.0290 
  295.6250    67.7120     9.1490     7.6210     8.3350    24.1190     2.2250   -17.2040 
  295.7500    67.1040     9.2310     7.7380     8.2900    24.1270     2.2200   -17.3110 
  295.8750    67.5450     9.3000     7.8290     8.3970    24.1770     2.2090   -17.4280 
  296.0000    68.0890     9.3840     7.8980     8.3090    24.2040     2.1970   -17.4710 
  296.1250    68.0520     9.5170     7.9660     8.8860    24.2010     2.1900   -17.3900 
  296.2500    68.3890     9.6910     8.0540     9.2480    24.2050     2.1940   -17.3330 
  296.3750    69.0160     9.8800     8.1730     9.3060    24.2230     2.2050   -17.2250 
  296.5000    69.1890    10.0490     8.3070     8.8960    24.1670     2.2190   -17.0870 
  296.6250    70.1800    10.1480     8.4190     8.3560    24.1040     2.2300   -17.0290 
  296.7500    71.4100    10.1750     8.4900     8.3360    24.1220     2.2340   -16.9430 
  296.8750    70.9940    10.1380     8.5270     8.8300    24.2110     2.2310   -16.8460 
  297.0000    68.6460    10.0510     8.5380    10.0030    24.2750     2.2260   -16.7920 
  297.1250    66.7860     9.9110     8.5170    10.3710    24.2690     2.2240   -16.7100 
  297.2500    66.7860     9.7130     8.4340    10.1880    24.1880     2.2250   -16.6380 
  297.3750    66.7860     9.4620     8.2730     9.2220    24.0620     2.2270   -16.6290 
  297.5000    66.7860     9.1910     8.0700     8.7690    23.9900     2.2250   -16.6770 
  297.6250    66.7860     9.0050     7.9310     9.8940    24.0240     2.2170   -16.6750 
  297.7500    66.7860     8.9940     7.9310     9.2420    24.0460     2.2080   -16.6960 
  297.8750    66.7860     9.1950     8.0740     8.8460    24.0310     2.2010   -16.7500 
  298.0000    66.7860     9.5530     8.3000     9.3300    24.0090     2.1990   -16.8560 
  298.1250    66.7860     9.8980     8.5110     9.1790    23.9990     2.2020   -17.0920 
  298.2500    66.7860    10.0660     8.6340     8.9280    24.0460     2.2080   -17.2470 
  298.3750    66.7860    10.0030     8.6480     8.8540    24.0970     2.2120   -17.3590 
  298.5000    66.7860     9.7670     8.5590    10.0490    24.0870     2.2120   -17.4330 
  298.6250    66.7860     9.4720     8.3660    11.5490    24.0250     2.2070   -17.4810 
  298.7500    66.7860     9.2230     8.1270    12.2160    24.0090     2.2020   -17.5260 
  298.8750    66.7860     9.0760     7.9090     9.7170    24.0170     2.2010   -17.5800 
  299.0000    66.7860     9.1060     7.8010     7.6850    24.0150     2.2080   -17.5870 
  299.1250    66.7860     9.5110     7.9510     7.7000    23.9900     2.2210   -17.4790 
  299.2500    66.7860    10.3560     8.4200     8.8990    23.9760     2.2350   -17.3460 
  299.3750    66.7860    11.5800     9.2180    11.0130    23.9870     2.2540   -17.1650 
  299.5000    66.7860    12.8780    10.1720    12.4430    24.0470     2.2840   -16.8500 
  299.6250    66.7860    13.6110    10.7660    14.5880    24.0300     2.3300   -16.3320 
  299.7500    66.7860    13.4330    10.6180    15.3070    23.8430     2.3790   -15.6380 
  299.8750    66.7860    12.3870     9.7500    11.2870    23.5820     2.4130   -14.8390 
  300.0000    66.7860    10.8990     8.5680     7.2810    23.4320     2.4140   -14.0750 
  300.1250    66.7860     9.6130     7.5840     5.9350    23.5420     2.3750   -13.5670 
  300.2500    66.7860     8.8800     7.0030     6.2900    23.7070     2.3200   -13.3700 
  300.3750    66.7860     8.7180     6.8470     7.4830    23.8060     2.2730   -13.3990 
  300.5000    66.7860     8.9510     7.0550     8.8070    23.8420     2.2470   -13.5490 
  300.6250    66.7860     9.3190     7.4980     9.2750    23.8650     2.2470   -13.7910 
  300.7500    66.7860     9.5900     7.9090     8.9190    23.8930     2.2580   -14.1480 
  300.8750    66.7860     9.6910     8.1320     8.2360    23.9110     2.2700   -14.6020 
  301.0000    66.7860     9.6420     8.1490     8.7640    23.8910     2.2770   -15.0870 
  301.1250    66.7860     9.4320     7.9700     8.5970    23.8320     2.2740   -15.4690 
  301.2500    66.7860     9.3880     7.9130     7.7810    23.8220     2.2650   -15.8080 
  301.3750    66.7860     9.4700     7.9590     8.5600    23.8400     2.2510   -15.9460 
  301.5000    66.7860     9.6570     8.1030     9.9980    23.8500     2.2360   -16.6190 
  301.6250    66.7860     9.8790     8.3010    11.8840    23.8500     2.2270   -17.2010 
  301.7500    66.7860    10.0520     8.4910    11.4250    23.8230     2.2270   -17.8530 
  301.8750    66.7860    10.1530     8.6280    11.8920    23.7650     2.2350   -18.4760 
  302.0000    66.7860    10.2010     8.6990    11.4040    23.7110     2.2470   -18.9770 
  302.1250    66.7860    10.2250     8.7190    11.0640    23.6590     2.2570   -19.3940 
  302.2500    66.7860    10.2440     8.7190    11.1100    23.5630     2.2630   -19.5930 
  302.3750    66.7860    10.2630     8.7170    10.7400    23.4550     2.2690   -19.5700 
