~V
VERS. 2.00: Ver 2.00
~W
STRT.M 56.0000:
STOP.M 312.0000:
STEP.M 0.1250:
NULL. -999.2500:
UWI. F10077:
~C
DEPT.M :
GR.API :
RML.OHMM :
RI. :
RXO.OHMM :
CALI.CM :
DEN.GM/CC :
SP.MV :
~A
# ...
  303.5000    61.3150     7.7330     6.5490     6.5050    24.8620     2.4070    -5.8630 
  303.6250    61.3150     7.9060     6.6690     6.5760    24.8840     2.4030    -5.8480 
  303.7500    61.3150     8.1420     6.8490     6.7530    24.8460     2.3960    -5.8580 
  303.8750    61.3150     8.4830     7.0860     7.3390    24.8200     2.3920    -5.9540 
  304.0000    61.3150     8.9420     7.3820     7.8410    24.7940     2.3960    -6.0550 
  304.1250    61.3150     9.4360     7.7070     8.2050    24.6810     2.4070    -6.1680 
  304.2500    61.3150     9.7870     7.9780     8.3840    24.5110     2.4180    -6.3630 
  304.3750    61.3150     9.8700     8.1220     9.4460    24.3120     2.4200    -6.5660 
  304.5000    61.3150     9.6980     8.1160    10.3020    24.2020     2.4060    -6.7370 
  304.6250    61.3150     9.4450     8.0220    10.5690    24.1670     2.3700    -6.9210 
  304.7500    61.3150     9.3570     7.9900     9.9140    24.1360     2.3210    -7.1980 
  304.8750    61.3150     9.5970     8.1470     9.3790    24.0850     2.2710    -7.6240 
  305.0000    61.3150    10.2120     8.5640     9.7950    24.0190     2.2310    -8.2310 
  305.1250    61.3150    11.0380     9.2010    11.1510    24.0300     2.2080    -8.9490 
  305.2500    61.3150    11.6490     9.7620    11.6500    24.0580     2.1970    -9.3540 
  305.3750    61.3150    11.6900     9.9390    12.6650    24.1240     2.1930    -8.8320 
  305.5000    61.3150    11.0260     9.5450    13.7350    24.1070     2.1910    -7.2420 
  305.6250    61.3150     9.8090     8.6120    12.0280    24.0490     2.1880    -6.2150 
  305.7500    61.3150     8.5400     7.5320     8.4040    23.8940     2.1830    -5.6710 
  305.8750    61.3150     7.4860     6.5480     6.5430    23.6270     2.1750    -4.9090 
  306.0000    61.3150     6.7250     5.7880     5.6810    23.2350     2.1600    -3.9020 
  306.1250    61.3150     6.2320     5.3310     5.4060    22.9130     2.1230    -2.7170 
  306.2500    61.3150     5.8830     5.1000     5.4060    22.5120     2.0570    -1.7960 
  306.3750    61.3150     5.6320     5.0240     5.6450    21.9350     1.9660    -1.7470 
  306.5000    61.3150     5.4830     5.0200     5.6080    21.1760     1.8670    -2.7810 
  306.6250    61.3150     5.4790     5.0300     5.4590    20.3490     1.7880    -3.3020 
  306.7500    61.3150     5.5620     5.0380     5.3650    19.8630     1.7440    -3.2240 
  306.8750    61.3150     5.6600     5.0440     5.5820    19.7520     1.7350    -3.1740 
  307.0000    61.3150     5.7220     5.0500     5.7940    19.8440     1.7530    -3.1990 
  307.1250    61.3150     5.7450     5.0560     5.6770    20.0110     1.7820    -3.3580 
  307.2500    61.3150     5.7730     5.0640     5.5720    20.1460     1.8090    -3.5530 
  307.3750    61.3150     5.8220     5.0720     5.7770    20.2650     1.8270    -3.7730 
  307.5000    61.3150     5.8770     5.0780     6.3900    20.4200     1.8340    -3.9570 
  307.6250    61.3150     5.9100     5.0800     6.8970    20.6950     1.8350    -4.0560 
  307.7500    61.3150     5.9180     5.0800     6.5630    21.0500     1.8360    -4.1660 
  307.8750    61.3150     5.9180     5.0800     6.3670    21.3740     1.8390    -4.2510 
  308.0000    61.3150     5.9180     5.0800     7.1270    21.6150     1.8390    -4.2980 
  308.1250    61.3150     5.9180     5.0800     8.4010    21.8000     1.8320    -4.2670 
  308.2500    61.3150     5.9180     5.0800     8.5810    21.8940     1.8200    -4.2430 
  308.3750    61.3150     5.9180     5.0800     8.1020    21.8530     1.8060    -4.2470 
  308.5000    61.3150     5.9180     5.0800     7.2970    21.4910     1.7940    -4.2700 
  308.6250    61.3150     5.9180     5.0800     7.6410    20.9180     1.7870    -4.3090 
  308.7500    61.3150     5.9180     5.0800     8.3560    20.2730     1.7860    -4.3110 
  308.8750    61.3150     5.9180     5.0800     7.9950    19.6120     1.7900    -4.3470 
  309.0000    61.3150     5.9180     5.0800     7.2270    19.0520     1.7980    -4.4180 
  309.1250    61.3150     5.9180     5.0800     6.8900    18.4810     1.8050    -4.5520 
  309.2500    61.3150     5.9180     5.0800     7.7150    17.9340     1.8090    -4.6550 
  309.3750    61.3150     5.9180     5.0800     8.3410    17.5590     1.8130    -4.7250 
  309.5000    61.3150     5.9180     5.0800     9.7790    17.3890     1.8180    -4.7760 
  309.6250    61.3150     5.9180     5.0800    11.3680    17.2900     1.8250    -4.8250 
  309.7500    61.3150     5.9180     5.0800    11.6060    17.2020     1.8360    -4.8440 
  309.8750    61.3150     5.9180     5.0800    10.2500    17.0810     1.8450    -4.8720 
  310.0000    61.3150     5.9180     5.0800     8.2310    16.9470     1.8530    -4.8910 
  310.1250    61.3150     5.9180     5.0800     7.4100    16.8300     1.8580    -4.8280 
  310.2500    61.3150     5.9180     5.0800     7.8410    16.7310     1.8580    -4.7540 
  310.3750    61.3150     5.9180     5.0800     7.7890    16.6830     1.8520    -4.6750 
  310.5000    61.3150     5.9180     5.0800     7.7750    16.7910     1.8380    -4.6270 
  310.6250    61.3150     5.9180     5.0800     8.1640    16.9450     1.8200    -4.6070 
  310.7500    61.3150     5.9180     5.0800     8.8390    16.9570     1.8050    -4.6050 
  310.8750    61.3150     5.9180     5.0800     8.4720    16.6190     1.8000    -4.5590 
  311.0000    61.3150     5.9180     5.0800     7.9940    15.9140     1.8050    -4.5170 
  311.1250    61.3150     5.9180     5.0800     7.8200    15.2500     1.8150    -4.4860 
  311.2500    61.3150     5.9180     5.0800     7.8160    14.9110     1.8240    -4.4650 
  311.3750    61.3150     5.9180     5.0800     7.8060    14.8240     1.8280    -4.4400 
  311.5000    61.3150     5.9180     5.0800     7.8020    14.8240     1.8290    -4.4240 
  311.6250    61.3150     5.9180     5.0800     7.8020    14.8240     1.8300    -4.4070 
  311.7500    61.3150     5.9180     5.0800     7.8030    14.8240     1.8300    -4.4070 
  311.8750    61.3150     5.9180     5.0800     7.8030    14.8240     1.8220    -4.4070 
  312.0000    61.3150     5.9180     5.0800     7.8040    14.8240     1.7880  -999.2500 
