~V
VERS. 2.00: Ver 2.00
~W
STRT.M 50.0000:
STOP.M 293.0000:
STEP.M 0.1250:
NULL. -999.2500:
UWI. F10045:
~C
DEPT.M :
DEN.GM/CC :
SP.MV :
GR.API :
CALI.CM :
RXO.OHMM :
RI. :
RML.OHMM :
~A
# ...
   95.0000     2.2050   -21.9480    73.2490    23.1400    10.0040     7.7720     8.4700 
   95.1250     2.2030   -22.0230    73.9820    23.1350    10.2740     7.7800     8.5260 
   95.2500     2.2010   -22.0910    74.4050    23.3060    10.7870     7.6920     8.5400 
   95.3750     2.1880   -22.1090    73.2030    23.4980    10.3650     7.5180     8.4530 
   95.5000     2.1560   -22.1120    71.8160    23.6120     9.4280     7.3040     8.2550 
   95.6250     2.1190   -22.0650    71.8340    23.6540     9.0940     7.1230     8.0020 
   95.7500     2.0940   -22.0330    73.4430    23.6540     9.1470     7.0200     7.8060 
   95.8750     2.0800   -21.9420    75.3600    23.6160     9.2810     7.0060     7.7300 
   96.0000     2.0690   -21.8260    75.9130    23.6070     9.3600     7.0460     7.7760 
   96.1250     2.0680   -21.6570    75.4780    23.6850     9.4230     7.0830     7.8990 
   96.2500     2.0780   -21.4170    75.3370    23.7600     9.4570     7.0850     8.0410 
   96.3750     2.0940   -21.1820    75.5110    23.8450     9.4190     7.0590     8.1850 
   96.5000     2.1020   -20.9350    74.8840    23.9480     9.3240     7.0170     8.3130 
   96.6250     2.0980   -20.7060    73.4900    24.0220     9.2450     6.9660     8.3890 
   96.7500     2.0930   -20.4560    72.8010    24.0160     9.1820     6.9030     8.3870 
   96.8750     2.0960   -20.1880    74.5640    23.9450     9.0710     6.8200     8.2940 
   97.0000     2.1090   -19.9710    80.4780    23.8440     8.8750     6.7200     8.1210 
   97.1250     2.1270   -19.8220    87.9670    23.8070     8.6880     6.6200     7.9050 
   97.2500     2.1430   -19.8040    92.4110    23.8540     8.5480     6.5470     7.7190 
   97.3750     2.1550   -19.8910    93.8610    23.9320     8.5100     6.5130     7.6340 
   97.5000     2.1600   -20.0380    93.8170    23.9750     8.6710     6.5280     7.6890 
   97.6250     2.1550   -20.2760    92.7440    23.9510     9.0230     6.5980     7.8770 
   97.7500     2.1450   -20.5450    91.6810    23.9050     9.2660     6.7070     8.1140 
   97.8750     2.1320   -20.8540    91.9770    23.8670     9.2980     6.8420     8.3530 
   98.0000     2.1170   -21.1120    92.4590    23.8240     9.4070     6.9930     8.5740 
   98.1250     2.1030   -21.3470    88.8770    23.7810     9.9950     7.1490     8.7880 
   98.2500     2.0910   -21.5180    84.2710    23.7650    10.9260     7.2930     8.9790 
   98.3750     2.0810   -21.5240    80.6500    23.7730    11.3600     7.4060     9.0890 
   98.5000     2.0740   -21.4230    78.6590    23.8020    10.8870     7.4650     9.0550 
   98.6250     2.0680   -21.1900    80.3160    23.8050     9.8640     7.4350     8.8430 
   98.7500     2.0640   -20.7950    83.2730    23.7720     9.0670     7.3300     8.5420 
   98.8750     2.0670   -20.2900    85.0250    23.7300     8.4210     7.1740     8.2010 
   99.0000     2.0780   -19.6850    84.6730    23.7310     8.0440     6.9930     7.8580 
   99.1250     2.0930   -18.8380    84.9160    23.7930     8.0050     6.8070     7.5730 
   99.2500     2.1000   -17.8430    84.8120    23.8560     8.0320     6.6420     7.4090 
   99.3750     2.0960   -16.7920    82.8000    23.8810     7.8820     6.5430     7.4500 
   99.5000     2.0880   -15.6590    82.4990    23.8840     7.6070     6.5520     7.7170 
   99.6250     2.0910   -14.4020    87.3540    23.8880     7.4790     6.6610     8.0890 
   99.7500     2.1120   -13.1850    93.0980    23.9180     7.7540     6.7450     8.2990 
   99.8750     2.1570   -12.0320    96.8480    23.9940     8.8090     6.6720     8.1320 
  100.0000     2.2190   -10.9680   101.0860    24.0900     9.8710     6.3590     7.5190 
  100.1250     2.2760   -10.1700   108.5010    24.1960     8.6740     5.8410     6.6420 
  100.2500     2.3040    -9.5220   114.4810    24.2970     6.5520     5.3330     5.9030 
  100.3750     2.3020    -9.0390   114.2770    24.3830     5.2670     4.9720     5.5040 
  100.5000     2.2850    -8.7110   110.0920    24.3910     5.1020     4.8170     5.4640 
  100.6250     2.2660    -8.5320   108.6570    24.3270     5.5570     4.8730     5.6850 
  100.7500     2.2470    -8.4910   109.2990    24.2570     5.9450     5.0140     5.9160 
  100.8750     2.2230    -8.5140   106.7970    24.2530     5.9380     5.1290     6.0050 
  101.0000     2.1940    -8.5710   100.7020    24.3170     5.6250     5.1420     5.9250 
  101.1250     2.1760    -8.5510    98.2810    24.3610     5.4130     5.0390     5.7790 
  101.2500     2.1780    -8.5370   100.3400    24.3770     5.4020     4.8910     5.6560 
  101.3750     2.1890    -8.5420   104.8870    24.3840     5.4450     4.7390     5.5550 
  101.5000     2.1950    -8.5220   109.1010    24.4010     5.4210     4.6110     5.4740 
  101.6250     2.1910    -8.6090   109.5320    24.4270     5.2360     4.5290     5.4460 
  101.7500     2.1900    -8.6860   107.0660    24.4270     5.1100     4.4900     5.4970 
  101.8750     2.1980    -8.7410   104.0130    24.3950     5.2010     4.5050     5.6390 
  102.0000     2.2060    -8.7900   102.1000    24.3470     5.5290     4.5990     5.8810 
  102.1250     2.2010    -8.8250    99.6840    24.3030     5.8370     4.8310     6.2470 
  102.2500     2.1920    -8.8720    97.1820    24.3290     6.0270     5.1970     6.7110 
  102.3750     2.1990    -8.9150    96.9800    24.3900     6.2520     5.6620     7.2000 
  102.5000     2.2380    -9.0040    96.8070    24.4320     6.8460     6.1380     7.5760 
  102.6250     2.3030    -9.1390    95.4190    24.3820     7.8880     6.4450     7.6100 
  102.7500     2.3570    -9.3090    94.3290    24.3270     8.1940     6.4860     7.3150 
  102.8750     2.3700    -9.5190    94.8780    24.3140     7.5300     6.2690     6.8390 
  103.0000     2.3390    -9.7780    97.3150    24.2840     6.6240     5.8920     6.3770 
  103.1250     2.2830   -10.0560   100.0440    24.2540     6.2800     5.4960     6.0980 
  103.2500     2.2370   -10.3460   101.8540    24.2260     6.4170     5.1930     6.0120 
  103.3750     2.2090   -10.6490   100.6960    24.2240     6.4400     5.0220     6.0790 
  103.5000     2.1990   -10.9680    96.0680    24.2730     6.0470     4.9760     6.2280 
  103.6250     2.2040   -11.2330    94.9730    24.3120     5.7500     5.0180     6.3620 
  103.7500     2.2080   -11.5050    99.4630    24.2940     5.7680     5.0740     6.4260 
  103.8750     2.2060   -11.7760   103.4320    24.2650     5.9080     5.0980     6.3960 
  104.0000     2.2000   -12.0660   102.8290    24.2480     6.0900     5.0700     6.2750 
  104.1250     2.1940   -12.5130    99.2710    24.2330     6.1850     5.0040     6.0870 
  104.2500     2.1870   -13.0230    95.9600    24.2230     6.1230     4.9700     5.9240 
  104.3750     2.1830   -13.6030    92.6260    24.2430     5.9690     5.0380     5.9000 
  104.5000     2.1860   -14.2680    90.5720    24.2520     6.0220     5.2620     6.1210 
  104.6250     2.1910   -14.9160    91.5220    24.1490     6.5850     5.6740     6.6600 
  104.7500     2.1840   -15.5000    90.1660    23.9780     7.4910     6.1870     7.3720 
  104.8750     2.1640   -16.0520    86.7280    23.8420     8.2930     6.6870     8.0600 
  105.0000     2.1370   -16.5190    84.3440    23.7710     8.5530     7.0490     8.5190 
  105.1250     2.1210   -16.8680    83.8360    23.7560     8.4450     7.1790     8.6160 
  105.2500     2.1180   -17.0740    85.2700    23.7490     8.5130     7.1590     8.5210 
  105.3750     2.1180   -17.1610    88.2300    23.7380     8.7010     7.0740     8.4070 
  105.5000     2.1150   -17.1170    92.7600    23.7110     8.7590     6.9890     8.3810 
  105.6250     2.1140   -17.0050    94.4850    23.6840     8.6580     6.9060     8.4070 
  105.7500     2.1200   -16.9430    92.2130    23.6420     8.6190     6.7850     8.3440 
  105.8750     2.1290   -16.9080    87.8860    23.5870     8.6800     6.6240     8.1600 
  106.0000     2.1340   -16.9090    86.2000    23.5430     8.7240     6.5160     8.0090 
  106.1250     2.1260   -16.8950    93.6770    23.5340     8.7310     6.6610     8.1970 
