~V
VERS. 2.00: Ver 2.00
~W
STRT.M 55.0000:
STOP.M 297.0000:
STEP.M 0.1250:
NULL. -999.2500:
UWI. F10076:
~C
DEPT.M :
DEN.GM/CC :
SP.MV :
GR.API :
CALI.CM :
RXO.OHMM :
RI. :
RML.OHMM :
~A
# ...
  133.7500     2.1780    -9.6110    92.7910    24.6100     6.3820     6.4870     8.1640 
  133.8750     2.1720   -10.2450    84.3560    24.4950     7.4220     7.2270     9.0390 
  134.0000     2.1590   -10.9250    76.8330    24.4980     7.9820     7.9120     9.7250 
  134.1250     2.1360   -11.5870    74.5500    24.5380     8.0520     8.2730     9.9300 
  134.2500     2.1130   -12.1600    74.5920    24.5560     7.9460     8.2890     9.7460 
  134.3750     2.1020   -12.6010    75.5930    24.5590     7.8250     8.0730     9.3660 
  134.5000     2.1040   -12.9140    76.4640    24.5590     7.7620     7.7870     8.9850 
  134.6250     2.1090   -13.1390    77.0250    24.5590     7.8000     7.5700     8.7390 
  134.7500     2.1060   -13.3710    77.2100    24.5590     7.8360     7.4440     8.6230 
  134.8750     2.1000   -13.5980    76.3080    24.5630     7.8260     7.3870     8.5980 
  135.0000     2.1000   -13.8230    73.9590    24.5890     7.7890     7.3660     8.6190 
  135.1250     2.1120   -14.0090    71.2360    24.6690     7.7660     7.3610     8.6530 
  135.2500     2.1260   -14.2500    70.7440    24.7690     7.8280     7.3660     8.6780 
  135.3750     2.1320   -14.5180    71.6790    24.8310     7.9620     7.3780     8.6890 
  135.5000     2.1250   -14.7800    72.4540    24.8490     8.0730     7.3910     8.6850 
  135.6250     2.1120   -14.9560    71.5960    24.8490     8.0940     7.3890     8.6600 
  135.7500     2.1100   -15.1580    69.6570    24.8510     8.1030     7.3620     8.6240 
  135.8750     2.1200   -15.3750    68.2260    24.8650     8.1070     7.3140     8.5920 
  136.0000     2.1310   -15.5490    68.6960    24.8980     8.0620     7.2630     8.5830 
  136.1250     2.1280   -15.6710    71.2130    24.9320     8.0510     7.2430     8.6170 
  136.2500     2.1150   -15.7650    73.1340    24.8360     8.6700     7.2590     8.6820 
  136.3750     2.0980   -15.8330    72.2610    24.5960    11.2530     7.2950     8.7500 
  136.5000     2.0820   -15.8970    68.4320    24.3680    16.5480     7.3170     8.7830 
  136.6250     2.0760   -15.9320    63.5660    24.1850    18.1550     7.2800     8.7300 
  136.7500     2.0800   -15.8720    61.0920    24.0920    14.6930     7.1820     8.5900 
  136.8750     2.0800   -15.7400    61.7000    24.0770    10.1880     7.0470     8.4010 
  137.0000     2.0730   -15.5670    63.7150    24.1170     8.2120     6.9260     8.2390 
  137.1250     2.0760   -15.3870    65.6140    24.1470     7.7990     6.9000     8.2240 
  137.2500     2.1070   -15.0820    67.1800    24.1190     7.7190     7.0040     8.3820 
  137.3750     2.1500   -14.7040    69.1260    24.0780     7.8210     7.2340     8.6840 
  137.5000     2.1710   -14.2860    70.7740    24.0780     8.2980     7.5400     9.0410 
  137.6250     2.1500   -13.8650    70.3420    24.1040     9.1830     7.8030     9.2880 
  137.7500     2.1180   -13.4020    68.6060    24.0700     9.3260     7.9070     9.3120 
  137.8750     2.1040   -12.9020    66.8260    23.9280     8.6680     7.7970     9.0860 
  138.0000     2.1180   -12.4140    66.7060    23.6870     8.0420     7.4910     8.6730 
  138.1250     2.1560   -11.9480    69.2120    23.4540     7.6190     7.0660     8.1870 
  138.2500     2.1930   -11.5630    73.3270    23.2770     7.0740     6.6510     7.7590 
  138.3750     2.2130   -11.2590    77.7530    23.1630     6.3200     6.3170     7.4520 
  138.5000     2.2110   -11.0840    82.4530    23.1010     5.7090     6.1000     7.2910 
  138.6250     2.1890   -11.0290    86.2600    23.0700     5.5600     6.0210     7.2770 
  138.7500     2.1580   -11.1230    84.6910    23.0600     5.6660     6.0450     7.3480 
  138.8750     2.1300   -11.3640    77.5760    23.0790     5.9020     6.1470     7.4610 
  139.0000     2.1160   -11.6630    71.2460    23.0860     6.1990     6.2960     7.5840 
  139.1250     2.1200   -11.9710    71.8440    23.1040     6.5120     6.4620     7.7060 
  139.2500     2.1280   -12.3490    73.6490    23.1240     6.7820     6.6220     7.8370 
  139.3750     2.1280   -12.7090    72.7840    23.1560     6.9330     6.7760     7.9790 
  139.5000     2.1180   -12.9750    70.4940    23.1700     7.0060     6.9290     8.1240 
  139.6250     2.1100   -13.1260    68.4100    23.1550     7.1520     7.0780     8.2530 
  139.7500     2.1100   -13.1790    66.5450    23.1400     7.3400     7.2160     8.3550 
  139.8750     2.1100   -13.1180    66.1320    23.1770     7.5540     7.3280     8.4210 
  140.0000     2.1110   -12.9560    67.8170    23.2780     7.6950     7.3910     8.4350 
  140.1250     2.1240   -12.6740    69.3340    23.3320     7.6730     7.3650     8.3630 
  140.2500     2.1450   -12.2610    68.5650    23.3650     7.5190     7.2600     8.2230 
  140.3750     2.1560   -11.7470    67.2600    23.4090     7.2700     7.1020     8.0470 
  140.5000     2.1450   -11.1570    68.7460    23.4690     6.9100     6.9240     7.8640 
  140.6250     2.1280   -10.5620    73.4690    23.3900     6.4680     6.7390     7.6740 
  140.7500     2.1250    -9.9000    76.1330    23.3180     6.3440     6.5260     7.4460 
  140.8750     2.1390    -9.1740    74.0820    23.5140     6.4680     6.2580     7.1490 
  141.0000     2.1670    -8.4670    73.3830    24.1000     6.4140     5.9270     6.7750 
  141.1250     2.2040    -7.9190    81.2550    24.7100     5.7930     5.5620     6.3620 
  141.2500     2.2330    -7.4600    91.1620    24.9840     5.0450     5.2250     5.9930 
  141.3750     2.2460    -7.1390    95.9100    25.0240     4.6510     4.9660     5.7260 
  141.5000     2.2480    -6.9910    95.4210    24.9390     4.6680     4.8250     5.6000 
  141.6250     2.2400    -7.0090    94.1430    24.7600     4.8730     4.8380     5.6370 
  141.7500     2.2180    -7.1830    94.2030    24.6460     4.9960     4.9680     5.7860 
  141.8750     2.1850    -7.5350    94.8300    24.5770     5.1350     5.1970     6.0290 
  142.0000     2.1600    -7.9970    93.4900    24.5210     5.4360     5.5170     6.3640 
  142.1250     2.1530    -8.4410    88.8930    24.4530     5.8190     5.9360     6.7960 
  142.2500     2.1540    -8.8850    84.6660    24.4130     6.1620     6.4010     7.2580 
  142.3750     2.1580    -9.2830    83.1640    24.3750     6.5240     6.8060     7.6330 
  142.5000     2.1730    -9.5530    83.3550    24.3020     6.8860     7.0050     7.7700 
  142.6250     2.2060    -9.6430    83.0660    24.3010     6.8830     6.8370     7.5260 
  142.7500     2.2350    -9.7110    81.7880    24.4660     6.3120     6.4120     7.0530 
  142.8750     2.2470    -9.7750    80.9080    24.7420     5.5070     5.9020     6.5490 
  143.0000     2.2380    -9.8510    83.3040    24.8690     4.9690     5.4850     6.2010 
  143.1250     2.2160   -10.0020    89.0330    24.8060     5.0960     5.3330     6.1900 
  143.2500     2.1910   -10.2110    92.5530    24.6630     5.4970     5.4660     6.5010 
  143.3750     2.1630   -10.4520    91.5160    24.5150     6.0380     5.8710     7.0900 
  143.5000     2.1290   -10.7420    87.3130    24.3990     6.7810     6.4930     7.8630 
  143.6250     2.0920   -11.0880    81.5460    24.4430     7.6500     7.2460     8.6850 
  143.7500     2.0800   -11.3950    75.2430    24.7130     8.2950     7.9910     9.4180 
  143.8750     2.1170   -11.6100    70.7010    25.0780     8.5450     8.6430     9.9990 
  144.0000     2.1890   -11.7550    69.9840    25.3200     8.4720     9.1520    10.4150 
  144.1250     2.2390   -11.8540    72.0580    25.1640     8.3840     9.4860    10.6590 
  144.2500     2.2430   -11.8550    74.7900    24.5820     8.4810     9.6870    10.7780 
  144.3750     2.2210   -11.8200    78.2120    23.7810     8.8140     9.7680    10.7920 
  144.5000     2.2060   -11.8160    80.4120    23.3010     9.2600     9.7370    10.7190 
  144.6250     2.2070   -11.8510    78.8360    23.2080     9.5550     9.5900    10.5650 
  144.7500     2.2070   -11.8550    78.7880    23.2740     9.5330     9.3680    10.3600 
  144.8750     2.1980   -11.8920    82.5780    23.4070     9.2470     9.1010    10.1240 
