~V
VERS. 2.00: Ver 2.00
~W
STRT.M 50.0000:
STOP.M 278.0000:
STEP.M 0.1250:
NULL. -999.2500:
UWI. F10031:
~C
DEPT.M :
GR.API :
RML.OHMM :
RI. :
RXO.OHMM :
CALI.CM :
DEN.GM/CC :
SP.MV :
~A
# ...
  106.2500    70.8420     8.0370     6.8100     8.6020    22.8250     2.2350   -22.1590 
  106.3750    71.7880     8.0730     6.8470     8.6450    22.8200     2.2240   -21.5940 
  106.5000    71.6280     7.9700     6.7900     8.5880    22.8670     2.2060   -20.8950 
  106.6250    69.9000     7.6790     6.5910     8.2420    23.0190     2.1890   -20.0070 
  106.7500    70.0260     7.2790     6.2990     7.5830    23.2830     2.1820   -18.9640 
  106.8750    73.7340     6.8590     5.9730     6.7320    23.4550     2.1870   -17.8300 
  107.0000    81.0440     6.4960     5.6730     5.9430    23.4740     2.2020   -16.6980 
  107.1250    89.3050     6.2430     5.4510     5.6760    23.4680     2.2210   -15.6250 
  107.2500    94.2870     6.0640     5.2960     5.6370    23.4650     2.2390   -14.6090 
  107.3750    95.3060     5.9270     5.1920     5.6010    23.4680     2.2560   -13.6760 
  107.5000    94.3640     5.8080     5.1190     5.5070    23.4990     2.2730   -12.8830 
  107.6250    92.5000     5.7190     5.0760     5.3870    23.5830     2.2890   -12.3230 
  107.7500    90.3120     5.6810     5.0650     5.4760    23.6550     2.3010   -11.9630 
  107.8750    88.9600     5.7050     5.0890     5.6530    23.6450     2.3080   -11.7640 
  108.0000    89.8600     5.7790     5.1430     5.8330    23.5750     2.3100   -11.6600 
  108.1250    90.5500     5.8530     5.1990     5.9480    23.5160     2.3060   -11.6360 
  108.2500    89.3940     5.8770     5.2240     6.0580    23.4770     2.3010   -11.6610 
  108.3750    87.0810     5.8320     5.2010     6.1170    23.4340     2.2970   -11.7010 
  108.5000    85.1300     5.7310     5.1320     6.0910    23.3900     2.2990   -11.7200 
  108.6250    85.3170     5.6150     5.0350     5.8450    23.3500     2.3100   -11.6990 
  108.7500    87.4630     5.5270     4.9440     5.5200    23.3280     2.3240   -11.6580 
  108.8750    90.0760     5.4860     4.8770     5.3360    23.2870     2.3350   -11.5710 
  109.0000    90.5300     5.4860     4.8400     5.3720    23.2270     2.3370   -11.4310 
  109.1250    88.4130     5.4990     4.8200     5.3510    23.2110     2.3300   -11.2500 
  109.2500    88.2080     5.4860     4.7920     5.3380    23.2430     2.3210   -11.1020 
  109.3750    90.3090     5.4220     4.7400     5.2960    23.3320     2.3150   -11.0430 
  109.5000    91.8370     5.2960     4.6600     5.2730    23.4670     2.3150   -11.0990 
  109.6250    90.0670     5.1500     4.5710     5.2500    23.5460     2.3180   -11.2580 
  109.7500    88.3480     5.0630     4.5180     5.2670    23.5070     2.3210   -11.4520 
  109.8750    89.6670     5.1370     4.5490     5.3240    23.4350     2.3240   -11.6760 
  110.0000    91.8360     5.4080     4.7000     5.6670    23.3750     2.3270   -11.9600 
  110.1250    89.8380     5.9730     5.0080     6.4550    23.3130     2.3360   -12.3020 
  110.2500    83.9620     6.6710     5.4170     7.5570    23.2640     2.3540   -12.6180 
  110.3750    78.1620     7.2900     5.8640     8.6960    23.2700     2.3790   -12.8770 
  110.5000    74.3800     7.7230     6.2640     9.5340    23.3010     2.4020   -13.0740 
  110.6250    72.0920     7.9180     6.5090     9.9180    23.2760     2.4130   -13.2190 
  110.7500    71.4830     7.8880     6.5790     9.7760    23.1910     2.4100   -13.3670 
  110.8750    72.3650     7.6750     6.4900     9.6660    23.1550     2.3950   -13.5300 
  111.0000    72.8270     7.3380     6.2780     8.7670    23.2530     2.3700   -13.6670 
  111.1250    71.5600     6.9300     5.9820     7.3600    23.4680     2.3420   -13.7370 
  111.2500    69.9920     6.5060     5.6560     6.8560    23.5880     2.3170   -13.7410 
  111.3750    70.3160     6.0990     5.3270     6.6090    23.6260     2.3040   -13.6820 
  111.5000    73.0280     5.7410     5.0240     6.0610    23.6250     2.3060   -13.5640 
  111.6250    75.5550     5.4800     4.7880     5.3900    23.5850     2.3170   -13.4160 
  111.7500    76.8870     5.3190     4.6280     4.7790    23.5040     2.3280   -13.2570 
  111.8750    78.2590     5.2470     4.5460     4.4650    23.4200     2.3310   -13.0990 
  112.0000    80.1820     5.2410     4.5280     4.4280    23.3410     2.3250   -12.9480 
  112.1250    81.0640     5.2760     4.5600     4.5430    23.2890     2.3180   -12.8180 
  112.2500    81.0640     5.3320     4.6140     4.6570    23.2740     2.3130   -12.7650 
  112.3750    82.7310     5.4150     4.6850     4.7480    23.2910     2.3110   -12.8300 
  112.5000    86.0620     5.5450     4.7780     4.8930    23.3240     2.3110   -13.0090 
  112.6250    86.7460     5.7360     4.9030     5.2020    23.3120     2.3100   -13.2510 
  112.7500    83.8390     5.9510     5.0430     5.5760    23.2670     2.3090   -13.4690 
  112.8750    79.8250     6.1330     5.1670     5.8190    23.2560     2.3120   -13.6500 
  113.0000    77.4870     6.2260     5.2390     5.8210    23.3050     2.3220   -13.8600 
  113.1250    78.1120     6.1830     5.2200     5.7010    23.3760     2.3390   -14.1920 
  113.2500    80.6160     6.0630     5.1380     5.6590    23.4100     2.3570   -14.6480 
  113.3750    83.8880     5.9730     5.0520     5.7320    23.4070     2.3670   -15.2060 
  113.5000    85.4810     6.0780     5.0670     6.0930    23.3720     2.3620   -15.8370 
  113.6250    84.0110     6.6560     5.3810     6.8870    23.3020     2.3440   -16.5160 
  113.7500    81.0940     7.7630     6.0740     8.4030    23.2320     2.3290   -17.2700 
  113.8750    76.7160     9.3200     7.1430    11.5570    23.1970     2.3330   -18.1050 
  114.0000    71.1910    11.0420     8.4370    15.8980    23.2020     2.3620   -18.9930 
  114.1250    66.1660    12.3620     9.5870    20.7290    23.2170     2.4070   -19.8710 
  114.2500    63.2030    12.8630    10.2180    24.0990    23.1710     2.4360   -20.6690 
  114.3750    63.2430    12.4180    10.1450    21.4180    23.0360     2.4270   -21.3350 
  114.5000    66.0870    11.2730     9.4620    13.6910    22.8630     2.3810   -21.8500 
  114.6250    69.8490     9.9510     8.4990    10.0710    22.6420     2.3190   -22.2360 
  114.7500    71.5680     8.9250     7.6520     9.0720    22.4040     2.2710   -22.5270 
  114.8750    70.8860     8.3410     7.0760     8.8860    22.2450     2.2480   -22.7230 
  115.0000    68.6310     8.1710     6.8000     8.8590    22.2860     2.2490   -22.8210 
  115.1250    65.3500     8.3340     6.8160     8.7550    22.3220     2.2620   -22.8400 
  115.2500    62.3360     8.6420     6.9960     8.5690    22.3200     2.2730   -22.8230 
  115.3750    61.0270     8.9870     7.2560     8.3920    22.4450     2.2750   -22.8080 
  115.5000    61.6460     9.2650     7.5100     8.2960    22.6880     2.2650   -22.8520 
  115.6250    62.6450     9.3490     7.6510     8.3030    22.8200     2.2440   -23.0060 
  115.7500    63.5540     9.2240     7.6420     8.4140    22.7880     2.2200   -23.2410 
  115.8750    65.6780     8.9310     7.4940     8.6240    22.6860     2.2000   -23.5010 
  116.0000    67.9710     8.5690     7.2620     8.8540    22.6140     2.1870   -23.7410 
  116.1250    68.0640     8.2700     7.0340     9.0130    22.7240     2.1860   -23.9600 
  116.2500    66.7260     8.0990     6.8720     9.1050    22.9330     2.1930   -24.1730 
  116.3750    65.4830     8.0530     6.7930     9.1630    23.1380     2.2060   -24.3850 
  116.5000    64.0310     8.0890     6.7830     9.2120    23.2410     2.2190   -24.5460 
  116.6250    61.9530     8.1370     6.8030     9.2480    23.2460     2.2230   -24.5810 
  116.7500    62.1580     8.1410     6.8080     9.2060    23.2100     2.2190   -24.4940 
  116.8750    65.1760     8.0720     6.7700     9.0410    23.1510     2.2100   -24.3260 
  117.0000    67.1240     7.9210     6.6780     8.6910    23.0520     2.2020   -24.1200 
  117.1250    65.6200     7.6820     6.5210     8.1720    22.9000     2.2030   -23.8550 
  117.2500    63.4530     7.3970     6.3280     7.6440    22.8100     2.2070   -23.4990 
  117.3750    63.1990     7.1100     6.1300     7.1840    22.7740     2.2090   -23.0270 
