~V
VERS. 2.00: Ver 2.00
~W
STRT.M 50.0000:
STOP.M 216.0000:
STEP.M 0.1250:
NULL. -999.2500:
UWI. F10015:
~C
DEPT.M :
GR.API :
RML.OHMM :
RI. :
RXO.OHMM :
CALI.CM :
DEN.GM/CC :
SP.MV :
~A
# ...
  185.0000    60.2670    73.3570    64.3870    76.0880    24.5450     2.2420   -14.7680 
  185.1250    56.3260    94.4420    79.4750   108.7640    24.5440     2.2400   -15.0430 
  185.2500    53.5630   111.0710    94.5800   142.0210    24.5410     2.2420   -15.2960 
  185.3750    52.4040   119.7460   103.6170   136.1530    24.5210     2.2420   -15.5720 
  185.5000    54.6340   118.3710   104.3520   117.6620    24.4730     2.2390   -15.7940 
  185.6250    56.6050   111.0500    99.6240    99.7950    24.4260     2.2340   -16.0330 
  185.7500    56.1400   101.3550    92.1030    88.2520    24.3890     2.2350   -16.2490 
  185.8750    53.4700    92.1250    84.2100    81.8590    24.3610     2.2440   -16.3930 
  186.0000    52.1680    85.2570    78.0180    73.2310    24.3380     2.2610   -16.5140 
  186.1250    54.7820    83.4080    76.1280    60.9340    24.3330     2.2790   -16.5780 
  186.2500    55.9970    85.2460    77.5840    55.2710    24.3310     2.2910   -16.6670 
  186.3750    54.4510    91.5510    83.2130    62.0520    24.3310     2.2930   -16.7220 
  186.5000    51.4760   101.7380    92.5400    73.7330    24.3310     2.2880   -16.7520 
  186.6250    49.6460   114.3290   104.2750    80.8380    24.3340     2.2800   -16.7840 
  186.7500    51.3270   127.4280   116.8050    83.3950    24.3450     2.2720   -16.8150 
  186.8750    52.9360   135.7130   125.5400    96.2850    24.3740     2.2650   -16.8450 
  187.0000    53.9420   135.2530   126.8270   107.3590    24.3910     2.2550   -16.8590 
  187.1250    55.4460   127.9670   121.8630   103.5320    24.4020     2.2450   -16.8200 
  187.2500    56.3330   116.2990   112.3310    91.1140    24.4180     2.2370   -16.7580 
  187.3750    55.3460   103.1200   100.5600    81.9930    24.4430     2.2310   -16.7170 
  187.5000    53.1660    91.6270    89.6950    79.7970    24.4690     2.2210   -16.7170 
  187.6250    55.1810    85.4820    83.4720    74.2960    24.4750     2.1890   -16.6370 
  187.7500    57.9680    82.9620    80.7450    73.2490    24.4770     2.1530   -16.5390 
  187.8750    59.6950    83.7570    81.3620    77.2530    24.4770     2.1460   -16.4740 
  188.0000    60.6060    86.5730    84.1420    85.1170    24.4770     2.1850   -16.4230 
  188.1250    60.8870    89.7050    87.4740   101.3160    24.4770     2.2690   -16.3710 
  188.2500    58.5310    91.6160    89.9110   143.4390    24.4770     2.3780   -16.3850 
  188.3750    52.7710    91.3180    90.2590   184.0410    24.4770     2.4410   -16.3430 
  188.5000    51.6510    90.0500    89.4000   144.0840    24.4770     2.4350   -16.2930 
  188.6250    55.2480    89.0370    88.5260    98.6220    24.4770     2.3890   -16.2670 
  188.7500    59.8500    89.0330    88.4450    76.3790    24.4770     2.3300   -16.2780 
  188.8750    61.6790    90.1830    89.4290    76.1620    24.4770     2.2790   -16.3100 
  189.0000    60.5970    91.8770    91.0450    83.2940    24.4770     2.2430   -16.3120 
  189.1250    60.2530    92.9570    92.3510    80.0150    24.4770     2.2230   -16.3990 
  189.2500    60.9450    93.1380    92.8970    76.9710    24.4770     2.2120   -16.4700 
  189.3750    61.9610    92.6930    92.8400    76.8770    24.4760     2.2070   -16.5400 
  189.5000    62.6420    92.2180    92.6960    78.7960    24.4750     2.2040   -16.6060 
  189.6250    62.4700    92.4120    93.1300    81.4210    24.4740     2.2010   -16.6580 
  189.7500    61.1450    93.8630    94.7470    86.3720    24.4750     2.2000   -16.6720 
  189.8750    59.9140    96.1820    97.2500    89.7260    24.4760     2.2170   -16.6580 
  190.0000    59.3820    97.6730    99.0030    90.6840    24.4730     2.2520   -16.7050 
  190.1250    59.3910    97.2390    98.8860    87.3780    24.4710     2.2920   -16.7680 
  190.2500    59.3810    94.0340    95.9860    80.4920    24.4740     2.3190   -16.8310 
  190.3750    59.0570    88.1580    90.3030    71.8470    24.4920     2.3220   -16.9150 
  190.5000    59.0470    81.3370    83.4530    62.9960    24.5400     2.3020   -17.0930 
  190.6250    60.9590    77.1310    78.7450    59.6620    24.6290     2.2700   -17.2570 
  190.7500    61.4450    76.7410    77.5910    58.2640    24.6760     2.2380   -17.4460 
  190.8750    59.7750    82.2650    82.1780    65.0630    24.6900     2.2060   -17.6920 
  191.0000    57.5160    94.3140    93.2370    85.7200    24.6900     2.1740   -17.9650 
  191.1250    56.1950   113.2930   111.2130   119.7600    24.6900     2.1480   -18.2380 
  191.2500    54.9710   140.6820   137.4550   155.0250    24.6900     2.1380   -18.5440 
  191.3750    51.5710   174.1950   169.1610   179.4810    24.6910     2.1480   -18.8130 
  191.5000    49.9960   206.9780   199.5060   211.3500    24.7020     2.1640   -19.0080 
  191.6250    50.3690   234.4500   224.4600   250.0640    24.7260     2.1790   -19.2030 
  191.7500    51.4490   253.1950   240.9210   284.9320    24.7440     2.1890   -19.3790 
  191.8750    52.0000   262.4710   248.2020   303.9350    24.7340     2.1950   -19.5000 
  192.0000    52.1780   265.7170   249.5180   302.5260    24.6900     2.2000   -19.5910 
  192.1250    51.8210   263.4840   245.5430   279.3010    24.6450     2.2050   -19.5350 
  192.2500    51.2990   258.6950   239.4390   271.6260    24.6240     2.2110   -19.4530 
  192.3750    51.4620   251.2120   231.3460   277.4950    24.6160     2.2190   -19.3180 
  192.5000    51.9670   241.7380   221.9460   277.2690    24.6120     2.2310   -19.1670 
  192.6250    52.1590   231.5480   212.3170   253.8060    24.6000     2.2430   -19.0320 
  192.7500    51.9640   222.2040   203.7900   212.5990    24.5660     2.2490   -18.8760 
  192.8750    53.3240   216.6950   198.8730   203.3020    24.5090     2.2370   -18.7050 
  193.0000    55.3770   216.7550   199.1740   211.2240    24.4600     2.2110   -18.4890 
  193.1250    56.4880   220.4480   203.0070   214.1510    24.4230     2.1880   -18.2790 
  193.2500    55.6830   223.4980   206.7710   220.2150    24.4040     2.1880   -18.1210 
  193.3750    53.2350   220.6320   205.9550   244.3020    24.4000     2.2250   -18.0090 
  193.5000    51.2470   206.9050   196.1400   284.4370    24.4000     2.2930   -17.8340 
  193.6250    54.1080   178.2030   172.4190   294.4430    24.4000     2.3670   -17.6870 
  193.7500    58.4550   148.7650   146.6790   245.7090    24.4000     2.4210   -17.5580 
  193.8750    63.0200   124.3700   124.3370   178.4280    24.4000     2.4560   -17.3790 
  194.0000    66.9840   106.6930   107.4990   124.3890    24.4000     2.4810   -17.2220 
  194.1250    69.8360    95.2050    96.3010    98.4420    24.4050     2.5020   -17.1390 
  194.2500    71.2280    89.0760    90.2510    89.9660    24.4290     2.5170   -17.0060 
  194.3750    72.4830    84.8170    86.1280   137.2520    24.4890     2.5080   -16.8960 
  194.5000    73.2100    79.6510    81.1900   146.7480    24.5260     2.4760   -16.8870 
  194.6250    73.5930    73.2740    75.0430   117.5470    24.5410     2.4370   -16.8860 
  194.7500    74.2190    66.0760    67.9810    78.8370    24.5320     2.4060   -16.9120 
  194.8750    75.1100    58.8540    60.7460    57.5730    24.4890     2.3890   -16.9920 
  195.0000    74.7520    52.5340    54.2840    46.1400    24.4060     2.3820   -17.0650 
  195.1250    72.3510    48.6580    50.1650    43.1910    24.3560     2.3790   -17.0670 
  195.2500    72.0040    46.7590    48.0190    42.3520    24.3360     2.3810   -17.0880 
  195.3750    72.9460    47.4610    48.5000    42.1330    24.3320     2.3950   -17.1240 
  195.5000    73.9670    50.6610    51.5090    43.0110    24.3410     2.4180   -17.1510 
  195.6250    73.8800    55.8530    56.5350    47.9510    24.3760     2.4400   -17.1480 
  195.7500    71.9760    62.4640    62.9940    62.9200    24.4610     2.4490   -17.1180 
  195.8750    70.2270    67.6990    68.1240    84.0510    24.5540     2.4340   -17.1060 
  196.0000    70.2420    68.7510    69.2020    86.9680    24.5930     2.4100   -17.0670 
  196.1250    71.5960    66.2820    66.7880    74.7410    24.6020     2.3900   -16.9720 
