~V
VERS. 2.00: Ver 2.00
~W
STRT.M 57.0000:
STOP.M 177.0000:
STEP.M 0.1250:
NULL. -999.2500:
UWI. F10011:
~C
DEPT.M :
DEN.GM/CC :
SP.MV :
GR.API :
CALI.CM :
RXO.OHMM :
RI. :
RML.OHMM :
~A
# ...
  102.0000     2.1190   -11.7060    70.7440    23.2870    61.5450    58.2590    66.6750 
  102.1250     2.1080   -11.7320    68.6000    23.2790    60.4580    58.8280    66.7490 
  102.2500     2.1050   -11.7460    67.2890    23.3200    60.0060    58.5140    66.0680 
  102.3750     2.1080   -11.8100    67.2760    23.4590    60.9510    57.7980    65.0780 
  102.5000     2.1150   -11.8890    68.0640    23.7550    62.6440    56.9120    63.8610 
  102.6250     2.1250   -11.9390    70.2520    23.9300    63.0850    55.9020    62.3500 
  102.7500     2.1330   -11.9930    71.4470    23.9800    60.4880    54.8520    60.7160 
  102.8750     2.1370   -12.0280    71.7930    23.9430    56.6330    53.8820    59.1880 
  103.0000     2.1360   -12.0840    73.5080    23.8540    54.1030    53.1310    57.9570 
  103.1250     2.1290   -12.1250    77.6140    23.6700    52.9760    52.7610    57.1520 
  103.2500     2.1220   -12.2090    81.2400    23.4860    52.4920    52.7220    56.6570 
  103.3750     2.1190   -12.2430    81.6940    23.3860    51.2620    52.9270    56.4100 
  103.5000     2.1250   -12.2610    78.5530    23.3450    48.1280    53.2300    56.3490 
  103.6250     2.1380   -12.3040    75.1750    23.2380    43.1560    53.3760    56.2580 
  103.7500     2.1530   -12.3070    75.7690    23.0320    39.6270    53.1160    55.7840 
  103.8750     2.1600   -12.3050    78.2340    22.8550    38.9540    52.2370    54.5910 
  104.0000     2.1530   -12.3160    78.3500    22.8170    40.7080    50.5870    52.4390 
  104.1250     2.1350   -12.3250    76.7180    23.0030    42.3540    47.9980    49.2130 
  104.2500     2.1160   -12.2880    77.6280    23.3760    41.3270    44.8400    45.5230 
  104.3750     2.1010   -12.2750    80.1890    23.7440    37.7300    41.5380    41.9660 
  104.5000     2.0920   -12.2610    81.2000    23.8940    33.5210    38.5080    38.9690 
  104.6250     2.0850   -12.2950    80.3490    23.8010    30.4690    36.1150    36.7460 
  104.7500     2.0790   -12.2950    78.7270    23.6020    29.1660    34.3160    35.0330 
  104.8750     2.0780   -12.2670    78.2240    23.4370    29.1880    32.9940    33.6130 
  105.0000     2.0830   -12.1700    80.7970    23.3660    29.4020    32.0000    32.3820 
  105.1250     2.0960   -12.1180    85.6190    23.3710    28.9310    31.3150    31.4820 
  105.2500     2.1130   -12.0690    86.3550    23.4220    29.1630    30.9560    31.0530 
  105.3750     2.1290   -11.9830    82.5510    23.5030    29.8920    30.9980    31.1970 
  105.5000     2.1380   -11.9250    79.7640    23.5780    31.0030    31.4780    31.9190 
  105.6250     2.1350   -11.9070    80.5590    23.6780    32.3570    32.4430    33.2010 
  105.7500     2.1290   -11.9650    80.9460    23.7970    33.7210    33.6680    34.7180 
  105.8750     2.1270   -12.0230    80.5970    23.8350    34.8940    34.8040    36.0110 
  106.0000     2.1300   -12.1570    81.3870    23.7960    35.5960    35.3110    36.4620 
  106.1250     2.1300   -12.2550    83.0480    23.7260    35.6480    34.4320    35.3540 
  106.2500     2.1240   -12.3490    81.8990    23.6650    34.8030    32.3280    33.0610 
  106.3750     2.1200   -12.4170    80.3140    23.6740    31.7900    29.5440    30.2410 
  106.5000     2.1210   -12.4810    82.6930    23.7320    25.7300    26.8150    27.6380 
  106.6250     2.1270   -12.4820    87.9420    23.8350    19.8610    24.8780    25.9930 
  106.7500     2.1340   -12.4590    89.7790    23.9330    18.2420    23.8820    25.4170 
  106.8750     2.1390   -12.4590    88.6290    23.9840    20.9740    23.8100    25.8640 
  107.0000     2.1420   -12.3890    88.7250    23.9940    25.0190    24.4680    27.0950 
  107.1250     2.1350   -12.3170    89.9080    23.9930    27.3120    25.5130    28.6290 
  107.2500     2.1230   -12.2580    88.5430    23.9930    28.3660    26.4720    29.8580 
  107.3750     2.1160   -12.2440    86.2530    23.9930    28.5210    27.2140    30.6450 
  107.5000     2.1180   -12.1760    85.9480    23.9930    27.5150    27.9150    31.2820 
  107.6250     2.1240   -12.0670    85.7250    23.9930    26.0510    28.9920    32.3910 
  107.7500     2.1220   -11.9440    83.6210    23.9920    27.0840    30.6170    34.2280 
  107.8750     2.1120   -11.8250    82.5340    23.9850    32.2720    32.6700    36.6100 
  108.0000     2.0990   -11.6940    83.8960    23.9670    38.9500    34.6770    38.8750 
  108.1250     2.0900   -11.5990    85.5160    23.9390    41.5180    35.7030    39.7950 
  108.2500     2.0890   -11.5320    85.3400    23.9270    41.4330    35.3510    38.9850 
  108.3750     2.0980   -11.4470    83.4890    23.9230    40.2600    33.7750    36.8240 
  108.5000     2.1150   -11.3700    82.7020    23.9090    36.8280    31.6190    34.2200 
  108.6250     2.1320   -11.2970    83.5440    23.8600    32.4140    29.7190    32.1720 
  108.7500     2.1420   -11.2970    85.3240    23.7690    29.0670    28.5140    31.0040 
  108.8750     2.1410   -11.3020    86.1790    23.6770    28.8290    28.1510    30.7540 
  109.0000     2.1340   -11.3890    86.2980    23.6800    30.9440    28.7090    31.4340 
  109.1250     2.1360   -11.4390    85.7510    23.8390    34.5340    30.5270    33.3840 
  109.2500     2.1490   -11.5110    84.0060    24.0070    38.2130    33.5700    36.5490 
  109.3750     2.1640   -11.6460    81.0980    24.0690    42.3270    37.4270    40.3430 
  109.5000     2.1720   -11.8400    78.3290    24.0780    49.3130    40.4370    42.6440 
  109.6250     2.1750   -12.0640    76.1510    24.0940    57.6280    38.7470    39.2100 
  109.7500     2.1900   -12.2580    73.8600    24.1030    58.1330    32.1430    30.9980 
  109.8750     2.2250   -12.4840    75.4040    24.0600    44.5390    23.7060    21.9780 
  110.0000     2.2820   -12.6510    83.2440    23.9660    23.7190    16.6750    15.1980 
  110.1250     2.3450   -12.8600    95.3120    24.0180    12.0110    12.5240    11.6680 
  110.2500     2.3970   -13.0360   105.3010    24.0790     8.1980    10.3550    10.2320 
  110.3750     2.4300   -13.1880   108.4220    24.0860    10.3090     9.5340    10.1730 
  110.5000     2.4520   -13.2920   103.0090    24.0320    16.4390     9.5450    10.7850 
  110.6250     2.4830   -13.4030    94.8490    24.0020    19.6640     9.8680    11.1890 
  110.7500     2.5110   -13.4750    93.9540    23.9930    15.8770     9.9290    10.8460 
  110.8750     2.5090   -13.5240   100.8490    23.9930     9.6710     9.5960     9.9130 
  111.0000     2.4650   -13.5910   108.7450    23.9930     7.1260     9.1090     8.9710 
  111.1250     2.3890   -13.6270   112.4290    23.9930     8.2230     8.8590     8.6050 
  111.2500     2.3120   -13.6300   111.3890    23.9930     9.7150     8.9850     8.7930 
  111.3750     2.2480   -13.6110   106.4710    23.9870     9.9190     9.4620     9.3400 
  111.5000     2.2070   -13.6580   101.5420    23.9540     8.9250    10.1230     9.9740 
  111.6250     2.2060   -13.6980   100.4880    23.8080     8.8260    10.6110    10.3580 
  111.7500     2.2370   -13.7680   101.4620    23.5730     9.9220    10.6190    10.3220 
  111.8750     2.2780   -13.8010   101.5570    23.3990    11.0320    10.0620     9.8210 
  112.0000     2.3080   -13.8650   102.9060    23.4640    10.5260     9.0920     8.9510 
  112.1250     2.3240   -13.9060   109.5800    23.5790     8.1690     7.9870     7.9320 
  112.2500     2.3370   -13.9420   117.5780    23.6360     6.4780     7.0250     7.0640 
  112.3750     2.3480   -13.9540   121.5560    23.6580     6.1000     6.3630     6.5560 
  112.5000     2.3490   -13.9510   121.5100    23.6870     6.7570     6.1170     6.5630 
  112.6250     2.3380   -13.9550   121.5310    23.6990     7.7500     6.4920     7.3350 
  112.7500     2.3340   -13.9420   119.4960    23.6900     9.3210     7.5630     8.9390 
  112.8750     2.3500   -13.9600   110.9880    23.6570    13.5780     9.5510    11.5690 
  113.0000     2.3890   -13.9630    98.1470    23.6250    21.6300    12.7160    15.3960 
  113.1250     2.4370   -14.0270    86.5290    23.5980    29.7220    17.4060    20.5780 
