~V
VERS. 2.00: Ver 2.00
~W
STRT.M 60.0000:
STOP.M 245.0000:
STEP.M 0.1250:
NULL. -999.2500:
UWI. F10050:
~C
DEPT.M :
SP.MV :
GR.API :
RML.OHMM :
RI. :
RXO.OHMM :
CALI.CM :
DEN.GM/CC :
~A
# ...
  116.2500   -27.3130    62.8520     8.1350     7.7880     8.2060    23.4440     2.2580 
  116.3750   -27.2640    69.1830     7.7260     7.3240     7.9020    23.3860     2.2670 
  116.5000   -27.2120    76.4150     7.3250     6.8460     7.6830    23.3550     2.2720 
  116.6250   -27.1870    81.2390     6.9610     6.4030     7.3290    23.3650     2.2840 
  116.7500   -27.1720    82.8380     6.6800     6.0410     6.9390    23.4240     2.3010 
  116.8750   -27.1290    83.1980     6.5810     5.8360     6.7130    23.5190     2.3020 
  117.0000   -27.1140    82.8580     6.8160     5.9030     6.8390    23.5790     2.2810 
  117.1250   -27.1320    79.3620     7.6760     6.4900     7.5300    23.5940     2.2530 
  117.2500   -27.1230    75.2850     9.2350     7.7050     9.1370    23.5940     2.2600 
  117.3750   -27.1130    73.3280    11.5560     9.6490    12.2900    23.5940     2.3360 
  117.5000   -27.0950    71.3610    14.4750    12.2430    18.1650    23.5940     2.4740 
  117.6250   -27.0830    64.4320    17.1350    14.8700    29.0800    23.5940     2.5780 
  117.7500   -27.0760    57.6320    18.1870    16.3670    32.8730    23.6030     2.5640 
  117.8750   -27.0610    56.4840    17.0570    16.0510    25.0070    23.6290     2.4650 
  118.0000   -27.0210    59.0790    14.5880    14.3190    14.9940    23.6740     2.3430 
  118.1250   -27.0210    60.6340    12.2610    12.2630    10.6150    23.6890     2.2480 
  118.2500   -27.0360    60.4300    10.7450    10.6810     9.2650    23.6850     2.1910 
  118.3750   -27.0510    60.1960    10.0410     9.7390     9.0870    23.6530     2.1670 
  118.5000   -27.1060    60.3070     9.9550     9.3760     9.2790    23.5710     2.1620 
  118.6250   -27.1440    59.9290    10.2740     9.4830     9.5740    23.4660     2.1760 
  118.7500   -27.1910    60.3810    10.7160     9.7880     9.7040    23.3720     2.2120 
  118.8750   -27.2840    61.6020    11.1410    10.1310     9.8200    23.3130     2.2670 
  119.0000   -27.3680    63.5150    11.4440    10.3890     9.9970    23.2650     2.3180 
  119.1250   -27.3800    64.4490    11.5070    10.4560    10.0250    23.2470     2.3280 
  119.2500   -27.4160    63.9230    11.3400    10.3440     9.8190    23.2460     2.2980 
  119.3750   -27.4440    62.7690    11.0160    10.1010     9.5950    23.2910     2.2490 
  119.5000   -27.4400    64.0190    10.6560     9.8020     9.4420    23.4120     2.2050 
  119.6250   -27.4770    66.8720    10.3830     9.5280     9.3490    23.5800     2.1800 
  119.7500   -27.4710    64.6610    10.2080     9.3140     9.2380    23.6120     2.1720 
  119.8750   -27.4100    58.2430    10.0990     9.1610     9.0370    23.5360     2.1720 
  120.0000   -27.3910    55.1490    10.0400     9.0690     8.8130    23.4680     2.1730 
  120.1250   -27.4060    58.7350    10.0730     9.0840     8.8950    23.4950     2.1710 
  120.2500   -27.3760    63.7510    10.2300     9.2230     9.1020    23.5590     2.1770 
  120.3750   -27.3490    65.8830    10.5290     9.4920     9.3830    23.5390     2.1970 
  120.5000   -27.3290    64.4440    10.9430     9.8540    10.2690    23.4160     2.2310 
  120.6250   -27.2850    60.2310    11.3500    10.2050    12.4730    23.1290     2.2610 
  120.7500   -27.2410    58.4230    11.5870    10.4160    13.8800    22.8060     2.2680 
  120.8750   -27.1920    61.2150    11.5560    10.4110    12.2090    22.6180     2.2520 
  121.0000   -27.1270    64.5750    11.2660    10.2030    10.4060    22.5650     2.2240 
  121.1250   -27.0500    64.7070    10.8480     9.8960     9.5510    22.5650     2.2010 
  121.2500   -26.9990    64.6900    10.5190     9.6420     9.0310    22.5650     2.1820 
  121.3750   -26.9490    65.1290    10.3920     9.5120     8.8380    22.5670     2.1660 
  121.5000   -26.9010    65.5030    10.4630     9.5020     9.0880    22.6260     2.1620 
  121.6250   -26.8800    64.5950    10.6380     9.5440     9.3570    22.8380     2.1820 
  121.7500   -26.8580    62.1020    10.7670     9.5480     9.3270    23.1820     2.2200 
  121.8750   -26.8320    57.1470    10.7840     9.4810     9.0550    23.5080     2.2530 
  122.0000   -26.8090    53.8230    10.6960     9.3540     9.0960    23.8870     2.2600 
  122.1250   -26.8070    58.0820    10.5510     9.2130     9.3630    24.1090     2.2320 
  122.2500   -26.7690    64.4730    10.4180     9.1140     9.5130    24.1930     2.1970 
  122.3750   -26.6990    66.8890    10.3300     9.0840     9.4690    24.2010     2.1760 
  122.5000   -26.6560    65.2710    10.3110     9.1300     9.4140    24.2010     2.1770 
  122.6250   -26.5630    62.2010    10.3940     9.2500     9.4850    24.2130     2.1920 
  122.7500   -26.4330    58.9070    10.5580     9.4250     9.6010    24.2760     2.1990 
  122.8750   -26.3300    57.7660    10.7510     9.6310     9.5510    24.4080     2.1930 
  123.0000   -26.2100    60.3060    10.8690     9.7940     9.2060    24.5090     2.1850 
  123.1250   -26.0420    63.2320    10.7050     9.7310     8.7910    24.4980     2.2010 
  123.2500   -25.9100    63.5390    10.1830     9.3350     8.6970    24.3010     2.2500 
  123.3750   -25.7740    62.7210     9.3170     8.5980     8.3260    23.8690     2.3180 
  123.5000   -25.6170    66.7810     8.2540     7.6460     7.3950    23.2510     2.3720 
  123.6250   -25.4920    76.7850     7.2610     6.7110     6.3260    22.6800     2.3830 
  123.7500   -25.3850    84.4720     6.5170     5.9660     5.9530    22.0990     2.3640 
  123.8750   -25.3010    85.8340     6.0720     5.4640     5.9920    21.9300     2.3370 
  124.0000   -25.2560    82.6250     5.8880     5.1900     6.1820    22.4060     2.3150 
  124.1250   -25.2330    79.5260     5.8990     5.1150     6.2800    22.9700     2.3060 
  124.2500   -25.2160    78.3570     6.0080     5.1510     6.2160    23.1990     2.3070 
  124.3750   -25.2310    79.5550     6.2090     5.2740     6.0260    23.2350     2.3120 
  124.5000   -25.2620    80.7000     6.5320     5.4870     5.9740    23.2010     2.3070 
  124.6250   -25.3170    79.9500     6.9920     5.7940     6.3040    23.0800     2.2900 
  124.7500   -25.3620    80.2070     7.4430     6.1080     6.8840    22.8760     2.2700 
  124.8750   -25.3760    80.9930     7.6710     6.2960     7.4390    22.6660     2.2610 
  125.0000   -25.3530    80.3960     7.4800     6.2270     7.5090    22.5770     2.2710 
  125.1250   -25.2950    79.5680     6.8740     5.8680     6.9660    22.6340     2.2940 
  125.2500   -25.2090    82.6160     6.2880     5.4700     6.3340    22.6780     2.3180 
  125.3750   -25.1370    85.5530     6.0960     5.2840     6.0920    22.6770     2.3390 
  125.5000   -25.0410    84.4720     6.5330     5.5130     6.5650    22.6580     2.3670 
  125.6250   -24.9000    80.4640     7.7700     6.3680     8.7690    22.7330     2.4140 
  125.7500   -24.8240    76.9310     9.4810     7.6940    13.4340    22.9140     2.4800 
  125.8750   -24.7800    74.7190    11.0580     9.1150    18.6610    23.0830     2.5450 
  126.0000   -24.7230    71.6730    11.5330     9.9060    20.6580    23.1710     2.5830 
  126.1250   -24.7050    68.4720    10.1220     9.2630    16.7930    23.2280     2.5740 
  126.2500   -24.7200    69.3200     7.9610     7.7710    11.6240    23.3040     2.5370 
  126.3750   -24.6940    76.7130     6.0840     6.2000     7.2340    23.3570     2.4870 
  126.5000   -24.6920    86.3500     4.9210     5.0190     5.2750    23.3970     2.4320 
  126.6250   -24.7150    89.7200     4.5160     4.4100     4.9700    23.4130     2.3790 
  126.7500   -24.7040    86.8280     4.5440     4.2060     5.2890    23.4170     2.3320 
  126.8750   -24.7070    82.2720     4.8160     4.2930     5.7190    23.4170     2.2960 
  127.0000   -24.7100    80.0430     5.1680     4.5470     6.0590    23.4170     2.2770 
  127.1250   -24.7200    81.4860     5.4310     4.8320     6.1160    23.4120     2.2810 
  127.2500   -24.7370    84.8470     5.5460     5.0340     5.9680    23.3910     2.3000 
  127.3750   -24.7670    84.9480     5.5180     5.1110     5.8400    23.3570     2.3240 
