~V
VERS. 2.00: Ver 2.00
~W
STRT.M 50.0000:
STOP.M 325.0000:
STEP.M 0.1250:
NULL. -999.2500:
UWI. F10039:
~C
DEPT.M :
GR.API :
RML.OHMM :
RI. :
RXO.OHMM :
CALI.CM :
DEN.GM/CC :
SP.MV :
~A
# ...
  308.7500   104.8580    12.5930    11.2500    15.9640    24.0800     2.3180   -29.4700 
  308.8750   104.8400    13.2650    12.0070    16.3290    23.9270     2.3310   -29.6390 
  309.0000   107.0050    13.6180    12.5720    15.6520    23.8270     2.3420   -29.6660 
  309.1250   110.2940    13.4460    12.6640    14.9020    23.8400     2.3450   -29.5070 
  309.2500   111.4200    12.8020    12.2100    14.2810    23.9330     2.3440   -29.2230 
  309.3750   109.8880    11.7930    11.2560    12.7280    24.0270     2.3450   -28.8390 
  309.5000   107.2520    10.6280    10.0200     9.6550    24.2000     2.3520   -28.3600 
  309.6250   106.9350     9.6360     8.8640     8.5450    24.2240     2.3610   -27.9340 
  309.7500   108.7910     9.0420     8.0710     8.4360    23.9450     2.3660   -27.5480 
  309.8750   110.2990     8.9210     7.7590     9.3770    23.9520     2.3630   -27.2170 
  310.0000   108.5000     9.1800     7.9020    11.0690    23.9400     2.3540   -26.9080 
  310.1250   103.6650     9.5670     8.3510    12.6930    24.0270     2.3490   -26.5920 
  310.2500   102.0790     9.7560     8.7550    12.5830    24.2120     2.3540   -26.2400 
  310.3750   104.8890     9.5900     8.8650    10.0190    24.3670     2.3710   -25.8690 
  310.5000   108.4970     9.0860     8.5700     7.5740    24.3340     2.3970   -25.4860 
  310.6250   109.7120     8.4130     7.9430     6.4910    24.1860     2.4240   -25.0730 
  310.7500   109.0960     7.8250     7.2880     6.3730    24.0550     2.4450   -24.6840 
  310.8750   108.6950     7.4650     6.8110     6.7010    24.0080     2.4570   -24.3360 
  311.0000   109.6090     7.3960     6.6370     7.2670    23.9720     2.4580   -24.0700 
  311.1250   112.1700     7.6360     6.8300     7.7890    24.0110     2.4540   -23.9500 
  311.2500   113.3730     8.0300     7.2420     8.2150    24.1190     2.4490   -23.9460 
  311.3750   111.8380     8.4470     7.7260     8.6440    24.2000     2.4440   -24.0230 
  311.5000   111.0730     8.7700     8.1270     9.3370    24.1700     2.4360   -24.1870 
  311.6250   113.4630     8.9000     8.2820     9.1370    24.1280     2.4170   -24.4070 
  311.7500   114.9120     8.8630     8.1850     8.4480    24.1260     2.3920   -24.6510 
  311.8750   113.6680     8.7070     7.8890     8.0050    24.1360     2.3660   -24.9500 
  312.0000   111.0510     8.5070     7.5100     8.0010    24.1570     2.3470   -25.3290 
  312.1250   110.2610     8.3570     7.2100     8.0500    24.1920     2.3370   -25.7590 
  312.2500   110.3140     8.3130     7.0950     8.1970    24.2370     2.3350   -26.2570 
  312.3750   109.3210     8.3950     7.2000     8.7830    24.3640     2.3380   -26.8640 
  312.5000   106.7100     8.5970     7.4980     9.6080    24.5670     2.3440   -27.5200 
  312.6250   103.6960     8.9210     7.9390    10.6910    24.6200     2.3510   -28.1400 
  312.7500   103.3310     9.3410     8.4420    10.7140    24.4350     2.3550   -28.7010 
  312.8750   105.4700     9.8530     8.9750    10.5690    24.2560     2.3580   -29.1850 
  313.0000   107.9760    10.4200     9.5030    11.6280    24.1840     2.3630   -29.5290 
  313.1250   108.3320    10.9220     9.9190    12.9000    24.1570     2.3760   -29.6570 
  313.2500   107.0030    11.1970    10.1020    13.9770    24.1320     2.3920   -29.5990 
  313.3750   105.6020    11.1220     9.9550    13.4970    24.1110     2.4000   -29.2940 
  313.5000   105.4280    10.6790     9.4780    11.8800    24.0820     2.3910   -28.8090 
  313.6250   106.2050     9.9700     8.7700     9.2550    24.1300     2.3660   -28.2540 
  313.7500   105.4930     9.2530     8.0530     7.7400    24.1780     2.3430   -27.6950 
  313.8750   104.7360     8.6840     7.4650     7.8100    24.1860     2.3340   -27.1140 
  314.0000   106.2660     8.3410     7.0870     8.6490    24.1660     2.3440   -26.5080 
  314.1250   107.5370     8.2510     6.9800     8.3460    24.2490     2.3690   -26.0290 
  314.2500   105.9060     8.3120     7.0720     7.6000    24.3750     2.3970   -25.6750 
  314.3750   105.0810     8.4470     7.3040     7.7420    24.4170     2.4200   -25.4500 
  314.5000   106.5740     8.5830     7.5930     8.4610    24.2960     2.4360   -25.3000 
  314.6250   107.0970     8.6640     7.8390     8.2810    24.1100     2.4380   -25.2010 
  314.7500   106.6060     8.6940     7.9860     8.0800    23.9740     2.4310   -25.1050 
  314.8750   106.6060     8.6970     8.0240     8.3390    23.9250     2.4170   -24.9730 
  315.0000   106.6060     8.6930     7.9830     8.4890    23.9210     2.4030   -24.8310 
  315.1250   106.6060     8.6910     7.9180     8.5860    23.9470     2.3970   -24.6200 
  315.2500   106.6060     8.6850     7.8830     8.5040    23.9620     2.4000   -24.3280 
  315.3750   106.6060     8.6640     7.8800     8.1830    23.9560     2.4090   -23.9610 
  315.5000   106.6060     8.6230     7.8730     7.9110    23.9850     2.4200   -23.5560 
  315.6250   106.6060     8.5710     7.8220     7.8530    24.0620     2.4260   -23.1000 
  315.7500   106.6060     8.5290     7.7510     7.4860    24.0350     2.4200   -22.6100 
  315.8750   106.6060     8.5160     7.7070     7.1380    23.9100     2.4020   -22.1570 
  316.0000   106.6060     8.5320     7.7210     6.8630    23.7910     2.3780   -21.7370 
  316.1250   106.6060     8.5690     7.7810     6.5350    23.7490     2.3590   -21.3570 
  316.2500   106.6060     8.6030     7.8390     6.3630    23.7090     2.3550   -21.0570 
  316.3750   106.6060     8.6260     7.8770     6.5930    23.6740     2.3630   -20.8620 
  316.5000   106.6060     8.6360     7.9080     7.2090    23.6160     2.3710   -20.7550 
  316.6250   106.6060     8.6380     7.9450     7.9140    23.4590     2.3650   -20.6820 
  316.7500   106.6060     8.6360     7.9680     8.5200    23.1650     2.3410   -20.6550 
  316.8750   106.6060     8.6360     7.9510     8.8650    22.8260     2.3060   -20.6500 
  317.0000   106.6060     8.6380     7.8990     8.5740    22.6440     2.2730   -20.6460 
  317.1250   106.6060     8.6400     7.8650     7.9660    22.5250     2.2620   -20.6820 
  317.2500   106.6060     8.6340     7.8780     8.5160    22.2590     2.2740   -20.7250 
  317.3750   106.6060     8.6150     7.9200    10.0460    21.7350     2.3010   -20.7180 
  317.5000   106.6060     8.5840     7.9440    11.4970    21.1040     2.3290   -20.6520 
  317.6250   106.6060     8.5470     7.9220    12.0910    20.5160     2.3410   -20.6200 
  317.7500   106.6060     8.5160     7.8910    12.7160    20.1190     2.3310   -20.5790 
  317.8750   106.6060     8.4990     7.8860    14.7590    19.9430     2.3060   -20.4830 
  318.0000   106.6060     8.5030     7.9160    17.9060    19.9530     2.2720   -20.4150 
  318.1250   106.6060     8.5250     7.9550    18.1740    20.0200     2.2370   -20.3520 
  318.2500   106.6060     8.5510     7.9810    14.8970    20.1140     2.2040   -20.2710 
  318.3750   106.6060     8.5750     8.0000    10.7990    20.2070     2.1720   -20.2090 
  318.5000   106.6060     8.5930     8.0240     8.2630    20.2390     2.1390   -20.2010 
  318.6250   106.6060     8.6050     8.0430     7.5140    20.1050     2.1010   -20.2000 
  318.7500   106.6060     8.6100     8.0290     7.4130    19.8070     2.0600   -20.1890 
  318.8750   106.6060     8.6060     7.9710     7.5210    19.4240     2.0190   -20.2430 
  319.0000   106.6060     8.5930     7.8970     7.3340    19.0660     1.9820   -20.3180 
  319.1250   106.6060     8.5790     7.8570     7.1420    18.8910     1.9550   -20.3800 
  319.2500   106.6060     8.5740     7.8650     7.2090    18.7710     1.9360   -20.4680 
  319.3750   106.6060     8.5780     7.8990     7.6620    18.3250     1.9260   -20.5500 
  319.5000   106.6060     8.5870     7.9220     8.1940    17.1560     1.9230   -20.6170 
  319.6250   106.6060     8.5990     7.9140     8.1140    15.5990     1.9220   -20.6980 
  319.7500   106.6060     8.6150     7.8910     7.9160    14.6520     1.9240   -20.7820 
  319.8750   106.6060     8.6330     7.8800     7.8160    14.3560     1.9260   -20.8300 
