~V
VERS. 2.00: Ver 2.00
~W
STRT.M 60.0000:
STOP.M 217.0000:
STEP.M 0.1250:
NULL. -999.2500:
UWI. F10010:
~C
DEPT.M :
DEN.GM/CC :
GR.API :
RML.OHMM :
RI. :
RXO.OHMM :
CALI.CM :
SP.MV :
~A
# ...
  183.7500     2.3240    87.2190    18.0130    17.4680    19.0640    24.0140   -38.6840 
  183.8750     2.2890    91.8590    14.2240    14.6530    14.0900    24.0160   -38.7810 
  184.0000     2.2640    90.7070    11.8440    12.2830    11.1170    24.0010   -38.8140 
  184.1250     2.2580    89.0580    10.3410    10.6590     9.7690    23.9580   -38.8350 
  184.2500     2.2630    90.9240     9.4740     9.6120     9.3300    23.9280   -38.8260 
  184.3750     2.2720    95.2680     9.0310     8.9950     9.2650    23.9580   -38.7520 
  184.5000     2.2820    98.7650     8.8040     8.6530     9.1250    24.0050   -38.6600 
  184.6250     2.2920    96.4980     8.6420     8.4570     8.8510    23.9760   -38.6040 
  184.7500     2.3000    90.3970     8.4580     8.2830     8.6290    23.8920   -38.5590 
  184.8750     2.3010    86.2130     8.2400     8.0950     8.1830    23.8250   -38.5100 
  185.0000     2.2940    88.0270     8.0200     7.9000     7.4350    23.8540   -38.5190 
  185.1250     2.2780    92.7540     7.8690     7.7380     7.3450    23.9050   -38.5950 
  185.2500     2.2630    93.2620     7.8110     7.6380     8.3960    23.8650   -38.6710 
  185.3750     2.2510    91.3150     7.8530     7.6170     9.8330    23.8280   -38.7700 
  185.5000     2.2450    90.6850     7.9780     7.6780    10.2660    23.8670   -38.9020 
  185.6250     2.2420    92.1100     8.1440     7.7880     9.5480    24.0220   -39.0190 
  185.7500     2.2420    92.5540     8.2930     7.9050     9.0470    24.0970   -39.0970 
  185.8750     2.2470    92.2570     8.4020     7.9950     9.1240    24.0940   -39.1100 
  186.0000     2.2590    92.8370     8.4650     8.0380     9.5710    24.0440   -39.0660 
  186.1250     2.2800    92.6720     8.4780     8.0300     9.8500    23.9850   -38.9100 
  186.2500     2.3040    91.7840     8.4560     7.9710     9.3910    23.9540   -38.6590 
  186.3750     2.3240    92.2180     8.4000     7.8740     8.4420    23.9220   -38.3630 
  186.5000     2.3330    93.6310     8.3000     7.7400     7.8400    23.8080   -38.0450 
  186.6250     2.3240    94.0730     8.1470     7.5570     7.9100    23.5160   -37.6590 
  186.7500     2.3040    94.0860     7.9600     7.3450     7.9200    23.2250   -37.2260 
  186.8750     2.2820    94.0220     7.7610     7.1140     7.3980    22.9770   -36.8260 
  187.0000     2.2680    90.8460     7.5740     6.8850     6.8190    22.7770   -36.4570 
  187.1250     2.2720    84.2330     7.4210     6.6860     6.6600    22.5290   -36.0830 
  187.2500     2.2910    78.6510     7.2940     6.5200     6.5120    22.3450   -35.7730 
  187.3750     2.3140    76.4690     7.1880     6.3950     6.2300    22.4600   -35.5400 
  187.5000     2.3310    76.0290     7.1110     6.2970     6.1030    22.9030   -35.3570 
  187.6250     2.3310    75.3040     7.0720     6.2300     6.3710    23.3890   -35.2530 
  187.7500     2.3190    74.1890     7.0710     6.1970     6.8010    23.8080   -35.1980 
  187.8750     2.3020    71.6380     7.1100     6.1970     7.2680    24.0090   -35.1470 
  188.0000     2.2910    67.9540     7.1920     6.2490     7.6000    24.0230   -35.0990 
  188.1250     2.2960    65.2500     7.3250     6.3720     7.5230    23.9910   -35.0850 
  188.2500     2.3150    64.0060     7.5160     6.5570     7.4580    23.9860   -35.0620 
  188.3750     2.3410    62.7260     7.7710     6.8070     7.8510    24.0160   -35.0020 
  188.5000     2.3650    60.3710     8.0770     7.0930     8.6420    24.0890   -34.9150 
  188.6250     2.3830    58.7270     8.4180     7.3990     9.2600    24.1580   -34.7620 
  188.7500     2.3960    58.3190     8.7550     7.6890     9.4390    24.1960   -34.5940 
  188.8750     2.4090    58.4590     9.0420     7.9310     9.3880    24.2160   -34.4670 
  189.0000     2.4230    59.5300     9.2340     8.1000     9.4260    24.2150   -34.3220 
  189.1250     2.4360    61.2410     9.2750     8.1300     9.5850    24.1860   -34.1760 
  189.2500     2.4430    61.4890     9.1710     8.0270     9.4530    24.1610   -34.0710 
  189.3750     2.4430    60.6120     8.9410     7.8020     8.8250    24.1270   -33.9700 
  189.5000     2.4360    61.3160     8.6430     7.4930     7.8520    24.0850   -33.8380 
  189.6250     2.4230    65.4210     8.3580     7.1890     7.1170    24.0120   -33.7450 
  189.7500     2.4080    69.0900     8.1500     6.9500     7.0010    23.8990   -33.7060 
  189.8750     2.3950    68.4530     8.0520     6.8140     7.3650    23.7700   -33.6400 
  190.0000     2.3830    63.7450     8.0600     6.7870     7.6990    23.7610   -33.5620 
  190.1250     2.3740    58.8830     8.1420     6.8380     7.7140    23.9040   -33.5270 
  190.2500     2.3660    56.1490     8.2500     6.9240     7.6940    24.0380   -33.4940 
  190.3750     2.3620    55.1730     8.2610     7.0150     7.6940    24.1190   -33.4300 
  190.5000     2.3660    55.1330     8.2470     7.0950     7.7300    24.1830   -33.3600 
  190.6250     2.3790    55.3790     8.2030     7.1610     8.0340    24.2150   -33.3090 
  190.7500     2.3950    54.8420     8.0430     7.1910     8.3570    24.2180   -33.2150 
  190.8750     2.4080    53.4200     7.8450     7.1580     8.2850    24.1980   -33.0720 
  191.0000     2.4150    52.7990     7.6000     7.0300     7.8930    24.1890   -32.9310 
  191.1250     2.4130    53.1670     7.2910     6.7800     7.2690    24.1630   -32.7740 
  191.2500     2.4090    52.1870     6.9870     6.4840     6.5360    24.1420   -32.6040 
  191.3750     2.4080    50.2420     6.7850     6.1990     6.1500    24.0980   -32.4570 
  191.5000     2.4100    49.2370     6.7230     5.9880     6.4200    24.0510   -32.3320 
  191.6250     2.4120    50.1870     6.6880     5.9160     6.9970    24.0220   -32.2280 
  191.7500     2.4100    51.0420     6.5300     5.9550     7.2400    24.0080   -32.1420 
  191.8750     2.4060    51.2210     6.4710     6.0730     7.2320    24.0150   -32.0790 
  192.0000     2.4000    51.6940     6.5200     6.2150     7.2230    24.0290   -32.0500 
  192.1250     2.3950    51.1980     6.5410     6.3190     7.1180    24.0420   -32.0390 
  192.2500     2.3930    49.7800     6.5880     6.3660     7.0460    24.0620   -32.0030 
  192.3750     2.3920    50.0510     6.5810     6.3510     7.1630    24.0830   -31.9540 
  192.5000     2.3910    51.8950     6.5020     6.2990     7.3940    24.0920   -31.9320 
  192.6250     2.3910    52.2870     6.4180     6.2380     7.5260    24.0920   -31.8590 
  192.7500     2.3920    51.5760     6.3500     6.1700     7.4810    24.0890   -31.7490 
  192.8750     2.3950    52.9160     6.3040     6.1010     7.3220    24.0770   -31.6840 
  193.0000     2.4000    56.0380     6.2800     6.0300     7.2320    24.0480   -31.6200 
  193.1250     2.4030    56.5740     6.2770     5.9600     7.3160    24.0330   -31.5000 
  193.2500     2.4040    55.6400     6.2830     5.9040     7.3700    24.0340   -31.3630 
  193.3750     2.4020    53.6450     6.2790     5.8570     7.2660    24.0480   -31.2300 
  193.5000     2.3980    50.8940     6.2550     5.8120     7.1340    24.0480   -31.0940 
  193.6250     2.3910    49.7530     6.2090     5.7540     6.9930    24.0050   -30.9560 
  193.7500     2.3820    51.0470     6.1470     5.6750     6.7430    23.9760   -30.8090 
  193.8750     2.3770    52.5690     6.0810     5.5930     6.4910    23.9670   -30.6260 
  194.0000     2.3800    51.2110     6.0240     5.5160     6.4580    23.9600   -30.4270 
  194.1250     2.3930    47.5300     5.9680     5.4430     6.6220    23.9560   -30.2570 
  194.2500     2.4100    45.4210     5.8980     5.3740     6.6980    23.9530   -30.0760 
  194.3750     2.4240    45.7540     5.8050     5.2920     6.4830    23.9460   -29.8890 
  194.5000     2.4280    47.7630     5.6840     5.1890     6.0150    23.9190   -29.7060 
  194.6250     2.4210    48.2790     5.5360     5.0650     5.5680    23.8340   -29.5070 
  194.7500     2.4090    46.8830     5.3840     4.9270     5.3290    23.7120   -29.3200 
  194.8750     2.3960    44.6020     5.2510     4.7990     5.1930    23.6170   -29.1750 
