~V
VERS. 2.00: Ver 2.00
~W
STRT.M 50.0000:
STOP.M 255.0000:
STEP.M 0.1250:
NULL. -999.2500:
UWI. F10005:
~C
DEPT.M :
SP.MV :
GR.API :
RML.OHMM :
RI. :
RXO.OHMM :
CALI.CM :
DEN.GM/CC :
~A
# ...
  117.5000    -4.9650    65.9770    20.3700    21.3980    18.2760    23.0270     2.4490 
  117.6250    -5.1390    72.0770    16.0250    16.8850    12.9060    23.0700     2.3830 
  117.7500    -5.3250    74.8130    14.5030    14.8240    15.0220    23.1380     2.3540 
  117.8750    -5.5100    73.4910    14.9070    14.4740    20.6130    23.2230     2.3590 
  118.0000    -5.6570    69.2650    16.1420    15.0720    24.0340    23.3380     2.3710 
  118.1250    -5.7560    68.1150    16.5630    15.3700    21.0710    23.4620     2.3620 
  118.2500    -5.8270    71.8280    15.2600    14.3800    16.1970    23.5330     2.3350 
  118.3750    -5.8780    77.5620    12.6600    12.3240    12.7710    23.5250     2.3080 
  118.5000    -5.8930    82.3440     9.9830    10.1490     9.8220    23.4430     2.2980 
  118.6250    -5.8840    86.6720     8.4000     8.7010     7.8360    23.3060     2.3080 
  118.7500    -5.8630    88.4760     8.0450     8.0830     7.4680    23.1480     2.3150 
  118.8750    -5.8340    84.5450     8.8490     8.3130     8.4740    22.9900     2.3050 
  119.0000    -5.7890    77.7280    10.6270     9.3910    11.8260    22.8340     2.2790 
  119.1250    -5.7110    73.2570    13.0980    11.3140    16.2720    22.6640     2.2500 
  119.2500    -5.6320    71.0340    15.5640    13.5490    16.7470    22.4890     2.2290 
  119.3750    -5.5500    69.6480    17.3960    15.4660    15.9860    22.3190     2.2170 
  119.5000    -5.4650    68.7780    18.1050    16.4800    15.5410    22.1680     2.2080 
  119.6250    -5.3550    70.1290    17.4610    16.2400    15.7310    22.0630     2.1970 
  119.7500    -5.2340    72.7210    16.0910    15.2380    16.9490    22.0080     2.1900 
  119.8750    -5.1220    74.9600    14.4600    13.8570    16.4530    22.0070     2.1970 
  120.0000    -4.9540    75.7330    12.9410    12.4200    12.6320    22.0530     2.2180 
  120.1250    -4.7980    76.9140    11.8830    11.2550    10.6460    22.1290     2.2500 
  120.2500    -4.6240    80.2020    11.3270    10.4820     9.7140    22.1960     2.2790 
  120.3750    -4.4890    84.0680    11.2400    10.1220     9.6710    22.2290     2.3010 
  120.5000    -4.3660    86.0530    11.5350    10.1370    10.5600    22.2230     2.3150 
  120.6250    -4.3160    86.2400    12.0700    10.4540    12.0260    22.1660     2.3200 
  120.7500    -4.2340    84.9160    12.5800    10.8420    12.8550    22.1000     2.3160 
  120.8750    -4.1490    81.9000    12.9280    11.1490    12.1580    22.0640     2.3010 
  121.0000    -4.1360    78.2680    13.1280    11.3370    12.1590    22.0690     2.2810 
  121.1250    -4.1480    76.5850    13.3620    11.5120    12.8590    22.1070     2.2600 
  121.2500    -4.1630    77.6930    13.8370    11.8480    12.7120    22.1530     2.2410 
  121.3750    -4.1950    78.2110    14.6120    12.4260    13.0010    22.1970     2.2220 
  121.5000    -4.2130    75.0300    15.5200    13.1650    13.7180    22.2450     2.2030 
  121.6250    -4.1920    71.9630    16.0930    13.7060    15.6470    22.3170     2.1930 
  121.7500    -4.1820    72.6990    15.9710    13.6900    16.5990    22.4310     2.2000 
  121.8750    -4.1770    76.1490    15.0600    13.0050    14.8680    22.5870     2.2240 
  122.0000    -4.1190    80.1620    13.6130    11.8530    10.7660    22.7810     2.2590 
  122.1250    -4.0780    84.2320    12.1590    10.6420     9.1060    23.0100     2.2880 
  122.2500    -4.0500    87.1150    11.1110     9.6910     8.8270    23.2550     2.3040 
  122.3750    -4.0150    86.8190    10.5660     9.0810     9.2620    23.4860     2.3060 
  122.5000    -3.9980    83.8520    10.4320     8.7730     9.7620    23.6660     2.3020 
  122.6250    -3.9530    81.6920    10.5470     8.7100     9.5910    23.7480     2.2940 
  122.7500    -3.9410    83.5410    10.7480     8.7940     9.8490    23.7500     2.2860 
  122.8750    -3.9160    88.1700    11.0630     9.0320    10.2270    23.7070     2.2790 
  123.0000    -3.9270    90.5660    11.6250     9.4890    10.9270    23.6660     2.2810 
  123.1250    -3.9150    86.2070    12.5960    10.2820    12.8380    23.6570     2.3020 
  123.2500    -3.9320    78.9400    13.8160    11.3180    15.7920    23.6680     2.3410 
  123.3750    -3.9710    74.0650    14.9970    12.4050    16.8950    23.6790     2.3870 
  123.5000    -4.0150    73.9430    15.7970    13.2580    16.9810    23.6880     2.4180 
  123.6250    -4.0500    76.4770    15.8620    13.5080    16.7310    23.7090     2.4120 
  123.7500    -4.0560    77.7420    15.3140    13.1610    14.4830    23.7560     2.3730 
  123.8750    -4.0820    78.0890    14.3420    12.3420    12.4670    23.8430     2.3150 
  124.0000    -4.1140    80.2310    13.1160    11.2270    11.4780    23.9600     2.2620 
  124.1250    -4.1590    84.7120    11.7250     9.9580    11.0050    24.0660     2.2370 
  124.2500    -4.1580    89.4960    10.3570     8.7450    10.1320    24.1070     2.2430 
  124.3750    -4.1310    93.7350     9.2710     7.7840     8.9760    24.0840     2.2740 
  124.5000    -4.0810    96.3670     8.7390     7.2440     7.7090    24.0390     2.3160 
  124.6250    -4.0260    94.7150     9.1300     7.3680     7.6570    24.0380     2.3520 
  124.7500    -4.0040    89.9260    10.4750     8.2370     9.5040    24.0880     2.3640 
  124.8750    -3.9820    83.2890    12.8380    10.0400    14.0540    24.1580     2.3440 
  125.0000    -3.9490    76.1780    16.0870    12.8730    17.0720    24.2060     2.2940 
  125.1250    -3.9560    70.7570    19.5040    16.3750    19.2480    24.2020     2.2290 
  125.2500    -3.9870    67.5800    21.6200    19.0490    20.8660    24.1500     2.1710 
  125.3750    -4.0190    67.9570    21.3030    19.4770    21.0420    24.0710     2.1390 
  125.5000    -4.0370    71.7410    18.6160    17.4580    19.8350    24.0000     2.1410 
  125.6250    -4.0670    78.1070    14.8090    14.1360    16.8040    23.9720     2.1840 
  125.7500    -4.0590    82.5690    11.4090    11.0330    11.9850    23.9600     2.2450 
  125.8750    -4.0420    83.0540     8.9480     8.6490     8.2600    23.9500     2.3070 
  126.0000    -3.9930    82.6520     7.4700     7.0460     6.7940    23.9440     2.3490 
  126.1250    -3.8720    84.9330     6.8740     6.1970     6.6740    23.9590     2.3570 
  126.2500    -3.7370    88.5050     6.7800     5.8450     6.4620    23.9830     2.3420 
  126.3750    -3.5700    90.6300     7.0340     5.8870     6.6290    23.9790     2.3190 
  126.5000    -3.4430    90.0910     7.5780     6.2490     7.6660    23.8970     2.2990 
  126.6250    -3.2900    89.0730     8.5180     6.9750     8.0140    23.6870     2.2830 
  126.7500    -3.1550    88.2080     9.8840     8.0850     8.9200    23.3680     2.2600 
  126.8750    -2.9830    85.1910    11.6800     9.6500    11.4720    23.0200     2.2250 
  127.0000    -2.8120    78.6730    13.7980    11.6600    14.8260    22.7490     2.1790 
  127.1250    -2.6700    70.2090    15.9350    13.9470    18.2930    22.5700     2.1370 
  127.2500    -2.5540    64.0630    17.7130    16.0760    21.1510    22.4190     2.1110 
  127.3750    -2.4530    60.5170    18.9860    17.7520    21.3030    22.3350     2.1010 
  127.5000    -2.3670    59.0460    19.9180    18.9480    20.7470    22.4050     2.0980 
  127.6250    -2.2900    59.0160    20.8860    19.8620    21.4930    22.6960     2.0900 
  127.7500    -2.2020    58.5130    22.0400    20.7080    23.0240    23.1100     2.0810 
  127.8750    -2.1260    57.5040    23.1230    21.3750    26.0850    23.5610     2.0790 
  128.0000    -2.0870    57.3400    23.6280    21.5350    27.7900    23.9800     2.0950 
  128.1250    -2.0180    58.8440    22.9910    20.7810    25.7260    24.2650     2.1290 
  128.2500    -1.9600    60.4630    21.6130    19.4450    22.8010    24.4010     2.1650 
  128.3750    -1.9070    61.4550    20.1490    18.0580    20.1550    24.4240     2.1940 
  128.5000    -1.8010    62.9680    19.2680    17.1320    17.6060    24.4040     2.2090 
  128.6250    -1.6540    64.5370    19.6200    17.1660    17.1640    24.3660     2.2100 
