~V
VERS. 2.00: Ver 2.00
~W
STRT.M 50.0000:
STOP.M 265.0000:
STEP.M 0.1250:
NULL. -999.2500:
UWI. F10025:
~C
DEPT.M :
SP.MV :
DEN.GM/CC :
GR.API :
CALI.CM :
RXO.OHMM :
RI. :
RML.OHMM :
~A
# ...
  230.0000   -10.0870     2.1730    65.3550    23.4450    42.8380    36.2690    40.4790 
  230.1250   -10.4640     2.1710    64.4510    23.4320    48.9060    42.6350    47.0100 
  230.2500   -10.9010     2.1810    67.5990    23.3500    51.6280    47.0630    51.2950 
  230.3750   -11.3760     2.1960    71.0960    23.2300    47.8630    49.0800    53.1420 
  230.5000   -11.8500     2.2090    71.3260    23.0760    44.5870    50.1750    54.2760 
  230.6250   -12.2820     2.2130    68.5860    22.7930    44.0490    51.5050    55.7920 
  230.7500   -12.6980     2.2090    65.8120    22.4590    46.2620    53.8510    58.3210 
  230.8750   -13.0730     2.2010    65.4230    22.1150    51.1420    57.7780    62.3270 
  231.0000   -13.4240     2.1970    66.1070    21.9460    56.1770    62.7910    67.3440 
  231.1250   -13.8040     2.2080    67.0400    22.0200    60.1730    67.9080    72.3910 
  231.2500   -14.1130     2.2370    67.6090    22.1810    64.6570    71.3700    75.3910 
  231.3750   -14.3360     2.2930    67.8160    22.2870    69.9340    69.7050    71.7710 
  231.5000   -14.4910     2.3750    67.8130    22.3270    68.9770    61.4940    60.5460 
  231.6250   -14.5080     2.4580    67.3640    22.3710    56.3220    47.8810    44.9250 
  231.7500   -14.3300     2.5030    66.9310    22.4910    36.7140    33.0970    30.1900 
  231.8750   -14.0410     2.5030    69.0830    22.6670    20.9580    21.8190    19.9350 
  232.0000   -13.5760     2.4760    74.2430    22.7680    12.0260    14.3890    13.3160 
  232.1250   -12.8780     2.4410    79.0930    22.8120     7.6790     9.8580     9.3120 
  232.2500   -12.1310     2.4010    80.1350    22.9630     5.8860     7.1840     7.0170 
  232.3750   -11.3830     2.3600    74.4450    23.1200     5.4160     5.7730     5.9000 
  232.5000   -10.6610     2.3260    67.1880    23.2090     5.1610     5.0480     5.3880 
  232.6250   -10.0400     2.3180    63.2970    23.1810     5.0640     4.8360     5.2980 
  232.7500    -9.5410     2.3350    64.3460    23.1170     5.1420     5.0260     5.5350 
  232.8750    -9.1570     2.3620    67.9560    23.0590     5.6150     5.5930     6.0820 
  233.0000    -8.9040     2.3790    71.7270    23.0100     6.7390     6.4080     6.8090 
  233.1250    -8.8240     2.3690    77.1570    22.9490     8.2450     7.3660     7.5920 
  233.2500    -8.8060     2.3480    85.0790    22.9620     9.1900     8.2880     8.2610 
  233.3750    -8.8240     2.3340    93.1850    23.0650     8.9910     8.9110     8.6240 
  233.5000    -8.8790     2.3350   100.0060    23.2170     8.5480     9.1850     8.7200 
  233.6250    -8.9270     2.3450   105.4630    23.3070     8.3980     9.1780     8.6560 
  233.7500    -8.9400     2.3520   108.5690    23.3350     8.4600     9.0170     8.5530 
  233.8750    -8.9540     2.3530   110.2900    23.3380     8.4100     8.8120     8.4950 
  234.0000    -9.0130     2.3490   113.5170    23.3380     8.3810     8.6120     8.4960 
  234.1250    -9.1220     2.3450   118.6920    23.3310     8.4040     8.4170     8.5350 
  234.2500    -9.2450     2.3450   123.3430    23.3120     8.4040     8.2290     8.5860 
  234.3750    -9.4100     2.3460   124.2440    23.2900     8.4140     8.0990     8.6550 
  234.5000    -9.5440     2.3450   124.3730    23.2810     8.5620     8.0950     8.8170 
  234.6250    -9.6220     2.3420   125.2080    23.2870     8.8450     8.3070     9.1890 
  234.7500    -9.7940     2.3460   125.1530    23.3050     9.2310     8.8280     9.8850 
  234.8750    -9.9890     2.3590   119.3910    23.3290    10.1540     9.8210    11.0830 
  235.0000   -10.1480     2.3770   110.4170    23.3550    12.0800    11.3070    12.7970 
  235.1250   -10.3010     2.3880   103.0760    23.3800    15.0750    13.3360    15.0670 
  235.2500   -10.4440     2.3880    98.3610    23.3560    17.9610    15.8750    17.8380 
  235.3750   -10.5510     2.3880    93.0850    23.2770    19.5070    18.7170    20.8490 
  235.5000   -10.6300     2.4030    88.6460    23.1890    21.6980    21.2900    23.4780 
  235.6250   -10.7060     2.4320    86.6050    23.1530    24.9190    22.9950    25.0770 
  235.7500   -10.7280     2.4480    85.8480    23.0850    26.4120    23.3990    25.2150 
  235.8750   -10.7080     2.4410    85.3130    22.9990    23.8490    22.3930    23.8720 
  236.0000   -10.6790     2.4190    86.4780    22.8960    20.1710    20.8420    22.0680 
  236.1250   -10.5750     2.3940    88.8230    22.8260    17.7400    19.4630    20.6330 
  236.2500   -10.4560     2.3610    90.1130    22.6640    16.9280    18.8120    20.2010 
  236.3750   -10.3420     2.3100    90.9380    22.2920    17.1860    19.5020    21.4420 
  236.5000   -10.2400     2.2430    91.6050    21.8710    18.3740    21.7200    24.3780 
  236.6250   -10.2000     2.1850    88.7380    21.5220    22.3410    25.7950    29.1340 
  236.7500   -10.1570     2.1580    81.3820    21.3140    29.9400    31.9090    35.7010 
  236.8750   -10.1280     2.1600    74.9750    21.1070    35.7060    40.1560    44.0200 
  237.0000   -10.1300     2.1750    72.8860    20.9280    38.1240    49.7100    53.3510 
  237.1250   -10.1560     2.1990    72.7770    21.0280    38.5900    61.6700    62.1420 
  237.2500   -10.1450     2.2470    72.2050    21.3480    41.3300    73.5230    73.9370 
  237.3750   -10.1530     2.3260    70.9570    21.5350    50.1790    87.9380    89.5430 
  237.5000   -10.1600     2.4260    68.0260    21.5060    65.2270   105.8810   108.0190 
  237.6250   -10.1470     2.5080    63.6320    21.3970    79.1660   125.1140   126.8710 
  237.7500   -10.1080     2.5320    60.7220    21.2950    91.0550   139.9370   141.4840 
  237.8750   -10.0790     2.4810    60.4240    21.2700   103.8210   142.9720   146.0850 
  238.0000   -10.0630     2.3810    60.9850    21.3610   116.3270   137.2760   142.4050 
  238.1250   -10.0810     2.2830    62.3000    21.6930   117.1440   128.4390   134.4870 
  238.2500   -10.1240     2.2170    64.6840    22.3720   111.2200   120.8770   126.7300 
  238.3750   -10.1210     2.1800    67.3150    23.2200   115.1960   116.1870   121.8190 
  238.5000   -10.1360     2.1620    68.4660    23.8310   121.0000   111.8740   118.2110 
  238.6250   -10.1630     2.1640    68.6100    24.0220   120.2140   105.0110   113.2320 
  238.7500   -10.2090     2.1870    68.5010    24.0500   113.4570    94.5230   104.9480 
  238.8750   -10.2140     2.2230    69.3320    24.0500   103.3290    82.8460    93.8300 
  239.0000   -10.1910     2.2480    70.7320    24.0500    89.2710    73.7900    83.6290 
  239.1250   -10.1790     2.2400    71.8850    24.0500    71.2360    69.1850    77.4190 
  239.2500   -10.1760     2.2090    73.4120    24.0510    61.5510    69.7780    77.2750 
  239.3750   -10.1680     2.1710    75.0060    24.0580    81.9720    76.9190    85.3290 
  239.5000   -10.1910     2.1400    73.1060    24.0840   125.9400    89.7550    99.8050 
  239.6250   -10.1980     2.1230    69.2990    24.1360   166.9210   107.1300   118.3700 
  239.7500   -10.2180     2.1180    67.0780    24.1800   177.1850   125.4540   136.8630 
  239.8750   -10.2790     2.1230    67.2200    24.2110   160.8570   137.6960   149.1490 
  240.0000   -10.3920     2.1340    66.7210    24.2460   152.6980   141.9790   154.0610 
  240.1250   -10.4970     2.1410    66.5910    24.2620   153.2180   141.1240   153.8010 
  240.2500   -10.6270     2.1380    67.9330    24.2670   152.5020   139.0400   151.8640 
  240.3750   -10.8210     2.1300    68.1660    24.2790   152.2560   138.0960   150.8320 
  240.5000   -10.9410     2.1300    67.2850    24.3140   155.8440   138.1280   150.8600 
  240.6250   -11.0390     2.1380    67.9630    24.3740   161.8650   138.0250   151.0420 
  240.7500   -11.1580     2.1390    69.4690    24.4000   165.3890   136.3340   150.0940 
  240.8750   -11.2580     2.1300    68.1160    24.4060   169.3160   131.9030   146.7390 
  241.0000   -11.2580     2.1220    65.4230    24.4090   168.0060   126.2280   141.8640 
  241.1250   -11.2600     2.1290    64.9220    24.4210   152.0950   121.3500   137.2160 
