~V
VERS. 2.00: Ver 2.00
~W
STRT.M 50.0000:
STOP.M 207.0000:
STEP.M 0.1250:
NULL. -999.2500:
UWI. F10009:
~C
DEPT.M :
GR.API :
RML.OHMM :
RI. :
RXO.OHMM :
CALI.CM :
DEN.GM/CC :
SP.MV :
~A
# ...
  173.7500    74.0600     7.2760     6.5520     6.6200    22.9810     2.3410    -6.5350 
  173.8750    72.6690     7.1000     6.4100     6.4590    22.9810     2.3400    -6.5500 
  174.0000    71.4850     6.9370     6.2600     6.3040    22.9810     2.3390    -6.5750 
  174.1250    72.6170     6.8200     6.1260     6.1150    22.9810     2.3380    -6.6040 
  174.2500    74.0860     6.7590     6.0220     6.0140    22.9810     2.3360    -6.6270 
  174.3750    74.1100     6.7590     5.9590     6.0770    22.9810     2.3360    -6.6550 
  174.5000    73.3110     6.8130     5.9390     6.3090    22.9800     2.3380    -6.6770 
  174.6250    73.9440     6.9070     5.9670     6.5180    22.9780     2.3420    -6.6880 
  174.7500    76.3750     7.0230     6.0280     6.6060    22.9760     2.3480    -6.6820 
  174.8750    78.4550     7.1500     6.1130     6.6530    22.9750     2.3510    -6.6540 
  175.0000    79.3450     7.2830     6.2120     6.8030    22.9790     2.3480    -6.6070 
  175.1250    80.5510     7.4120     6.3140     7.0590    22.9930     2.3390    -6.5560 
  175.2500    81.7410     7.5210     6.4080     7.3780    23.0180     2.3290    -6.4940 
  175.3750    81.5090     7.6020     6.4900     7.8600    23.0500     2.3270    -6.4200 
  175.5000    79.4130     7.6630     6.5660     8.2450    23.0820     2.3360    -6.3420 
  175.6250    77.3650     7.7450     6.6590     8.2140    23.1030     2.3590    -6.2650 
  175.7500    77.0010     7.8960     6.7960     8.0370    23.1160     2.3910    -6.1940 
  175.8750    77.5510     8.1430     7.0020     8.1570    23.1330     2.4240    -6.1410 
  176.0000    77.7600     8.4910     7.2850     8.7470    23.1600     2.4510    -6.1090 
  176.1250    76.9260     8.9190     7.6400     9.6410    23.1970     2.4640    -6.0930 
  176.2500    75.0090     9.3700     8.0230    10.5800    23.2320     2.4660    -6.0990 
  176.3750    73.1520     9.8120     8.4000    11.3610    23.2550     2.4620    -6.1270 
  176.5000    72.7040    10.2190     8.7430    11.6430    23.2680     2.4550    -6.1630 
  176.6250    73.5700    10.5570     9.0320    11.9410    23.2810     2.4490    -6.2100 
  176.7500    74.1040    10.8180     9.2750    12.0170    23.2940     2.4420    -6.2740 
  176.8750    72.5670    11.0100     9.4850    11.2900    23.3130     2.4340    -6.3460 
  177.0000    70.7830    11.1560     9.6770    10.5840    23.3460     2.4260    -6.4400 
  177.1250    71.3680    11.2930     9.8670    10.1750    23.3670     2.4240    -6.5500 
  177.2500    73.3620    11.4460    10.0630    10.2250    23.3350     2.4290    -6.6730 
  177.3750    74.9040    11.6010    10.2510    10.5790    23.2330     2.4420    -6.8010 
  177.5000    74.1020    11.7140    10.3950    11.0490    23.0890     2.4560    -6.9370 
  177.6250    72.9980    11.6890    10.4140    11.3210    22.9550     2.4680    -7.0610 
  177.7500    73.6900    11.4770    10.2620    11.3220    22.8930     2.4730    -7.1700 
  177.8750    75.1560    11.0500     9.9130    11.1620    22.8650     2.4690    -7.2560 
  178.0000    76.5850    10.4330     9.3860    10.9550    22.8200     2.4520    -7.3000 
  178.1250    76.7300     9.7050     8.7480    10.5870    22.7550     2.4260    -7.2940 
  178.2500    75.7290     9.0160     8.1220    10.3260    22.7300     2.3960    -7.2440 
  178.3750    74.9840     8.4650     7.5890    10.2600    22.8060     2.3700    -7.1650 
  178.5000    77.4350     8.1030     7.1950    10.1150    22.9580     2.3540    -7.0720 
  178.6250    82.9200     7.9360     6.9630     9.2100    23.0740     2.3530    -6.9780 
  178.7500    86.0140     7.8610     6.8340     7.9580    23.1390     2.3610    -6.8980 
  178.8750    86.0570     7.8010     6.7580     7.9160    23.1670     2.3710    -6.8300 
  179.0000    85.4050     7.7050     6.6930     8.3750    23.1760     2.3770    -6.7740 
  179.1250    84.6470     7.5530     6.6090     8.6810    23.1790     2.3770    -6.7280 
  179.2500    83.2620     7.3740     6.5070     8.5720    23.1840     2.3710    -6.6980 
  179.3750    82.2810     7.1920     6.3950     8.0770    23.1940     2.3610    -6.6710 
  179.5000    82.3580     7.0220     6.2810     7.5540    23.2090     2.3480    -6.6510 
  179.6250    80.9710     6.8680     6.1660     7.4830    23.2270     2.3360    -6.6280 
  179.7500    78.5530     6.7280     6.0520     7.4920    23.2400     2.3280    -6.6050 
  179.8750    78.2240     6.6120     5.9510     7.3650    23.2430     2.3250    -6.5840 
  180.0000    80.1820     6.5420     5.8840     7.1670    23.2430     2.3300    -6.5630 
  180.1250    80.5100     6.5660     5.8930     7.0400    23.2390     2.3430    -6.5730 
  180.2500    79.6670     6.6800     5.9770     6.9670    23.2300     2.3580    -6.5960 
  180.3750    80.3560     6.8480     6.1080     6.9400    23.2090     2.3690    -6.6370 
  180.5000    82.3320     6.9960     6.2330     7.1160    23.1730     2.3700    -6.6940 
  180.6250    82.1390     7.0180     6.2620     7.4160    23.1200     2.3590    -6.7680 
  180.7500    79.1380     6.8890     6.1620     7.3920    23.0690     2.3440    -6.8600 
  180.8750    75.7130     6.6360     5.9460     6.8820    23.0420     2.3310    -6.9600 
  181.0000    73.0270     6.3360     5.6710     6.2380    23.0450     2.3250    -7.0670 
  181.1250    71.6940     6.0940     5.4280     5.9390    23.0650     2.3280    -7.1480 
  181.2500    71.0180     5.9610     5.2740     6.0150    23.0890     2.3350    -7.1920 
  181.3750    70.2640     5.9440     5.2280     6.2560    23.0990     2.3410    -7.2060 
  181.5000    69.9640     6.0160     5.2730     6.5230    23.1030     2.3440    -7.1800 
  181.6250    69.9840     6.1470     5.3830     6.8270    23.1040     2.3460    -7.1230 
  181.7500    70.3120     6.2940     5.5150     7.1360    23.1000     2.3490    -7.0480 
  181.8750    70.8720     6.4420     5.6510     7.3550    23.0900     2.3580    -6.9710 
  182.0000    71.4830     6.5800     5.7820     7.5420    23.0750     2.3690    -6.8930 
  182.1250    72.6520     6.6880     5.8960     7.7250    23.0660     2.3750    -6.8310 
  182.2500    72.6920     6.7580     5.9840     7.9220    23.0760     2.3690    -6.7930 
  182.3750    71.4110     6.7870     6.0410     8.3600    23.1140     2.3520    -6.7670 
  182.5000    70.2100     6.7840     6.0620     8.8560    23.1680     2.3300    -6.7610 
  182.6250    70.8700     6.7580     6.0490     8.7870    23.2200     2.3200    -6.7710 
  182.7500    72.9140     6.7160     6.0130     8.5630    23.2420     2.3260    -6.7680 
  182.8750    75.3140     6.6530     5.9610     8.2660    23.2490     2.3420    -6.7560 
  183.0000    76.3970     6.5710     5.9000     7.7560    23.2520     2.3580    -6.7270 
  183.1250    74.4130     6.4940     5.8480     7.0330    23.2570     2.3600    -6.6810 
  183.2500    70.6240     6.4580     5.8250     6.5430    23.2620     2.3500    -6.6210 
  183.3750    67.3490     6.4950     5.8480     6.3270    23.2650     2.3370    -6.5510 
  183.5000    66.2410     6.6120     5.9230     6.2700    23.2660     2.3290    -6.4850 
  183.6250    68.4610     6.7900     6.0470     6.3500    23.2710     2.3340    -6.4100 
  183.7500    72.5670     6.9700     6.1830     6.4640    23.2830     2.3460    -6.3420 
  183.8750    77.0040     7.1090     6.2960     6.4650    23.3040     2.3600    -6.2820 
  184.0000    79.4900     7.1800     6.3580     6.4450    23.3310     2.3710    -6.2310 
  184.1250    79.3610     7.1570     6.3350     6.6010    23.3540     2.3750    -6.2100 
  184.2500    77.5450     7.0480     6.2370     6.9040    23.3510     2.3760    -6.2310 
  184.3750    75.1020     6.8590     6.0710     7.1800    23.3190     2.3740    -6.3020 
  184.5000    72.8720     6.6190     5.8640     7.2070    23.2630     2.3700    -6.4110 
  184.6250    72.1920     6.4260     5.6880     7.0560    23.1970     2.3610    -6.5820 
  184.7500    74.1020     6.4090     5.6350     6.8140    23.1420     2.3520    -6.7980 
  184.8750    78.0060     6.6690     5.7920     6.9040    23.1030     2.3490    -7.0550 
