~V
VERS. 2.00: Ver 2.00
~W
STRT.M 56.0000:
STOP.M 268.0000:
STEP.M 0.1250:
NULL. -999.2500:
UWI. F10027:
~C
DEPT.M :
GR.API :
RML.OHMM :
RI. :
RXO.OHMM :
CALI.CM :
DEN.GM/CC :
SP.MV :
~A
# ...
  191.0000    47.3190     8.1600     6.6040     7.4550    23.9840     2.3830    -9.0880 
  191.1250    44.2910     8.1910     6.6390     7.4290    24.0690     2.3890    -9.1840 
  191.2500    43.2120     8.2730     6.6980     7.4880    24.1660     2.3970    -9.2160 
  191.3750    43.9350     8.3760     6.7720     7.8270    24.2080     2.4110    -9.2390 
  191.5000    45.0170     8.4480     6.8360     8.3720    24.2200     2.4330    -9.3140 
  191.6250    46.2390     8.4320     6.8580     8.7130    24.2390     2.4570    -9.3570 
  191.7500    46.8590     8.3410     6.8380     8.3350    24.2360     2.4730    -9.3600 
  191.8750    45.2170     8.2110     6.7880     7.7630    24.1840     2.4770    -9.3810 
  192.0000    42.6510     8.0850     6.7280     7.3780    24.0720     2.4690    -9.3810 
  192.1250    42.8310     7.9980     6.6850     7.2940    24.0350     2.4520    -9.3060 
  192.2500    45.1020     7.9500     6.6700     7.2760    24.0980     2.4300    -9.2530 
  192.3750    46.8580     7.9260     6.6790     7.2910    24.1830     2.4100    -9.2040 
  192.5000    46.9080     7.9050     6.6980     7.5240    24.1860     2.3950    -9.0940 
  192.6250    46.7240     7.8650     6.7010     7.6730    24.0300     2.3880    -8.9550 
  192.7500    47.0790     7.7940     6.6780     7.7210    23.8620     2.3870    -8.8470 
  192.8750    47.6000     7.6930     6.6330     7.6690    23.7290     2.3880    -8.7200 
  193.0000    47.3810     7.5790     6.5800     7.4870    23.6320     2.3890    -8.5510 
  193.1250    45.4120     7.4960     6.5410     7.2180    23.5520     2.3870    -8.4120 
  193.2500    44.3230     7.4620     6.5260     7.0660    23.5370     2.3850    -8.2980 
  193.3750    45.5000     7.4670     6.5340     7.0810    23.5700     2.3850    -8.1740 
  193.5000    47.8980     7.4750     6.5540     7.0460    23.6580     2.3870    -8.0630 
  193.6250    48.7590     7.4480     6.5700     6.8940    23.8380     2.3850    -8.0290 
  193.7500    47.9690     7.3900     6.5760     6.7420    23.9910     2.3780    -8.0050 
  193.8750    48.2240     7.3330     6.5820     6.7060    24.0440     2.3660    -7.9850 
  194.0000    50.9560     7.3160     6.5990     6.6770    24.0460     2.3530    -8.0380 
  194.1250    53.9800     7.3690     6.6380     6.6330    24.0140     2.3470    -8.1280 
  194.2500    56.6020     7.4660     6.6880     6.6850    23.9840     2.3490    -8.1730 
  194.3750    62.3000     7.5610     6.7310     6.8450    23.9620     2.3580    -8.2400 
  194.5000    71.2820     7.6000     6.7460     7.0120    23.9590     2.3700    -8.3680 
  194.6250    77.2500     7.5290     6.7060     7.1910    23.9790     2.3770    -8.4670 
  194.7500    78.5840     7.3800     6.6090     7.3470    24.0220     2.3780    -8.5420 
  194.8750    80.2690     7.1970     6.4660     7.5240    24.0800     2.3730    -8.6530 
  195.0000    83.9560     7.0210     6.2990     7.3870    24.1220     2.3640    -8.7830 
  195.1250    86.7120     6.8940     6.1510     7.1950    24.1610     2.3550    -8.8740 
  195.2500    88.2800     6.8490     6.0780     7.4910    24.1850     2.3480    -8.9720 
  195.3750    90.1560     6.9640     6.1470     7.9380    24.1990     2.3430    -9.0790 
  195.5000    90.4970     7.3510     6.4330     8.0750    24.2070     2.3400    -9.1800 
  195.6250    86.4960     8.1930     7.0600     8.1170    24.2050     2.3390    -9.2620 
  195.7500    82.1640     9.4380     8.0110     9.0660    24.1990     2.3380    -9.3410 
  195.8750    79.0890    10.9340     9.2260    11.8670    24.1970     2.3320    -9.4210 
  196.0000    76.3510    12.3680    10.5140    15.2850    24.1940     2.3190    -9.4730 
  196.1250    74.7940    13.2180    11.4920    17.7040    24.1990     2.3000    -9.5260 
  196.2500    76.8420    13.3120    11.9260    17.3790    24.2140     2.2840    -9.6190 
  196.3750    80.0460    12.7840    11.8180    16.7180    24.2300     2.2770    -9.7080 
  196.5000    79.4500    12.0410    11.4170    15.6560    24.2390     2.2840    -9.7590 
  196.6250    76.7980    11.6590    11.1420    13.8110    24.2500     2.2960    -9.8480 
  196.7500    77.2680    11.9430    11.2960    12.8900    24.2690     2.3030    -9.9880 
  196.8750    78.8810    12.9890    12.0270    14.7540    24.2830     2.2980   -10.1010 
  197.0000    79.1800    14.7010    13.3530    20.5430    24.2950     2.2810   -10.1810 
  197.1250    78.1370    16.8140    15.1860    24.3920    24.2980     2.2610   -10.3030 
  197.2500    77.5160    18.8570    17.1380    26.3860    24.2900     2.2430   -10.4060 
  197.3750    77.3170    20.5680    18.9280    27.4980    24.2660     2.2290   -10.4830 
  197.5000    77.5220    21.9190    20.4340    27.8290    24.2430     2.2120   -10.5900 
  197.6250    78.7440    23.0860    21.7290    27.2940    24.2250     2.1930   -10.6980 
  197.7500    78.1490    24.2610    22.9980    27.5530    24.1990     2.1800   -10.7300 
  197.8750    74.7950    25.3510    24.2120    30.0480    24.1530     2.1820   -10.7530 
  198.0000    70.1610    26.0500    25.1370    35.9740    24.0960     2.2000   -10.8090 
  198.1250    68.1990    25.8700    25.3230    38.0530    24.0920     2.2230   -10.7830 
  198.2500    70.7000    24.8630    24.7420    33.6700    24.1170     2.2370   -10.7330 
  198.3750    74.6420    23.3060    23.5830    27.8060    24.1030     2.2400   -10.7280 
  198.5000    76.3960    21.6210    22.2020    24.5450    24.0810     2.2370   -10.6930 
  198.6250    74.8930    20.2760    20.9790    23.6310    24.0730     2.2360   -10.6020 
  198.7500    73.7050    19.5570    20.0510    23.3400    24.0690     2.2390   -10.5590 
  198.8750    74.0960    19.4940    19.3890    22.9050    24.0600     2.2420   -10.5250 
  199.0000    75.5560    19.4090    18.8930    21.7440    24.0410     2.2420   -10.4430 
  199.1250    76.1290    19.0200    18.4600    20.1920    24.0260     2.2430   -10.3770 
  199.2500    75.5980    18.4470    18.0170    18.8660    24.0350     2.2490   -10.3520 
  199.3750    75.7560    17.8340    17.5090    18.2210    24.0500     2.2620   -10.2890 
  199.5000    77.5310    17.1300    16.8560    17.6120    24.0360     2.2810   -10.1990 
  199.6250    80.4160    16.2160    15.9290    16.9610    23.9950     2.3040   -10.1640 
  199.7500    81.8310    15.0790    14.7530    16.3630    23.9510     2.3280   -10.1290 
  199.8750    80.8240    13.7900    13.4250    15.0070    23.9080     2.3480   -10.0710 
  200.0000    79.2240    12.5250    12.1290    12.7790    23.8630     2.3610   -10.0460 
  200.1250    80.5300    11.5940    11.1570    11.3470    23.8030     2.3580   -10.1060 
  200.2500    83.0350    11.1980    10.6830    11.2100    23.7820     2.3450   -10.1500 
  200.3750    82.1830    11.5230    10.8700    11.1420    23.8430     2.3260   -10.2260 
  200.5000    77.8030    12.7110    11.8570    12.1950    24.0040     2.3060   -10.3820 
  200.6250    74.0500    14.9670    13.9120    15.6220    24.1630     2.2850   -10.5040 
  200.7500    72.4840    17.9960    16.8500    19.7360    24.2250     2.2610   -10.6020 
  200.8750    70.6550    21.4210    20.3830    24.3900    24.2490     2.2340   -10.7360 
  201.0000    67.8750    24.6420    23.9170    30.7570    24.2860     2.2070   -10.9010 
  201.1250    66.9510    26.7760    26.4420    35.8950    24.3470     2.1890   -11.0110 
  201.2500    67.5990    27.5860    27.5250    37.2860    24.3580     2.1840   -11.1110 
  201.3750    67.0020    27.2210    27.2280    34.7500    24.3460     2.1940   -11.2120 
  201.5000    65.0530    26.1630    26.0460    30.5300    24.3220     2.2130   -11.2850 
  201.6250    64.8520    25.0640    24.6740    27.3190    24.3030     2.2300   -11.3540 
  201.7500    66.6840    24.4830    23.7390    26.6310    24.3030     2.2370   -11.4290 
  201.8750    67.8470    24.7790    23.6150    27.6360    24.3210     2.2340   -11.5170 
  202.0000    66.2040    26.2570    24.6020    28.7890    24.3310     2.2280   -11.5970 
  202.1250    64.2020    29.4820    27.2700    30.5300    24.3360     2.2270   -11.6590 
