~V
VERS. 2.00: Ver 2.00
~W
STRT.M 60.0000:
STOP.M 271.0000:
STEP.M 0.1250:
NULL. -999.2500:
UWI. F10035:
~C
DEPT.M :
GR.API :
RML.OHMM :
RI. :
RXO.OHMM :
CALI.CM :
DEN.GM/CC :
SP.MV :
~A
# ...
  195.0000    41.8920     7.8010     6.4730     6.4550    24.0350     2.4390    -2.1600 
  195.1250    40.8450     7.7490     6.4490     6.4270    24.0320     2.4430    -2.1600 
  195.2500    41.6380     7.6930     6.4220     6.5240    24.0530     2.4420    -2.1930 
  195.3750    41.1360     7.6130     6.3780     6.6030    24.0750     2.4370    -2.2260 
  195.5000    38.4970     7.5010     6.3110     6.4770    24.0990     2.4280    -2.2320 
  195.6250    37.4380     7.3810     6.2290     6.2490    24.0950     2.4180    -2.2360 
  195.7500    39.4350     7.2910     6.1550     6.0400    24.0760     2.4110    -2.2610 
  195.8750    42.1050     7.2510     6.1050     5.9560    24.0640     2.4090    -2.2870 
  196.0000    42.1510     7.2520     6.0840     6.0040    24.0620     2.4110    -2.3090 
  196.1250    39.6700     7.2640     6.0840     6.0470    24.0490     2.4120    -2.3020 
  196.2500    37.2800     7.2510     6.0810     6.0550    24.0160     2.4090    -2.2670 
  196.3750    35.8570     7.2030     6.0620     5.9940    23.9720     2.4030    -2.2600 
  196.5000    35.2530     7.1330     6.0260     5.9750    23.9470     2.3990    -2.3210 
  196.6250    35.2180     7.0770     5.9890     5.8090    23.9440     2.4020    -2.4120 
  196.7500    35.8690     7.0560     5.9690     5.7230    23.9350     2.4100    -2.4740 
  196.8750    36.0760     7.0720     5.9710     5.7370    23.9360     2.4180    -2.5260 
  197.0000    34.4620     7.1100     5.9920     5.8160    23.9540     2.4200    -2.5780 
  197.1250    30.9940     7.1420     6.0150     5.9030    23.9780     2.4180    -2.6410 
  197.2500    29.5090     7.1540     6.0280     5.9590    23.9760     2.4160    -2.7130 
  197.3750    31.1910     7.1490     6.0260     5.9280    23.9470     2.4180    -2.7850 
  197.5000    33.4480     7.1420     6.0140     5.8960    23.9190     2.4270    -2.8540 
  197.6250    33.4630     7.1450     5.9980     5.9520    23.9080     2.4390    -2.8970 
  197.7500    33.5550     7.1590     5.9880     5.9550    23.9210     2.4500    -2.9280 
  197.8750    35.6830     7.1870     5.9910     5.9420    23.9280     2.4580    -2.9550 
  198.0000    38.0590     7.2320     6.0120     5.9100    23.9120     2.4630    -3.0090 
  198.1250    38.2410     7.3030     6.0570     5.9800    23.8740     2.4670    -3.1140 
  198.2500    37.0820     7.3900     6.1160     6.0740    23.7850     2.4680    -3.2450 
  198.3750    36.3040     7.4800     6.1780     6.0950    23.6030     2.4650    -3.3500 
  198.5000    37.3080     7.5570     6.2330     6.0230    23.2950     2.4580    -3.4160 
  198.6250    39.1990     7.6090     6.2730     5.9570    23.0840     2.4470    -3.4460 
  198.7500    40.4260     7.6410     6.2990     5.9480    22.9500     2.4380    -3.4850 
  198.8750    41.2520     7.6640     6.3140     6.0730    22.7960     2.4320    -3.5150 
  199.0000    42.6880     7.6920     6.3290     6.4120    22.6030     2.4260    -3.4820 
  199.1250    44.1360     7.7570     6.3710     6.7570    22.4840     2.4160    -3.3920 
  199.2500    43.7550     7.8750     6.4540     7.0990    22.4180     2.4020    -3.2720 
  199.3750    41.4930     8.0430     6.5770     7.2080    22.5040     2.3900    -3.1660 
  199.5000    39.2490     8.2270     6.7150     7.4460    22.8990     2.3830    -3.0690 
  199.6250    39.7630     8.3510     6.8160     7.9120    23.5460     2.3860    -2.9870 
  199.7500    42.0920     8.3590     6.8400     8.2120    24.0710     2.3980    -2.9040 
  199.8750    43.9350     8.2380     6.7730     7.4800    24.2290     2.4180    -2.8490 
  200.0000    43.3900     8.0400     6.6450     6.7680    24.1490     2.4410    -2.8120 
  200.1250    41.6370     7.8700     6.5180     6.6050    24.0580     2.4650    -2.7530 
  200.2500    40.4960     7.7990     6.4470     6.7400    24.0290     2.4800    -2.7070 
  200.3750    41.9490     7.8360     6.4470     6.9460    24.0500     2.4820    -2.6740 
  200.5000    46.0000     7.9390     6.5020     7.2770    24.0510     2.4700    -2.6680 
  200.6250    47.6880     8.0320     6.5690     7.9010    24.0300     2.4500    -2.7070 
  200.7500    44.8570     8.0660     6.6070     8.1960    23.9980     2.4320    -2.7460 
  200.8750    40.3440     8.0400     6.6030     7.8530    23.9610     2.4220    -2.7530 
  201.0000    37.8440     7.9730     6.5660     6.9840    23.8830     2.4220    -2.7400 
  201.1250    37.9820     7.8880     6.5050     6.5620    23.7950     2.4260    -2.7400 
  201.2500    39.7830     7.7940     6.4320     6.5000    23.7490     2.4270    -2.7370 
  201.3750    43.2510     7.6930     6.3510     6.4070    23.7580     2.4210    -2.7160 
  201.5000    46.0390     7.5940     6.2710     6.2790    23.8220     2.4120    -2.6620 
  201.6250    45.5650     7.5280     6.2120     6.2330    23.9390     2.4080    -2.5830 
  201.7500    43.4610     7.5290     6.1970     6.2050    23.9520     2.4170    -2.5220 
  201.8750    42.2530     7.6170     6.2450     6.2590    23.8660     2.4380    -2.4830 
  202.0000    42.0190     7.7820     6.3510     6.4550    23.8170     2.4640    -2.4890 
  202.1250    42.4640     7.9630     6.4860     6.8220    23.8580     2.4800    -2.5280 
  202.2500    45.3660     8.0760     6.5930     7.2340    23.9260     2.4810    -2.5670 
  202.3750    50.5570     8.0710     6.6310     7.3170    23.9660     2.4670    -2.6010 
  202.5000    54.4530     7.9400     6.5840     7.0660    23.9960     2.4470    -2.6560 
  202.6250    53.8780     7.7230     6.4650     6.7250    24.0870     2.4310    -2.7060 
  202.7500    51.7660     7.5060     6.3290     6.4610    24.2520     2.4250    -2.7400 
  202.8750    50.1670     7.3360     6.2140     6.2550    24.3970     2.4270    -2.7610 
  203.0000    48.4750     7.2300     6.1410     6.1420    24.4660     2.4340    -2.7520 
  203.1250    46.1170     7.1850     6.1160     6.1360    24.4800     2.4420    -2.6940 
  203.2500    43.5320     7.1700     6.1200     6.1400    24.4650     2.4450    -2.6080 
  203.3750    41.4160     7.1690     6.1400     6.1690    24.4540     2.4440    -2.5100 
  203.5000    39.9100     7.1780     6.1660     6.1890    24.4700     2.4360    -2.4230 
  203.6250    39.6220     7.1850     6.1840     6.1580    24.5200     2.4250    -2.4140 
  203.7500    40.5280     7.1730     6.1800     6.2080    24.5500     2.4120    -2.4320 
  203.8750    42.2100     7.1260     6.1450     6.2040    24.5540     2.4010    -2.4500 
  204.0000    42.7810     7.0400     6.0780     6.0240    24.5410     2.3910    -2.4410 
  204.1250    41.1380     6.9200     5.9850     5.7880    24.4870     2.3860    -2.4270 
  204.2500    39.6900     6.7910     5.8850     5.6650    24.4100     2.3870    -2.4260 
  204.3750    40.4520     6.6660     5.7900     5.6240    24.3770     2.3930    -2.4560 
  204.5000    42.8830     6.5600     5.7100     5.6170    24.3880     2.4040    -2.4890 
  204.6250    45.5200     6.5060     5.6720     5.6630    24.4070     2.4170    -2.4840 
  204.7500    48.7840     6.5480     5.7060     5.7820    24.4050     2.4310    -2.5070 
  204.8750    54.6250     6.7310     5.8460     6.0290    24.3950     2.4400    -2.5870 
  205.0000    64.0410     7.0620     6.1060     6.4260    24.4290     2.4410    -2.7520 
  205.1250    73.9720     7.4990     6.4710     7.1110    24.5550     2.4330    -2.9610 
  205.2500    80.6890     7.9140     6.8490     7.9720    24.6990     2.4230    -3.1650 
  205.3750    85.1280     8.1870     7.1510     8.7520    24.7620     2.4160    -3.3370 
  205.5000    87.7780     8.2420     7.3010     8.4730    24.7720     2.4170    -3.4580 
  205.6250    86.6980     8.0740     7.2630     7.6140    24.7830     2.4250    -3.4890 
  205.7500    81.8060     7.8440     7.1380     7.3910    24.8090     2.4320    -3.4460 
  205.8750    77.3020     7.6720     7.0130     7.4350    24.8260     2.4340    -3.3260 
  206.0000    76.4940     7.6260     6.9520     7.4800    24.8380     2.4290    -3.1230 
  206.1250    77.9010     7.7030     6.9750     7.4390    24.8570     2.4190    -2.9030 
