~V
VERS. 2.00: Ver 2.00
~W
STRT.M 50.0000:
STOP.M 307.0000:
STEP.M 0.1250:
NULL. -999.2500:
UWI. F10044:
~C
DEPT.M :
GR.API :
RML.OHMM :
RI. :
RXO.OHMM :
CALI.CM :
DEN.GM/CC :
SP.MV :
~A
# ...
  230.0000    59.9450     8.1810     7.1290     8.4450    23.9350     2.4320    -4.3880 
  230.1250    57.7540     8.1000     7.0710     8.3300    23.8530     2.4420    -4.4010 
  230.2500    53.8960     8.0080     6.9800     8.0780    23.8350     2.4430    -4.3490 
  230.3750    50.6750     7.9470     6.8980     7.9750    23.8580     2.4350    -4.2690 
  230.5000    49.6230     7.9250     6.8450     8.1290    23.8950     2.4210    -4.2540 
  230.6250    49.0090     7.9320     6.8240     8.3260    23.9290     2.4090    -4.2860 
  230.7500    47.7400     7.9510     6.8230     8.2460    23.9320     2.4050    -4.2820 
  230.8750    47.6830     7.9830     6.8380     7.8960    23.8770     2.4090    -4.2770 
  231.0000    49.2350     8.0320     6.8680     7.5310    23.7580     2.4200    -4.3400 
  231.1250    49.5750     8.0910     6.9080     7.4260    23.6530     2.4340    -4.4780 
  231.2500    48.5550     8.1270     6.9350     7.6100    23.6470     2.4440    -4.6020 
  231.3750    47.4970     8.1050     6.9260     7.8040    23.7340     2.4480    -4.6520 
  231.5000    46.3330     7.9990     6.8570     7.7650    23.8260     2.4450    -4.6510 
  231.6250    43.6810     7.7990     6.7140     7.5610    23.8460     2.4400    -4.6580 
  231.7500    40.8640     7.5540     6.5250     7.3230    23.7980     2.4370    -4.6600 
  231.8750    40.2490     7.3050     6.3210     6.9720    23.7020     2.4370    -4.6340 
  232.0000    42.1190     7.0840     6.1300     6.6000    23.6060     2.4360    -4.5780 
  232.1250    43.1230     6.9160     5.9800     6.3400    23.5480     2.4320    -4.5460 
  232.2500    42.1690     6.7990     5.8740     6.1450    23.5180     2.4260    -4.5930 
  232.3750    40.5920     6.7280     5.8110     6.0150    23.5080     2.4200    -4.6950 
  232.5000    38.9160     6.6990     5.7860     5.9570    23.5040     2.4180    -4.8400 
  232.6250    36.5710     6.6980     5.7910     5.9780    23.4980     2.4230    -5.0380 
  232.7500    34.9180     6.7040     5.8080     6.0500    23.4890     2.4300    -5.2670 
  232.8750    35.6290     6.7020     5.8260     6.1350    23.4760     2.4390    -5.4820 
  233.0000    37.6940     6.6880     5.8390     6.1650    23.4640     2.4460    -5.6820 
  233.1250    38.8120     6.6640     5.8450     6.1370    23.4600     2.4500    -5.8430 
  233.2500    37.9750     6.6390     5.8470     6.0800    23.4640     2.4510    -5.9720 
  233.3750    37.1440     6.6090     5.8440     6.0730    23.4730     2.4490    -6.0790 
  233.5000    37.2810     6.5700     5.8330     6.0910    23.4820     2.4450    -6.1030 
  233.6250    37.4050     6.5170     5.8080     6.0840    23.4840     2.4390    -6.0590 
  233.7500    36.2210     6.4610     5.7750     6.0290    23.4650     2.4330    -6.0390 
  233.8750    35.2350     6.4160     5.7410     5.9300    23.4270     2.4300    -6.0610 
  234.0000    35.9470     6.3930     5.7160     5.8220    23.3760     2.4290    -6.0610 
  234.1250    36.3480     6.3920     5.7050     5.7690    23.3290     2.4310    -6.0130 
  234.2500    35.6530     6.3860     5.6940     5.7450    23.2930     2.4340    -5.9690 
  234.3750    35.2030     6.3430     5.6670     5.7050    23.2610     2.4370    -5.9750 
  234.5000    35.9760     6.2410     5.6070     5.6270    23.2210     2.4380    -6.0060 
  234.6250    38.6890     6.0730     5.5060     5.4870    23.1700     2.4380    -5.9950 
  234.7500    41.6970     5.8880     5.3890     5.3280    23.1130     2.4370    -5.9750 
  234.8750    45.1020     5.7490     5.2980     5.2080    23.0420     2.4370    -5.9880 
  235.0000    48.4780     5.7270     5.2880     5.1850    22.9500     2.4390    -6.0360 
  235.1250    52.7270     5.9070     5.4320     5.3050    22.8270     2.4430    -6.0910 
  235.2500    59.3880     6.2620     5.7260     5.5970    22.7060     2.4460    -6.1580 
  235.3750    67.5490     6.7360     6.1390     6.0860    22.6260     2.4450    -6.2390 
  235.5000    74.5330     7.2250     6.5940     6.7830    22.6120     2.4410    -6.3420 
  235.6250    78.5970     7.5560     6.9500     7.4760    22.6890     2.4340    -6.4800 
  235.7500    80.1010     7.6380     7.1060     7.7970    22.8350     2.4250    -6.6310 
  235.8750    79.9170     7.4520     7.0210     7.8070    23.0370     2.4140    -6.7730 
  236.0000    78.2580     7.0730     6.7330     7.5890    23.2560     2.4020    -6.8850 
  236.1250    76.5510     6.6630     6.3550     7.0720    23.3780     2.3900    -6.9920 
  236.2500    75.6060     6.3980     6.0470     6.5300    23.4290     2.3810    -7.0980 
  236.3750    74.6990     6.3630     5.9030     6.4580    23.4350     2.3780    -7.2100 
  236.5000    72.7150     6.5220     5.9520     6.9060    23.4140     2.3830    -7.3360 
  236.6250    69.7320     6.8510     6.1980     7.8260    23.3730     2.3910    -7.4630 
  236.7500    69.6150     7.2850     6.5750     8.8520    23.3340     2.3970    -7.5710 
  236.8750    71.9860     7.9500     7.0810     9.6990    23.3230     2.3960    -7.7030 
  237.0000    73.6440     8.9280     7.7700    10.2750    23.3760     2.3890    -7.9160 
  237.1250    72.0660    10.6740     8.8120    10.6580    23.4950     2.3780    -8.1910 
  237.2500    67.7530    13.0360    10.2770    12.7970    23.6250     2.3680    -8.4560 
  237.3750    61.7110    15.6510    12.1910    16.5090    23.7140     2.3620    -8.7220 
  237.5000    55.9180    18.3200    14.4660    20.4220    23.7400     2.3590    -9.0450 
  237.6250    53.6040    20.8980    16.8710    23.3340    23.7250     2.3610    -9.4100 
  237.7500    54.7170    23.1280    19.1010    23.9950    23.7070     2.3670    -9.7500 
  237.8750    56.3420    24.9890    21.0270    24.2410    23.6590     2.3790   -10.0400 
  238.0000    57.4070    26.6900    22.7170    26.5760    23.5550     2.3940   -10.3090 
  238.1250    55.9800    28.6310    24.4500    28.5720    23.3920     2.4030   -10.5730 
  238.2500    54.2190    31.0680    26.4960    30.3160    23.2280     2.3950   -10.8090 
  238.3750    54.1080    34.0740    28.9750    32.4480    23.1100     2.3690   -11.0050 
  238.5000    55.5270    37.5650    31.8700    35.2770    23.0430     2.3340   -11.1820 
  238.6250    57.6070    41.3900    35.0920    38.8130    23.0500     2.3030   -11.3710 
  238.7500    57.5360    45.2700    38.4140    42.1110    23.1080     2.2850   -11.5480 
  238.8750    55.7330    48.9980    41.6620    45.4340    23.1520     2.2790   -11.7160 
  239.0000    54.5430    52.3930    44.6840    48.3940    23.1410     2.2790   -11.8770 
  239.1250    55.1660    55.2480    47.3170    50.3390    23.0920     2.2800   -12.0240 
  239.2500    56.5910    57.5920    49.5770    52.3470    23.0480     2.2800   -12.1700 
  239.3750    57.6270    59.4180    51.4530    54.5990    23.0180     2.2810   -12.2710 
  239.5000    59.9080    60.7170    52.9230    56.0560    22.9910     2.2840   -12.3050 
  239.6250    61.4990    61.3150    53.8390    56.2950    22.9550     2.2880   -12.2680 
  239.7500    59.7570    61.1650    54.1450    56.0840    22.9100     2.2900   -12.1920 
  239.8750    56.7830    60.1240    53.7000    55.5820    22.8660     2.2870   -12.0470 
  240.0000    54.9590    58.1210    52.4100    54.0960    22.8320     2.2790   -11.8350 
  240.1250    55.2930    55.0920    50.1630    51.4290    22.8180     2.2690   -11.6060 
  240.2500    54.8870    51.4610    47.2990    47.7700    22.8220     2.2600   -11.3740 
  240.3750    53.7830    47.6020    44.1300    44.0020    22.8470     2.2560   -11.1190 
  240.5000    54.4810    43.9110    41.0090    40.7030    22.9060     2.2540   -10.8220 
  240.6250    57.4280    40.8050    38.3150    37.6580    23.0040     2.2570   -10.5330 
  240.7500    61.2060    38.3510    36.1500    34.3320    23.0980     2.2660   -10.3030 
  240.8750    62.2380    36.5230    34.5210    31.6430    23.1570     2.2840   -10.1140 
  241.0000    59.8230    35.2120    33.3520    30.3580    23.1970     2.3140    -9.9000 
  241.1250    56.5520    34.3090    32.5490    29.9930    23.2330     2.3540    -9.6760 
