~V
VERS. 2.00: Ver 2.00
~W
STRT.M 56.0000:
STOP.M 261.0000:
STEP.M 0.1250:
NULL. -999.2500:
UWI. F10028:
~C
DEPT.M :
GR.API :
RML.OHMM :
RI. :
RXO.OHMM :
CALI.CM :
DEN.GM/CC :
SP.MV :
~A
# ...
   78.5000    65.9800     9.4740     7.2970     8.8610    23.9920     2.1180   -13.7720 
   78.6250    69.9240     9.5480     7.3530     8.8800    24.2450     2.1110   -13.7740 
   78.7500    71.4990     9.5710     7.3730     9.1080    24.5380     2.1190   -13.7550 
   78.8750    69.9990     9.5000     7.3280     9.4910    24.7810     2.1360   -13.7350 
   79.0000    67.1870     9.3310     7.2070     9.7560    24.9440     2.1560   -13.7380 
   79.1250    66.2220     9.0970     7.0260     9.2160    24.9800     2.1710   -13.7740 
   79.2500    66.6060     8.8500     6.8390     8.2290    24.9720     2.1770   -13.8140 
   79.3750    66.8030     8.6220     6.6840     7.3360    24.9620     2.1730   -13.8870 
   79.5000    66.3650     8.4480     6.5870     7.5910    24.9400     2.1580   -14.0520 
   79.6250    65.6000     8.3880     6.5790     7.9790    24.8850     2.1360   -14.2120 
   79.7500    66.1430     8.4450     6.6560     8.2900    24.9000     2.1180   -14.2850 
   79.8750    67.8330     8.6170     6.8100     8.2270    24.8680     2.1110   -14.3080 
   80.0000    68.7770     8.8770     7.0200     7.7510    24.7180     2.1160   -14.3610 
   80.1250    66.0260     9.1690     7.2450     7.9840    24.6830     2.1270   -14.5620 
   80.2500    62.2730     9.4120     7.4310     8.5500    24.8220     2.1350   -14.8890 
   80.3750    61.0340     9.5510     7.5420     8.8080    24.9700     2.1390   -15.2250 
   80.5000    61.5690     9.5620     7.5650     8.6200    25.0140     2.1420   -15.4790 
   80.6250    60.3140     9.4610     7.5080     8.4180    25.0060     2.1470   -15.7580 
   80.7500    57.4780     9.3430     7.4250     8.2120    24.9440     2.1540   -16.1440 
   80.8750    54.6990     9.2810     7.3570     8.1640    24.9190     2.1610   -16.5890 
   81.0000    53.1760     9.3030     7.3260     8.1310    25.0040     2.1680   -16.9720 
   81.1250    51.5750     9.3960     7.3410     8.0910    25.1130     2.1780   -17.1070 
   81.2500    51.2520     9.5100     7.3800     8.1520    25.1490     2.1910   -17.0790 
   81.3750    53.3750     9.6130     7.4310     8.3340    25.1510     2.2030   -17.0210 
   81.5000    55.2250     9.6830     7.4800     8.3770    25.1530     2.2080   -17.0120 
   81.6250    55.2080     9.7120     7.5150     8.2460    25.1300     2.1990   -17.0070 
   81.7500    55.5310     9.7210     7.5310     8.1590    25.0830     2.1780   -16.9890 
   81.8750    56.8200     9.7240     7.5330     8.1770    25.0720     2.1530   -16.9790 
   82.0000    57.3080     9.7310     7.5270     8.2670    25.0220     2.1320   -16.9890 
   82.1250    57.6080     9.7490     7.5240     8.2650    24.8470     2.1220   -17.0000 
   82.2500    59.9590     9.7690     7.5300     8.2590    24.7140     2.1220   -16.9920 
   82.3750    63.1110     9.7770     7.5390     8.3960    24.6760     2.1300   -16.9540 
   82.5000    64.8300     9.7600     7.5400     8.6560    24.6900     2.1420   -16.8770 
   82.6250    64.1660     9.7180     7.5230     8.9000    24.7030     2.1550   -16.7980 
   82.7500    61.6540     9.6710     7.4940     8.8040    24.7420     2.1640   -16.7530 
   82.8750    58.9020     9.6400     7.4690     8.4760    24.7630     2.1640   -16.7290 
   83.0000    58.1810     9.6440     7.4690     8.3810    24.7920     2.1570   -16.6750 
   83.1250    59.9420     9.6840     7.5070     8.8100    24.7110     2.1450   -16.5920 
   83.2500    60.5190     9.7390     7.5720     9.4050    24.6200     2.1370   -16.4750 
   83.3750    59.6980     9.7960     7.6490     9.6040    24.5920     2.1310   -16.3460 
   83.5000    59.3590     9.8580     7.7300     9.4100    24.6720     2.1260   -16.2030 
   83.6250    59.2830     9.9120     7.8000     9.0070    24.8050     2.1170   -15.9710 
   83.7500    57.7650     9.9110     7.8240     8.5180    24.9070     2.1050   -15.6020 
   83.8750    56.9070     9.7860     7.7500     8.5360    24.8450     2.0990   -15.0650 
   84.0000    61.2400     9.4700     7.5300     8.6090    24.6200     2.1070   -14.3500 
   84.1250    68.9100     8.9240     7.1300     8.2730    24.4200     2.1380   -13.3930 
   84.2500    73.7390     8.2710     6.6310     7.4520    24.2750     2.1830   -12.2130 
   84.3750    75.9090     7.6430     6.1210     6.2570    24.2550     2.2300   -10.8620 
   84.5000    78.4950     7.1580     5.6800     5.7190    24.3940     2.2680    -9.4590 
   84.6250    80.5800     6.8750     5.3670     5.7240    24.5310     2.2890    -8.1050 
   84.7500    79.4780     6.6850     5.1450     5.8510    24.5380     2.2960    -6.8450 
   84.8750    78.5310     6.5080     4.9830     5.8670    24.4650     2.2960    -5.7250 
   85.0000    81.0870     6.3420     4.8820     5.9380    24.4090     2.2950    -4.7870 
   85.1250    85.1130     6.3180     4.9020     5.8880    24.4420     2.3060    -4.1370 
   85.2500    86.2740     6.5650     5.0970     5.6590    24.5290     2.3290    -3.8440 
   85.3750    83.7690     7.1760     5.5220     5.4940    24.5700     2.3620    -3.8410 
   85.5000    77.7710     8.1350     6.1910     5.8650    24.4940     2.3970    -3.9900 
   85.6250    72.2920     9.2610     7.0360     7.6170    24.2580     2.4220    -4.2590 
   85.7500    71.4690    10.2100     7.8250    10.5780    24.0300     2.4320    -4.6270 
   85.8750    73.4160    10.7310     8.3500    14.3420    23.8900     2.4240    -5.0750 
   86.0000    74.6440    10.7060     8.4840    17.3210    23.8160     2.3960    -5.5900 
   86.1250    74.3450    10.1530     8.2000    12.8800    23.9090     2.3540    -6.1740 
   86.2500    76.2050     9.3990     7.7210     9.9370    24.1280     2.3090    -6.6910 
   86.3750    80.3860     8.6510     7.1930     8.6250    24.2620     2.2750    -7.0640 
   86.5000    83.5200     8.0340     6.7090     7.8070    24.2650     2.2580    -7.2920 
   86.6250    83.3230     7.6620     6.3530     7.0690    24.2690     2.2540    -7.3790 
   86.7500    80.8420     7.5200     6.1390     6.8280    24.2350     2.2530    -7.3680 
   86.8750    78.2880     7.5340     6.0460     6.9410    24.1640     2.2480    -7.3270 
   87.0000    75.8940     7.5790     6.0170     7.7330    24.1110     2.2370    -7.3420 
   87.1250    72.7560     7.5720     6.0170     8.7880    24.0820     2.2160    -7.4190 
   87.2500    70.2120     7.5850     6.0760     8.2700    24.0530     2.1900    -7.5530 
   87.3750    69.8520     7.7800     6.2740     7.8660    24.0100     2.1740    -7.7700 
   87.5000    70.9960     8.3390     6.7010     7.4490    23.9200     2.1870    -8.0550 
   87.6250    71.1670     9.4290     7.4660     9.1030    23.7270     2.2420    -8.4060 
   87.7500    69.7800    10.8110     8.4500    12.8950    23.5270     2.3150    -8.8530 
   87.8750    69.3440    12.0820     9.4120    16.4640    23.2730     2.3710    -9.3830 
   88.0000    69.6830    12.7420    10.0090    16.8080    23.0430     2.3820    -9.9080 
   88.1250    69.5510    12.3830     9.9170    12.9320    22.9680     2.3310   -10.3940 
   88.2500    68.4010    11.4310     9.3650    10.6050    22.9000     2.2470   -10.8830 
   88.3750    65.6110    10.3860     8.6610     9.3710    22.7770     2.1600   -11.3590 
   88.5000    61.9740     9.6320     8.0650     8.6230    22.5580     2.0930   -11.7950 
   88.6250    59.6950     9.3570     7.7320     8.3120    22.4380     2.0690   -12.1260 
   88.7500    60.2620     9.3960     7.6010     8.2540    22.3990     2.0790   -12.2780 
   88.8750    62.6550     9.6070     7.6060     8.4400    22.4450     2.1080   -12.2230 
   89.0000    65.3890     9.8540     7.6770     8.8500    22.6220     2.1370   -12.0090 
   89.1250    68.0070    10.0020     7.7390     9.0910    23.0110     2.1490   -11.7500 
   89.2500    70.5310    10.0130     7.7510     9.2370    23.4170     2.1440   -11.4980 
   89.3750    73.0410     9.9030     7.7120     9.2180    23.7940     2.1340   -11.2530 
   89.5000    73.8920     9.7190     7.6350     9.1380    24.0590     2.1300   -11.0540 
   89.6250    72.5610     9.5050     7.5350     9.1830    24.0490     2.1400   -10.9500 
