~V
VERS. 2.00: Ver 2.00
~W
STRT.M 64.0000:
STOP.M 260.0000:
STEP.M 0.1250:
NULL. -999.2500:
UWI. F10016:
~C
DEPT.M :
GR.API :
RML.OHMM :
RI. :
RXO.OHMM :
CALI.CM :
DEN.GM/CC :
SP.MV :
~A
# ...
  199.0000    68.8510    19.5210    18.8170    20.4740    24.0200     2.2650   -14.5810 
  199.1250    72.5720    20.3540    19.6890    21.5410    24.0090     2.2540   -14.6290 
  199.2500    71.3090    21.4660    20.7750    24.1860    24.0150     2.2470   -14.7190 
  199.3750    67.6210    22.6080    21.7940    27.8840    24.0540     2.2480   -14.7860 
  199.5000    66.1270    23.4640    22.4580    29.1360    24.0860     2.2570   -14.7890 
  199.6250    68.3940    23.5340    22.3740    25.8050    24.1080     2.2750   -14.7700 
  199.7500    70.7350    22.6370    21.4540    21.9250    24.0710     2.2960   -14.7860 
  199.8750    71.4690    20.7770    19.7160    20.9910    24.0210     2.3180   -14.8240 
  200.0000    71.3620    18.2860    17.4350    21.7310    24.0280     2.3370   -14.8560 
  200.1250    73.6620    15.8320    15.1480    15.8550    24.0800     2.3500   -14.8910 
  200.2500    78.5010    14.0920    13.4110    11.3710    24.1680     2.3540   -14.9630 
  200.3750    81.5830    13.5070    12.6020    10.9160    24.2200     2.3490   -15.0890 
  200.5000    78.4460    14.3500    12.9860    14.6000    24.2180     2.3330   -15.2530 
  200.6250    70.5200    16.9390    14.9690    20.7480    24.1530     2.3110   -15.4190 
  200.7500    65.7590    20.7220    18.2720    25.7210    24.0390     2.2860   -15.5790 
  200.8750    65.7340    24.9060    22.3730    33.6260    23.9580     2.2620   -15.7580 
  201.0000    67.4330    28.2400    26.1330    42.0300    23.9260     2.2430   -15.9550 
  201.1250    67.2000    29.0180    27.6830    43.0080    23.9520     2.2360   -16.0900 
  201.2500    64.8780    27.3120    26.7090    31.0320    23.9730     2.2430   -16.1350 
  201.3750    63.2100    23.9900    23.9140    20.8570    23.9930     2.2650   -16.1510 
  201.5000    64.7760    20.2980    20.4880    15.3280    23.9720     2.2960   -16.2110 
  201.6250    68.9130    17.3730    17.5060    13.2860    23.9120     2.3240   -16.2980 
  201.7500    71.9900    15.4800    15.3330    12.7750    23.8510     2.3420   -16.3570 
  201.8750    71.5180    14.5320    14.0010    13.1210    23.8970     2.3490   -16.4080 
  202.0000    69.8810    14.2730    13.3820    13.4020    24.0180     2.3490   -16.4980 
  202.1250    71.6500    14.4270    13.2920    13.3540    24.0950     2.3460   -16.6660 
  202.2500    74.4940    14.6620    13.3770    13.3140    24.1080     2.3420   -16.8640 
  202.3750    73.6430    14.8600    13.4770    13.3850    24.0590     2.3400   -17.0350 
  202.5000    68.8890    15.0250    13.5690    13.6850    23.9530     2.3370   -17.1510 
  202.6250    65.7770    15.2910    13.7610    14.0430    23.8310     2.3340   -17.2740 
  202.7500    65.8150    15.7950    14.1470    14.8580    23.7800     2.3310   -17.4440 
  202.8750    67.0710    16.6220    14.7810    16.4100    23.7590     2.3290   -17.6180 
  203.0000    68.7910    17.7870    15.6860    19.1680    23.7140     2.3280   -17.7490 
  203.1250    70.0590    19.2900    16.9260    22.9840    23.6280     2.3290   -17.8470 
  203.2500    69.3930    21.0080    18.4290    24.4090    23.6120     2.3280   -17.9960 
  203.3750    68.6990    22.8860    20.1110    24.8330    23.7130     2.3230   -18.2240 
  203.5000    69.6810    24.8970    21.8670    26.2940    23.7770     2.3100   -18.4750 
  203.6250    69.3190    27.0590    23.6290    28.9220    23.6490     2.2880   -18.6840 
  203.7500    67.6910    29.3390    25.4130    31.9220    23.5780     2.2620   -18.8750 
  203.8750    66.7250    31.6980    27.2450    33.9640    23.5960     2.2390   -19.0750 
  204.0000    66.7210    34.0720    29.1020    35.6310    23.6340     2.2240   -19.2870 
  204.1250    64.5980    36.3810    30.9020    37.8270    23.7480     2.2230   -19.4930 
  204.2500    61.3220    38.6200    32.6390    39.8730    23.8480     2.2310   -19.6470 
  204.3750    59.2450    40.8590    34.4070    41.7970    23.9740     2.2410   -19.7740 
  204.5000    58.7330    43.2280    36.3490    44.1120    24.0520     2.2460   -19.9400 
  204.6250    60.6640    45.9350    38.6170    46.6780    24.0190     2.2440   -20.1380 
  204.7500    63.3810    49.0190    41.1770    49.3240    23.9870     2.2410   -20.3370 
  204.8750    65.2910    52.4170    43.9980    52.4540    24.0000     2.2390   -20.5260 
  205.0000    65.2800    55.8570    47.0040    56.5880    24.0160     2.2400   -20.6970 
  205.1250    63.9820    58.6180    49.8870    62.0330    24.0070     2.2400   -20.8710 
  205.2500    63.1560    60.0550    52.1280    66.5310    24.0290     2.2370   -21.0850 
  205.3750    63.2760    59.8430    53.2870    67.7280    24.0670     2.2320   -21.3070 
  205.5000    64.7050    58.3270    53.3380    65.4960    24.0860     2.2290   -21.4720 
  205.6250    66.0260    56.7230    52.9650    60.0820    24.0750     2.2260   -21.5760 
  205.7500    65.8150    56.5870    53.4540    56.2880    24.0400     2.2190   -21.6640 
  205.8750    64.7960    58.8850    55.7210    62.7810    23.9840     2.2140   -21.7530 
  206.0000    64.4540    63.5250    59.8410    75.6950    23.9400     2.2260   -21.8320 
  206.1250    66.3350    67.9540    63.7460    85.2060    23.9510     2.2830   -21.8290 
  206.2500    67.1420    67.5700    63.4260    78.2180    24.0120     2.3840   -21.7010 
  206.3750    65.0970    59.4730    56.1770    62.9150    24.0660     2.5030   -21.4350 
  206.5000    61.5870    45.1070    43.1500    45.3900    24.0540     2.5990   -21.0880 
  206.6250    61.3340    30.0320    29.3150    25.6560    23.9750     2.6260   -20.6620 
  206.7500    65.0260    18.6820    18.7490    12.2750    23.8960     2.5950   -20.1630 
  206.8750    70.9840    11.7120    12.0640     6.5300    23.8010     2.5380   -19.6410 
  207.0000    77.3460     8.1930     8.4410     5.3900    23.6720     2.4900   -19.1590 
  207.1250    80.4610     7.1900     7.1190     6.7050    23.5130     2.4710   -18.7500 
  207.2500    80.3760     7.4290     7.0470     8.5330    23.2900     2.4700   -18.4110 
  207.3750    81.5320     8.4120     7.7900     9.3080    23.1000     2.4700   -18.1460 
  207.5000    87.5050     9.7420     8.9310     9.3280    23.0160     2.4680   -17.9630 
  207.6250    95.6680    10.8220    10.0020     9.3920    23.0220     2.4640   -17.9150 
  207.7500   100.5760    11.3560    10.7280     9.4230    23.0700     2.4620   -17.9320 
  207.8750   102.7120    11.4910    11.0730     9.4400    23.1230     2.4620   -17.9490 
  208.0000   104.1590    11.3920    11.1120     9.5910    23.2020     2.4570   -17.9500 
  208.1250   106.9570    11.2060    10.9040     9.8590    23.4030     2.4460   -17.9900 
  208.2500   113.0150    10.9050    10.5530    10.0390    23.7150     2.4300   -18.0880 
  208.3750   119.7610    10.5180    10.1230    10.0310    24.0470     2.4140   -18.2400 
  208.5000   123.8760    10.0260     9.6890    10.0050    24.2460     2.4010   -18.4330 
  208.6250   125.4710     9.5870     9.3750    10.0140    24.3160     2.3970   -18.6930 
  208.7500   125.7260     9.5300     9.2990    10.1380    24.3210     2.4040   -19.0640 
  208.8750   124.1130    10.1680     9.6200    10.8060    24.2990     2.4220   -19.5540 
  209.0000   118.2240    11.5380    10.5060    12.9260    24.2600     2.4510   -20.1230 
  209.1250   107.0170    13.6480    12.1780    17.6520    24.2030     2.4810   -20.7270 
  209.2500    94.6060    16.1570    14.4250    22.8440    24.1230     2.5030   -21.3440 
  209.3750    85.0070    18.7090    16.9370    23.7720    24.0320     2.5060   -22.0020 
  209.5000    79.4820    20.9240    19.3050    22.7140    23.9460     2.4870   -22.7110 
  209.6250    78.0140    22.5350    21.1470    22.7240    23.8960     2.4450   -23.4040 
  209.7500    80.1990    23.8740    22.6100    24.2790    23.8720     2.3990   -24.0390 
  209.8750    82.1990    25.4440    24.0580    26.8970    23.8760     2.3610   -24.6370 
  210.0000    79.1580    27.7490    25.9380    30.9800    23.8780     2.3450   -25.2440 
  210.1250    73.2710    31.1790    28.7240    37.5990    23.8920     2.3580   -25.8530 
