~V
VERS. 2.00: Ver 2.00
~W
STRT.M 50.0000:
STOP.M 278.0000:
STEP.M 0.1250:
NULL. -999.2500:
UWI. F10031:
~C
DEPT.M :
GR.API :
RML.OHMM :
RI. :
RXO.OHMM :
CALI.CM :
DEN.GM/CC :
SP.MV :
~A
# ...
  263.7500    28.3340     4.3370     4.0540     4.2740    23.3560     2.4060    -4.3570 
  263.8750    27.3410     4.2470     4.0000     4.2200    23.3500     2.4130    -4.3780 
  264.0000    26.6080     4.0790     3.8730     3.9740    23.3470     2.4090    -4.4210 
  264.1250    26.4580     3.8640     3.6900     3.5310    23.3400     2.3910    -4.4540 
  264.2500    26.7190     3.6640     3.5040     3.2320    23.3270     2.3670    -4.4860 
  264.3750    27.0410     3.5170     3.3510     3.1510    23.3150     2.3430    -4.5200 
  264.5000    27.4020     3.4420     3.2500     3.1660    23.3140     2.3220    -4.5500 
  264.6250    27.1340     3.4380     3.2080     3.2100    23.3230     2.3050    -4.5970 
  264.7500    26.1180     3.4640     3.1960     3.2350    23.3350     2.2920    -4.6360 
  264.8750    25.1080     3.4850     3.1900     3.2470    23.3410     2.2820    -4.6540 
  265.0000    25.3120     3.4730     3.1680     3.2250    23.3580     2.2780    -4.6600 
  265.1250    27.4870     3.4050     3.1170     3.1710    23.3420     2.2810    -4.6460 
  265.2500    29.6000     3.3020     3.0480     3.1220    23.3110     2.2900    -4.6190 
  265.3750    30.4320     3.2020     2.9880     3.1150    23.2840     2.3040    -4.5900 
  265.5000    29.9300     3.1780     2.9840     3.2430    23.2710     2.3220    -4.5490 
  265.6250    28.7830     3.3650     3.1340     3.6930    23.2590     2.3430    -4.5330 
  265.7500    27.8450     3.8150     3.4860     4.7140    23.2420     2.3670    -4.5610 
  265.8750    27.2360     4.5210     4.0520     6.4530    23.2320     2.3910    -4.6090 
  266.0000    26.9150     5.3700     4.7600     8.5740    23.2440     2.4150    -4.6490 
  266.1250    27.1350     6.0970     5.4140    10.2900    23.2720     2.4330    -4.6900 
  266.2500    27.5590     6.4450     5.7870    10.4210    23.2670     2.4420    -4.7340 
  266.3750    27.2210     6.2830     5.7380     8.1420    23.1740     2.4400    -4.7710 
  266.5000    25.6120     5.6680     5.2830     5.3050    23.0450     2.4280    -4.8130 
  266.6250    24.3170     4.8320     4.5910     3.9710    23.0130     2.4090    -4.8300 
  266.7500    24.4460     4.1030     3.9430     3.4860    23.0850     2.3930    -4.8330 
  266.8750    25.4270     3.6380     3.4850     3.4210    23.1580     2.3820    -4.8520 
  267.0000    26.2930     3.4990     3.2870     3.7230    23.2050     2.3800    -4.9080 
  267.1250    27.2670     3.7390     3.4130     4.5590    23.2370     2.3850    -5.0100 
  267.2500    28.7690     4.2630     3.8050     5.7840    23.2750     2.3920    -5.1400 
  267.3750    30.0040     4.9980     4.4170     7.1730    23.3120     2.4000    -5.2870 
  267.5000    30.1920     5.8210     5.1570     8.4680    23.3310     2.4070    -5.4690 
  267.6250    30.1920     6.5110     5.8450     8.9380    23.3350     2.4110    -5.6880 
  267.7500    30.1920     6.8850     6.2910     8.7830    23.3340     2.4110    -5.8900 
  267.8750    30.1920     6.8480     6.3760     8.2230    23.3330     2.4050    -6.0400 
  268.0000    30.1920     6.4240     6.0920     7.4900    23.3320     2.3960    -6.1160 
  268.1250    30.1920     5.7450     5.5240     6.3300    23.3270     2.3870    -6.0870 
  268.2500    30.1920     5.0580     4.8970     5.0220    23.3200     2.3810    -5.9830 
  268.3750    30.1920     4.5040     4.3480     4.1860    23.3180     2.3810    -5.8290 
  268.5000    30.1920     4.1570     3.9550     3.9060    23.3170     2.3830    -5.6220 
  268.6250    30.1920     4.0680     3.7850     3.9220    23.3090     2.3860    -5.3800 
  268.7500    30.1920     4.1680     3.7950     4.0500    23.2940     2.3870    -5.1520 
  268.8750    30.1920     4.3950     3.9470     4.3950    23.2800     2.3870    -4.9640 
  269.0000    30.1920     4.6650     4.1770     4.9160    23.2750     2.3850    -4.8600 
  269.1250    30.1920     4.8720     4.3980     5.4640    23.2740     2.3820    -4.8610 
  269.2500    30.1920     4.9580     4.5390     5.7870    23.2720     2.3800    -4.8950 
  269.3750    30.1920     4.9190     4.5770     5.5350    23.2710     2.3860    -4.9320 
  269.5000    30.1920     4.7960     4.5260     4.8440    23.2760     2.4030    -4.9830 
  269.6250    30.1920     4.6470     4.4240     4.8680    23.2940     2.4270    -5.0280 
  269.7500    30.1920     4.5110     4.3090     5.3710    23.3340     2.4440    -5.0330 
  269.8750    30.1920     4.3810     4.1870     5.9190    23.4010     2.4410    -4.9720 
  270.0000    30.1920     4.2420     4.0540     5.9120    23.4760     2.4140    -4.8440 
  270.1250    30.1920     4.0930     3.9160     5.2860    23.5210     2.3780    -4.6780 
  270.2500    30.1920     3.9550     3.7940     4.4500    23.5410     2.3530    -4.5390 
  270.3750    30.1920     3.8530     3.7040     3.8250    23.5390     2.3480    -4.4200 
  270.5000    30.1920     3.7930     3.6520     3.4810    23.5210     2.3590    -4.3210 
  270.6250    30.1920     3.7720     3.6320     3.3570    23.4690     2.3740    -4.2390 
  270.7500    30.1920     3.7670     3.6260     3.3160    23.3860     2.3800    -4.1730 
  270.8750    30.1920     3.7660     3.6230     3.2990    23.3030     2.3750    -4.1770 
  271.0000    30.1920     3.7640     3.6210     3.3200    23.2500     2.3630    -4.2230 
  271.1250    30.1920     3.7600     3.6190     3.4260    23.2100     2.3490    -4.2620 
  271.2500    30.1920     3.7530     3.6190     3.6360    23.1700     2.3410    -4.3140 
  271.3750    30.1920     3.7440     3.6180     3.9520    23.1510     2.3420    -4.3980 
  271.5000    30.1920     3.7370     3.6180     4.3840    23.1560     2.3510    -4.4930 
  271.6250    30.1920     3.7350     3.6180     4.7510    23.1760     2.3650    -4.5790 
  271.7500    30.1920     3.7380     3.6180     4.8350    23.2000     2.3790    -4.6730 
  271.8750    30.1920     3.7430     3.6180     4.7010    23.2110     2.3860    -4.7580 
  272.0000    30.1920     3.7470     3.6190     4.7060    23.2130     2.3830    -4.8350 
  272.1250    30.1920     3.7480     3.6200     4.7250    23.2090     2.3730    -4.9160 
  272.2500    30.1920     3.7450     3.6200     4.6840    23.2070     2.3580    -4.9790 
  272.3750    30.1920     3.7410     3.6200     4.4580    23.2030     2.3390    -5.0320 
  272.5000    30.1920     3.7400     3.6190     3.9920    23.1980     2.3250    -5.0680 
  272.6250    30.1920     3.7410     3.6190     3.6300    23.1960     2.3210    -5.1170 
  272.7500    30.1920     3.7450     3.6180     3.5020    23.1940     2.3270    -5.1920 
  272.8750    30.1920     3.7480     3.6170     3.4770    23.1910     2.3420    -5.2610 
  273.0000    30.1920     3.7500     3.6170     3.4150    23.1850     2.3550    -5.2960 
  273.1250    30.1920     3.7500     3.6170     3.3820    23.1730     2.3600    -5.3090 
  273.2500    30.1920     3.7500     3.6170     3.3730    23.1520     2.3540    -5.3000 
  273.3750    30.1920     3.7500     3.6170     3.3790    23.1340     2.3390    -5.2630 
  273.5000    30.1920     3.7500     3.6170     3.3140    23.1270     2.3230    -5.1910 
  273.6250    30.1920     3.7500     3.6170     3.1910    23.1270     2.3140    -5.0980 
  273.7500    30.1920     3.7500     3.6170     3.1590    23.1280     2.3140    -5.0020 
  273.8750    30.1920     3.7500     3.6170     3.1810    23.1320     2.3210    -4.8950 
  274.0000    30.1920     3.7500     3.6170     3.2530    23.1420     2.3290    -4.8190 
  274.1250    30.1920     3.7500     3.6170     3.3920    23.1650     2.3330    -4.7580 
  274.2500    30.1920     3.7500     3.6170     3.6130    23.2050     2.3340    -4.6710 
  274.3750    30.1920     3.7500     3.6170     3.9390    23.2480     2.3330    -4.6370 
  274.5000    30.1920     3.7500     3.6170     4.3800    23.2610     2.3230    -4.6470 
  274.6250    30.1920     3.7500     3.6170     4.8020    23.2130     2.2950    -4.6440 
  274.7500    30.1920     3.7500     3.6170     5.1060    23.0950     2.2320    -4.6460 
  274.8750    30.1920     3.7500     3.6170     5.0900    22.9200     2.1150    -4.6340 
