~V
VERS. 2.00: Ver 2.00
~W
STRT.M 64.0000:
STOP.M 260.0000:
STEP.M 0.1250:
NULL. -999.2500:
UWI. F10016:
~C
DEPT.M :
GR.API :
RML.OHMM :
RI. :
RXO.OHMM :
CALI.CM :
DEN.GM/CC :
SP.MV :
~A
# ...
  176.5000    84.4110    16.3500    14.7940    15.9620    24.0430     2.3580   -19.6470 
  176.6250    84.1450    16.6710    14.6270    17.0840    24.1010     2.3400   -20.0100 
  176.7500    82.9610    17.8520    15.3010    19.0200    24.1370     2.3360   -20.2640 
  176.8750    83.0510    19.8000    16.8040    21.9590    24.1330     2.3350   -20.4350 
  177.0000    82.8500    22.4160    19.0290    27.1290    24.1560     2.3270   -20.5810 
  177.1250    80.2990    25.6960    21.9010    34.1140    24.2440     2.3160   -20.7180 
  177.2500    77.8650    29.4430    25.1930    38.0640    24.2870     2.3180   -20.8040 
  177.3750    76.2720    33.5310    28.8350    38.5190    24.2570     2.3480   -20.8430 
  177.5000    74.8940    37.7880    32.7470    41.5860    24.1990     2.4060   -20.9170 
  177.6250    74.4770    41.9830    36.7840    49.1080    24.1790     2.4660   -21.0420 
  177.7500    76.0100    45.9300    40.7320    53.5900    24.1940     2.4980   -21.1360 
  177.8750    77.7170    49.5520    44.5040    54.9910    24.2370     2.4890   -21.1760 
  178.0000    76.8040    52.8840    48.1390    61.1080    24.2760     2.4450   -21.1430 
  178.1250    73.2650    56.0870    51.7360    66.4070    24.3030     2.3890   -21.0630 
  178.2500    71.4240    59.4350    55.3330    67.4630    24.3520     2.3420   -20.9560 
  178.3750    73.1690    62.9680    58.7670    66.8860    24.3720     2.3090   -20.7720 
  178.5000    75.9700    66.0140    61.4060    75.3750    24.3550     2.2870   -20.4470 
  178.6250    77.2320    65.9460    61.1100    75.9870    24.3360     2.2750   -19.9710 
  178.7500    76.4380    60.7430    56.3160    74.7640    24.3080     2.2730   -19.4340 
  178.8750    74.8350    50.2710    46.8810    67.3910    24.2790     2.2830   -18.8460 
  179.0000    74.7490    37.0880    34.9540    47.5470    24.2640     2.3040   -18.2070 
  179.1250    75.9670    25.2730    24.0870    25.3150    24.2100     2.3300   -17.4740 
  179.2500    74.8290    16.7500    16.0570    11.9940    24.1340     2.3530   -16.6690 
  179.3750    68.1880    11.5120    10.9160     7.8120    24.0650     2.3710   -15.8860 
  179.5000    58.6080     8.7930     8.0360     6.9690    24.0230     2.3830   -15.2040 
  179.6250    51.0400     7.7430     6.8810     7.1450    24.0020     2.3920   -14.6160 
  179.7500    46.9490     7.2760     6.6040     7.2440    23.9810     2.3990   -14.0750 
  179.8750    44.6240     7.1020     6.8100     7.2250    23.9680     2.4000   -13.5970 
  180.0000    43.3480     7.2470     7.1940     7.0730    23.9630     2.3960   -13.2140 
  180.1250    44.3730     7.5550     7.5470     7.0840    23.9620     2.3870   -12.9240 
  180.2500    47.4330     7.8670     7.8060     7.0050    23.9490     2.3810   -12.6680 
  180.3750    49.9630     8.0230     7.9690     6.8980    23.8810     2.3810   -12.4210 
  180.5000    49.4580     8.0820     8.0360     6.7750    23.7140     2.3890   -12.2010 
  180.6250    47.0280     8.1250     8.0110     6.7420    23.5580     2.4010   -12.0150 
  180.7500    46.0260     8.1430     7.9640     6.7020    23.5230     2.4110   -11.8560 
  180.8750    47.5210     8.1250     7.9430     6.6380    23.5730     2.4150   -11.7070 
  181.0000    51.0770     8.0900     7.9580     6.6110    23.6340     2.4140   -11.5480 
  181.1250    54.8970     8.0840     7.9530     6.5630    23.6740     2.4080   -11.4580 
  181.2500    57.8220     8.1060     7.8740     6.4500    23.6960     2.4010   -11.4590 
  181.3750    61.2300     8.0170     7.7020     6.3250    23.7010     2.3920   -11.4930 
  181.5000    67.3950     7.7820     7.4460     6.2460    23.6980     2.3840   -11.4990 
  181.6250    74.9380     7.4370     7.1150     6.2630    23.6740     2.3820   -11.5190 
  181.7500    79.3770     7.0880     6.7470     6.0950    23.5950     2.3880   -11.6120 
  181.8750    80.5860     6.8540     6.3890     5.8270    23.5120     2.4020   -11.7550 
  182.0000    80.9510     6.7600     6.1210     5.8340    23.4860     2.4190   -11.9080 
  182.1250    80.6000     6.8260     6.0510     6.5560    23.6250     2.4300   -12.0270 
  182.2500    79.0830     7.0250     6.1700     7.9690    23.8580     2.4330   -12.1400 
  182.3750    76.4150     7.3710     6.4430     9.0400    24.0730     2.4330   -12.2940 
  182.5000    73.3870     7.9110     6.8390     9.6100    24.1770     2.4360   -12.5000 
  182.6250    71.0540     8.7890     7.4350    10.5630    24.1710     2.4460   -12.7040 
  182.7500    69.8690    10.0700     8.3420    12.5890    24.1590     2.4520   -12.8540 
  182.8750    68.2740    11.8120     9.6890    17.3290    24.1320     2.4440   -12.9810 
  183.0000    66.0500    13.9760    11.5140    20.4540    24.0990     2.4160   -13.1350 
  183.1250    64.3480    16.3590    13.7010    22.4570    24.0390     2.3760   -13.3180 
  183.2500    63.3610    18.5400    15.8430    24.4270    23.9620     2.3390   -13.4890 
  183.3750    63.7800    20.1940    17.6120    26.8910    23.9390     2.3150   -13.6050 
  183.5000    66.7940    21.2130    18.8460    27.6120    24.0150     2.3040   -13.6900 
  183.6250    71.3890    21.7920    19.6070    26.0550    24.1210     2.3030   -13.8080 
  183.7500    72.9040    22.4870    20.3040    24.4450    24.1790     2.3010   -13.9400 
  183.8750    70.2190    23.6730    21.2610    24.9310    24.1820     2.2950   -14.0590 
  184.0000    67.5670    25.4950    22.6950    28.5520    24.1490     2.2840   -14.1230 
  184.1250    68.5420    27.8030    24.6760    35.0260    24.1160     2.2690   -14.1570 
  184.2500    69.7220    29.9950    26.7850    39.2220    24.1680     2.2520   -14.2150 
  184.3750    68.6030    31.5160    28.5200    38.6540    24.2340     2.2410   -14.2870 
  184.5000    67.9200    31.9820    29.4280    35.4680    24.2680     2.2420   -14.3130 
  184.6250    69.3930    31.1790    29.1830    32.1440    24.2460     2.2630   -14.2810 
  184.7500    69.8420    29.5970    28.1360    30.4030    24.2000     2.2900   -14.2430 
  184.8750    69.6000    27.5990    26.5630    28.5940    24.1140     2.3100   -14.2140 
  185.0000    71.0330    25.4810    24.6940    24.9870    24.0430     2.3130   -14.2090 
  185.1250    71.7480    23.4700    22.7300    22.7330    23.9800     2.2970   -14.1850 
  185.2500    70.2770    21.6640    20.8800    21.2760    23.8950     2.2780   -14.1050 
  185.3750    69.8970    20.0890    19.2590    20.0830    23.8190     2.2670   -13.9940 
  185.5000    73.0010    18.7200    17.8810    18.7610    23.7840     2.2680   -13.8920 
  185.6250    76.7610    17.5380    16.7030    17.5240    23.7850     2.2770   -13.8120 
  185.7500    78.8320    16.5250    15.6690    16.4900    23.8080     2.2880   -13.7570 
  185.8750    78.8270    15.7750    14.8620    15.3220    23.8690     2.2990   -13.6930 
  186.0000    77.6880    15.4220    14.4280    14.2110    23.9310     2.3100   -13.5860 
  186.1250    76.2270    15.6700    14.5640    15.2730    23.9780     2.3200   -13.5090 
  186.2500    74.2970    16.4180    15.1640    18.8990    24.0390     2.3270   -13.5070 
  186.3750    71.7160    17.5140    16.0870    21.8780    24.0990     2.3280   -13.5510 
  186.5000    68.4040    18.7140    17.1480    22.4170    24.1350     2.3230   -13.5990 
  186.6250    66.4810    19.7070    18.1530    21.6860    24.1550     2.3160   -13.6280 
  186.7500    65.8940    20.3740    19.0030    21.2470    24.1510     2.3110   -13.6540 
  186.8750    66.3980    20.7710    19.6930    22.4940    24.1120     2.3080   -13.7070 
  187.0000    66.3990    21.0780    20.2770    22.9400    24.0720     2.3090   -13.7820 
  187.1250    64.1020    21.5600    20.8650    22.3630    24.0680     2.3110   -13.8110 
  187.2500    62.5620    22.3550    21.5920    23.4780    24.1080     2.3110   -13.8030 
  187.3750    64.5180    23.4810    22.5740    27.6580    24.1350     2.3070   -13.8180 
  187.5000    67.9210    24.8250    23.8520    32.1730    24.1160     2.3010   -13.8610 
  187.6250    68.1250    26.0750    25.2900    30.8580    24.0930     2.2950   -13.9100 
