~V
VERS. 2.00: Ver 2.00
~W
STRT.M 50.0000:
STOP.M 293.0000:
STEP.M 0.1250:
NULL. -999.2500:
UWI. F10037:
~C
DEPT.M :
GR.API :
RML.OHMM :
RI. :
RXO.OHMM :
CALI.CM :
SP.MV :
DEN.GM/CC :
~A
# ...
  117.5000    56.2810    10.0100     8.3520    13.3130    23.3820    -9.4050     2.1700 
  117.6250    56.2890     9.8710     8.2740    12.1520    23.0740    -9.3140     2.1540 
  117.7500    59.7900     9.6850     8.1260    10.5070    22.7550    -9.2320     2.1520 
  117.8750    62.8300     9.5420     7.9760     9.9170    22.5430    -9.1900     2.1640 
  118.0000    63.1660     9.4640     7.8650     9.8550    22.5250    -9.1310     2.1850 
  118.1250    62.4920     9.4000     7.7880     9.8130    22.7210    -9.0590     2.2060 
  118.2500    61.6390     9.2640     7.6980     9.6110    23.0420    -8.9540     2.2210 
  118.3750    61.7060     9.0160     7.5600     9.2090    23.3970    -8.8030     2.2280 
  118.5000    63.3410     8.6770     7.3670     8.6860    23.6430    -8.6060     2.2300 
  118.6250    66.4240     8.3300     7.1510     8.1520    23.7710    -8.4050     2.2290 
  118.7500    67.8870     8.0600     6.9640     7.8140    23.8810    -8.2340     2.2280 
  118.8750    66.5700     7.9030     6.8350     7.8100    23.9820    -8.0170     2.2280 
  119.0000    63.8710     7.8590     6.7730     8.0190    24.0240    -7.8000     2.2300 
  119.1250    63.2170     7.9050     6.7750     8.1470    24.0310    -7.4950     2.2350 
  119.2500    64.8820     7.9700     6.8010     7.9320    24.0710    -7.1470     2.2430 
  119.3750    65.2890     7.9860     6.8090     7.6320    24.1420    -6.7440     2.2520 
  119.5000    63.6230     7.8810     6.7450     7.4490    24.2190    -6.3170     2.2610 
  119.6250    64.3220     7.5680     6.5390     7.3890    24.2960    -5.7770     2.2710 
  119.7500    68.5540     7.0840     6.2000     7.1980    24.3710    -5.1150     2.2800 
  119.8750    73.4810     6.5040     5.7650     6.7450    24.4560    -4.4160     2.2890 
  120.0000    77.1220     5.9390     5.3020     6.0010    24.5510    -3.6740     2.2980 
  120.1250    80.9230     5.5220     4.9100     5.3050    24.6270    -3.0360     2.3030 
  120.2500    84.2040     5.2840     4.6350     5.0350    24.6400    -2.4720     2.3010 
  120.3750    83.7370     5.2070     4.4860     5.1260    24.6110    -2.0080     2.2920 
  120.5000    78.7990     5.2350     4.4390     5.2820    24.5510    -1.6300     2.2790 
  120.6250    74.0640     5.3000     4.4580     5.2860    24.4500    -1.4160     2.2690 
  120.7500    74.1230     5.3490     4.4960     5.1600    24.3120    -1.3280     2.2690 
  120.8750    77.9300     5.3780     4.5380     5.0260    24.1540    -1.3530     2.2820 
  121.0000    81.2050     5.4070     4.5850     4.9380    23.9890    -1.4530     2.3040 
  121.1250    81.1770     5.4600     4.6440     4.8890    23.8360    -1.6170     2.3310 
  121.2500    80.3420     5.5210     4.7040     5.0060    23.6940    -1.8250     2.3530 
  121.3750    79.9750     5.5550     4.7460     5.3110    23.5420    -2.0460     2.3700 
  121.5000    79.2500     5.5290     4.7430     5.6700    23.3760    -2.2770     2.3800 
  121.6250    77.7100     5.4160     4.6730     5.9080    23.2120    -2.4800     2.3830 
  121.7500    76.8050     5.2510     4.5580     5.9720    23.0830    -2.7280     2.3840 
  121.8750    78.0260     5.0840     4.4330     5.8180    23.0100    -2.9820     2.3840 
  122.0000    80.3840     4.9810     4.3490     5.3950    22.9780    -3.3020     2.3820 
  122.1250    80.7520     5.0470     4.3810     5.3740    22.9580    -3.6380     2.3760 
  122.2500    77.9280     5.3080     4.5550     5.5010    22.9340    -4.0250     2.3650 
  122.3750    72.7980     5.7680     4.8770     5.7500    22.9060    -4.4310     2.3480 
  122.5000    67.9060     6.3750     5.3240     6.1120    22.8690    -4.8830     2.3260 
  122.6250    65.4690     7.0050     5.8190     6.5750    22.8160    -5.3560     2.3010 
  122.7500    65.7930     7.4820     6.2320     6.9960    22.7490    -5.7650     2.2780 
  122.8750    67.2040     7.6760     6.4580     7.2610    22.6820    -6.1230     2.2630 
  123.0000    67.0310     7.5370     6.4380     7.2710    22.6250    -6.3780     2.2570 
  123.1250    66.5310     7.1200     6.1790     6.9910    22.5760    -6.5570     2.2660 
  123.2500    68.2700     6.6630     5.8440     6.6960    22.5400    -6.6380     2.2850 
  123.3750    70.1880     6.3380     5.5650     6.5320    22.5020    -6.6960     2.3100 
  123.5000    68.8990     6.2540     5.4410     6.6470    22.4600    -6.7200     2.3330 
  123.6250    67.7050     6.4890     5.5610     7.2020    22.4500    -6.7540     2.3430 
  123.7500    68.8290     6.9650     5.8940     7.7450    22.4880    -6.7930     2.3360 
  123.8750    67.6870     7.6290     6.4220     8.0310    22.5830    -6.8470     2.3170 
  124.0000    61.9160     8.4420     7.1220     8.2720    22.7080    -6.9030     2.2910 
  124.1250    58.9480     9.4050     8.0030     8.6680    22.8040    -6.9320     2.2610 
  124.2500    60.2180    10.4770     9.0100     9.1210    22.8370    -6.9210     2.2330 
  124.3750    60.0170    11.5650    10.0600     9.4310    22.8190    -6.8240     2.2120 
  124.5000    57.4340    12.4580    10.9810     9.4480    22.7700    -6.6280     2.2090 
  124.6250    56.5900    12.7090    11.4170     9.1390    22.6900    -6.2730     2.2410 
  124.7500    59.2020    12.1370    11.1890     8.5830    22.6160    -5.8810     2.3020 
  124.8750    62.6150    10.7840    10.2720     7.8410    22.5910    -5.4240     2.3730 
  125.0000    64.7150     9.0090     8.8810     6.9500    22.6320    -4.9800     2.4290 
  125.1250    66.7220     7.4010     7.4240     6.1550    22.6970    -4.5460     2.4420 
  125.2500    70.6050     6.3070     6.2580     5.6880    22.7310    -4.1780     2.4270 
  125.3750    76.2920     5.7850     5.5080     5.5460    22.7010    -3.8700     2.4030 
  125.5000    80.5100     5.7240     5.1550     5.5360    22.6350    -3.6440     2.3840 
  125.6250    81.7570     5.9240     5.1020     5.6940    22.5890    -3.5320     2.3700 
  125.7500    82.8240     6.0800     5.1210     5.9790    22.5860    -3.4210     2.3560 
  125.8750    83.7910     6.0210     5.0730     6.0590    22.6290    -3.3650     2.3410 
  126.0000    84.5560     5.7070     4.8890     5.7810    22.7240    -3.2780     2.3340 
  126.1250    86.6080     5.2450     4.5900     5.1670    22.8800    -3.2030     2.3410 
  126.2500    89.2020     4.8350     4.2940     4.6560    23.0670    -3.1250     2.3560 
  126.3750    88.6070     4.5760     4.0860     4.5770    23.2320    -3.0650     2.3670 
  126.5000    84.3950     4.5200     4.0320     5.0210    23.3310    -2.9850     2.3620 
  126.6250    80.5380     4.8070     4.2700     5.8730    23.4310    -2.8760     2.3380 
  126.7500    77.7650     5.5530     4.8970     6.9080    23.6080    -2.7680     2.3110 
  126.8750    74.6380     6.8840     6.0220     8.5220    23.8880    -2.6320     2.3050 
  127.0000    72.8580     8.7500     7.6230    11.4200    24.2200    -2.5450     2.3370 
  127.1250    72.8690    10.7370     9.4060    16.5560    24.4920    -2.4760     2.4150 
  127.2500    70.6720    12.0730    10.7490    22.0190    24.6580    -2.4380     2.5110 
  127.3750    67.5500    12.1040    11.1000    25.2940    24.7260    -2.3960     2.5910 
  127.5000    68.9460    10.6560    10.2260    23.3420    24.7330    -2.4110     2.6250 
  127.6250    74.2970     8.3760     8.4280    15.5250    24.7150    -2.4980     2.5960 
  127.7500    77.1660     6.4380     6.6220     8.8440    24.6880    -2.6950     2.5370 
  127.8750    78.4630     5.2420     5.2620     5.8980    24.6570    -2.9600     2.4750 
  128.0000    82.0090     4.7410     4.4570     5.2480    24.6240    -3.2780     2.4270 
  128.1250    85.6920     4.7940     4.1910     5.4420    24.6070    -3.5400     2.4010 
  128.2500    85.1090     5.1040     4.2410     5.6380    24.6130    -3.6740     2.3890 
  128.3750    79.9550     5.5110     4.4860     6.0140    24.6450    -4.0330     2.3800 
  128.5000    74.5050     5.9040     4.8250     6.4860    24.6950    -4.3820     2.3670 
  128.6250    71.5020     6.2260     5.1880     6.7740    24.7460    -4.7380     2.3460 
