~V
VERS. 2.00: Ver 2.00
~W
STRT.M 56.0000:
STOP.M 312.0000:
STEP.M 0.1250:
NULL. -999.2500:
UWI. F10077:
~C
DEPT.M :
GR.API :
RML.OHMM :
RI. :
RXO.OHMM :
CALI.CM :
DEN.GM/CC :
SP.MV :
~A
# ...
  101.0000    78.8320     7.4750     6.4840     7.1110    22.9530     2.1940    -8.2360 
  101.1250    82.2520     7.4190     6.3030     6.6820    22.9550     2.2110    -7.9920 
  101.2500    81.4750     8.0480     6.5600     7.0370    22.9530     2.2470    -7.7750 
  101.3750    79.0590     9.3130     7.2740     8.4960    22.9690     2.3080    -7.6150 
  101.5000    75.6870    10.9330     8.3370    12.3800    23.0020     2.3830    -7.5660 
  101.6250    69.8250    12.2290     9.3590    17.9440    23.0590     2.4380    -7.7130 
  101.7500    65.6010    12.5560     9.7960    18.2610    23.1530     2.4420    -7.9950 
  101.8750    66.3010    11.7340     9.4080    13.1470    23.2910     2.3910    -8.3870 
  102.0000    69.1670    10.1600     8.4150     9.8860    23.4180     2.3050    -8.8130 
  102.1250    71.9030     8.6120     7.3370     8.7690    23.4710     2.2260    -9.1100 
  102.2500    75.3790     7.6940     6.6090     8.2060    23.4640     2.1860    -9.2080 
  102.3750    78.8390     7.6500     6.4170     7.6590    23.4060     2.1970    -9.1300 
  102.5000    81.0550     8.5210     6.8330     7.3270    23.2990     2.2610    -8.9230 
  102.6250    80.1950    10.2370     7.9270     9.2040    23.1890     2.3600    -8.6400 
  102.7500    76.6040    12.1480     9.3570    15.2480    23.1310     2.4530    -8.4310 
  102.8750    71.2450    13.4720    10.5880    22.1300    23.2070     2.5000    -8.4160 
  103.0000    66.2590    13.5030    10.9720    19.4460    23.4010     2.4840    -8.6260 
  103.1250    63.6210    12.0890    10.1990    12.3550    23.5090     2.4080    -9.0450 
  103.2500    63.9170    10.2900     9.0060     9.2290    23.3560     2.3150    -9.5660 
  103.3750    67.6190     8.8410     7.9320     7.9410    23.0280     2.2380   -10.1190 
  103.5000    70.3040     8.0690     7.2410     7.4150    22.7630     2.1920   -10.6640 
  103.6250    67.0090     8.0310     7.0400     7.7230    22.7370     2.1790   -11.1500 
  103.7500    62.3860     8.3720     7.1540     8.0580    22.8640     2.1820   -11.5210 
  103.8750    61.6920     8.8340     7.4320     8.2820    23.0210     2.1900   -11.6900 
  104.0000    64.4550     9.1760     7.6970     8.3770    23.1040     2.1960   -11.6310 
  104.1250    66.4770     9.1490     7.7420     8.4180    23.0770     2.1980   -11.3520 
  104.2500    68.3190     8.7590     7.5190     8.5300    23.1030     2.2030   -10.8780 
  104.3750    73.8130     8.1180     7.0850     8.2050    23.2160     2.2200   -10.2030 
  104.5000    82.9810     7.4230     6.5740     7.2240    23.3510     2.2510    -9.3730 
  104.6250    90.9200     6.9180     6.1630     6.3040    23.5320     2.2870    -8.5290 
  104.7500    94.6080     6.7070     5.9460     6.2520    23.9400     2.3110    -7.7890 
  104.8750    93.4850     6.8110     5.9560     6.4860    24.4480     2.3110    -7.2380 
  105.0000    87.9150     7.1890     6.1890     6.8870    24.6790     2.2870    -6.9450 
  105.1250    80.3710     7.7590     6.6210     7.3230    24.5780     2.2470    -6.9770 
  105.2500    74.0400     8.3480     7.1240     7.7500    24.3720     2.2060    -7.3330 
  105.3750    69.5390     8.8400     7.5940     7.8520    24.2110     2.1680    -8.0260 
  105.5000    65.8270     9.1660     7.9530     8.1720    24.0140     2.1340    -8.9560 
  105.6250    62.2050     9.2770     8.1330     8.5030    23.8190     2.1110    -9.8790 
  105.7500    59.3160     9.2400     8.1730     8.5140    23.7420     2.1050   -10.6310 
  105.8750    58.4450     9.1120     8.1190     8.4190    23.7700     2.1220   -11.1570 
  106.0000    60.4960     8.9550     8.0190     8.2860    23.7400     2.1580   -11.4610 
  106.1250    63.2530     8.8430     7.9240     8.1800    23.5660     2.1970   -11.5760 
  106.2500    63.4170     8.8290     7.8780     8.0790    23.3700     2.2230   -11.5600 
  106.3750    61.7660     8.9270     7.9000     7.8850    23.2450     2.2320   -11.4110 
  106.5000    60.4870     9.0820     7.9630     7.7180    23.1700     2.2330   -11.1700 
  106.6250    59.2470     9.1630     7.9850     7.8900    23.0790     2.2390   -10.9400 
  106.7500    58.0180     9.0740     7.8930     8.4310    23.0090     2.2550   -10.7220 
  106.8750    58.2540     8.7970     7.6670     8.9760    22.9770     2.2730   -10.4710 
  107.0000    62.9890     8.4080     7.3480     8.5460    22.9870     2.2810   -10.1420 
  107.1250    70.5960     8.0660     7.0400     7.8260    23.0610     2.2670    -9.7630 
  107.2500    74.8340     7.8900     6.8330     7.6520    23.2260     2.2380    -9.4360 
  107.3750    73.4830     7.9040     6.7650     8.0250    23.4750     2.2100    -9.2080 
  107.5000    70.2770     8.0900     6.8450     8.3120    23.7150     2.1960    -9.0820 
  107.6250    69.8570     8.4320     7.0840     8.3900    23.8260     2.2030    -9.0590 
  107.7500    69.5610     8.8610     7.4290     8.6200    23.8250     2.2160    -9.1620 
  107.8750    66.5750     9.3270     7.8340     8.9280    23.7740     2.2210    -9.4300 
  108.0000    64.5600     9.7770     8.2440     9.0630    23.7210     2.2050    -9.8510 
  108.1250    66.8920    10.1060     8.5780     9.0860    23.6900     2.1690   -10.4170 
  108.2500    68.3450    10.2350     8.7670     9.1120    23.7450     2.1290   -11.0710 
  108.3750    65.6230    10.1390     8.7770     9.2610    23.8960     2.1010   -11.7740 
  108.5000    61.1130     9.8830     8.6410     9.6600    24.0550     2.0900   -12.5150 
  108.6250    59.1600     9.5980     8.4380    10.0900    24.1180     2.0940   -13.2870 
  108.7500    57.6140     9.4040     8.2680    10.1150    24.1580     2.1000   -14.0700 
  108.8750    55.7030     9.3430     8.1790     9.9370    24.1090     2.1020   -14.8360 
  109.0000    55.5770     9.4000     8.1790     9.6220    23.9750     2.0980   -15.5640 
  109.1250    56.7720     9.5190     8.2450     9.5660    23.8890     2.0920   -16.1880 
  109.2500    57.3860     9.6300     8.3260     9.7460    24.0020     2.0910   -16.6820 
  109.3750    57.4540     9.7020     8.3910     9.9800    24.1730     2.0970   -17.0490 
  109.5000    58.6360     9.7200     8.4200    10.2500    24.2800     2.1090   -17.2560 
  109.6250    59.5370     9.6750     8.3950    10.4070    24.2940     2.1280   -17.2570 
  109.7500    58.8850     9.5940     8.3310    10.2780    24.2740     2.1460   -17.0550 
  109.8750    58.0830     9.4990     8.2420     9.7450    24.2500     2.1590   -16.6720 
  110.0000    57.8600     9.4060     8.1470     9.1500    24.1840     2.1640   -16.1630 
  110.1250    59.3850     9.3240     8.0610     8.7190    23.9880     2.1580   -15.5450 
  110.2500    62.3120     9.2430     7.9860     8.6660    23.7170     2.1460   -14.8420 
  110.3750    65.0310     9.1610     7.9240     8.7440    23.4780     2.1330   -14.0810 
  110.5000    66.1160     9.0840     7.8820     8.6900    23.3350     2.1220   -13.3500 
  110.6250    65.2010     9.0410     7.8820     8.5110    23.2960     2.1180   -12.7450 
  110.7500    63.1210     9.0600     7.9410     8.4910    23.2900     2.1200   -12.3010 
  110.8750    61.4220     9.1660     8.0740     8.6950    23.2940     2.1280   -12.0310 
  111.0000    61.7350     9.3630     8.2840     8.9530    23.2960     2.1350   -11.9390 
  111.1250    63.2930     9.5930     8.5330     9.1670    23.2800     2.1350   -11.9980 
  111.2500    63.1760     9.7250     8.7160     9.2690    23.2860     2.1270   -12.1060 
  111.3750    61.6130     9.6330     8.7240     9.3530    23.3350     2.1180   -12.1730 
  111.5000    61.5850     9.2540     8.4840     9.4550    23.3850     2.1190   -12.0540 
  111.6250    65.7630     8.6020     7.9820     9.2980    23.3780     2.1420   -11.5830 
  111.7500    73.9440     7.8710     7.3700     8.4930    23.3350     2.1810   -10.8320 
  111.8750    83.3720     7.2110     6.7740     7.2020    23.3000     2.2260    -9.9200 
  112.0000    88.3820     6.7300     6.2920     6.5020    23.2880     2.2640    -8.9450 
  112.1250    85.5000     6.5080     6.0030     6.3370    23.2930     2.2870    -7.9560 
