~V
VERS. 2.00: Ver 2.00
~W
STRT.M 50.0000:
STOP.M 279.0000:
STEP.M 0.1250:
NULL. -999.2500:
UWI. F10075:
~C
DEPT.M :
GR.API :
RML.OHMM :
RI. :
RXO.OHMM :
CALI.CM :
DEN.GM/CC :
SP.MV :
~A
# ...
  230.0000    66.9250    30.0140    29.3060    30.9800    24.8030     2.2370    -3.5860 
  230.1250    66.4230    30.0820    29.0640    31.6410    24.7130     2.2300    -3.8670 
  230.2500    63.6950    30.4690    29.0900    32.3810    24.5090     2.2360    -4.2540 
  230.3750    61.8420    31.0640    29.3600    32.9920    24.5180     2.2540    -4.7130 
  230.5000    62.6060    31.7400    29.7790    33.4500    24.6820     2.2710    -5.2380 
  230.6250    63.2960    32.5340    30.3430    34.2930    24.7350     2.2740    -5.8260 
  230.7500    63.0060    33.6190    31.1410    34.6940    24.6910     2.2590    -6.4000 
  230.8750    63.2280    35.2100    32.3440    33.6720    24.6090     2.2310    -6.9530 
  231.0000    63.8920    37.4580    34.1080    32.5650    24.5270     2.1990    -7.5010 
  231.1250    63.8500    40.4460    36.5700    33.9370    24.5180     2.1760    -7.9720 
  231.2500    63.3430    43.7750    39.4320    39.6680    24.5560     2.1650    -8.3570 
  231.3750    62.5470    46.9960    42.3160    46.2470    24.5980     2.1630    -8.6760 
  231.5000    62.5720    49.6330    44.7830    50.8750    24.6450     2.1630    -8.9310 
  231.6250    63.9230    51.2420    46.4370    52.4130    24.6620     2.1610    -9.0730 
  231.7500    65.4560    52.1030    47.4830    53.1470    24.6680     2.1620    -9.1220 
  231.8750    66.1480    52.5940    48.2160    53.4580    24.6660     2.1710    -9.0850 
  232.0000    66.6520    53.0650    48.9230    53.2620    24.6450     2.1910    -8.9710 
  232.1250    66.0820    53.5900    49.6920    54.5690    24.5900     2.2200    -8.8220 
  232.2500    64.2490    53.8340    50.2490    55.7200    24.5240     2.2470    -8.6250 
  232.3750    63.4560    53.4120    50.2230    55.5400    24.4990     2.2600    -8.3530 
  232.5000    65.5150    52.2110    49.4380    53.0910    24.5270     2.2540    -8.0310 
  232.6250    65.7520    50.3750    47.9200    52.0420    24.4850     2.2270    -7.7120 
  232.7500    62.9490    48.0390    45.8160    46.8130    24.2860     2.1900    -7.4000 
  232.8750    61.1060    44.8440    42.8550    40.0090    23.9440     2.1620    -7.1230 
  233.0000    61.9140    40.5000    38.8350    39.4990    23.7130     2.1560    -6.8960 
  233.1250    63.3860    35.3480    34.1120    42.0350    23.6690     2.1800    -6.6820 
  233.2500    64.2490    30.6660    29.8100    37.2810    23.8240     2.2120    -6.5000 
  233.3750    64.4070    27.4890    26.7890    26.1030    24.1890     2.2310    -6.3950 
  233.5000    63.9640    26.5120    25.6150    19.0890    24.6670     2.2240    -6.3530 
  233.6250    62.9650    28.4570    26.9620    23.6390    24.8770     2.1970    -6.3790 
  233.7500    62.1330    32.7640    30.5180    37.3630    24.9300     2.1720    -6.4500 
  233.8750    60.8130    38.7880    35.9140    49.6410    24.9290     2.1580    -6.5100 
  234.0000    59.8390    45.0360    41.9610    52.1390    24.9220     2.1560    -6.5340 
  234.1250    60.3660    48.3710    45.8010    53.2040    24.9080     2.1610    -6.5390 
  234.2500    60.8440    47.3240    45.6150    54.7190    24.8960     2.1740    -6.5170 
  234.3750    61.0030    42.7380    41.7710    54.0780    24.9060     2.1990    -6.4650 
  234.5000    61.8470    36.8760    36.2470    45.1010    24.9210     2.2370    -6.4060 
  234.6250    62.9010    31.8890    31.1920    33.3510    24.9300     2.2770    -6.3640 
  234.7500    63.5080    28.6070    27.6250    23.3260    24.9300     2.3040    -6.3760 
  234.8750    63.4060    27.2820    25.8320    21.3430    24.9270     2.3060    -6.4530 
  235.0000    62.8630    27.8540    25.7770    25.3040    24.9270     2.2870    -6.5940 
  235.1250    61.5480    30.2630    27.4860    30.1740    24.9380     2.2630    -6.8070 
  235.2500    60.9540    33.6850    30.3010    33.9700    24.9560     2.2530    -7.0810 
  235.3750    61.7830    37.4190    33.6510    36.6960    24.9580     2.2650    -7.3750 
  235.5000    62.5190    40.7900    36.8910    40.2490    24.9390     2.2920    -7.6280 
  235.6250    61.7510    43.4790    39.5470    44.9490    24.9270     2.3140    -7.7620 
  235.7500    61.7820    46.1300    41.9740    47.4330    24.9230     2.3210    -7.8090 
  235.8750    64.1880    49.5310    44.7970    46.1780    24.9210     2.3200    -7.7960 
  236.0000    67.6790    54.0010    48.3530    48.8020    24.9220     2.3290    -7.7150 
  236.1250    68.3410    57.9090    51.4080    57.5750    24.9080     2.3710    -7.5440 
  236.2500    64.5820    57.4160    50.8690    67.2670    24.8850     2.4430    -7.3090 
  236.3750    58.7780    49.8160    44.3940    82.9960    24.8770     2.5270    -7.0290 
  236.5000    55.4820    37.1130    33.4490    76.6710    24.8500     2.5960    -6.7080 
  236.6250    55.9100    25.0480    22.8890    40.6140    24.7940     2.6200    -6.2940 
  236.7500    55.3060    16.5780    15.4070    18.8550    24.7030     2.6030    -5.7680 
  236.8750    52.8950    11.5730    10.8840    11.6440    24.6220     2.5540    -5.2030 
  237.0000    49.7000     9.0930     8.4470     8.3320    24.5690     2.4940    -4.6810 
  237.1250    45.9510     8.3980     7.4610     8.0800    24.6000     2.4470    -4.2700 
  237.2500    43.0640     8.5180     7.2240     8.1260    24.6030     2.4240    -3.9490 
  237.3750    44.1990     8.9920     7.4460     8.3620    24.5770     2.4260    -3.6790 
  237.5000    49.5190     9.4730     7.8610     8.3280    24.5330     2.4400    -3.4450 
  237.6250    55.9770     9.7140     8.2180     8.3100    24.4730     2.4480    -3.3720 
  237.7500    59.9530     9.7380     8.4170     8.2450    24.4980     2.4440    -3.4860 
  237.8750    59.6410     9.6280     8.4750     8.4970    24.6160     2.4350    -3.6700 
  238.0000    57.4600     9.4600     8.4400     8.7080    24.6800     2.4300    -3.8420 
  238.1250    58.5780     9.2880     8.3660     8.6050    24.6290     2.4360    -3.9620 
  238.2500    60.9630     9.1410     8.3010     8.4770    24.5540     2.4440    -4.0060 
  238.3750    59.8040     9.0340     8.2630     8.4450    24.5640     2.4480    -4.0040 
  238.5000    55.1970     8.9770     8.2520     8.6660    24.6960     2.4450    -4.0160 
  238.6250    52.1140     8.9830     8.2540     8.8790    24.8610     2.4330    -4.0040 
  238.7500    52.2210     9.0270     8.2450     8.9680    24.9520     2.4230    -3.8850 
  238.8750    54.4240     9.0810     8.2100     8.8270    24.9650     2.4200    -3.7310 
  239.0000    56.4140     9.1150     8.1520     8.6600    24.9400     2.4290    -3.5660 
  239.1250    55.8820     9.1030     8.0840     8.3810    24.8390     2.4470    -3.3830 
  239.2500    53.7320     9.0440     8.0040     8.0220    24.7070     2.4620    -3.2070 
  239.3750    52.8140     8.9220     7.8840     7.6560    24.5770     2.4650    -3.0260 
  239.5000    54.6010     8.7150     7.6880     7.4530    24.3990     2.4540    -2.8210 
  239.6250    57.2490     8.3610     7.3620     7.2160    24.1890     2.4350    -2.5980 
  239.7500    57.9700     7.8690     6.9160     6.8580    24.0490     2.4190    -2.4550 
  239.8750    57.1570     7.2850     6.3870     6.2540    23.9640     2.4060    -2.3980 
  240.0000    57.8360     6.7130     5.8600     5.8850    23.8840     2.3940    -2.4380 
  240.1250    61.8290     6.3170     5.4710     5.7790    23.6860     2.3780    -2.5790 
  240.2500    68.9610     6.1830     5.2910     5.6740    23.3660     2.3600    -2.7640 
  240.3750    80.3760     6.3760     5.3720     5.1040    22.9890     2.3480    -2.9890 
  240.5000    96.2440     6.9010     5.7270     5.0160    22.8830     2.3510    -3.2640 
  240.6250   108.9580     7.7050     6.3510     6.0210    23.1850     2.3680    -3.5560 
  240.7500   111.9110     8.5710     7.0990     6.9090    23.4560     2.3900    -3.8050 
  240.8750   109.0410     9.3270     7.8410     7.7140    23.4780     2.4070    -4.0580 
  241.0000   107.3020     9.8470     8.4420     8.5440    23.4300     2.4140    -4.2850 
  241.1250   106.9240    10.0670     8.7690     9.3650    23.4050     2.4080    -4.4270 
