~V
VERS. 2.00: Ver 2.00
~W
STRT.M 50.0000:
STOP.M 293.0000:
STEP.M 0.1250:
NULL. -999.2500:
UWI. F10045:
~C
DEPT.M :
DEN.GM/CC :
SP.MV :
GR.API :
CALI.CM :
RXO.OHMM :
RI. :
RML.OHMM :
~A
# ...
  241.2500     2.2030   -13.3470    69.6980    24.5220    43.8580    46.5580    50.4470 
  241.3750     2.2170   -13.3360    69.1140    24.5260    44.7180    47.0510    50.9800 
  241.5000     2.2280   -13.2800    71.0030    24.5260    44.2820    45.9890    49.8310 
  241.6250     2.2280   -13.2310    73.6230    24.5240    42.0720    43.7740    47.4360 
  241.7500     2.2200   -13.1790    75.0000    24.5210    38.4220    41.5010    44.9790 
  241.8750     2.2090   -13.1270    75.7100    24.5140    34.4150    39.8700    43.2150 
  242.0000     2.2010   -13.1700    75.5800    24.5070    32.5230    39.2940    42.5930 
  242.1250     2.1960   -13.2030    73.0970    24.5080    35.4310    40.0810    43.4430 
  242.2500     2.1940   -13.2000    71.4510    24.5330    39.8200    41.7810    45.2820 
  242.3750     2.1930   -13.2610    71.5220    24.5380    42.8040    43.9010    47.5740 
  242.5000     2.1920   -13.3280    71.8270    24.5300    43.5250    45.8410    49.6710 
  242.6250     2.1920   -13.3940    71.4470    24.5230    42.8500    46.9930    50.9160 
  242.7500     2.1930   -13.4780    71.4030    24.5220    42.2210    47.4200    51.3790 
  242.8750     2.1940   -13.5250    72.2120    24.5210    42.3330    47.4150    51.3730 
  243.0000     2.1960   -13.5180    74.5810    24.5210    43.2820    47.2850    51.2320 
  243.1250     2.1990   -13.5110    81.5010    24.4960    44.5550    47.1450    51.0810 
  243.2500     2.2050   -13.5510    85.0990    24.4220    45.4910    46.9380    50.8570 
  243.3750     2.2120   -13.5630    79.9950    24.3010    45.7400    46.6060    50.4980 
  243.5000     2.2180   -13.5540    70.5300    24.1610    45.1090    46.1520    50.0080 
  243.6250     2.2230   -13.5970    66.1940    24.1080    43.3510    45.6230    49.4350 
  243.7500     2.2240   -13.6240    65.4380    24.1250    42.5670    45.0950    48.8650 
  243.8750     2.2220   -13.6700    64.9930    24.2300    43.1580    44.5820    48.3110 
  244.0000     2.2160   -13.7190    68.0900    24.3770    44.3770    44.0400    47.7250 
  244.1250     2.2150   -13.7100    73.6610    24.3810    44.1260    43.3860    47.0170 
  244.2500     2.2240   -13.7010    75.7720    24.2980    42.3080    42.6430    46.2140 
  244.3750     2.2430   -13.7010    74.2110    24.2790    40.4060    41.9060    45.4170 
  244.5000     2.2650   -13.7070    73.4920    24.3270    39.6290    41.2980    44.7590 
  244.6250     2.2830   -13.6910    75.1580    24.3610    39.6420    40.9550    44.3890 
  244.7500     2.2900   -13.6400    74.5000    24.2910    37.9680    40.8330    44.2560 
  244.8750     2.2790   -13.5650    73.7060    24.0400    34.8970    40.8260    44.2500 
  245.0000     2.2460   -13.5120    75.2730    23.7830    33.0350    40.8190    44.2420 
  245.1250     2.2060   -13.5160    78.0620    23.6310    33.4140    40.7780    44.1980 
  245.2500     2.1850   -13.4510    77.4000    23.5330    34.0670    40.8190    44.2410 
  245.3750     2.1920   -13.3760    74.3570    23.3910    34.1070    41.0470    44.4880 
  245.5000     2.2130   -13.3650    72.4910    23.2900    35.0160    41.4180    44.8890 
  245.6250     2.2180   -13.2950    71.3210    23.3720    38.1690    41.5280    45.0080 
  245.7500     2.2060   -13.2340    69.5530    23.5630    41.1530    40.8660    44.2920 
  245.8750     2.1920   -13.1820    69.2930    23.8410    41.1240    39.1170    42.4020 
  246.0000     2.1880   -13.1090    70.9500    24.0990    37.0630    36.4010    39.4640 
  246.1250     2.1870   -13.0810    73.6890    24.1980    30.7830    33.3000    36.1120 
  246.2500     2.1800   -13.0600    76.6280    24.1910    26.4760    30.6020    33.1950 
  246.3750     2.1710   -13.0200    83.2350    24.1170    24.8560    28.7090    31.1480 
  246.5000     2.1680   -12.9930    91.2270    24.0250    24.9900    27.7770    30.1410 
  246.6250     2.1720   -13.0070    91.7840    24.0040    25.9210    27.9320    30.3080 
  246.7500     2.1750   -13.0390    85.7330    24.0740    27.2340    28.8370    31.2860 
  246.8750     2.1740   -13.1440    79.9970    24.1530    28.9310    30.2000    32.7600 
  247.0000     2.1710   -13.2370    77.4270    24.1590    30.7040    31.6460    34.3240 
  247.1250     2.1780   -13.2430    76.4390    24.0470    32.0970    32.7540    35.5210 
  247.2500     2.2050   -13.3100    76.6680    23.9350    32.9020    33.4280    36.2500 
  247.3750     2.2510   -13.4280    77.7530    23.9370    32.5420    33.7900    36.6420 
  247.5000     2.2980   -13.4810    76.7610    23.9220    31.3120    34.1380    37.0180 
  247.6250     2.3100   -13.5790    75.8700    23.8450    31.4570    34.9720    37.9190 
  247.7500     2.2860   -13.6940    77.5890    23.8360    34.5660    36.5480    39.6240 
  247.8750     2.2430   -13.7330    77.9500    23.8750    38.5860    38.9320    42.2010 
  248.0000     2.2120   -13.8230    75.2320    23.8290    42.2260    41.9450    45.4590 
  248.1250     2.2060   -13.9810    75.1830    23.6880    45.3460    45.0710    48.8390 
  248.2500     2.2100   -14.0730    79.9510    23.5470    47.1940    47.5420    51.5100 
  248.3750     2.2140   -14.1180    84.1650    23.4900    46.4160    48.8180    52.8900 
  248.5000     2.2120   -14.1700    82.1070    23.5160    44.8470    48.7910    52.8610 
  248.6250     2.2010   -14.1670    77.1040    23.6390    44.0740    47.6860    51.6660 
  248.7500     2.1820   -14.1760    75.1510    23.8010    42.3800    46.2040    50.0640 
  248.8750     2.1620   -14.2040    78.1580    23.9700    40.1300    44.7520    48.4940 
  249.0000     2.1520   -14.1520    83.4150    24.0960    39.2380    43.5990    47.2470 
  249.1250     2.1570   -14.1020    85.0910    24.1390    40.1570    42.9460    46.5410 
  249.2500     2.1590   -14.0910    82.8240    24.1470    40.6900    42.7480    46.3270 
  249.3750     2.1510   -14.0670    79.3650    24.1380    40.1760    42.9710    46.5680 
  249.5000     2.1350   -14.0670    80.1560    24.1100    40.1140    43.4970    47.1370 
  249.6250     2.1270   -14.0760    83.0440    24.0540    41.5320    44.0990    47.7880 
  249.7500     2.1300   -14.0150    82.1890    24.0210    43.0560    44.5290    48.2530 
  249.8750     2.1400   -13.9580    79.8100    23.9950    43.7600    44.6680    48.4030 
  250.0000     2.1570   -13.9260    78.6260    23.9750    43.4840    44.4710    48.1900 
  250.1250     2.1720   -13.8580    78.1660    23.9580    42.5090    43.9140    47.5880 
  250.2500     2.1780   -13.8070    76.6740    23.9160    41.3340    43.1920    46.8080 
  250.3750     2.1820   -13.7890    78.2150    23.8450    40.7340    42.5030    46.0620 
  250.5000     2.1970   -13.7310    83.2700    23.8070    40.4160    42.0080    45.5270 
  250.6250     2.2290   -13.6440    85.5150    23.8270    39.6510    41.8350    45.3400 
  250.7500     2.2540   -13.6030    84.1310    23.8710    39.8840    41.9240    45.4360 
  250.8750     2.2540   -13.5530    82.4100    23.9100    41.4510    42.2120    45.7480 
  251.0000     2.2290   -13.5420    83.1900    23.9290    42.8420    42.6220    46.1910 
  251.1250     2.1970   -13.5190    85.3100    23.9330    42.8750    43.0380    46.6410 
  251.2500     2.1760   -13.4050    84.8940    23.9670    42.7770    43.2870    46.9100 
  251.3750     2.1640   -13.2720    80.9030    24.0030    43.4660    43.1700    46.7830 
  251.5000     2.1550   -13.1880    76.7600    24.0040    42.8530    42.4840    46.0420 
  251.6250     2.1530   -13.1090    76.3620    23.9880    39.7250    40.9520    44.3850 
  251.7500     2.1670   -13.0270    77.5310    24.0280    35.6990    38.7080    41.9600 
  251.8750     2.1990   -12.9630    78.1740    24.1280    32.2570    35.9660    38.9950 
  252.0000     2.2360   -12.8470    78.8650    24.1840    28.9650    33.0640    35.8560 
  252.1250     2.2630   -12.7320    83.6200    24.1650    26.2810    30.4800    33.0630 
  252.2500     2.2830   -12.6970    89.6120    24.1240    24.5810    28.5070    30.9300 
  252.3750     2.3010   -12.6940    91.3350    24.1280    23.5360    27.2380    29.5570 
