~V
VERS. 2.00: Ver 2.00
~W
STRT.M 50.0000:
STOP.M 286.0000:
STEP.M 0.1250:
NULL. -999.2500:
UWI. F10036:
~C
DEPT.M :
GR.API :
RML.OHMM :
RI. :
RXO.OHMM :
CALI.CM :
DEN.GM/CC :
SP.MV :
~A
# ...
  173.7500    67.3170    11.0460    11.5250     9.8600    23.5690     2.1880    -8.3920 
  173.8750    65.1760    11.1180    11.3260     9.6800    23.6400     2.2360    -8.6190 
  174.0000    65.8750    12.2100    12.0020    10.5930    23.7960     2.3060    -8.7840 
  174.1250    66.7510    14.4270    13.7130    14.0090    24.0110     2.3950    -8.8870 
  174.2500    65.2200    17.3190    16.1530    20.6130    24.1860     2.4820    -8.9400 
  174.3750    62.5170    20.3870    18.9340    29.2370    24.2910     2.5520    -8.8980 
  174.5000    59.8230    23.0640    21.5250    33.7970    24.3950     2.5970    -8.7720 
  174.6250    56.3520    24.8710    23.4090    34.1740    24.5550     2.6190    -8.5520 
  174.7500    52.7350    25.9860    24.6450    32.2030    24.6680     2.6340    -8.3030 
  174.8750    51.0890    26.5940    25.3770    32.7140    24.7240     2.6500    -8.0580 
  175.0000    51.6330    26.8010    25.7120    32.7620    24.7080     2.6660    -7.8500 
  175.1250    51.4980    26.5160    25.5980    29.7090    24.6050     2.6700    -7.6650 
  175.2500    49.3390    25.8110    25.1190    28.6700    24.5550     2.6620    -7.5020 
  175.3750    46.3450    24.8920    24.4230    29.6220    24.5310     2.6470    -7.3750 
  175.5000    45.3330    24.1230    23.7910    27.1580    24.4510     2.6340    -7.2880 
  175.6250    46.8740    23.9420    23.5740    25.7030    24.3090     2.6330    -7.2240 
  175.7500    47.8700    24.3570    23.8250    26.2720    24.1720     2.6410    -7.1950 
  175.8750    48.0830    25.2560    24.4770    27.2350    24.1320     2.6500    -7.2050 
  176.0000    49.1100    26.4610    25.3840    28.2950    24.2710     2.6540    -7.2240 
  176.1250    49.7650    27.7470    26.3780    31.3250    24.5060     2.6540    -7.2500 
  176.2500    48.6190    28.8910    27.2970    31.0670    24.6020     2.6520    -7.2970 
  176.3750    47.6370    29.6950    28.0060    29.2940    24.6020     2.6480    -7.3560 
  176.5000    48.8420    29.9040    28.3100    28.6200    24.5860     2.6400    -7.3920 
  176.6250    51.0200    29.1380    27.8360    30.9290    24.5570     2.6310    -7.4650 
  176.7500    51.7490    27.5740    26.6270    33.2520    24.4920     2.6250    -7.5520 
  176.8750    51.2350    25.5720    24.9310    30.7390    24.4270     2.6260    -7.6210 
  177.0000    51.8920    23.5990    23.1430    25.0460    24.3960     2.6340    -7.7280 
  177.1250    53.3180    22.1440    21.7020    19.6870    24.3810     2.6460    -7.8340 
  177.2500    53.4990    21.3300    20.7630    19.0710    24.3760     2.6550    -7.9520 
  177.3750    51.4540    21.0930    20.3290    20.9970    24.3150     2.6580    -8.0780 
  177.5000    48.4030    21.1980    20.2630    22.3540    24.1370     2.6550    -8.2620 
  177.6250    48.4530    21.3380    20.3650    21.1660    23.9250     2.6430    -8.4500 
  177.7500    50.1040    21.3340    20.4390    20.3010    23.7780     2.6260    -8.6070 
  177.8750    51.0270    21.2060    20.4430    20.6940    23.7610     2.6070    -8.7630 
  178.0000    51.0100    21.0620    20.4270    21.3290    23.8640     2.5900    -8.9060 
  178.1250    52.2520    21.0040    20.4690    21.1270    23.8890     2.5820    -9.0460 
  178.2500    53.7750    20.9780    20.5420    21.9500    23.8120     2.5810    -9.1750 
  178.3750    51.8740    20.9140    20.5720    22.6900    23.8060     2.5850    -9.2820 
  178.5000    46.8600    20.8270    20.5250    22.0190    23.9690     2.5900    -9.3580 
  178.6250    45.2610    20.7900    20.4040    22.2310    24.1030     2.5890    -9.4270 
  178.7500    49.0140    20.8000    20.2110    21.2580    24.1020     2.5780    -9.5460 
  178.8750    53.6910    20.8170    19.9460    20.2510    24.0430     2.5540    -9.6780 
  179.0000    54.1670    20.7870    19.6470    21.0280    23.9980     2.5210    -9.8220 
  179.1250    52.7870    20.6050    19.3530    20.4900    23.9640     2.4940    -9.9910 
  179.2500    53.9930    20.2770    19.0850    17.7570    23.9330     2.4880   -10.1810 
  179.3750    54.6610    19.9150    18.8700    15.5000    23.8540     2.5050   -10.4020 
  179.5000    52.7430    19.6530    18.7240    15.4530    23.6680     2.5350   -10.6570 
  179.6250    51.7850    19.5540    18.6550    16.4400    23.4960     2.5590   -10.8740 
  179.7500    52.7030    19.5520    18.6550    17.0360    23.3500     2.5690   -11.0630 
  179.8750    51.8340    19.5870    18.7430    17.9130    23.3410     2.5660   -11.1770 
  180.0000    48.7300    19.6560    18.9400    19.3580    23.4740     2.5570   -11.2420 
  180.1250    48.6460    19.9120    19.3160    19.7490    23.5670     2.5450   -11.1970 
  180.2500    50.5080    20.4150    19.8570    19.8760    23.6180     2.5340   -11.0630 
  180.3750    50.8950    21.0230    20.4420    19.8500    23.6590     2.5270   -10.8280 
  180.5000    49.7680    21.3860    20.8040    20.6730    23.7210     2.5270   -10.5230 
  180.6250    50.0140    20.9850    20.4950    22.2720    23.8510     2.5320   -10.1970 
  180.7500    51.5480    19.7880    19.4410    21.7890    24.0160     2.5360    -9.8480 
  180.8750    52.0020    17.9980    17.7990    18.0140    24.1290     2.5370    -9.4940 
  181.0000    51.4430    16.0350    15.9450    14.2990    24.1570     2.5310    -9.1260 
  181.1250    51.5670    14.4040    14.3450    13.7530    24.1610     2.5210    -8.7880 
  181.2500    52.8650    13.3010    13.2090    13.3150    24.1400     2.5120    -8.4620 
  181.3750    54.5340    12.7580    12.6010    12.7570    24.0390     2.5060    -8.1660 
  181.5000    54.2840    12.7140    12.4990    12.1000    23.9040     2.5060    -7.8850 
  181.6250    52.2040    13.1050    12.8660    12.4890    23.8240     2.5120    -7.5950 
  181.7500    50.9660    13.7030    13.4750    13.1940    23.8030     2.5190    -7.2940 
  181.8750    51.8740    14.3270    14.1600    14.4620    23.8930     2.5220    -7.0140 
  182.0000    54.0740    14.7930    14.7700    15.3160    24.1460     2.5200    -6.7600 
  182.1250    55.7430    14.9330    15.1820    16.2770    24.3870     2.5180    -6.5640 
  182.2500    55.9700    14.8320    15.4230    16.0000    24.5010     2.5230    -6.4150 
  182.3750    55.4920    14.6360    15.5510    14.6050    24.5310     2.5360    -6.3090 
  182.5000    54.8370    14.4890    15.6260    14.3140    24.5570     2.5550    -6.2380 
  182.6250    54.3520    14.4490    15.6310    15.3540    24.5470     2.5720    -6.2150 
  182.7500    53.1170    14.4370    15.5100    15.1940    24.5430     2.5770    -6.2240 
  182.8750    52.1710    14.3540    15.1900    14.7770    24.5550     2.5700    -6.2930 
  183.0000    51.9190    14.1030    14.6320    14.1530    24.5650     2.5510    -6.3660 
  183.1250    51.5320    13.5790    13.8230    13.4000    24.5610     2.5280    -6.4790 
  183.2500    50.7890    12.8460    12.8910    12.0010    24.5650     2.5080    -6.6300 
  183.3750    50.9460    11.9930    11.9400    11.0320    24.5580     2.4940    -6.8330 
  183.5000    52.3810    11.1370    11.0570    10.4360    24.5100     2.4880    -7.0730 
  183.6250    53.6550    10.4790    10.3660    10.0880    24.4070     2.4860    -7.4120 
  183.7500    54.8640    10.2110     9.9760     9.5340    24.3010     2.4840    -7.8300 
  183.8750    57.6620    10.5420    10.0390     9.4310    24.1810     2.4740    -8.3780 
  184.0000    62.9500    11.6680    10.7230    10.0830    24.0510     2.4520    -9.1030 
  184.1250    68.1800    13.8390    12.3370    11.9240    23.8150     2.4150    -9.9970 
  184.2500    70.9620    16.7910    14.8130    16.1460    23.5060     2.3740   -11.0280 
  184.3750    71.0200    20.1260    17.9550    24.2400    23.2100     2.3360   -12.1410 
  184.5000    68.5330    23.2330    21.2360    32.0890    23.0350     2.3070   -13.3010 
  184.6250    65.3810    25.5450    23.9000    30.7440    22.9950     2.2900   -14.4690 
  184.7500    64.8810    27.4280    25.9390    26.2630    23.0040     2.2760   -15.6200 
  184.8750    66.2330    29.5590    27.8530    27.0500    23.0340     2.2620   -16.6540 
