~V
VERS. 2.00: Ver 2.00
~W
STRT.M 56.0000:
STOP.M 261.0000:
STEP.M 0.1250:
NULL. -999.2500:
UWI. F10028:
~C
DEPT.M :
GR.API :
RML.OHMM :
RI. :
RXO.OHMM :
CALI.CM :
DEN.GM/CC :
SP.MV :
~A
   56.0000    89.8140     5.4170     2.8460     6.0370    24.9990     2.3100    43.8290 
   56.1250    89.0650     5.3120     3.6270     6.1980    25.4800     2.2320    34.8800 
   56.2500    85.2010     5.2950     4.3020     6.2030    25.9730     2.1210    26.4360 
   56.3750    79.6950     5.8080     5.0530     6.3100    26.3710     1.9950    19.3900 
   56.5000    74.4690     7.0280     6.0710     6.8810    26.6170     1.9000    14.2030 
   56.6250    70.4100     9.1670     7.5250     8.2530    26.7620     1.8990    10.5240 
   56.7500    66.3120    11.9470     9.2350    11.2620    26.5680     1.9890     7.4510 
   56.8750    64.1180    14.6710    10.7800    17.3440    25.9320     2.1280     4.6810 
   57.0000    64.6650    16.1310    11.5720    22.9590    25.2860     2.2490     2.0520 
   57.1250    64.8280    15.4960    11.2040    16.6400    25.0310     2.2810    -0.4590 
   57.2500    64.4410    14.0730    10.2770    11.6130    25.2080     2.2340    -2.8220 
   57.3750    66.0510    12.8270     9.3080     9.3220    25.5920     2.1480    -4.9950 
   57.5000    69.7120    12.1090     8.6020     8.8180    25.7780     2.0710    -6.9320 
   57.6250    68.2440    11.9430     8.2970     9.0970    25.5550     2.0330    -8.5620 
   57.7500    61.9850    12.0490     8.2630     9.3010    25.3390     2.0250    -9.9530 
   57.8750    58.2060    12.2470     8.3860     9.2890    25.2720     2.0370   -11.1000 
   58.0000    60.9280    12.4260     8.5630     9.2070    25.3170     2.0600   -11.9690 
   58.1250    64.8440    12.5210     8.7180     9.3060    25.3530     2.0890   -12.5570 
   58.2500    65.3740    12.5380     8.8120     9.6180    25.3650     2.1140   -12.9830 
   58.3750    65.9420    12.4870     8.8200     9.6590    25.5240     2.1240   -13.2940 
   58.5000    70.6370    12.3910     8.7380     9.9110    25.7790     2.1130   -13.5080 
   58.6250    76.6150    12.2610     8.5720    10.4000    25.8850     2.0920   -13.5580 
   58.7500    78.0050    12.1020     8.3800    10.4300    25.3840     2.0840   -13.5130 
   58.8750    76.6830    11.9200     8.2040     9.5710    24.7840     2.1030   -13.4600 
   59.0000    76.5350    11.7370     8.0800     9.0790    24.4300     2.1460   -13.4850 
   59.1250    77.1290    11.6050     8.0390     9.1360    24.3710     2.1870   -13.6410 
   59.2500    74.2260    11.5730     8.0700     8.8240    24.5370     2.1990   -13.9350 
   59.3750    67.8260    11.6650     8.1610     8.5960    24.8880     2.1780   -14.3670 
   59.5000    62.6350    11.8420     8.2850     8.5290    25.2260     2.1350   -14.9230 
   59.6250    62.8040    11.9870     8.4070     8.7500    25.2420     2.0970   -15.5950 
   59.7500    65.6010    11.9810     8.4880     8.9930    24.9700     2.0750   -16.3430 
   59.8750    67.5050    11.7890     8.5080     9.1910    24.7320     2.0650   -17.1340 
   60.0000    65.9350    11.4680     8.4660     9.5370    24.8230     2.0580   -17.8990 
   60.1250    62.5410    11.1320     8.3870     9.7690    25.1170     2.0540   -18.5700 
   60.2500    60.6160    10.8640     8.3130     9.8020    25.2530     2.0570   -19.1150 
   60.3750    61.2840    10.6770     8.2640     9.5130    25.2400     2.0750   -19.5830 
   60.5000    62.5810    10.5590     8.2470     9.1250    25.2100     2.1050   -20.0050 
   60.6250    60.6450    10.4880     8.2570     9.3620    25.2810     2.1340   -20.3920 
   60.7500    56.2980    10.3910     8.2680     9.4590    25.3650     2.1530   -20.7320 
   60.8750    52.8650    10.2190     8.2590     9.3540    25.4270     2.1570   -20.9960 
   61.0000    52.8730     9.9870     8.2170     9.2410    25.4450     2.1470   -21.1950 
   61.1250    55.4900     9.7780     8.1410     9.1440    25.4180     2.1280   -21.3750 
   61.2500    56.6620     9.6620     8.0540     9.0620    25.3700     2.1080   -21.5520 
   61.3750    55.2470     9.6400     7.9750     8.8960    25.3380     2.0950   -21.6480 
   61.5000    53.4990     9.6500     7.9120     8.7490    25.3290     2.0950   -21.6780 
   61.6250    53.3510     9.5830     7.8640     8.5590    25.3260     2.1070   -21.7020 
   61.7500    55.4650     9.4180     7.8210     8.5620    25.3130     2.1210   -21.6840 
   61.8750    58.5150     9.2110     7.7800     8.5880    25.2790     2.1300   -21.6230 
   62.0000    59.9440     9.0290     7.7450     8.7010    25.2280     2.1290   -21.5710 
   62.1250    58.6850     8.9290     7.7280     8.7360    25.2100     2.1220   -21.5210 
   62.2500    57.6010     8.9110     7.7340     8.5630    25.2320     2.1150   -21.4670 
   62.3750    58.4630     8.9660     7.7620     8.3510    25.2870     2.1130   -21.4140 
   62.5000    61.2080     9.0740     7.8060     8.3750    25.2650     2.1130   -21.3240 
   62.6250    63.3130     9.2010     7.8670     8.2800    25.0070     2.1110   -21.2130 
   62.7500    63.6180     9.3120     7.9370     8.1470    24.6950     2.1060   -21.1050 
   62.8750    62.5020     9.3840     8.0010     7.9920    24.5310     2.0990   -20.9590 
   63.0000    62.4220     9.3880     8.0260     7.9130    24.4710     2.0950   -20.7510 
   63.1250    64.0750     9.2650     7.9500     7.7740    24.4700     2.0960   -20.4650 
   63.2500    65.6100     8.9920     7.7430     7.7390    24.4690     2.1020   -20.0890 
   63.3750    67.7110     8.5620     7.3970     7.6050    24.4140     2.1150   -19.5990 
   63.5000    70.8920     8.0220     6.9450     7.2310    24.2820     2.1360   -19.0720 
   63.6250    74.2800     7.4870     6.4720     6.7180    24.1620     2.1650   -18.5630 
   63.7500    76.7680     7.0890     6.0790     6.3440    24.1710     2.1970   -18.0950 
   63.8750    77.2720     6.9050     5.8300     5.9270    24.3370     2.2240   -17.7710 
   64.0000    75.3410     6.9590     5.7540     6.0500    24.6290     2.2400   -17.6690 
   64.1250    71.9610     7.2220     5.8600     6.8050    24.9760     2.2350   -17.8690 
   64.2500    68.8620     7.5540     6.0690     8.1360    25.2400     2.2120   -18.2950 
   64.3750    65.3340     7.9290     6.3610     8.9760    25.3010     2.1760   -18.9010 
   64.5000    61.0760     8.4550     6.7840     9.6760    25.2790     2.1390   -19.5780 
   64.6250    59.9840     9.4090     7.4920     9.9090    25.2700     2.1320   -20.1730 
   64.7500    65.6370    10.8570     8.5280    10.5520    25.2790     2.1700   -20.7230 
   64.8750    75.4570    12.6760     9.8450    13.4980    25.2840     2.2510   -21.1810 
   65.0000    83.4050    14.4220    11.1860    21.3550    25.2160     2.3510   -21.4530 
   65.1250    88.5640    15.1890    11.9280    30.7990    25.0310     2.4220   -21.4840 
   65.2500    93.7270    14.7000    11.7810    25.6040    24.7430     2.4400   -21.3970 
   65.3750    96.4700    13.3200    10.9250    15.4490    24.4400     2.4070   -21.3020 
   65.5000    93.1970    11.7650     9.8300    10.6900    24.2360     2.3450   -21.3190 
   65.6250    86.8940    10.6930     8.9530     9.7290    24.2090     2.2810   -21.4670 
   65.7500    81.7790    10.1910     8.4250     9.7050    24.3380     2.2300   -21.7260 
   65.8750    76.3180    10.1210     8.2100     9.5510    24.5110     2.2010   -22.1100 
   66.0000    72.7260    10.2390     8.1830    10.1120    24.6850     2.1950   -22.5760 
   66.1250    76.9880    10.3130     8.1930    10.6600    24.9620     2.2070   -23.0780 
   66.2500    82.9150    10.2820     8.1570    10.7440    25.2750     2.2220   -23.5510 
   66.3750    81.5910    10.1950     8.0850    10.2880    25.3150     2.2260   -23.9940 
   66.5000    72.3400    10.1100     8.0090     9.5900    25.0630     2.2140   -24.3450 
   66.6250    64.6270    10.0480     7.9550     9.1040    24.8160     2.1890   -24.5420 
   66.7500    63.0230     9.9890     7.9200     8.7290    24.6980     2.1630   -24.6150 
   66.8750    62.8720     9.9070     7.8860     8.6300    24.6400     2.1410   -24.6030 
   67.0000    60.1690     9.7940     7.8350     8.7500    24.5920     2.1260   -24.5530 
   67.1250    57.3250     9.6630     7.7510     8.5600    24.5230     2.1160   -24.4220 
