~V
VERS. 2.00: Ver 2.00
~W
STRT.M 63.0000:
STOP.M 195.0000:
STEP.M 0.1250:
NULL. -999.2500:
UWI. F10020:
~C
DEPT.M :
GR.API :
CALI.CM :
RXO.OHMM :
RI. :
RML.OHMM :
DEN.GM/CC :
SP.MV :
~A
# ...
  186.7500    77.6500    23.7750     9.6230     7.8390     9.1020     2.2830   -33.3120 
  186.8750    77.6500    23.8460     9.6440     8.0870     9.1800     2.2650   -33.5640 
  187.0000    77.6500    23.8640     9.1890     8.2460     9.1210     2.2510   -33.7270 
  187.1250    77.6500    23.8520     8.7640     8.3020     9.0220     2.2540   -33.8030 
  187.2500    77.6500    23.8170     8.6220     8.3090     8.9570     2.2670   -33.8000 
  187.3750    77.6500    23.7540     8.8680     8.2950     8.9540     2.2770   -33.6420 
  187.5000    77.6500    23.7210     9.3580     8.2690     9.0240     2.2770   -33.5990 
  187.6250    77.6500    23.6900     9.5630     8.2390     9.1510     2.2730   -33.1410 
  187.7500    77.6500    23.6570     9.3180     8.2180     9.2560     2.2780   -32.8530 
  187.8750    77.6500    23.6650     8.7380     8.2140     9.2650     2.2890   -32.6260 
  188.0000    77.6500    23.7050     8.1550     8.2280     9.1490     2.2950   -32.4670 
  188.1250    77.6500    23.7420     7.9250     8.2530     8.9870     2.2850   -32.3360 
  188.2500    77.6500    23.7750     7.8460     8.2690     8.9030     2.2720   -32.1840 
  188.3750    77.6500    23.7830     7.7290     8.2620     8.9240     2.2690   -32.0590 
  188.5000    77.6500    23.7960     7.3370     8.2360     9.0080     2.2800   -31.9840 
  188.6250    77.6500    23.8140     6.7890     8.2070     9.0730     2.2970   -31.9030 
  188.7500    77.6500    23.8160     6.5350     8.1900     9.0720     2.3120   -31.9150 
  188.8750    77.6500    23.8000     6.6280     8.1940     9.0160     2.3230   -31.9400 
  189.0000    77.6500    23.7870     6.8100     8.2180     8.9550     2.3290   -31.9870 
  189.1250    77.6500    23.8110     6.8580     8.2450     8.9340     2.3340   -32.0190 
  189.2500    77.6500    23.8140     6.8720     8.2450     8.9340     2.3410   -32.0100 
  189.3750    77.6500    23.7910     6.9950     8.2450     8.9340     2.3470   -32.0220 
  189.5000    77.6500    23.7450     7.1580     8.2450     8.9340     2.3470   -32.0480 
  189.6250    77.6500    23.7220     7.2240     8.2450     8.9340     2.3320   -32.1290 
  189.7500    77.6500    23.7300     7.3640     8.2450     8.9340     2.3110   -32.1910 
  189.8750    77.6500    23.7280     7.7190     8.2450     8.9340     2.2890   -32.2600 
  190.0000    77.6500    23.7080     8.1380     8.2450     8.9340     2.2710   -32.2690 
  190.1250    77.6500    23.7260     8.4500     8.2450     8.9340     2.2580   -32.2380 
  190.2500    77.6500    23.7410     8.6870     8.2450     8.9340     2.2500   -32.2670 
  190.3750    77.6500    23.7330     8.8330     8.2450     8.9340     2.2540   -32.3300 
  190.5000    77.6500    23.6960     8.8190     8.2450     8.9340     2.2670   -32.3740 
  190.6250    77.6500    23.6420     8.5050     8.2450     8.9340     2.2730   -32.3240 
  190.7500    77.6500    23.6420     8.1990     8.2450     8.9340     2.2640   -32.2660 
  190.8750    77.6500    23.6580     8.1330     8.2450     8.9340     2.2560   -32.2570 
  191.0000    77.6500    23.6440     8.4460     8.2450     8.9340     2.2630   -32.2610 
  191.1250    77.6500    23.4960     8.9900     8.2450     8.9340     2.2850   -32.2630 
  191.2500    77.6500    23.2200     9.2470     8.2450     8.9340     2.3010   -32.2570 
  191.3750    77.6500    22.9240     8.8620     8.2450     8.9340     2.3000   -32.2570 
  191.5000    77.6500    22.6980     8.1470     8.2450     8.9340     2.2720   -32.2570 
  191.6250    77.6500    22.3340     7.3350     8.2450     8.9340     2.1830  -999.2500 
  191.7500    77.6500    21.4100     6.4870     8.2450     8.9340     2.0380  -999.2500 
  191.8750    77.6500    19.5500     5.5860     8.2450     8.9340     1.8840  -999.2500 
  192.0000    77.6500    17.4980     5.0190     8.2450     8.9340     1.7810  -999.2500 
  192.1250    77.6500    16.6560     4.8710     8.2450     8.9340     1.7550  -999.2500 
  192.2500    77.6500    16.4760     4.8520     8.2450     8.9340     1.7620  -999.2500 
  192.3750    77.6500    16.4850     4.8510     8.2450     8.9340     1.7720  -999.2500 
  192.5000    77.6500    16.4900     4.8510     8.2450     8.9340     1.7790  -999.2500 
  192.6250    77.6500    16.4800     4.8510     8.2450     8.9340     1.7800  -999.2500 
  192.7500    77.6500    16.4770     4.8500     8.2450     8.9340     1.7770  -999.2500 
  192.8750    77.6500    16.4840     4.8490     8.2450     8.9340     1.7710  -999.2500 
  193.0000    77.6500    16.4860     4.8490     8.2450     8.9340     1.7650  -999.2500 
  193.1250    77.6500    16.4790     4.8490     8.2450     8.9340     1.7610  -999.2500 
  193.2500    77.6500    16.4810     4.8480     8.2450     8.9340     1.7600  -999.2500 
  193.3750    77.6500    16.4880     4.8480     8.2450     8.9340     1.7610  -999.2500 
  193.5000    77.6500    16.4880     4.8490     8.2450     8.9340     1.7660  -999.2500 
  193.6250    77.6500    16.4780     4.8480     8.2450     8.9340     1.7750  -999.2500 
  193.7500    77.6500    16.4780     4.8460     8.2450     8.9340     1.7810  -999.2500 
  193.8750    77.6500    16.4820     4.8450     8.2450     8.9340     1.7810  -999.2500 
  194.0000    77.6500    16.4810     4.8440     8.2450     8.9340     1.7750  -999.2500 
  194.1250    77.6500    16.4840     4.8450     8.2450     8.9340     1.7710  -999.2500 
  194.2500  -999.2500  -999.2500  -999.2500  -999.2500  -999.2500     1.7800  -999.2500 
  194.3750  -999.2500  -999.2500  -999.2500  -999.2500  -999.2500     1.7900  -999.2500 
  194.5000  -999.2500  -999.2500  -999.2500  -999.2500  -999.2500     1.7880  -999.2500 
  194.6250  -999.2500  -999.2500  -999.2500  -999.2500  -999.2500     1.7710  -999.2500 
  194.7500  -999.2500  -999.2500  -999.2500  -999.2500  -999.2500     1.8410  -999.2500 
  194.8750  -999.2500  -999.2500  -999.2500  -999.2500  -999.2500     2.0960  -999.2500 
  195.0000  -999.2500  -999.2500  -999.2500  -999.2500  -999.2500     2.3770  -999.2500 
