~V
VERS. 2.00: Ver 2.00
~W
STRT.M 57.0000:
STOP.M 257.0000:
STEP.M 0.1250:
NULL. -999.2500:
UWI. F10004:
~C
DEPT.M :
GR.API :
RML.OHMM :
RI. :
RXO.OHMM :
CALI.CM :
DEN.GM/CC :
SP.MV :
~A
# ...
  192.0000    73.7410    13.7560    12.4540    14.6410    24.5330     2.3830    -2.2300 
  192.1250    77.9920    12.9750    11.7500    12.7280    24.5260     2.4110    -2.3290 
  192.2500    80.6230    11.9980    10.8870    10.8530    24.5180     2.4270    -2.4210 
  192.3750    79.6510    10.9950     9.9890     9.5340    24.4920     2.4320    -2.4850 
  192.5000    78.8120    10.1290     9.1900     8.8350    24.4300     2.4290    -2.5260 
  192.6250    81.2820     9.5340     8.6040     8.4800    24.3510     2.4220    -2.5550 
  192.7500    83.6600     9.1580     8.2040     8.2640    24.3380     2.4140    -2.5790 
  192.8750    85.4170     8.9350     7.9520     8.1500    24.3570     2.4070    -2.5790 
  193.0000    88.1610     8.8010     7.7990     7.9870    24.3590     2.4000    -2.5700 
  193.1250    89.9470     8.7190     7.7140     7.8410    24.3310     2.3980    -2.5620 
  193.2500    87.8040     8.6730     7.6690     7.8190    24.3200     2.4040    -2.5560 
  193.3750    84.4490     8.6760     7.6650     7.9500    24.3090     2.4150    -2.5640 
  193.5000    83.9650     8.7300     7.7050     8.1520    24.2980     2.4300    -2.5910 
  193.6250    84.9480     8.8270     7.7930     8.3230    24.2920     2.4430    -2.6160 
  193.7500    84.4600     8.9270     7.9030     8.4270    24.2920     2.4510    -2.6260 
  193.8750    82.0630     8.9990     8.0070     8.5780    24.2920     2.4560    -2.6580 
  194.0000    80.4530     9.0220     8.0730     8.6910    24.2920     2.4580    -2.7150 
  194.1250    82.0080     8.9880     8.0740     8.6320    24.2900     2.4560    -2.7840 
  194.2500    84.3990     8.9310     8.0250     8.5280    24.2820     2.4510    -2.8660 
  194.3750    84.8450     8.8750     7.9490     8.4530    24.2730     2.4420    -2.9610 
  194.5000    84.0700     8.8350     7.8740     8.4230    24.2770     2.4340    -3.0590 
  194.6250    84.1880     8.8130     7.8230     8.3840    24.2820     2.4300    -3.1620 
  194.7500    85.9880     8.7950     7.7870     8.3510    24.2870     2.4310    -3.2800 
  194.8750    89.8510     8.7650     7.7460     8.3490    24.2970     2.4320    -3.3800 
  195.0000    94.8940     8.7080     7.6830     8.3620    24.2950     2.4290    -3.4700 
  195.1250    96.5710     8.6110     7.5870     8.2610    24.2530     2.4200    -3.5430 
  195.2500    93.5830     8.4860     7.4790     8.0840    24.1800     2.4050    -3.5960 
  195.3750    89.1180     8.3620     7.3890     7.9380    24.0930     2.3910    -3.6280 
  195.5000    88.3580     8.2850     7.3450     7.8550    24.0030     2.3820    -3.6490 
  195.6250    90.4550     8.3190     7.3850     8.0480    24.0190     2.3890    -3.6730 
  195.7500    89.8720     8.4700     7.5090     8.5750    24.0920     2.4110    -3.7020 
  195.8750    86.6280     8.7150     7.7040     9.2900    24.2150     2.4440    -3.7230 
  196.0000    83.6770     8.9870     7.9270     9.6840    24.3120     2.4770    -3.7490 
  196.1250    82.6440     9.1760     8.1070     9.8470    24.3670     2.4950    -3.7850 
  196.2500    81.0760     9.2270     8.1900     9.4660    24.4230     2.4930    -3.8110 
  196.3750    79.9560     9.1430     8.1630     8.7890    24.4900     2.4740    -3.8380 
  196.5000    80.7710     8.9760     8.0540     8.3010    24.5360     2.4440    -3.8670 
  196.6250    82.3940     8.8140     7.9220     8.2010    24.5570     2.4170    -3.8980 
  196.7500    85.1580     8.7100     7.8230     8.3540    24.5590     2.3980    -3.9390 
  196.8750    87.9830     8.6650     7.7720     8.5340    24.5630     2.3890    -3.9930 
  197.0000    88.3280     8.6570     7.7680     8.5550    24.5700     2.3870    -4.0650 
  197.1250    86.6610     8.6830     7.8150     8.6370    24.5730     2.3890    -4.1510 
  197.2500    86.2580     8.7710     7.9240     8.8410    24.5640     2.3890    -4.2550 
  197.3750    85.5240     8.9940     8.1320     9.1230    24.5430     2.3830    -4.3690 
  197.5000    81.6150     9.4290     8.4830     9.6860    24.5260     2.3710    -4.4820 
  197.6250    76.5070    10.1280     9.0140    10.4960    24.5210     2.3650    -4.5970 
  197.7500    74.6850    10.9320     9.6320    11.5130    24.5200     2.3710    -4.7210 
  197.8750    75.3370    11.6140    10.1900    12.6980    24.5130     2.3900    -4.8500 
  198.0000    75.9450    11.9240    10.4970    13.3740    24.5050     2.4150    -4.9730 
  198.1250    76.0510    11.6640    10.3720    12.4320    24.4930     2.4290    -5.0830 
  198.2500    75.9780    11.0850     9.9710    10.4310    24.4640     2.4280    -5.1720 
  198.3750    76.2310    10.5200     9.5280     9.0700    24.3560     2.4130    -5.2380 
  198.5000    75.8890    10.3000     9.2940     9.1570    24.1680     2.3900    -5.2920 
  198.6250    73.8500    10.7250     9.5400    10.8610    24.0800     2.3670    -5.3220 
  198.7500    71.9640    11.6920    10.2510    13.2730    24.0840     2.3470    -5.3150 
  198.8750    70.6850    13.0050    11.3370    14.8810    24.1050     2.3320    -5.2890 
  199.0000    69.6530    14.3580    12.5850    15.0430    24.1380     2.3220    -5.2330 
  199.1250    68.3990    15.3560    13.6460    15.2580    24.1170     2.3150    -5.1560 
  199.2500    68.0000    15.8810    14.3110    15.1350    24.1190     2.3060    -5.0880 
  199.3750    68.6240    16.0160    14.5700    15.4060    24.0560     2.2950    -5.0520 
  199.5000    70.5360    15.9690    14.5610    15.4910    24.0310     2.2840    -5.0400 
  199.6250    74.4420    15.9670    14.4820    16.0840    24.0880     2.2760    -5.0730 
  199.7500    77.1220    16.0870    14.4830    16.8430    24.1590     2.2700    -5.1600 
  199.8750    75.3670    16.3110    14.6070    17.8870    24.2010     2.2720    -5.2800 
  200.0000    70.7110    16.6210    14.8770    18.5960    24.2030     2.2850    -5.4390 
  200.1250    69.5470    17.1470    15.4350    19.2310    24.2730     2.3090    -5.6610 
  200.2500    70.2850    18.1750    16.4680    19.5970    24.2590     2.3370    -5.9310 
  200.3750    68.5910    20.1920    18.3300    21.7090    24.3200     2.3540    -6.2300 
  200.5000    65.1540    23.8410    21.5560    26.5140    24.3390     2.3510    -6.5520 
  200.6250    64.1660    30.1930    27.2060    41.8360    24.3590     2.3260    -6.8790 
  200.7500    65.8080    38.6620    35.0120    65.2040    24.3690     2.2910    -7.1700 
  200.8750    67.3520    47.0360    43.2490    88.1140    24.4030     2.2610    -7.4370 
  201.0000    68.0390    51.1170    48.1910   100.0730    24.4290     2.2480    -7.6410 
  201.1250    68.2350    46.1560    45.0140    86.5750    24.3870     2.2630    -7.7660 
  201.2500    69.2200    35.5920    36.0220    45.8090    24.2900     2.2960    -7.8310 
  201.3750    71.4460    24.3520    25.5420    20.0570    24.1890     2.3380    -7.8590 
  201.5000    71.5990    15.8000    17.0130    10.0420    24.0560     2.3750    -7.8690 
  201.6250    67.9910    11.0900    11.9010     8.1120    23.9450     2.4010    -7.8770 
  201.7500    65.3110     8.7800     9.0610     7.4260    24.1240     2.4200    -7.8940 
  201.8750    64.9400     8.0230     7.7530     7.7530    24.5970     2.4380    -7.9530 
  202.0000    64.6760     8.1760     7.4440     8.4550    24.8380     2.4560    -8.0840 
  202.1250    65.9500     8.7690     7.8020     8.3570    24.2230     2.4680    -8.2850 
  202.2500    69.9600     9.3800     8.3940     8.1350    23.9040     2.4740    -8.5460 
  202.3750    72.5850     9.8670     9.0070     8.5340    23.8740     2.4760    -8.8540 
  202.5000    71.6600    10.1990     9.5180     9.8930    23.9370     2.4800    -9.1850 
  202.6250    72.4230    10.3460     9.8350    11.2920    23.8840     2.4860    -9.5210 
  202.7500    75.7850    10.3010     9.9390    11.0630    23.7970     2.4900    -9.8610 
  202.8750    76.0680    10.0490     9.8090     9.9440    23.8440     2.4870   -10.1730 
  203.0000    71.3590     9.6410     9.4830     9.1730    23.9370     2.4770   -10.4570 
  203.1250    67.6680     9.2320     9.0700     8.7980    23.9940     2.4620   -10.7180 
