~V
VERS. 2.00: Ver 2.00
~W
STRT.M 57.0000:
STOP.M 255.0000:
STEP.M 0.1250:
NULL. -999.2500:
UWI. F10046:
~C
DEPT.M :
GR.API :
RML.OHMM :
RI. :
RXO.OHMM :
CALI.CM :
DEN.GM/CC :
SP.MV :
~A
# ...
   79.5000    69.6300    10.0920     7.5280    15.5150    23.1000     2.4200   -14.5930 
   79.6250    61.1740    11.3480     8.5980    20.9320    23.0370     2.4090   -15.5460 
   79.7500    54.6940    11.7910     9.2160    24.2980    23.0540     2.3720   -16.5370 
   79.8750    52.9110    11.3270     9.2110    21.9510    22.9950     2.3250   -17.4420 
   80.0000    52.7530    10.2510     8.6800    14.8250    22.8120     2.2820   -18.1950 
   80.1250    51.3840     9.1100     7.9280    10.8090    22.7680     2.2530   -18.7590 
   80.2500    51.5790     8.3050     7.2850     9.5820    22.9380     2.2340   -19.2050 
   80.3750    53.7440     7.9110     6.8560     9.2000    23.1470     2.2200   -19.5630 
   80.5000    55.0780     7.8300     6.6270     8.9300    23.1410     2.2100   -19.8000 
   80.6250    53.6100     7.9170     6.5400     8.6550    22.9090     2.2080   -19.8560 
   80.7500    52.4520     8.0280     6.5040     8.4760    22.7620     2.2100   -19.8180 
   80.8750    53.0720     8.1180     6.4880     8.4440    22.7560     2.2140   -19.7620 
   81.0000    55.2060     8.1730     6.4800     8.5030    22.7960     2.2170   -19.7450 
   81.1250    56.9270     8.1680     6.4680     8.5870    22.8330     2.2160   -19.7910 
   81.2500    58.2410     8.1010     6.4350     8.6470    22.8470     2.2120   -19.8670 
   81.3750    58.5110     7.9780     6.3710     8.6410    22.8460     2.2050   -19.9160 
   81.5000    59.1720     7.8300     6.2830     8.5560    22.8340     2.1970   -19.8970 
   81.6250    61.9240     7.7070     6.2000     8.4260    22.8030     2.1920   -19.8150 
   81.7500    64.0390     7.6450     6.1500     8.3490    22.7720     2.1920   -19.6410 
   81.8750    62.9010     7.6470     6.1440     8.3370    22.7400     2.1960   -19.3710 
   82.0000    59.5180     7.6930     6.1790     8.3590    22.7210     2.2020   -19.0190 
   82.1250    57.5800     7.7490     6.2360     8.3640    22.7170     2.2060   -18.5620 
   82.2500    57.8360     7.7810     6.2890     8.3520    22.7290     2.2070   -17.9720 
   82.3750    58.6450     7.7730     6.3260     8.2780    22.7620     2.2040   -17.2440 
   82.5000    58.6310     7.7180     6.3420     8.1170    22.8000     2.1970   -16.4180 
   82.6250    57.6640     7.6070     6.3280     7.8970    22.8430     2.1880   -15.5750 
   82.7500    56.5240     7.4550     6.2840     7.6440    22.8790     2.1800   -14.7370 
   82.8750    56.4310     7.2700     6.2010     7.3830    22.9250     2.1780   -13.8530 
   83.0000    57.4210     7.0610     6.0730     7.0890    22.9840     2.1840   -12.8840 
   83.1250    58.3090     6.8200     5.8870     6.7720    23.0560     2.2000   -11.8820 
   83.2500    60.0590     6.5320     5.6530     6.3160    23.1440     2.2220   -10.9770 
   83.3750    64.0880     6.1770     5.3790     5.8400    23.2630     2.2490   -10.2420 
   83.5000    70.4500     5.7530     5.0780     5.4720    23.4250     2.2790    -9.7110 
   83.6250    76.0000     5.3070     4.7740     5.2540    23.6440     2.3090    -9.3810 
   83.7500    79.4680     4.9470     4.5040     5.0980    23.9310     2.3360    -9.2500 
   83.8750    80.5230     4.7910     4.3130     4.9850    24.2570     2.3560    -9.3840 
   84.0000    79.4850     4.9280     4.2550     4.9690    24.5310     2.3650    -9.8210 
   84.1250    77.9220     5.4300     4.4120     5.3040    24.5840     2.3620   -10.6020 
   84.2500    75.7590     6.1610     4.7680     6.0390    24.4860     2.3500   -11.6000 
   84.3750    73.5620     6.9750     5.2790     7.1050    24.1520     2.3280   -12.6940 
   84.5000    70.9010     7.7020     5.8480     8.5210    23.5170     2.2980   -13.7630 
   84.6250    68.3610     8.1420     6.3230     9.5590    22.9410     2.2630   -14.7060 
   84.7500    65.5240     8.2830     6.6140     9.6830    22.6520     2.2310   -15.4750 
   84.8750    62.2560     8.1940     6.7230     8.8540    22.5420     2.2080   -16.0250 
   85.0000    59.5920     8.0190     6.7310     8.2490    22.4910     2.1940   -16.3390 
   85.1250    58.2530     7.9300     6.7610     8.0810    22.4530     2.1890   -16.3450 
   85.2500    58.1800     7.9950     6.8750     8.0060    22.4350     2.1860   -16.0610 
   85.3750    57.4580     8.1770     7.0530     7.9910    22.4220     2.1830   -15.4980 
   85.5000    55.5410     8.3660     7.2200     8.0080    22.3980     2.1810   -14.7090 
   85.6250    53.7090     8.3830     7.2570     8.0980    22.3900     2.1860   -13.7010 
   85.7500    52.7330     8.1570     7.1180     8.1490    22.3800     2.1980   -12.5610 
   85.8750    52.9630     7.7060     6.8100     8.0970    22.4020     2.2180   -11.3390 
   86.0000    54.9240     7.1420     6.3970     7.7990    22.5020     2.2460   -10.0710 
   86.1250    62.1800     6.6430     5.9860     7.1990    22.7890     2.2780    -8.7810 
   86.2500    72.5830     6.3130     5.6560     6.4540    23.2260     2.3040    -7.5230 
   86.3750    80.9570     6.1600     5.4290     5.8530    23.5520     2.3200    -6.4060 
   86.5000    83.4910     6.1280     5.2840     5.7370    23.5020     2.3250    -5.5050 
   86.6250    80.8890     6.1250     5.1870     5.8430    23.3740     2.3250    -4.8890 
   86.7500    78.5430     6.0860     5.0990     5.7590    23.5740     2.3280    -4.5010 
   86.8750    78.0810     6.0180     5.0290     5.3780    23.9800     2.3370    -4.3240 
   87.0000    80.2270     5.9870     5.0160     5.1200    24.2900     2.3480    -4.3400 
   87.1250    82.4390     6.1110     5.1320     5.2090    24.3500     2.3510    -4.5410 
   87.2500    81.0490     6.4060     5.3780     5.5540    24.2450     2.3440    -4.8890 
   87.3750    77.3750     6.8200     5.7220     6.0910    23.9040     2.3270    -5.3330 
   87.5000    73.7420     7.2380     6.0850     6.8630    23.2950     2.3080    -5.7980 
   87.6250    70.2410     7.5090     6.3610     8.0310    22.8460     2.2960    -6.2470 
   87.7500    67.7320     7.6430     6.5350     9.3770    22.7200     2.2930    -6.6890 
   87.8750    69.2590     7.7610     6.6660    10.5450    22.7960     2.2950    -7.1230 
   88.0000    74.9750     8.0350     6.8570    11.5100    22.9040     2.3000    -7.5260 
   88.1250    76.1840     8.6090     7.2000    11.4660    22.9880     2.3000    -7.8460 
   88.2500    70.7940     9.3500     7.6440    10.3590    23.0100     2.2930    -8.0660 
   88.3750    63.1960    10.0220     8.0690     9.8450    22.9380     2.2790    -8.1390 
   88.5000    57.8060    10.3400     8.3160    10.1950    22.8310     2.2610    -8.0320 
   88.6250    56.3160    10.0180     8.1920    10.0420    22.7750     2.2480    -7.7190 
   88.7500    56.1570     9.2100     7.7440     8.9240    22.7560     2.2480    -7.2910 
   88.8750    57.8100     8.1760     7.0950     7.8480    22.7830     2.2640    -6.8020 
   89.0000    61.7520     7.2270     6.4170     7.0120    22.8830     2.2940    -6.2930 
   89.1250    68.9690     6.6680     5.8960     6.4100    23.1130     2.3260    -5.8070 
   89.2500    75.5700     6.5040     5.5880     6.2280    23.3550     2.3480    -5.3470 
   89.3750    77.3990     6.6600     5.4890     6.6710    23.6010     2.3550    -4.9770 
   89.5000    75.5740     7.0040     5.5540     7.3580    23.8500     2.3480    -4.8340 
   89.6250    76.1410     7.3870     5.7290     8.0610    24.0170     2.3310    -4.9840 
   89.7500    78.5550     7.6760     5.9280     8.4140    23.9820     2.3120    -5.2640 
   89.8750    78.0280     7.8060     6.0950     8.0220    23.6940     2.2970    -5.5820 
   90.0000    74.8510     7.7620     6.1900     7.2240    23.4040     2.2870    -5.8840 
   90.1250    74.4420     7.5530     6.1740     6.8250    23.3300     2.2840    -6.1810 
   90.2500    75.9540     7.2720     6.0700     6.5950    23.3820     2.2880    -6.5400 
   90.3750    74.4540     6.9930     5.9130     6.4330    23.4630     2.2960    -7.0040 
   90.5000    70.4650     6.7950     5.7610     6.2690    23.5590     2.3050    -7.5560 
   90.6250    69.6030     6.7690     5.6970     6.2070    23.5740     2.3090    -8.1950 
