~V
VERS. 2.00: Ver 2.00
~W
STRT.M 50.0000:
STOP.M 266.0000:
STEP.M 0.1250:
NULL. -999.2500:
UWI. F10057:
~C
DEPT.M :
GR.API :
RML.OHMM :
RI. :
RXO.OHMM :
CALI.CM :
DEN.GM/CC :
SP.MV :
~A
# ...
   95.0000    65.8060    10.4230     7.7720    11.6240    23.9380     2.2590    -8.2450 
   95.1250    68.3960    11.3140     8.5070    12.4080    24.0160     2.2340    -8.2530 
   95.2500    72.7980    11.8540     9.0770    12.3870    24.0230     2.2240    -8.2550 
   95.3750    72.8580    11.9290     9.3130    12.3510    23.9540     2.2230    -8.1930 
   95.5000    69.7200    11.5540     9.1490    12.7770    23.8840     2.2240    -8.0820 
   95.6250    70.8040    10.8310     8.6190    13.4130    23.9030     2.2250    -7.9530 
   95.7500    76.0410    10.0290     7.9720    12.7550    24.0340     2.2300    -7.7780 
   95.8750    81.6980     9.3530     7.3850    10.4400    24.1610     2.2420    -7.5260 
   96.0000    84.3250     8.9720     6.9940     8.0740    24.0600     2.2520    -7.2610 
   96.1250    82.5800     9.0370     6.9140     7.4210    23.6640     2.2500    -7.0830 
   96.2500    78.2340     9.4440     7.1000     7.9890    23.2820     2.2370    -6.9870 
   96.3750    73.8690    10.0580     7.5040     8.9080    23.0900     2.2200    -6.9330 
   96.5000    70.9510    10.6960     8.0320     9.6290    23.0440     2.2120    -6.8660 
   96.6250    68.3360    11.1490     8.5280    10.1070    23.0320     2.2190    -6.7830 
   96.7500    66.2300    11.4050     8.9070    10.5340    23.0460     2.2300    -6.7150 
   96.8750    65.1920    11.5850     9.2010    10.8890    23.0750     2.2370    -6.6240 
   97.0000    64.7250    11.8380     9.4990    11.2610    23.0440     2.2380    -6.4290 
   97.1250    65.0120    12.2030     9.8410    11.5720    22.9150     2.2440    -6.1060 
   97.2500    65.3860    12.4820    10.1170    11.6340    22.8690     2.2700    -5.6920 
   97.3750    67.1160    12.4100    10.1350    11.5760    23.0470     2.3190    -5.1900 
   97.5000    71.5470    11.7750     9.7220    11.2290    23.3610     2.3790    -4.6190 
   97.6250    79.5480    10.5110     8.8040     9.9490    23.5940     2.4210    -3.9950 
   97.7500    88.2330     9.0430     7.6930     8.3780    23.7460     2.4320    -3.3780 
   97.8750    95.8480     7.7210     6.6510     7.1970    23.9110     2.4160    -2.8380 
   98.0000   101.6260     6.7650     5.8400     6.4980    24.1070     2.3860    -2.4110 
   98.1250   103.7110     6.3210     5.3810     6.0760    24.2660     2.3640    -2.0470 
   98.2500   103.1880     6.2950     5.2350     5.8500    24.3630     2.3520    -1.7440 
   98.3750   101.8350     6.6260     5.3870     5.8900    24.3900     2.3470    -1.6010 
   98.5000    99.3870     7.2110     5.7840     6.0470    24.3720     2.3420    -1.6450 
   98.6250    94.0640     7.8870     6.3230     6.7120    24.3670     2.3350    -1.8050 
   98.7500    88.9810     8.4030     6.7980     8.8810    24.3820     2.3300    -1.9720 
   98.8750    87.2090     8.5620     7.0350    11.8680    24.3750     2.3310    -2.1350 
   99.0000    89.2560     8.3080     6.9560    12.0710    24.3310     2.3360    -2.3240 
   99.1250    93.9300     7.7950     6.6380     8.8210    24.2930     2.3360    -2.5940 
   99.2500    96.4610     7.3600     6.3220     6.6520    24.2900     2.3260    -2.9080 
   99.3750    94.9240     7.1870     6.1540     6.4180    24.2870     2.3090    -3.1910 
   99.5000    91.0420     7.3240     6.1940     7.0780    24.2370     2.2900    -3.4440 
   99.6250    88.2870     7.7040     6.4310     7.4720    24.1240     2.2770    -3.7310 
   99.7500    86.6090     8.0960     6.7180     7.5760    24.0020     2.2700    -4.0520 
   99.8750    85.7250     8.3420     6.9360     7.6760    23.9180     2.2650    -4.3590 
  100.0000    86.3410     8.3800     7.0150     7.8460    23.8670     2.2640    -4.6120 
  100.1250    88.7600     8.2400     6.9490     7.7750    23.7410     2.2690    -4.8040 
  100.2500    90.7000     8.0540     6.8180     7.4220    23.4980     2.2780    -4.9880 
  100.3750    91.1430     7.8960     6.6730     7.0300    23.2120     2.2890    -5.1810 
  100.5000    90.7930     7.8000     6.5480     6.8670    22.9780     2.2950    -5.3400 
  100.6250    90.7530     7.7480     6.4520     7.0300    22.8430     2.2960    -5.4030 
  100.7500    91.2540     7.6630     6.3450     7.3100    22.7730     2.2990    -5.4670 
  100.8750    91.0310     7.5140     6.2010     7.3800    22.7490     2.3090    -5.5710 
  101.0000    89.7850     7.3440     6.0410     7.1490    22.7340     2.3260    -5.7270 
  101.1250    91.9500     7.2850     5.9580     6.9440    22.7260     2.3490    -5.9110 
  101.2500    97.1200     7.4390     6.0170     6.7600    22.7820     2.3700    -6.1220 
  101.3750    99.1720     7.8660     6.2640     6.8960    22.8890     2.3820    -6.3830 
  101.5000    93.0700     8.5560     6.7030     7.9060    22.9760     2.3810    -6.7240 
  101.6250    83.4600     9.4170     7.2990     9.4090    23.0030     2.3610    -7.1890 
  101.7500    78.6020    10.2560     7.9210     9.8130    23.0070     2.3300    -7.6930 
  101.8750    77.2940    10.9420     8.4750     9.3820    22.9790     2.2940    -8.2060 
  102.0000    76.3540    11.4020     8.8930     9.6080    22.9410     2.2610    -8.7220 
  102.1250    76.7820    11.6100     9.1240    10.7700    23.0740     2.2340    -9.2550 
  102.2500    78.6780    11.6880     9.2360    11.5490    23.3790     2.2120    -9.7730 
  102.3750    79.6940    11.7200     9.2910    11.7760    23.6620     2.1930   -10.2090 
  102.5000    78.5660    11.7560     9.3390    11.8420    23.7860     2.1780   -10.5370 
  102.6250    77.5460    11.8300     9.4200    11.8530    23.8450     2.1690   -10.7530 
  102.7500    78.4710    11.9350     9.5380    11.9480    23.9490     2.1640   -10.9110 
  102.8750    79.5210    12.0230     9.6570    12.1680    24.0160     2.1620   -11.0140 
  103.0000    78.3530    12.0230     9.7090    12.3530    23.9730     2.1610   -11.0280 
  103.1250    73.9960    11.8530     9.6060    12.3200    23.8670     2.1650   -10.9120 
  103.2500    70.9950    11.5390     9.3650    12.0120    23.7940     2.1730   -10.7420 
  103.3750    70.9880    11.1340     9.0250    11.4730    23.7460     2.1840   -10.5760 
  103.5000    72.1480    10.7100     8.6420    10.8310    23.6480     2.1930   -10.4020 
  103.6250    74.0680    10.3410     8.2800    10.2810    23.4730     2.1970   -10.2340 
  103.7500    77.8900    10.0480     7.9770     9.8470    23.3260     2.1970   -10.0910 
  103.8750    83.3020     9.8410     7.7460     9.4900    23.2540     2.1950   -10.0030 
  104.0000    88.0960     9.7320     7.5980     9.2300    23.2030     2.1930    -9.9950 
  104.1250    90.2800     9.7570     7.5580     9.0460    23.1190     2.1940   -10.0670 
  104.2500    88.0250     9.9040     7.6150     8.8800    23.0400     2.1980   -10.1700 
  104.3750    82.4910    10.1380     7.7480     8.8650    22.9950     2.2010   -10.3190 
  104.5000    78.6400    10.3860     7.9180     9.2350    22.9740     2.2030   -10.5710 
  104.6250    77.7410    10.5770     8.0940    10.1790    22.9570     2.2040   -10.8750 
  104.7500    75.8120    10.7320     8.2750    11.2990    22.9450     2.2040   -11.1370 
  104.8750    73.1210    10.9240     8.4840    12.0060    22.9870     2.2050   -11.3610 
  105.0000    71.8530    11.2170     8.7400    11.9260    23.1530     2.2040   -11.5800 
  105.1250    71.7810    11.6150     9.0320    13.0030    23.4430     2.2000   -11.7940 
  105.2500    71.3170    11.9880     9.2910    20.5250    23.6780     2.1910   -11.9690 
  105.3750    71.0160    12.1810     9.4410    38.0850    23.7320     2.1780   -12.0610 
  105.5000    70.7860    12.0900     9.4210    44.5080    23.5950     2.1600   -12.0460 
  105.6250    70.8390    11.7180     9.2000    26.8990    23.3300     2.1440   -11.9840 
  105.7500    71.2570    11.2650     8.8760    16.2660    23.0480     2.1330   -11.9220 
  105.8750    70.9470    10.8590     8.5350    12.9240    22.8090     2.1330   -11.8050 
  106.0000    68.8610    10.5490     8.2440    12.4020    22.6380     2.1450   -11.6030 
  106.1250    67.3720    10.3590     8.0630    12.3160    22.5190     2.1640   -11.3550 
