~V
VERS. 2.00: Ver 2.00
~W
STRT.M 50.0000:
STOP.M 255.0000:
STEP.M 0.1250:
NULL. -999.2500:
UWI. F10005:
~C
DEPT.M :
SP.MV :
GR.API :
RML.OHMM :
RI. :
RXO.OHMM :
CALI.CM :
DEN.GM/CC :
~A
# ...
  140.0000    -4.3000    52.8710    21.5350    19.7050    18.3460    22.8530     2.2000 
  140.1250    -4.1950    54.9870    22.5280    20.5700    18.7570    22.8980     2.1910 
  140.2500    -4.1380    58.7370    23.5150    21.4250    20.2380    22.9030     2.1880 
  140.3750    -4.0900    60.8180    24.1530    21.9710    21.0420    22.8670     2.1940 
  140.5000    -4.0640    60.7990    24.0880    21.9120    20.9280    22.8240     2.2050 
  140.6250    -4.0920    60.5380    23.0960    21.0930    21.6670    22.8430     2.2170 
  140.7500    -4.1110    62.2030    21.6610    19.9220    23.0920    22.9500     2.2240 
  140.8750    -4.1260    65.8340    20.2980    18.7850    21.4380    23.1100     2.2270 
  141.0000    -4.1300    68.9940    19.4290    17.9850    17.5700    23.2460     2.2260 
  141.1250    -4.1530    67.4620    19.3040    17.7380    16.6690    23.2390     2.2270 
  141.2500    -4.1880    62.5600    19.6820    17.9410    20.9100    23.1070     2.2350 
  141.3750    -4.2140    59.0330    20.4030    18.5420    22.6990    22.9560     2.2460 
  141.5000    -4.2070    58.9520    21.4120    19.5220    21.4950    22.8650     2.2530 
  141.6250    -4.1860    58.7880    22.8870    21.0210    20.2750    22.8360     2.2520 
  141.7500    -4.2040    57.1340    25.0030    23.1320    23.4690    22.8170     2.2460 
  141.8750    -4.2390    55.7210    27.8900    25.9770    33.3890    22.7540     2.2430 
  142.0000    -4.3000    55.9790    31.3410    29.3910    50.3110    22.6120     2.2500 
  142.1250    -4.3180    56.9200    34.3640    32.4900    59.4730    22.4060     2.2680 
  142.2500    -4.3030    57.3330    35.7070    34.0640    58.2350    22.2620     2.2810 
  142.3750    -4.2800    56.8470    34.7550    33.4520    52.6390    22.3330     2.2750 
  142.5000    -4.3000    55.8750    31.9540    30.9900    43.6950    22.6940     2.2380 
  142.6250    -4.3280    55.6880    28.5360    27.7350    32.4260    23.2720     2.1710 
  142.7500    -4.2760    58.0190    25.6570    24.8010    25.4980    23.7730     2.1030 
  142.8750    -4.2190    61.9240    23.6460    22.5650    23.3890    24.0580     2.0710 
  143.0000    -4.0860    64.7000    22.4790    21.1110    23.6120    24.1580     2.1020 
  143.1250    -3.9340    64.9910    22.1550    20.5430    22.3640    24.1860     2.2020 
  143.2500    -3.7840    65.4850    22.5630    20.7270    20.8460    24.2060     2.3150 
  143.3750    -3.6590    65.6910    23.7720    21.6670    18.8430    24.2160     2.3870 
  143.5000    -3.4820    62.8410    25.7160    23.3000    22.1710    24.2200     2.3870 
  143.6250    -3.3080    56.1060    28.0500    25.4430    33.5730    24.2290     2.3150 
  143.7500    -3.1800    50.9510    30.0020    27.5010    46.2450    24.2540     2.2340 
  143.8750    -3.0400    50.1010    30.9440    28.8770    45.8180    24.2960     2.1850 
  144.0000    -2.9600    51.3130    30.6520    29.1770    36.0850    24.3480     2.1830 
  144.1250    -2.9700    50.6850    29.5060    28.4570    29.5210    24.3820     2.2120 
  144.2500    -2.9600    49.1130    28.4460    27.5100    28.2400    24.3820     2.2380 
  144.3750    -2.9420    48.3040    27.9100    26.8160    28.7030    24.3470     2.2520 
  144.5000    -2.9490    48.5750    27.9440    26.5680    28.9570    24.2860     2.2590 
  144.6250    -2.9560    49.1230    28.3210    26.7240    28.6800    24.2300     2.2670 
  144.7500    -2.9850    51.2620    28.6160    26.9470    28.5430    24.1920     2.2710 
  144.8750    -3.0710    53.5160    28.6110    27.0140    28.0270    24.1670     2.2590 
  145.0000    -3.1470    53.1510    28.2860    26.8440    27.4000    24.1600     2.2270 
  145.1250    -3.1880    51.5470    27.7910    26.4840    26.7670    24.1980     2.1820 
  145.2500    -3.2210    50.9100    27.3410    26.0910    25.9020    24.2690     2.1430 
  145.3750    -3.2540    50.4930    27.0480    25.7800    25.1800    24.3310     2.1160 
  145.5000    -3.2570    50.9490    26.9680    25.6360    25.5160    24.3410     2.1020 
  145.6250    -3.2690    53.9080    27.1010    25.6860    25.8160    24.2530     2.1010 
  145.7500    -3.2620    56.2020    27.3080    25.8170    25.9160    24.1030     2.1110 
  145.8750    -3.1940    55.1330    27.4770    25.9350    25.6090    23.9330     2.1320 
  146.0000    -3.1580    53.7100    27.5010    25.9660    25.3070    23.7880     2.1570 
  146.1250    -3.0910    55.0340    27.2740    25.8490    25.7000    23.7250     2.1680 
  146.2500    -3.0590    56.7980    26.8840    25.6320    25.1560    23.7210     2.1580 
  146.3750    -3.0070    58.9240    26.4710    25.3950    24.2870    23.7420     2.1320 
  146.5000    -2.9770    60.9010    26.1820    25.2310    23.8880    23.7570     2.1060 
  146.6250    -2.9120    59.7480    26.1670    25.2600    24.3410    23.7590     2.0980 
  146.7500    -2.8530    56.5470    26.4650    25.5380    25.1150    23.7680     2.1080 
  146.8750    -2.8190    54.7790    27.1170    26.1140    25.7850    23.8110     2.1260 
  147.0000    -2.7730    56.3420    28.0780    26.9560    26.3890    23.8970     2.1400 
  147.1250    -2.7490    57.3450    29.0340    27.7870    26.1260    24.0000     2.1420 
  147.2500    -2.7270    56.2660    29.3810    28.0840    26.1250    24.0660     2.1370 
  147.3750    -2.7210    55.1520    28.6150    27.3900    26.5810    24.0750     2.1270 
  147.5000    -2.7460    56.5660    26.6720    25.6080    26.2230    24.0450     2.1140 
  147.6250    -2.7840    60.9700    24.1010    23.1700    22.6570    23.9970     2.1030 
  147.7500    -2.7930    65.3360    21.9610    21.0070    17.4350    23.9180     2.0990 
  147.8750    -2.7720    68.7630    20.9820    19.7390    14.7940    23.8040     2.1050 
  148.0000    -2.7180    70.3770    21.6010    19.7630    16.5190    23.6740     2.1180 
  148.1250    -2.5780    69.1840    24.2470    21.5850    20.5990    23.5740     2.1270 
  148.2500    -2.3920    67.0000    28.3880    24.9580    24.6810    23.5320     2.1270 
  148.3750    -2.1880    64.0260    33.3100    29.4530    29.1520    23.5510     2.1210 
  148.5000    -1.9820    60.3760    37.7890    34.0490    39.6090    23.6020     2.1190 
  148.6250    -1.7270    57.0250    40.1800    37.1550    46.6780    23.6480     2.1370 
  148.7500    -1.5320    55.6530    40.5700    38.4630    46.7100    23.6720     2.1740 
  148.8750    -1.3740    55.0900    39.8340    38.5070    43.7080    23.6620     2.2160 
  149.0000    -1.2460    53.6530    39.0090    38.1060    42.1930    23.6250     2.2440 
  149.1250    -1.1940    51.6390    38.8100    37.9240    39.9750    23.5920     2.2440 
  149.2500    -1.1610    49.8510    39.0830    38.0450    39.2550    23.5720     2.2280 
  149.3750    -1.1900    48.8420    39.3600    38.1720    39.3730    23.5490     2.2120 
  149.5000    -1.2020    48.6290    39.1110    37.8620    39.5410    23.5070     2.2060 
  149.6250    -1.3370    48.5830    37.8570    36.6630    37.5500    23.4570     2.2040 
  149.7500    -1.4880    48.6950    35.8110    34.7340    31.6970    23.4280     2.1930 
  149.8750    -1.6800    48.8400    33.3140    32.3710    26.9870    23.4540     2.1720 
  150.0000    -1.9330    49.3710    30.8210    29.9680    26.2110    23.5510     2.1490 
  150.1250    -2.2670    49.2100    28.8010    27.9330    25.0730    23.7170     2.1420 
  150.2500    -2.6090    48.3490    27.3110    26.3860    23.8420    23.9010     2.1530 
  150.3750    -2.9170    47.7680    26.2680    25.3480    21.9540    24.0560     2.1730 
  150.5000    -3.2290    48.6660    25.5680    24.7830    21.7840    24.1510     2.1920 
  150.6250    -3.4630    52.7080    25.2820    24.7330    23.6550    24.1960     2.1980 
  150.7500    -3.6220    57.3590    25.5180    25.1430    25.2100    24.2240     2.1910 
  150.8750    -3.6910    60.1220    26.4520    26.0830    25.8600    24.2370     2.1690 
  151.0000    -3.6740    59.9720    28.1420    27.6060    27.3450    24.2220     2.1370 
  151.1250    -3.5860    57.4530    30.4340    29.6990    29.7690    24.1650     2.1040 
