~V
VERS. 2.00: Ver 2.00
~W
STRT.M 50.0000:
STOP.M 325.0000:
STEP.M 0.1250:
NULL. -999.2500:
UWI. F10039:
~C
DEPT.M :
GR.API :
RML.OHMM :
RI. :
RXO.OHMM :
CALI.CM :
DEN.GM/CC :
SP.MV :
~A
# ...
  117.5000    75.1740     9.1530     7.4680     9.3480    23.3070     2.2300   -27.6390 
  117.6250    75.6260     9.1100     7.5440     9.0280    23.2950     2.2390   -27.5930 
  117.7500    77.0740     9.0750     7.5970     8.6230    23.2820     2.2440   -27.5450 
  117.8750    78.5840     9.0230     7.5880     8.3120    23.3000     2.2430   -27.5230 
  118.0000    78.3800     8.9450     7.5000     8.2080    23.3390     2.2390   -27.5170 
  118.1250    77.0180     8.8630     7.3500     8.2690    23.3960     2.2360   -27.5340 
  118.2500    75.6060     8.8010     7.2060     8.0260    23.4130     2.2380   -27.5880 
  118.3750    73.3850     8.7600     7.1220     7.6960    23.3610     2.2430   -27.6690 
  118.5000    70.3870     8.7290     7.1350     7.9110    23.2790     2.2470   -27.7620 
  118.6250    70.5000     8.7090     7.2580     8.3740    23.1670     2.2480   -27.8280 
  118.7500    72.5810     8.7140     7.4240     8.4130    23.0420     2.2460   -27.9060 
  118.8750    73.1100     8.7530     7.5580     8.1980    22.8790     2.2420   -27.9840 
  119.0000    72.6040     8.8050     7.5920     8.0190    22.7720     2.2360   -28.0680 
  119.1250    73.8410     8.8100     7.4670     7.6460    22.8240     2.2320   -28.1530 
  119.2500    75.1840     8.7340     7.2420     7.2830    22.8550     2.2290   -28.2300 
  119.3750    74.3540     8.5980     7.0020     7.3710    22.7760     2.2260   -28.3010 
  119.5000    72.1670     8.4760     6.8420     7.8140    22.6760     2.2290   -28.3790 
  119.6250    71.4490     8.4740     6.8470     8.1050    22.6450     2.2450   -28.4570 
  119.7500    71.9470     8.6040     6.9860     8.2140    22.6850     2.2720   -28.5200 
  119.8750    71.8630     8.8190     7.2040     8.2250    22.7800     2.2990   -28.5550 
  120.0000    70.5670     9.0240     7.4270     8.2300    22.8530     2.3150   -28.5630 
  120.1250    69.8990     9.1040     7.5650     8.2490    22.8100     2.3080   -28.5080 
  120.2500    70.5030     9.0460     7.5880     8.1250    22.7260     2.2850   -28.3800 
  120.3750    71.4620     8.8900     7.5020     7.9520    22.7170     2.2580   -28.1790 
  120.5000    71.7440     8.7080     7.3480     7.8780    22.7720     2.2370   -27.9040 
  120.6250    70.9630     8.5700     7.1990     7.9750    22.8040     2.2280   -27.5990 
  120.7500    71.2800     8.4920     7.1220     8.0040    22.8500     2.2250   -27.2630 
  120.8750    72.1350     8.4550     7.1390     7.8430    22.8380     2.2260   -26.8780 
  121.0000    71.8580     8.4160     7.2250     7.5660    22.8380     2.2300   -26.4340 
  121.1250    70.0090     8.3290     7.3160     7.4430    22.8930     2.2360   -25.9180 
  121.2500    69.8110     8.1940     7.3400     7.5040    23.0150     2.2430   -25.3600 
  121.3750    73.1320     8.0290     7.2560     7.4390    23.1370     2.2510   -24.7740 
  121.5000    78.9690     7.8440     7.0590     7.4640    23.2340     2.2600   -24.1880 
  121.6250    84.5670     7.6220     6.7690     7.0240    23.2400     2.2760   -23.5870 
  121.7500    90.5630     7.3390     6.4590     6.8240    23.2700     2.3000   -22.9800 
  121.8750    96.8500     6.9840     6.1750     6.3200    23.4800     2.3290   -22.3770 
  122.0000   102.9880     6.5790     5.9320     5.5060    23.7830     2.3580   -21.8260 
  122.1250   109.2680     6.1950     5.7120     5.0530    23.9660     2.3820   -21.3990 
  122.2500   113.0360     5.9000     5.4770     4.8980    24.0240     2.4010   -21.0910 
  122.3750   112.9330     5.7180     5.2170     4.9150    24.0030     2.4130   -20.9070 
  122.5000   109.5520     5.6250     4.9560     4.9800    23.9680     2.4200   -20.8440 
  122.6250   106.4640     5.5550     4.7510     5.0290    24.0060     2.4170   -20.9370 
  122.7500   107.1690     5.4580     4.6300     5.0430    24.1040     2.4070   -21.1500 
  122.8750   111.6390     5.3670     4.6040     4.9970    24.2060     2.3990   -21.4620 
  123.0000   117.7710     5.3830     4.6780     5.0640    24.2630     2.3970   -21.8580 
  123.1250   117.9060     5.6630     4.8830     5.1090    24.2210     2.4020   -22.3190 
  123.2500   111.0160     6.2040     5.2220     5.5900    24.0130     2.4010   -22.8220 
  123.3750    99.8880     6.9100     5.7010     6.8210    23.6220     2.3870   -23.3530 
  123.5000    87.6720     7.5940     6.2750     8.0370    23.1400     2.3600   -23.8850 
  123.6250    81.3630     8.0210     6.8100     8.0580    22.8180     2.3330   -24.3750 
  123.7500    82.8240     8.2090     7.1960     7.7520    22.7260     2.3280   -24.8250 
  123.8750    85.7430     8.3420     7.4430     7.6160    22.6950     2.3530   -25.2660 
  124.0000    83.2070     8.6890     7.6870     7.8510    22.6600     2.3970   -25.6730 
  124.1250    77.2110     9.5170     8.1760     9.0690    22.7330     2.4350   -25.9970 
  124.2500    73.5310    10.6960     8.9820    12.1660    22.9670     2.4440   -26.2350 
  124.3750    71.7160    11.9050     9.9820    15.9800    23.2160     2.4170   -26.4050 
  124.5000    71.5650    12.6840    10.8360    15.4150    23.2770     2.3650   -26.5220 
  124.6250    72.9910    12.5200    11.0150    11.2300    22.9930     2.3110   -26.5910 
  124.7500    75.1440    11.6160    10.4790     8.8260    22.5850     2.2810   -26.6410 
  124.8750    76.9570    10.3800     9.4770     8.1290    22.3510     2.2860   -26.6740 
  125.0000    77.8330     9.2710     8.4160     8.1190    22.3790     2.3250   -26.7180 
  125.1250    77.6160     8.6650     7.7220     8.3820    22.6990     2.3760   -26.8450 
  125.2500    77.7260     8.5380     7.4860     9.1430    23.0600     2.4090   -27.0630 
  125.3750    78.6340     8.7770     7.6440    10.3530    23.2160     2.4090   -27.3550 
  125.5000    78.3380     9.2000     8.0150    11.7120    23.0320     2.3780   -27.7190 
  125.6250    75.4490     9.5780     8.3580    10.4740    22.7410     2.3330   -28.1300 
  125.7500    74.1670     9.7640     8.5240     9.6300    22.6190     2.2900   -28.5590 
  125.8750    74.5620     9.7370     8.5140     9.6400    22.6060     2.2550   -28.9970 
  126.0000    73.9530     9.5610     8.4050    10.1140    22.6310     2.2270   -29.4170 
  126.1250    72.3730     9.3360     8.2730    10.1110    22.6410     2.2090   -29.7920 
  126.2500    73.0230     9.1370     8.1300     9.5210    22.6470     2.2030   -30.1160 
  126.3750    75.6860     8.9670     7.9450     8.7360    22.6750     2.2070   -30.3890 
  126.5000    78.5950     8.8050     7.7140     8.0280    22.7340     2.2180   -30.5950 
  126.6250    79.1220     8.6530     7.5120     7.6720    22.7810     2.2330   -30.7660 
  126.7500    76.4820     8.5500     7.4350     7.6660    22.7810     2.2470   -30.9340 
  126.8750    71.2840     8.5500     7.5210     8.0380    22.7750     2.2600   -31.0970 
  127.0000    66.6770     8.6840     7.7330     8.7960    22.7650     2.2710   -31.2670 
  127.1250    65.0400     8.9450     7.9780     9.7690    22.7220     2.2760   -31.4070 
  127.2500    64.7890     9.2270     8.1740     9.8350    22.6750     2.2740   -31.5020 
  127.3750    65.4800     9.4390     8.3120     9.6670    22.6510     2.2630   -31.5690 
  127.5000    66.1730     9.5330     8.4190     9.6260    22.6440     2.2450   -31.6460 
  127.6250    66.1670     9.5130     8.5100     9.6950    22.6430     2.2250   -31.7310 
  127.7500    64.3380     9.4640     8.5580     9.6020    22.6450     2.2100   -31.8080 
  127.8750    61.0560     9.4390     8.5270     9.2550    22.6370     2.2020   -31.8660 
  128.0000    59.2780     9.4550     8.4110     8.8790    22.6090     2.2010   -31.8840 
  128.1250    59.6040     9.4800     8.2520     8.5670    22.5860     2.2080   -31.8920 
  128.2500    59.2590     9.4720     8.1290     8.4540    22.5880     2.2170   -31.9300 
  128.3750    58.6350     9.4190     8.0710     8.6160    22.6400     2.2260   -31.9820 
  128.5000    60.5350     9.3430     8.0590     8.8590    22.7780     2.2330   -32.0010 
  128.6250    64.3640     9.2890     8.0370     9.0720    22.9600     2.2350   -31.9490 
