~V
VERS. 2.00: Ver 2.00
~W
STRT.M 55.0000:
STOP.M 293.0000:
STEP.M 0.1250:
NULL. -999.2500:
UWI. F10038:
~C
DEPT.M :
SP.MV :
DEN.GM/CC :
GR.API :
RML.OHMM :
RI. :
RXO.OHMM :
CALI.CM :
~A
# ...
  100.0000   -21.6960     2.2070    62.4430     8.6590     7.3010    10.0250    23.5260 
  100.1250   -21.2010     2.2140    61.0670     8.5120     7.2190     9.6960    23.4050 
  100.2500   -20.7200     2.2210    61.2390     8.2980     7.0880     9.2070    23.2890 
  100.3750   -20.2940     2.2300    63.1370     8.0340     6.9110     8.6230    23.2400 
  100.5000   -19.9390     2.2380    66.4710     7.7480     6.7050     8.0160    23.2940 
  100.6250   -19.6660     2.2420    68.2620     7.5000     6.5050     7.5490    23.3970 
  100.7500   -19.4320     2.2400    66.8530     7.3220     6.3460     7.3890    23.5310 
  100.8750   -19.1800     2.2320    63.5330     7.2610     6.2490     7.4330    23.7090 
  101.0000   -18.8950     2.2200    62.1780     7.3200     6.2290     7.4720    23.8820 
  101.1250   -18.5980     2.2080    63.9920     7.5530     6.2920     7.5880    24.0320 
  101.2500   -18.2480     2.2000    65.5560     7.8360     6.3900     7.7990    24.1490 
  101.3750   -17.8210     2.1980    64.7840     7.9920     6.4670     7.9900    24.2080 
  101.5000   -17.2530     2.2040    63.4710     7.9230     6.4520     8.1570    24.1600 
  101.6250   -16.4400     2.2220    65.4420     7.5810     6.2650     7.8860    24.0510 
  101.7500   -15.4410     2.2510    69.6950     7.0530     5.9370     7.2640    23.9230 
  101.8750   -14.3400     2.2870    73.5330     6.4810     5.5380     6.4080    23.8010 
  102.0000   -13.2070     2.3200    78.3250     6.0280     5.1700     5.6410    23.7360 
  102.1250   -12.1130     2.3360    85.8200     5.8520     4.9610     5.2750    23.7790 
  102.2500   -11.1010     2.3330    90.2390     5.9270     4.9310     5.2640    23.9090 
  102.3750   -10.2130     2.3170    85.1720     6.1760     5.0520     5.5710    24.1220 
  102.5000    -9.4650     2.3000    75.9580     6.4730     5.2510     6.0530    24.4100 
  102.6250    -8.8690     2.2960    74.3710     6.6480     5.4110     6.3380    24.6380 
  102.7500    -8.3940     2.3040    80.5030     6.6270     5.4570     6.2770    24.7020 
  102.8750    -8.0390     2.3190    87.4380     6.4380     5.3730     5.7940    24.6250 
  103.0000    -7.8050     2.3350    92.6700     6.1780     5.1980     5.3720    24.5030 
  103.1250    -7.6730     2.3500    95.9050     5.9640     5.0040     5.2300    24.4610 
  103.2500    -7.6040     2.3670    94.8780     5.8250     4.8420     5.2440    24.4640 
  103.3750    -7.5810     2.3870    89.2340     5.7340     4.7230     5.2750    24.4690 
  103.5000    -7.6590     2.4010    83.5120     5.6430     4.6340     5.3380    24.4530 
  103.6250    -7.9550     2.3950    82.8340     5.5310     4.5750     5.4630    24.4180 
  103.7500    -8.4620     2.3710    86.5290     5.4750     4.5870     5.6010    24.3910 
  103.8750    -9.1280     2.3430    91.1030     5.6340     4.7710     5.8270    24.3770 
  104.0000    -9.9230     2.3300    93.1230     6.1850     5.2460     6.3170    24.3810 
  104.1250   -10.8720     2.3460    89.1000     7.3030     6.1460     7.5580    24.3990 
  104.2500   -11.9830     2.3780    80.7330     8.7790     7.3310     9.6380    24.3990 
  104.3750   -13.2410     2.4020    73.2350    10.2690     8.5740    12.1990    24.3450 
  104.5000   -14.5990     2.3980    68.5350    11.3010     9.5500    14.6020    24.2280 
  104.6250   -16.0420     2.3560    65.3300    11.3260     9.8550    14.6820    24.0400 
  104.7500   -17.4770     2.3000    63.8930    10.5950     9.5550    12.3500    23.7720 
  104.8750   -18.8560     2.2500    65.0330     9.6070     8.9020    10.3920    23.4680 
  105.0000   -20.1100     2.2190    66.0310     8.8030     8.2230     9.6380    23.2210 
  105.1250   -21.1340     2.2050    62.5580     8.4180     7.7750     9.3050    23.0440 
  105.2500   -21.9320     2.2000    59.9040     8.3540     7.5710     8.9700    22.9250 
  105.3750   -22.5010     2.1990    62.1170     8.5090     7.5540     8.7250    22.8280 
  105.5000   -22.8690     2.1980    65.5120     8.7710     7.6470     8.5680    22.7190 
  105.6250   -23.0370     2.1970    64.1600     9.0290     7.7780     8.4880    22.6570 
  105.7500   -23.0890     2.1930    60.0540     9.2080     7.8910     8.5180    22.6950 
  105.8750   -23.0860     2.1870    57.7160     9.2780     7.9560     8.6760    22.8700 
  106.0000   -23.0710     2.1800    58.9470     9.2320     7.9610     8.8500    23.0540 
  106.1250   -23.0740     2.1780    62.7010     9.0900     7.9020     8.9030    23.0020 
  106.2500   -23.0950     2.1830    65.5560     8.9180     7.8090     8.8090    22.7670 
  106.3750   -23.1440     2.1950    65.0650     8.7610     7.7070     8.7080    22.4810 
  106.5000   -23.2170     2.2100    62.0640     8.6540     7.6150     8.5960    22.2660 
  106.6250   -23.2770     2.2190    60.0170     8.6080     7.5490     8.4640    22.1540 
  106.7500   -23.3270     2.2230    59.6570     8.5960     7.5080     8.4600    22.1330 
  106.8750   -23.3730     2.2200    61.2410     8.5760     7.4880     8.5600    22.1820 
  107.0000   -23.4490     2.2140    63.8950     8.5190     7.4840     8.6570    22.2840 
  107.1250   -23.5940     2.2070    64.4150     8.4390     7.4900     8.6320    22.4240 
  107.2500   -23.7820     2.1990    61.5880     8.3680     7.4950     8.5280    22.5960 
  107.3750   -23.9920     2.1910    57.8900     8.3420     7.4920     8.4720    22.7670 
  107.5000   -24.1940     2.1810    57.0050     8.3360     7.4790     8.6030    22.9740 
  107.6250   -24.4180     2.1700    58.2630     8.3350     7.4550     8.8050    23.2270 
  107.7500   -24.7070     2.1610    60.5670     8.3340     7.4280     9.0090    23.4210 
  107.8750   -25.0410     2.1550    63.3230     8.3390     7.4020     9.0870    23.4930 
  108.0000   -25.3720     2.1520    62.6050     8.3540     7.3830     8.9840    23.4960 
  108.1250   -25.6500     2.1550    58.6210     8.3940     7.3770     8.8580    23.5020 
  108.2500   -25.8510     2.1610    57.5010     8.4620     7.3910     8.6860    23.4490 
  108.3750   -25.9840     2.1680    60.1630     8.5490     7.4300     8.6600    23.3910 
  108.5000   -26.0620     2.1750    62.0170     8.6630     7.4900     8.8100    23.3560 
  108.6250   -26.0020     2.1820    59.6440     8.8130     7.5610     9.1020    23.3440 
  108.7500   -25.7780     2.1900    57.3540     8.9190     7.6150     9.3950    23.3730 
  108.8750   -25.4300     2.2000    57.4060     8.9670     7.6220     9.5730    23.4300 
  109.0000   -25.0180     2.2110    59.0550     8.8970     7.5490     9.6610    23.4760 
  109.1250   -24.6030     2.2190    61.0390     8.6300     7.3570     9.6970    23.4870 
  109.2500   -24.2220     2.2210    62.8290     8.2050     7.0760     9.6530    23.5120 
  109.3750   -23.8810     2.2140    65.6530     7.7330     6.7810     9.4880    23.5360 
  109.5000   -23.5780     2.2020    68.4790     7.4370     6.6250     9.2860    23.5400 
  109.6250   -23.3400     2.2010    68.5770     7.7420     6.9320     9.2750    23.5280 
  109.7500   -23.1810     2.2310    67.5260     8.8050     7.8520     9.8720    23.5550 
  109.8750   -23.0910     2.3020    67.0240    10.5810     9.3900    12.3900    23.6180 
  110.0000   -23.0410     2.3990    67.6960    12.6860    11.2800    17.5660    23.6840 
  110.1250   -23.0190     2.4770    68.2650    14.2240    12.8540    24.1870    23.6780 
  110.2500   -23.0470     2.4930    66.3970    14.4110    13.4600    29.8760    23.5810 
  110.3750   -23.0970     2.4430    62.2950    13.0770    12.8250    30.1950    23.5180 
  110.5000   -23.1630     2.3560    59.2150    10.9830    11.2670    21.2740    23.5360 
  110.6250   -23.2540     2.2790    61.1420     9.3120     9.5600    13.0260    23.6340 
  110.7500   -23.3430     2.2300    64.0480     8.3770     8.2900    10.3450    23.6690 
  110.8750   -23.4270     2.2110    62.9040     8.0540     7.5660     9.6590    23.5550 
  111.0000   -23.5170     2.2120    59.5530     8.1370     7.3040     9.5510    23.3530 
  111.1250   -23.5840     2.2210    58.8860     8.4250     7.3720     9.6110    23.1530 
