~V
VERS. 2.00: Ver 2.00
~W
STRT.M 50.0000:
STOP.M 266.0000:
STEP.M 0.1250:
NULL. -999.2500:
UWI. F10057:
~C
DEPT.M :
GR.API :
RML.OHMM :
RI. :
RXO.OHMM :
CALI.CM :
DEN.GM/CC :
SP.MV :
~A
# ...
  207.5000    89.3240     7.1690     7.1330     5.0330    23.1830     2.3430    -1.7280 
  207.6250    94.2680     7.7110     7.5910     6.0720    23.5510     2.3410    -2.0830 
  207.7500    94.6120     8.5610     8.3270     7.5270    23.9510     2.3550    -2.3900 
  207.8750    95.0200     9.5450     9.1630     8.6730    24.2020     2.3780    -2.6420 
  208.0000    98.6100    10.4330     9.8670     8.9920    24.2830     2.4010    -2.8820 
  208.1250   102.9330    10.9800    10.1870     8.9640    24.2870     2.4150    -3.0910 
  208.2500   105.7130    11.1900    10.1530     9.1520    24.2880     2.4200    -3.3030 
  208.3750   108.4930    11.1370     9.8490     9.3220    24.2860     2.4190    -3.5290 
  208.5000   112.0830    10.9220     9.3840     9.2540    24.2710     2.4160    -3.7730 
  208.6250   113.2710    10.6530     8.8600     9.0940    24.2490     2.4120    -4.0420 
  208.7500   112.4650    10.4930     8.4290     9.1070    24.2260     2.4080    -4.3530 
  208.8750   111.6700    10.6530     8.2560     9.1040    24.2040     2.4000    -4.7050 
  209.0000   111.3990    11.4050     8.5270     9.0300    24.1740     2.3940    -5.0670 
  209.1250   109.3820    13.2420     9.5700    10.1280    24.0700     2.3990    -5.4430 
  209.2500   103.6800    16.2970    11.4850    13.2010    23.8900     2.4170    -5.8000 
  209.3750    94.6700    20.6550    14.4010    18.8760    23.6940     2.4440    -6.1250 
  209.5000    84.1120    22.3640    18.2930    27.0160    23.5690     2.4650    -6.4280 
  209.6250    76.0170    27.6810    22.8430    34.1990    23.6250     2.4590    -6.7110 
  209.7500    72.5660    32.4890    27.2380    37.0730    23.8320     2.4260    -6.9720 
  209.8750    72.0960    36.4510    31.0180    37.5550    24.0800     2.3770    -7.2050 
  210.0000    72.4120    39.8070    34.1860    39.6070    24.2300     2.3310    -7.4050 
  210.1250    71.7820    43.1690    37.1500    44.0720    24.2410     2.3050    -7.5490 
  210.2500    70.5580    46.9410    40.3390    47.7510    24.2320     2.2980    -7.6680 
  210.3750    70.1940    51.0340    43.8100    50.2900    24.2460     2.3030    -7.7590 
  210.5000    69.7020    54.8780    47.2210    52.4940    24.2740     2.3110    -7.8140 
  210.6250    68.4380    57.1520    49.5930    55.6240    24.2820     2.3160    -7.8200 
  210.7500    66.9390    57.2680    50.3280    57.9390    24.2610     2.3160    -7.7960 
  210.8750    66.0310    55.4460    49.4460    56.8130    24.2310     2.3090    -7.7170 
  211.0000    67.0110    52.7260    47.6500    51.6540    24.2180     2.2970    -7.5950 
  211.1250    68.7970    50.5070    46.0080    44.6990    24.1760     2.2880    -7.4710 
  211.2500    69.4610    49.3590    45.0990    41.9430    23.9860     2.2900    -7.3230 
  211.3750    68.2840    49.0040    44.8320    46.2660    23.6180     2.3050    -7.1620 
  211.5000    68.2570    48.6040    44.6190    56.7660    23.2620     2.3270    -6.9850 
  211.6250    71.9370    47.0670    43.5660    59.2990    23.2370     2.3420    -6.8270 
  211.7500    75.5530    44.4230    41.5480    48.7710    23.5000     2.3440    -6.6760 
  211.8750    77.6760    41.3460    39.0200    38.3010    23.8420     2.3360    -6.5670 
  212.0000    78.3800    38.7590    36.7210    32.9330    24.0970     2.3230    -6.4900 
  212.1250    77.3540    37.6170    35.5050    32.6470    24.2130     2.3120    -6.4140 
  212.2500    74.7180    37.9740    35.5610    35.1580    24.2520     2.3030    -6.3680 
  212.3750    71.9150    39.7680    36.9450    39.0210    24.2570     2.2920    -6.3550 
  212.5000    69.7970    42.8040    39.5530    42.4110    24.2500     2.2810    -6.3810 
  212.6250    67.5360    46.7620    43.1660    43.4230    24.2290     2.2780    -6.4340 
  212.7500    65.2490    50.6530    46.8840    47.2270    24.2010     2.2930    -6.5090 
  212.8750    64.3920    53.4170    49.7540    57.8980    24.1470     2.3300    -6.5840 
  213.0000    65.0170    54.1350    50.8990    70.5640    24.0770     2.3850    -6.6560 
  213.1250    65.8110    52.3800    49.8000    65.4330    24.0690     2.4350    -6.7330 
  213.2500    65.8290    49.5480    47.5390    49.2580    24.1330     2.4600    -6.7930 
  213.3750    65.6740    46.8480    45.1360    38.0520    24.2110     2.4530    -6.8210 
  213.5000    65.8220    45.0030    43.2870    35.7480    24.2560     2.4200    -6.8270 
  213.6250    67.5380    44.0400    42.1740    40.8350    24.3060     2.3750    -6.7990 
  213.7500    70.6850    43.0690    41.1740    46.3720    24.3870     2.3350    -6.7320 
  213.8750    73.6320    41.3840    39.7010    46.5140    24.4610     2.3050    -6.6380 
  214.0000    74.2870    38.8100    37.5370    41.7260    24.4860     2.2860    -6.5280 
  214.1250    74.1310    35.9640    35.0940    35.6750    24.4290     2.2810    -6.4060 
  214.2500    75.9910    33.8520    33.1820    30.7940    24.3460     2.2850    -6.2720 
  214.3750    78.3150    33.0870    32.3460    28.6610    24.2880     2.2960    -6.1370 
  214.5000    77.5900    33.9280    32.8890    30.6360    24.2680     2.3060    -5.9910 
  214.6250    73.6980    36.4780    35.0300    36.0640    24.2700     2.3100    -5.8410 
  214.7500    70.9250    39.9350    38.1430    40.7240    24.2630     2.3060    -5.6950 
  214.8750    69.9440    43.4780    41.5250    44.2040    24.2130     2.2980    -5.5620 
  215.0000    69.1370    46.1290    44.2640    48.5720    24.0900     2.2950    -5.4230 
  215.1250    68.2330    46.7100    45.1930    51.9740    23.9730     2.3000    -5.2710 
  215.2500    68.9190    45.4500    44.3770    49.8490    23.9700     2.3100    -5.0970 
  215.3750    70.6040    43.1650    42.4750    45.2820    24.0740     2.3160    -4.9050 
  215.5000    71.0720    41.0750    40.5580    42.2530    24.1890     2.3140    -4.7100 
  215.6250    69.6320    40.7500    40.0160    39.6860    24.2380     2.3010    -4.5110 
  215.7500    66.7460    42.9380    41.6300    38.8890    24.2580     2.2830    -4.3280 
  215.8750    63.9220    48.1130    45.9720    44.4160    24.2910     2.2650    -4.1360 
  216.0000    62.3140    56.1530    53.1490    60.9810    24.3350     2.2510    -3.9590 
  216.1250    62.5260    65.8220    62.3310    90.6470    24.3200     2.2420    -3.7620 
  216.2500    62.6460    73.6550    70.4160   109.9480    24.2330     2.2380    -3.5620 
  216.3750    62.1410    76.1190    74.0880   103.3960    24.1530     2.2370    -3.3630 
  216.5000    62.3970    71.4980    71.3320    83.4990    24.1350     2.2430    -3.1470 
  216.6250    65.7480    62.8820    62.7010    64.8190    24.1020     2.2580    -2.9160 
  216.7500    68.4950    56.4410    52.6980    50.5830    23.9660     2.2810    -2.6590 
  216.8750    67.2550    46.5550    43.9920    39.8220    23.7800     2.3050    -2.3980 
  217.0000    63.9260    39.9110    37.9010    32.8750    23.6530     2.3220    -2.1100 
  217.1250    64.2600    37.2110    35.1930    30.8090    23.6240     2.3220    -1.8420 
  217.2500    65.2760    37.3660    35.0590    32.0210    23.6340     2.3160    -1.5880 
  217.3750    62.6770    39.4090    36.7970    37.7020    23.6840     2.3190    -1.3530 
  217.5000    59.2230    41.8680    39.2190    51.0250    23.7600     2.3470    -1.1400 
  217.6250    60.9160    42.4200    40.2060    68.9540    23.7770     2.3990    -0.9310 
  217.7500    63.4380    40.0420    38.5230    64.5690    23.7200     2.4460    -0.7340 
  217.8750    63.4190    35.3010    34.5050    41.3130    23.6650     2.4620    -0.5510 
  218.0000    62.9560    29.8830    29.6620    25.8570    23.6730     2.4380    -0.3950 
  218.1250    65.1760    25.5750    25.6400    21.0510    23.7090     2.3880    -0.2780 
  218.2500    67.5100    22.8040    22.9120    19.8110    23.7200     2.3410    -0.1760 
  218.3750    67.9050    21.4110    21.4080    19.6410    23.7100     2.3110    -0.0960 
  218.5000    66.6810    20.9970    20.8350    19.7080    23.7070     2.2970    -0.0290 
  218.6250    65.7960    21.1600    20.8780    19.9990    23.7130     2.2940     0.0090 
