~V
VERS. 2.00: Ver 2.00
~W
STRT.M 57.0000:
STOP.M 255.0000:
STEP.M 0.1250:
NULL. -999.2500:
UWI. F10046:
~C
DEPT.M :
GR.API :
RML.OHMM :
RI. :
RXO.OHMM :
CALI.CM :
DEN.GM/CC :
SP.MV :
~A
# ...
  113.2500    79.5190     6.0370     5.0960     5.8640    24.5040     2.3050    -5.1790 
  113.3750    77.1220     5.9950     5.0420     5.8650    24.6940     2.3040    -5.2460 
  113.5000    77.8300     6.0430     5.0630     5.8330    24.6800     2.2990    -5.5790 
  113.6250    79.8810     6.2270     5.1810     5.8590    24.5620     2.2890    -6.1400 
  113.7500    81.6530     6.5460     5.3930     6.0420    24.3110     2.2750    -6.8510 
  113.8750    81.7250     6.9630     5.6950     6.4410    23.8210     2.2630    -7.6580 
  114.0000    77.6780     7.4020     6.0720     7.1090    23.1590     2.2550    -8.5140 
  114.1250    70.5220     7.7500     6.4830     7.9620    22.7930     2.2500    -9.3780 
  114.2500    65.1330     8.0130     6.8630     8.6730    22.6490     2.2430   -10.1960 
  114.3750    62.9370     8.2680     7.1600     9.0870    22.6180     2.2350   -10.9270 
  114.5000    61.9850     8.4080     7.3450     9.1960    22.6060     2.2260   -11.5110 
  114.6250    61.3640     8.4550     7.4150     9.0750    22.5930     2.2180   -11.8650 
  114.7500    60.7260     8.4580     7.4330     8.8950    22.5910     2.2120   -11.9720 
  114.8750    59.4590     8.4640     7.4440     8.8090    22.6130     2.2080   -11.8910 
  115.0000    58.9680     8.4780     7.4690     8.7670    22.6650     2.2040   -11.6820 
  115.1250    60.4610     8.5020     7.4820     8.7480    22.7650     2.2030   -11.3490 
  115.2500    62.4740     8.5000     7.4400     8.7570    22.8710     2.2060   -10.8790 
  115.3750    62.7820     8.4070     7.3090     8.7080    22.9270     2.2190   -10.2260 
  115.5000    61.6880     8.1420     7.0750     8.4240    22.9160     2.2430    -9.4180 
  115.6250    62.5890     7.7170     6.7320     7.8150    22.8220     2.2750    -8.5420 
  115.7500    65.4530     7.2350     6.3320     6.9830    22.6750     2.3090    -7.7420 
  115.8750    67.9790     6.7660     5.9310     6.1730    22.4770     2.3350    -7.0480 
  116.0000    69.9760     6.3660     5.5910     5.7750    22.4320     2.3500    -6.4510 
  116.1250    71.7220     6.1210     5.3970     5.6560    22.7490     2.3520    -5.9360 
  116.2500    72.0750     6.0530     5.3610     5.7040    23.2090     2.3450    -5.5020 
  116.3750    69.8330     6.1600     5.4660     5.7570    23.3490     2.3340    -5.2060 
  116.5000    66.7700     6.3860     5.6620     5.8030    23.0720     2.3220    -5.0720 
  116.6250    66.4360     6.6180     5.8680     5.9830    22.7280     2.3120    -5.0830 
  116.7500    67.1070     6.7350     6.0020     6.2020    22.5250     2.3050    -5.1300 
  116.8750    67.7410     6.6860     6.0190     6.3610    22.4810     2.3010    -5.1360 
  117.0000    67.9360     6.4780     5.9130     6.3640    22.5600     2.3010    -5.0780 
  117.1250    67.0240     6.1900     5.7180     6.0890    22.7370     2.3060    -4.9700 
  117.2500    65.4510     5.9550     5.5200     5.8730    23.0260     2.3120    -4.8640 
  117.3750    63.7470     5.8490     5.3770     5.7760    23.3370     2.3160    -4.8000 
  117.5000    62.3570     5.8820     5.3200     5.8830    23.3300     2.3150    -4.7730 
  117.6250    61.0500     6.0400     5.3780     6.5290    22.8030     2.3090    -4.7390 
  117.7500    60.2960     6.3420     5.5730     7.4320    22.3060     2.3020    -4.6910 
  117.8750    59.2250     6.9450     6.0050     8.4350    22.0550     2.3050    -4.6370 
  118.0000    56.2270     8.0900     6.8370     9.6670    22.0330     2.3240    -4.5590 
  118.1250    52.7470    10.0650     8.3160    11.6220    22.2010     2.3710    -4.4130 
  118.2500    51.5700    12.5510    10.2890    14.6880    22.6140     2.4350    -4.2210 
  118.3750    52.6260    14.9490    12.3810    19.0580    23.2660     2.5020    -4.0010 
  118.5000    54.7060    16.4250    13.9540    23.1130    23.8800     2.5530    -3.7600 
  118.6250    56.1020    15.9390    14.0560    24.3950    24.1340     2.5610    -3.5140 
  118.7500    55.6050    13.7750    12.6750    22.3070    24.2150     2.5320    -3.2650 
  118.8750    55.3730    10.7410    10.3550    17.2990    24.2650     2.4830    -3.0670 
  119.0000    58.9140     7.8970     7.9640    10.6470    24.3460     2.4330    -2.9970 
  119.1250    65.7630     6.1140     6.2430     6.1520    24.4890     2.3970    -3.1310 
  119.2500    71.0860     5.2990     5.2270     4.8460    24.6290     2.3710    -3.4000 
  119.3750    74.1090     5.1970     4.8030     4.6960    24.6310     2.3480    -3.7090 
  119.5000    75.8120     5.4960     4.8080     4.9700    24.3410     2.3250    -4.0220 
  119.6250    74.8880     5.8920     5.0790     5.3890    23.8570     2.3040    -4.3560 
  119.7500    71.2400     6.1570     5.3940     5.6760    23.4220     2.2920    -4.7240 
  119.8750    67.0410     6.2400     5.6450     5.7820    23.2510     2.2900    -5.1060 
  120.0000    65.4740     6.2060     5.7980     5.7260    23.2890     2.2950    -5.4990 
  120.1250    68.5540     6.2040     5.8830     5.6730    23.3500     2.3010    -5.9080 
  120.2500    70.4310     6.3320     5.9800     5.7950    23.2660     2.3040    -6.2930 
  120.3750    68.4090     6.6060     6.1270     6.1580    23.1340     2.3050    -6.6500 
  120.5000    64.2820     6.9890     6.3350     6.6410    23.0010     2.3030    -7.0130 
  120.6250    61.6560     7.4410     6.6010     7.0760    22.8090     2.2960    -7.4000 
  120.7500    58.8070     7.9170     6.9080     7.4620    22.6590     2.2880    -7.8280 
  120.8750    55.6990     8.4070     7.2590     7.7800    22.6110     2.2800    -8.2690 
  121.0000    55.3650     8.9050     7.6630     8.1240    22.6050     2.2740    -8.6730 
  121.1250    57.4480     9.3910     8.1230     8.5700    22.5770     2.2680    -9.0030 
  121.2500    56.8840     9.8260     8.5860     9.0440    22.5220     2.2600    -9.2590 
  121.3750    53.5380    10.1680     8.9890     9.2490    22.4760     2.2460    -9.4700 
  121.5000    50.1990    10.3780     9.2700     8.9680    22.4360     2.2310    -9.6310 
  121.6250    49.4590    10.4000     9.3670     8.7710    22.4080     2.2180    -9.7750 
  121.7500    51.1510    10.2670     9.3200     8.7130    22.3640     2.2090    -9.8940 
  121.8750    54.2730    10.0190     9.1690     8.6800    22.3100     2.2050    -9.9670 
  122.0000    56.6540     9.7230     8.9570     8.5510    22.2770     2.2050    -9.9980 
  122.1250    57.1580     9.4670     8.7290     8.3510    22.2570     2.2080    -9.9930 
  122.2500    55.3760     9.2980     8.5250     8.1370    22.2140     2.2120   -10.0250 
  122.3750    51.8490     9.2210     8.3800     7.9040    22.1330     2.2130   -10.1210 
  122.5000    49.7160     9.2160     8.3140     7.6850    22.0280     2.2100   -10.2480 
  122.6250    52.5650     9.2630     8.3410     7.5460    21.9710     2.2050   -10.3330 
  122.7500    56.4730     9.3430     8.4260     7.5270    21.9660     2.2000   -10.3480 
  122.8750    57.4940     9.4680     8.5420     7.5780    21.9590     2.2000   -10.3410 
  123.0000    55.9520     9.6610     8.6700     7.6570    21.9020     2.2020   -10.3390 
  123.1250    55.0130     9.9190     8.8010     7.7740    21.8470     2.2070   -10.3700 
  123.2500    55.9950    10.1700     8.9280     7.9530    21.8710     2.2120   -10.4250 
  123.3750    57.3540    10.3530     9.0450     8.1520    21.9680     2.2140   -10.4480 
  123.5000    55.8000    10.4380     9.1420     8.3010    22.0800     2.2140   -10.4310 
  123.6250    52.2060    10.4360     9.2090     8.3910    22.1660     2.2110   -10.3620 
  123.7500    51.4520    10.4160     9.2480     8.4440    22.1970     2.2080   -10.3000 
  123.8750    53.5780    10.4200     9.2690     8.4940    22.2040     2.2050   -10.2420 
  124.0000    55.4240    10.4480     9.2750     8.5470    22.2040     2.2040   -10.1810 
  124.1250    57.3590    10.4600     9.2550     8.5590    22.2020     2.2060   -10.1000 
  124.2500    60.8630    10.4260     9.2020     8.4890    22.1840     2.2110   -10.0040 
  124.3750    62.9020    10.3380     9.1170     8.3970    22.1220     2.2180    -9.9260 
