~V
VERS. 2.00: Ver 2.00
~W
STRT.M 57.0000:
STOP.M 177.0000:
STEP.M 0.1250:
NULL. -999.2500:
UWI. F10011:
~C
DEPT.M :
DEN.GM/CC :
SP.MV :
GR.API :
CALI.CM :
RXO.OHMM :
RI. :
RML.OHMM :
~A
# ...
  147.0000     2.1610   -23.1010    75.0080    23.9620    51.5160    51.9090    52.7470 
  147.1250     2.1600   -23.1020    71.7120    23.9630    55.2560    50.9160    51.7340 
  147.2500     2.1590   -23.1770    70.7160    23.9610    54.8630    50.3620    51.1700 
  147.3750     2.1600   -23.2240    72.5060    23.9590    52.5080    49.9000    50.6980 
  147.5000     2.1620   -23.2530    74.6920    23.9580    51.2810    49.2230    50.0080 
  147.6250     2.1650   -23.2810    74.9280    23.9470    50.8260    48.2800    49.0450 
  147.7500     2.1710   -23.3360    73.2490    23.9120    48.7360    47.4500    48.1990 
  147.8750     2.1850   -23.4910    72.1820    23.8530    45.3680    47.0930    47.8350 
  148.0000     2.2050   -23.6440    74.0760    23.7860    43.5210    47.4040    48.1520 
  148.1250     2.2140   -23.7690    78.8470    23.7580    47.9680    48.4460    49.2150 
  148.2500     2.2020   -23.8720    80.8510    23.7490    55.0500    49.8020    50.5980 
  148.3750     2.1790   -23.9900    77.3840    23.7410    58.3050    51.0110    51.8310 
  148.5000     2.1640   -24.1070    72.6660    23.7240    55.6760    51.6170    52.4490 
  148.6250     2.1650   -24.2120    72.0390    23.6920    50.9920    51.2680    52.0930 
  148.7500     2.1650   -24.2290    73.1270    23.6760    48.6930    50.3590    51.1660 
  148.8750     2.1530   -24.1270    72.1870    23.6680    48.2230    49.4360    50.2250 
  149.0000     2.1460   -24.0460    69.4420    23.6520    48.2080    49.0460    49.8270 
  149.1250     2.1710   -24.0520    68.2770    23.6170    49.2750    49.5920    50.3840 
  149.2500     2.2160   -24.0430    68.6160    23.6130    52.4760    50.7980    51.2900 
  149.3750     2.2510   -24.0020    69.2760    23.6730    57.8430    52.3810    52.9090 
  149.5000     2.2490   -23.9850    68.9180    23.7260    63.4940    54.0720    55.2100 
  149.6250     2.2130   -24.0130    67.9190    23.7070    64.7900    55.6790    57.3790 
  149.7500     2.1790   -24.1220    69.0030    23.6080    62.5740    57.2330    59.3980 
  149.8750     2.1690   -24.2960    71.6940    23.4890    61.7950    58.9110    61.4740 
  150.0000     2.1840   -24.4490    72.8810    23.4640    67.0820    60.9270    63.8680 
  150.1250     2.2090   -24.5080    71.3840    23.6010    75.5440    63.3920    66.7620 
  150.2500     2.2190   -24.5560    70.9730    23.7970    81.5630    66.0260    69.9250 
  150.3750     2.2060   -24.5890    72.6640    23.9180    84.7450    68.4930    72.9920 
  150.5000     2.1750   -24.5890    74.7020    23.9550    86.1000    70.4050    75.4550 
  150.6250     2.1410   -24.5310    75.0350    23.9460    85.2030    71.1650    76.4340 
  150.7500     2.1150   -24.4120    74.4100    23.8760    85.6570    70.5650    75.5780 
  150.8750     2.1060   -24.2520    75.9960    23.6770    87.1140    68.3620    72.6640 
  151.0000     2.1130   -24.0770    80.4840    23.3910    85.5320    64.5970    67.9950 
  151.1250     2.1270   -23.9700    82.2570    23.2270    78.5190    60.0240    62.7950 
  151.2500     2.1390   -23.8020    79.7040    23.1770    69.8770    56.2570    58.7900 
  151.3750     2.1490   -23.5570    77.5640    23.1710    63.6860    54.4350    56.9850 
  151.5000     2.1570   -23.2650    78.5260    23.1710    60.8870    55.0670    57.8070 
  151.6250     2.1680   -22.9730    78.1560    23.1710    63.1410    57.8970    61.1010 
  151.7500     2.1990   -22.6550    75.7870    23.1710    67.8200    60.5290    64.1610 
  151.8750     2.2660   -22.3110    73.7430    23.1710    66.2930    60.2910    63.4790 
  152.0000     2.3620   -21.8870    71.3660    23.1710    53.7520    55.3340    56.8660 
  152.1250     2.4480   -21.4110    69.0370    23.1710    38.9910    45.5400    45.5300 
  152.2500     2.4940   -20.9930    69.3250    23.1710    28.3210    34.4110    33.9890 
  152.3750     2.5050   -20.6030    71.9480    23.1810    21.8230    24.5620    24.3670 
  152.5000     2.5010   -20.2340    73.9810    23.2250    20.2040    17.2440    17.2560 
  152.6250     2.4960   -19.8910    76.9480    23.3190    18.4370    12.6180    12.6860 
  152.7500     2.4830   -19.6180    83.6870    23.3920    14.0060     9.6000     9.7630 
  152.8750     2.4560   -19.3770    93.7120    23.4300     8.7720     7.7450     8.0890 
  153.0000     2.4170   -19.2520   103.7230    23.4860     6.7250     6.7410     7.3060 
  153.1250     2.3830   -19.1330   107.9750    23.5260     6.6830     6.4220     7.1660 
  153.2500     2.3570   -18.9950   107.3330    23.6000     6.8810     6.4890     7.3270 
  153.3750     2.3360   -18.9590   104.9100    23.7500     7.0020     6.7790     7.6160 
  153.5000     2.3200   -18.9590   102.0360    23.8910     7.0340     7.1310     7.8770 
  153.6250     2.3150   -18.9240    98.7250    23.9450     7.0380     7.4020     7.9770 
  153.7500     2.3150   -18.9160    98.1580    23.9520     7.0360     7.5950     7.9540 
  153.8750     2.3120   -18.9450   103.1370    23.9520     7.1220     7.7450     7.8700 
  154.0000     2.3060   -18.9830   111.2030    23.9520     7.2970     7.8600     7.7710 
  154.1250     2.3050   -19.0580   117.8220    23.9520     7.4860     7.9140     7.6940 
  154.2500     2.3090   -19.1570   121.2790    23.9520     7.6450     7.8970     7.6570 
  154.3750     2.3110   -19.2420   123.0990    23.9520     7.7280     7.8170     7.6640 
  154.5000     2.3090   -19.3490   126.7170    23.9520     7.7520     7.7010     7.7110 
  154.6250     2.3050   -19.5730   132.6930    23.9520     7.8440     7.5920     7.7940 
  154.7500     2.3050   -19.7550   135.5280    23.9520     8.1310     7.5230     7.9030 
  154.8750     2.3090   -19.9180   133.9320    23.9520     8.5160     7.5180     8.0520 
  155.0000     2.3130   -20.0870   131.9140    23.9520     8.9100     7.6020     8.2760 
  155.1250     2.3170   -20.2410   131.6930    23.9520     8.9710     7.7860     8.6120 
  155.2500     2.3220   -20.4080   130.0010    23.9500     9.0860     7.9930     8.9830 
  155.3750     2.3290   -20.5100   125.3980    23.9400     9.6170     8.1360     9.2740 
  155.5000     2.3310   -20.6420   119.7600    23.9020    10.8010     8.1620     9.4020 
  155.6250     2.3230   -20.7310   118.2670    23.8200    11.2600     8.1350     9.4260 
  155.7500     2.3160   -20.8680   121.4370    23.7520    10.8350     8.2680     9.6290 
  155.8750     2.3160   -21.0510   124.6900    23.6980    10.8700     8.8020    10.3280 
  156.0000     2.3250   -21.2650   121.5760    23.6210    13.8330     9.9960    11.8320 
  156.1250     2.3350   -21.5240   111.4330    23.5470    21.3030    12.3630    14.6570 
  156.2500     2.3360   -21.8380   101.4280    23.4850    32.1030    16.1260    18.9150 
  156.3750     2.3250   -22.2210    93.9290    23.4620    40.8810    21.5500    24.7580 
  156.5000     2.3060   -22.6190    88.4660    23.4590    44.7860    28.5880    32.0540 
  156.6250     2.2880   -23.0810    83.3350    23.4590    50.1290    36.6290    40.1690 
  156.7500     2.2730   -23.5460    78.0370    23.4590    63.6510    44.0570    47.4980 
  156.8750     2.2580   -23.9790    72.4390    23.4530    82.6630    49.2290    52.1770 
  157.0000     2.2420   -24.3630    68.3870    23.4360    93.0860    50.7870    52.6530 
  157.1250     2.2300   -24.7320    68.8010    23.4000    80.6690    48.2100    48.8520 
  157.2500     2.2280   -25.0400    74.6430    23.3830    58.4120    44.0230    44.1040 
  157.3750     2.2370   -25.3120    83.7920    23.3780    41.9200    40.4070    40.7050 
  157.5000     2.2510   -25.5350    90.3060    23.3780    37.3480    38.9840    39.9050 
  157.6250     2.2610   -25.6660    88.8450    23.3780    43.7790    41.2770    42.7390 
  157.7500     2.2630   -25.7420    83.3630    23.3780    57.0520    47.0470    48.7610 
  157.8750     2.2580   -25.7910    79.0530    23.3780    73.8700    55.6470    57.4370 
  158.0000     2.2510   -25.7910    77.8290    23.3780    89.2920    65.1720    66.2760 
  158.1250     2.2500   -25.7710    79.0000    23.3760    94.2610    72.2190    73.4640 
