~V
VERS. 2.00: Ver 2.00
~W
STRT.M 60.0000:
STOP.M 271.0000:
STEP.M 0.1250:
NULL. -999.2500:
UWI. F10035:
~C
DEPT.M :
GR.API :
RML.OHMM :
RI. :
RXO.OHMM :
CALI.CM :
DEN.GM/CC :
SP.MV :
~A
# ...
  105.0000    88.7520     7.1890     5.5960     5.9420    24.0210     2.2110   -15.8270 
  105.1250    90.1240     6.8440     5.2880     5.7920    23.9970     2.2350   -14.1760 
  105.2500    89.5480     6.6050     5.0980     5.6500    24.0250     2.2500   -12.8070 
  105.3750    86.5170     6.4800     5.0410     5.6120    24.0440     2.2550   -11.8770 
  105.5000    81.1930     6.5540     5.1460     6.0460    23.9530     2.2490   -11.4910 
  105.6250    76.0930     7.1140     5.5430     7.1440    23.6490     2.2340   -11.7000 
  105.7500    72.7810     8.3420     6.3280     8.1740    23.3030     2.2170   -12.1910 
  105.8750    70.3230    10.3270     7.6090     8.9360    23.0980     2.2140   -12.6860 
  106.0000    67.5960    12.8510     9.3410    10.7170    23.1680     2.2410   -12.9560 
  106.1250    66.0100    14.9610    11.0140    16.1470    23.5170     2.3060   -12.8350 
  106.2500    67.4300    15.4330    11.6960    24.1650    23.7980     2.3820   -12.3430 
  106.3750    71.9160    13.8630    10.9190    23.7530    23.8530     2.4330   -11.4920 
  106.5000    76.3520    11.0890     9.1440    14.1820    23.8630     2.4340   -10.3180 
  106.6250    80.5760     8.5400     7.3250     7.3940    23.9140     2.3820    -8.9320 
  106.7500    85.8020     6.8900     5.9920     5.8240    23.9350     2.3130    -7.6300 
  106.8750    89.5630     6.1490     5.2020     5.6700    23.9230     2.2580    -6.5700 
  107.0000    89.6300     6.1000     4.8750     5.8100    23.8920     2.2290    -5.8080 
  107.1250    87.8260     6.4570     4.9230     5.5490    23.8610     2.2220    -5.4210 
  107.2500    88.2090     6.8280     5.1180     5.3560    23.7250     2.2210    -5.3300 
  107.3750    89.3190     7.0350     5.3250     5.3670    23.5140     2.2210    -5.4230 
  107.5000    88.4460     7.0480     5.4620     5.6700    23.2840     2.2260    -5.6050 
  107.6250    87.6790     6.9280     5.5010     6.0290    23.1190     2.2420    -5.7990 
  107.7500    88.3690     6.7990     5.4870     5.7770    23.1260     2.2630    -5.9610 
  107.8750    89.4360     6.7450     5.4730     5.4760    23.3650     2.2760    -6.1490 
  108.0000    88.6050     6.8340     5.5130     5.5690    23.7790     2.2710    -6.4190 
  108.1250    85.0120     7.1040     5.6500     6.0620    24.1760     2.2490    -6.7030 
  108.2500    80.7120     7.4470     5.8440     6.5570    24.4040     2.2240    -6.9420 
  108.3750    77.3210     7.7080     6.0160     6.8720    24.4500     2.2060    -7.1230 
  108.5000    77.3620     7.7430     6.0650     6.8850    24.4800     2.2000    -7.2080 
  108.6250    81.0480     7.4770     5.9190     6.8110    24.5760     2.2030    -7.1630 
  108.7500    86.4690     7.0820     5.6620     6.2960    24.7210     2.2120    -6.9570 
  108.8750    91.5120     6.7210     5.3870     5.4860    24.8600     2.2300    -6.5220 
  109.0000    95.5140     6.4960     5.1730     5.1420    24.9380     2.2540    -5.9040 
  109.1250    95.9520     6.4440     5.0680     5.4800    24.9380     2.2760    -5.2240 
  109.2500    92.6110     6.4880     5.0460     5.9110    24.9260     2.2880    -4.5580 
  109.3750    86.8390     6.5850     5.0840     5.8380    24.9260     2.2880    -3.9740 
  109.5000    81.9090     6.7180     5.1640     5.7620    24.9300     2.2780    -3.5410 
  109.6250    80.3080     6.8660     5.2660     5.6020    24.9080     2.2620    -3.3440 
  109.7500    78.9190     6.9850     5.3550     5.7610    24.8590     2.2430    -3.4010 
  109.8750    75.9670     7.0250     5.4070     6.4340    24.8220     2.2230    -3.6600 
  110.0000    74.2950     6.9630     5.4070     7.3430    24.8190     2.2060    -3.9600 
  110.1250    78.0660     6.8250     5.3590     6.5500    24.8510     2.2030    -4.1900 
  110.2500    83.1320     6.7140     5.3120     5.7740    24.8880     2.2140    -4.3850 
  110.3750    84.3700     6.6920     5.2990     5.3100    24.9140     2.2330    -4.5970 
  110.5000    82.5240     6.7590     5.3350     5.3910    24.9200     2.2470    -4.8390 
  110.6250    81.3450     6.8570     5.4060     6.1290    24.9010     2.2500    -5.0290 
  110.7500    80.9300     6.9050     5.4650     6.7920    24.9120     2.2470    -5.0400 
  110.8750    80.1200     6.8670     5.4790     6.6290    24.9490     2.2460    -4.8890 
  111.0000    79.6300     6.7660     5.4400     5.9790    24.9730     2.2470    -4.7380 
  111.1250    80.4500     6.6740     5.3760     5.6340    24.9800     2.2450    -4.7300 
  111.2500    82.1330     6.6530     5.3380     5.7770    24.9710     2.2390    -4.8270 
  111.3750    82.6610     6.7010     5.3440     6.2010    24.9350     2.2310    -4.9200 
  111.5000    81.0850     6.7780     5.3870     6.3430    24.8970     2.2300    -4.9410 
  111.6250    77.7170     6.8250     5.4360     6.2900    24.9010     2.2410    -4.9230 
  111.7500    73.1670     6.8320     5.4680     6.2260    24.9060     2.2580    -5.0100 
  111.8750    69.6800     6.8270     5.4850     6.0610    24.9010     2.2770    -5.2760 
  112.0000    68.2950     6.8390     5.5010     5.9330    24.8870     2.2900    -5.6530 
  112.1250    70.6810     6.8790     5.5310     6.1160    24.8880     2.2930    -6.0310 
  112.2500    72.8750     6.9360     5.5830     6.3230    24.8260     2.2840    -6.3800 
  112.3750    72.1000     7.0250     5.6680     6.3350    24.6580     2.2620    -6.6740 
  112.5000    68.7680     7.1630     5.7920     6.1420    24.3580     2.2310    -6.9270 
  112.6250    67.2050     7.3380     5.9450     6.0930    23.9760     2.2040    -7.1770 
  112.7500    69.5750     7.4730     6.0870     6.3310    23.5120     2.1930    -7.4350 
  112.8750    73.6440     7.4880     6.1850     6.8660    23.1240     2.2000    -7.6720 
  113.0000    75.6890     7.3530     6.2160     7.0180    23.0520     2.2170    -7.8780 
  113.1250    74.2490     7.1400     6.1890     6.7390    23.3970     2.2310    -8.0080 
  113.2500    72.1450     6.9970     6.1550     6.6060    23.8580     2.2350    -8.0370 
  113.3750    70.4680     6.9810     6.1430     6.8060    24.1870     2.2340    -8.0110 
  113.5000    70.3470     7.0410     6.1420     7.2740    24.2940     2.2330    -7.9380 
  113.6250    71.0020     7.0110     6.0800     7.3330    24.2320     2.2410    -7.7780 
  113.7500    72.2390     6.7730     5.8970     7.1610    24.1090     2.2570    -7.4980 
  113.8750    75.2600     6.3230     5.5760     6.4320    24.0220     2.2780    -7.0570 
  114.0000    79.4610     5.7850     5.1740     5.5320    23.9740     2.3000    -6.4480 
  114.1250    83.5910     5.3590     4.8000     4.7480    23.9660     2.3140    -5.7860 
  114.2500    84.5210     5.1500     4.5330     4.5660    23.9520     2.3200    -5.1920 
  114.3750    83.0250     5.1800     4.4080     4.7560    23.8750     2.3170    -4.6880 
  114.5000    81.0080     5.3970     4.4180     5.0570    23.7030     2.3080    -4.3130 
  114.6250    79.7230     5.6630     4.5200     5.2780    23.6700     2.2970    -4.1160 
  114.7500    78.7870     5.7970     4.6130     5.5940    23.8180     2.2870    -4.0980 
  114.8750    76.3250     5.7300     4.6510     6.2730    24.0640     2.2800    -4.3040 
  115.0000    73.8990     5.5720     4.6710     7.1410    24.3140     2.2730    -4.7020 
  115.1250    72.6650     5.7360     4.8800     6.9890    24.4600     2.2650    -5.1800 
  115.2500    71.2910     6.6810     5.5380     7.1100    24.4070     2.2640    -5.6530 
  115.3750    68.8650     8.8570     6.9860     8.9860    24.2570     2.2870    -6.1080 
  115.5000    63.0920    12.6310     9.6030    15.2140    24.2100     2.3550    -6.5680 
  115.6250    55.2250    18.1170    13.7410    35.1310    24.3610     2.4710    -7.0900 
  115.7500    49.9190    23.2570    18.0600    63.9470    24.4890     2.5930    -7.6930 
  115.8750    50.5130    24.8630    20.0810    67.9300    24.5010     2.6700    -8.3980 
  116.0000    54.7450    21.6000    18.3530    40.0670    24.3270     2.6670    -9.2720 
  116.1250    57.5810    16.1940    14.4870    18.7300    24.1010     2.5760   -10.3020 
