~V
VERS. 2.00: Ver 2.00
~W
STRT.M 60.0000:
STOP.M 271.0000:
STEP.M 0.1250:
NULL. -999.2500:
UWI. F10035:
~C
DEPT.M :
GR.API :
RML.OHMM :
RI. :
RXO.OHMM :
CALI.CM :
DEN.GM/CC :
SP.MV :
~A
# ...
  183.7500    47.8450    17.2980    15.7750    18.4630    24.3630     2.5820    -2.8300 
  183.8750    46.1470    18.4930    16.7840    22.3740    24.3290     2.6100    -3.1080 
  184.0000    48.0480    19.7290    17.8760    23.9230    24.3910     2.6390    -3.3860 
  184.1250    52.2050    20.5660    18.7030    23.5510    24.4660     2.6600    -3.7220 
  184.2500    55.2210    20.7240    18.9810    24.6990    24.4840     2.6650    -4.1310 
  184.3750    57.2920    20.0520    18.5240    24.1880    24.4970     2.6480    -4.5660 
  184.5000    60.6330    18.5710    17.2980    21.0380    24.6000     2.6110    -4.9890 
  184.6250    67.0030    16.4120    15.3910    17.2300    24.7270     2.5580    -5.2910 
  184.7500    72.7970    14.0120    13.2250    15.9360    24.7700     2.5000    -5.4290 
  184.8750    73.1670    11.6830    11.1000    13.6040    24.7470     2.4430    -5.4000 
  185.0000    67.6110     9.6990     9.2610     9.0160    24.6830     2.3890    -5.2520 
  185.1250    59.9320     8.3090     7.9180     6.9170    24.6120     2.3430    -5.0040 
  185.2500    54.2290     7.4280     7.0060     6.4090    24.5820     2.3090    -4.6750 
  185.3750    50.9170     6.9730     6.4660     6.4860    24.5760     2.2910    -4.3330 
  185.5000    48.0540     6.8470     6.2360     6.4350    24.5680     2.2930    -4.0320 
  185.6250    45.9120     6.9860     6.2800     6.3330    24.5370     2.3140    -3.8180 
  185.7500    45.8190     7.2730     6.4950     6.4140    24.4910     2.3450    -3.7090 
  185.8750    47.9810     7.6760     6.8400     6.7630    24.4760     2.3760    -3.6940 
  186.0000    49.4450     8.1710     7.2820     7.5170    24.5120     2.4020    -3.7630 
  186.1250    48.1410     8.6960     7.7700     8.1170    24.5560     2.4200    -3.8810 
  186.2500    45.7640     9.1440     8.2030     8.4590    24.5810     2.4350    -3.9780 
  186.3750    42.9760     9.4490     8.5040     8.7670    24.6110     2.4490    -4.0170 
  186.5000    40.1330     9.5870     8.6330     9.0900    24.6670     2.4630    -3.9660 
  186.6250    38.2610     9.5630     8.5790     9.2130    24.6880     2.4720    -3.8140 
  186.7500    36.9210     9.4520     8.4210     9.0040    24.6870     2.4730    -3.6220 
  186.8750    35.7580     9.2870     8.2030     8.4910    24.6840     2.4690    -3.4580 
  187.0000    35.6730     9.0830     7.9500     7.9540    24.6770     2.4640    -3.3200 
  187.1250    37.5180     8.8450     7.6760     7.7960    24.6440     2.4630    -3.1630 
  187.2500    38.0770     8.5980     7.4020     7.7420    24.5900     2.4640    -3.0150 
  187.3750    36.1270     8.3590     7.1460     7.4460    24.5240     2.4670    -2.8760 
  187.5000    33.7850     8.1580     6.9320     7.0070    24.4850     2.4690    -2.7280 
  187.6250    33.2990     8.0590     6.8140     6.7890    24.5060     2.4670    -2.5900 
  187.7500    34.9050     8.0880     6.8060     6.8400    24.5390     2.4600    -2.4770 
  187.8750    37.1380     8.2380     6.9040     7.0430    24.5700     2.4500    -2.3770 
  188.0000    37.1020     8.4620     7.0720     7.6360    24.5940     2.4400    -2.2910 
  188.1250    35.2690     8.6600     7.2350     8.0210    24.6200     2.4340    -2.2330 
  188.2500    34.4020     8.7490     7.3190     7.8830    24.6180     2.4370    -2.1780 
  188.3750    36.2620     8.7070     7.3000     7.3960    24.5860     2.4470    -2.1400 
  188.5000    38.9660     8.5650     7.1950     6.9650    24.5480     2.4620    -2.1360 
  188.6250    41.8020     8.3810     7.0480     6.7800    24.5390     2.4730    -2.1330 
  188.7500    45.1500     8.2140     6.9090     6.7890    24.5360     2.4760    -2.1540 
  188.8750    46.4290     8.0890     6.8000     6.8850    24.5360     2.4720    -2.1700 
  189.0000    44.3830     8.0130     6.7260     6.8870    24.5660     2.4650    -2.1540 
  189.1250    42.2400     7.9810     6.6770     6.8100    24.6010     2.4600    -2.1160 
  189.2500    42.5920     7.9700     6.6340     6.8140    24.5560     2.4560    -2.0910 
  189.3750    43.2040     7.9590     6.5890     6.8490    24.4830     2.4470    -2.0880 
  189.5000    42.1630     7.9330     6.5420     6.7080    24.4450     2.4270    -2.0940 
  189.6250    42.3690     7.8970     6.5020     6.4650    24.4370     2.3980    -2.1220 
  189.7500    45.0750     7.8740     6.4840     6.4060    24.4270     2.3690    -2.1510 
  189.8750    48.3080     7.8820     6.4940     6.4480    24.4150     2.3520    -2.2060 
  190.0000    49.5290     7.9230     6.5260     6.6450    24.3710     2.3530    -2.2790 
  190.1250    47.9090     7.9640     6.5570     6.7930    24.3020     2.3730    -2.3630 
  190.2500    45.4300     7.9640     6.5590     6.7080    24.2130     2.3990    -2.4440 
  190.3750    43.2940     7.9000     6.5140     6.5380    24.1070     2.4230    -2.4980 
  190.5000    41.9860     7.7700     6.4210     6.3070    24.0270     2.4380    -2.5250 
  190.6250    41.4260     7.5970     6.2930     5.9720    23.9970     2.4430    -2.5130 
  190.7500    41.3050     7.4290     6.1620     5.7340    23.9840     2.4450    -2.4680 
  190.8750    40.7880     7.2970     6.0490     5.6580    23.9670     2.4460    -2.3780 
  191.0000    39.9640     7.2170     5.9650     5.5940    23.9600     2.4480    -2.2610 
  191.1250    40.1200     7.1890     5.9180     5.5570    23.9600     2.4510    -2.1360 
  191.2500    41.7190     7.1940     5.9010     5.5230    23.9550     2.4490    -2.0340 
  191.3750    43.6020     7.2250     5.9140     5.5580    23.9720     2.4410    -1.9820 
  191.5000    44.9630     7.2850     5.9560     5.6370    23.9980     2.4300    -1.9860 
  191.6250    47.1480     7.3910     6.0360     5.7770    24.0420     2.4220    -2.0760 
  191.7500    50.2350     7.5400     6.1480     6.0790    24.1310     2.4190    -2.2020 
  191.8750    52.3600     7.7180     6.2830     6.4620    24.2760     2.4220    -2.3500 
  192.0000    52.2070     7.8980     6.4260     6.7860    24.4160     2.4280    -2.5250 
  192.1250    51.4260     8.0380     6.5530     7.2170    24.4760     2.4330    -2.7100 
  192.2500    51.2770     8.1190     6.6410     7.5770    24.4700     2.4370    -2.8600 
  192.3750    50.0820     8.1340     6.6760     7.5070    24.4470     2.4420    -2.9280 
  192.5000    46.2740     8.0960     6.6590     7.0930    24.4190     2.4480    -2.9670 
  192.6250    41.7870     8.0290     6.6040     6.8030    24.3700     2.4530    -2.9900 
  192.7500    39.7810     7.9580     6.5370     6.6150    24.3130     2.4540    -3.0150 
  192.8750    40.4120     7.8960     6.4750     6.6080    24.2490     2.4470    -3.0360 
  193.0000    41.4010     7.8470     6.4240     6.6670    24.1720     2.4350    -3.0450 
  193.1250    41.0480     7.8230     6.3920     6.7750    24.1210     2.4210    -3.0540 
  193.2500    40.7880     7.8290     6.3810     6.6730    24.1110     2.4120    -3.0930 
  193.3750    41.5830     7.8690     6.3960     6.6130    24.1430     2.4120    -3.1860 
  193.5000    43.2690     7.9380     6.4370     6.6610    24.2050     2.4190    -3.2660 
  193.6250    46.3940     8.0220     6.4980     6.7820    24.2930     2.4340    -3.3040 
  193.7500    49.0240     8.0930     6.5620     6.9470    24.4100     2.4490    -3.2990 
  193.8750    49.5050     8.1290     6.6140     6.9790    24.5150     2.4600    -3.2720 
  194.0000    48.1480     8.1300     6.6450     6.8990    24.5730     2.4600    -3.2300 
  194.1250    47.9850     8.1080     6.6550     6.9910    24.6000     2.4470    -3.1500 
  194.2500    49.3430     8.0890     6.6550     7.1800    24.6240     2.4270    -3.0270 
  194.3750    48.8780     8.0770     6.6490     7.2810    24.6200     2.4090    -2.8550 
  194.5000    44.6750     8.0600     6.6330     7.2320    24.5650     2.4020    -2.6620 
  194.6250    40.8890     8.0180     6.5990     7.1210    24.4160     2.4070    -2.4870 
  194.7500    41.1810     7.9500     6.5530     6.9670    24.2540     2.4190    -2.3390 
  194.8750    42.5980     7.8700     6.5080     6.7290    24.1140     2.4310    -2.2270 
