~V
VERS. 2.00: Ver 2.00
~W
STRT.M 50.0000:
STOP.M 293.0000:
STEP.M 0.1250:
NULL. -999.2500:
UWI. F10037:
~C
DEPT.M :
GR.API :
RML.OHMM :
RI. :
RXO.OHMM :
CALI.CM :
SP.MV :
DEN.GM/CC :
~A
   50.0000  -999.2500  -999.2500  -999.2500  -999.2500  -999.2500    71.0940  -999.2500 
   50.1250  -999.2500  -999.2500  -999.2500  -999.2500  -999.2500    72.2700  -999.2500 
   50.2500  -999.2500  -999.2500  -999.2500  -999.2500  -999.2500    73.5070  -999.2500 
   50.3750  -999.2500  -999.2500  -999.2500  -999.2500  -999.2500    74.7820  -999.2500 
   50.5000  -999.2500  -999.2500  -999.2500  -999.2500  -999.2500    75.9950  -999.2500 
   50.6250  -999.2500  -999.2500  -999.2500  -999.2500  -999.2500    77.1630  -999.2500 
   50.7500  -999.2500  -999.2500  -999.2500  -999.2500  -999.2500    78.3810  -999.2500 
   50.8750    46.7340    16.6550     0.2020     1.0060    25.5640    79.7450  -999.2500 
   51.0000    46.7340    16.6550     0.2020     1.0060    25.5640    81.2990  -999.2500 
   51.1250    46.7340    16.6550     0.2020     1.0060    25.5640    83.2230  -999.2500 
   51.2500    47.3240    16.6900     0.2000     1.0000    25.5560    85.4280  -999.2500 
   51.3750    48.3500    16.7370     0.1960     0.9850    25.5370    87.7650  -999.2500 
   51.5000    49.4370    16.6740     0.1940     0.9720    25.5230    90.1360  -999.2500 
   51.6250    50.5820    16.4560     0.1940     0.9490    25.5110    92.2760  -999.2500 
   51.7500    50.5690    16.1570     0.1950     0.9030    25.4910    94.0180  -999.2500 
   51.8750    49.5210    15.8340     0.1970     0.8180    25.4620    95.4130  -999.2500 
   52.0000    48.5210    15.4720     0.1970     0.7050    25.4250    96.5090  -999.2500 
   52.1250    46.8580    14.9240     0.1980     0.6380    25.3910    97.2180  -999.2500 
   52.2500    45.6940    14.1080     0.1990     0.5990    25.3720    97.7080  -999.2500 
   52.3750    45.8360    13.0780     0.2020     0.5590    25.3560    98.2070  -999.2500 
   52.5000    46.6110    12.0530     0.2080     0.5060    25.3360    98.9500  -999.2500 
   52.6250    46.7160    11.3770     0.2160     0.4740    25.3340   100.2790  -999.2500 
   52.7500    46.7430    11.1180     0.2230     0.4970    25.3330   102.3250  -999.2500 
   52.8750    47.1780    11.1510     0.2250     0.5850    25.3330   105.1310  -999.2500 
   53.0000    46.8720    11.2320     0.2220     0.7350    25.3310   108.6970  -999.2500 
   53.1250    45.5830    11.0710     0.2140     0.8650    25.3150   113.0250     0.0000 
   53.2500    45.0330    10.6110     0.2060     0.9200    25.2910   117.8490     0.0000 
   53.3750    46.6620     9.9660     0.1990     0.8750    25.2570   122.8850     0.0000 
   53.5000    49.1510     9.3510     0.1930     0.7500    25.2100   127.8190     0.0000 
   53.6250    49.5870     8.9800     0.1910     0.5960    25.2020   132.1940     0.0000 
   53.7500    49.3690     8.8230     0.1900     0.4860    25.2000   135.7240     1.0370 
   53.8750    50.0110     8.7970     0.1900     0.4460    25.2130   138.1040     2.0750 
   54.0000    51.6930     8.8310     0.1900     0.4470    25.2310   139.1600     2.0810 
   54.1250    52.2820     8.8590     0.1890     0.4400    25.2670   138.7980     2.0870 
   54.2500    51.8200     8.8300     0.1880     0.4160    25.3180   137.3840     2.0890 
   54.3750    51.3670     8.7370     0.1880     0.3880    25.3430   135.2140     2.0880 
   54.5000    51.1810     8.6050     0.1900     0.3760    25.3490   132.5990     2.0860 
   54.6250    49.3800     8.4730     0.1930     0.3930    25.3650   129.9180     2.0890 
   54.7500    46.0840     8.3530     0.1960     0.4260    25.3790   127.4410     2.0980 
   54.8750    44.5630     8.2280     0.1970     0.4550    25.3840   125.3580     2.1090 
   55.0000    46.0260     8.0770     0.1970     0.4780    25.3820   123.7850     2.1150 
   55.1250    46.9310     7.8870     0.1940     0.4970    25.3730   122.6130     2.1090 
   55.2500    45.7180     7.6770     0.1890     0.5120    25.3530   121.6640     2.0920 
   55.3750    44.4190     7.4660     0.1850     0.5130    25.3000   120.7880     2.0700 
   55.5000    44.6550     7.2730     0.1830     0.4940    25.1830   119.8610     2.0470 
   55.6250    46.7650     7.1140     0.1840     0.4550    24.9660   118.8500     2.0300 
   55.7500    48.6440     6.9850     0.1870     0.4070    24.6560   117.8370     2.0200 
   55.8750    48.6450     6.8760     0.1910     0.3430    24.3120   116.8330     2.0150 
   56.0000    46.9010     6.7640     0.1950     0.2650    24.0640   115.8570     2.0140 
   56.1250    44.5980     6.6200     0.1980     0.1810    23.9770   114.8820     2.0150 
   56.2500    42.0960     6.4410     0.2000     0.1300    23.9740   113.8270     2.0220 
   56.3750    39.3060     6.2660     0.2010     0.0910    23.9970   112.6900     2.0350 
   56.5000    36.8810     6.1810     0.2020     0.0390    24.0190   111.4500     2.0560 
   56.6250    35.5380     6.2770     0.2020    -0.0200    24.0390   110.0900     2.0820 
   56.7500    34.6590     6.4490     0.2000    -0.0860    24.0520   108.5390     2.1020 
   56.8750    34.9680     6.4690     0.1950    -0.1510    24.0490   106.7670     2.1080 
   57.0000    36.9010     6.0450     0.1830    -0.2030    24.0210   104.7180     2.0980 
   57.1250    40.1550     4.8030     0.1610    -0.2280    23.9640   102.3570     2.0780 
   57.2500    42.5380     2.9980     0.1300    -0.2440    23.8960    99.6370     2.0640 
   57.3750    42.7060     1.2890     0.0950    -0.2520    23.8480    96.4540     2.0740 
   57.5000    41.7560     0.2420     0.0600    -0.1390    23.8520    92.6450     2.1190 
   57.6250    41.7770    -0.1800     0.0340     0.0910    23.9180    87.8020     2.2100 
   57.7500    43.6690    -0.3140     0.0270     0.6030    23.9960    81.8080     2.3190 
   57.8750    48.4440    -0.1910     0.0710     1.5850    24.0110    74.5100     2.4100 
   58.0000    55.7290     0.2600     0.2190     2.6180    23.8910    65.9540     2.4490 
   58.1250    62.9910     1.1790     0.5780     3.9340    23.5660    56.5170     2.4180 
   58.2500    67.2880     2.4300     1.1620     5.3130    23.1630    46.9510     2.3550 
   58.3750    67.8020     3.7600     1.9440     6.2380    22.8830    37.6140     2.2870 
   58.5000    65.4240     4.7860     2.8140     6.6640    22.8620    28.7900     2.2340 
   58.6250    63.4340     5.1100     3.5860     7.0000    23.0570    20.9640     2.2070 
   58.7500    63.8420     5.0080     4.1710     7.4360    23.3260    14.3190     2.1940 
   58.8750    64.5600     4.8650     4.6240     8.0130    23.6440     9.0700     2.1820 
   59.0000    64.9780     4.9600     5.1020     8.9270    23.9890     5.2370     2.1610 
   59.1250    66.7940     5.5760     5.8720     9.9310    24.2310     2.6930     2.1350 
   59.2500    68.1460     6.7660     7.0420    11.2140    24.3460     0.7870     2.1240 
   59.3750    66.1120     8.4730     8.5660    13.2510    24.3300    -0.7160     2.1470 
   59.5000    61.8880    10.3810    10.1770    16.0760    24.2010    -1.9350     2.2190 
   59.6250    59.0080    11.7730    11.3000    18.3410    23.9530    -2.9980     2.3320 
   59.7500    56.9010    12.0790    11.5440    19.0610    23.6670    -3.9890     2.4360 
   59.8750    56.8090    11.2150    10.8480    15.2980    23.4360    -4.9060     2.4850 
   60.0000    59.7430     9.7290     9.5510     9.8060    23.3140    -5.7430     2.4610 
   60.1250    63.2520     8.4300     8.2220     8.0880    23.3180    -6.5900     2.3830 
   60.2500    63.1120     7.6160     7.2290     7.5680    23.3400    -7.3910     2.3060 
   60.3750    59.7880     7.2530     6.6390     7.4350    23.3690    -8.1420     2.2510 
   60.5000    56.8250     7.2120     6.3860     7.2930    23.4370    -8.8260     2.2240 
   60.6250    56.3070     7.3590     6.3720     7.0820    23.5480    -9.4240     2.2180 
   60.7500    56.5200     7.5430     6.4490     6.9170    23.7070    -9.9700     2.2190 
   60.8750    55.7070     7.7160     6.5610     6.9240    23.8970   -10.5070     2.2190 
   61.0000    55.8740     7.8720     6.6870     7.1070    24.0790   -10.9920     2.2160 
   61.1250    58.4810     8.0000     6.8140     7.4660    24.2470   -11.4000     2.2110 
