~V
VERS. 2.00: Ver 2.00
~W
STRT.M 56.0000:
STOP.M 261.0000:
STEP.M 0.1250:
NULL. -999.2500:
UWI. F10028:
~C
DEPT.M :
GR.API :
RML.OHMM :
RI. :
RXO.OHMM :
CALI.CM :
DEN.GM/CC :
SP.MV :
~A
# ...
  123.5000    79.8640     6.9460     5.9810     6.3690    24.7890     2.2490     0.3390 
  123.6250    77.9880     6.8960     5.9180     6.4270    24.7930     2.2390     0.3130 
  123.7500    77.1870     6.9230     5.8840     6.5750    24.7910     2.2320     0.2690 
  123.8750    77.8990     7.0610     5.9250     6.5200    24.7710     2.2340     0.2470 
  124.0000    77.6460     7.3030     6.0520     6.5660    24.7350     2.2470     0.2050 
  124.1250    75.9860     7.5890     6.2330     7.1310    24.6780     2.2670     0.0670 
  124.2500    75.3840     7.7980     6.3820     8.2130    24.6200     2.2820    -0.1270 
  124.3750    77.1560     7.8050     6.4050     9.1410    24.5840     2.2840    -0.3500 
  124.5000    78.6080     7.5500     6.2500     8.1930    24.5920     2.2710    -0.5650 
  124.6250    79.3970     7.1460     5.9730     7.1630    24.6070     2.2540    -0.6920 
  124.7500    81.9780     6.8980     5.7770     6.8320    24.6060     2.2490    -0.7530 
  124.8750    85.6030     7.0030     5.8110     6.7650    24.5930     2.2710    -0.7670 
  125.0000    87.1030     7.5260     6.1490     6.5350    24.5580     2.3230    -0.7390 
  125.1250    83.5420     8.3770     6.7900     7.7730    24.5100     2.3910    -0.6760 
  125.2500    79.5580     9.1570     7.4790    12.0910    24.4320     2.4440    -0.6150 
  125.3750    79.5010     9.4890     7.9110    16.3480    24.3270     2.4620    -0.5630 
  125.5000    82.1910     9.1870     7.8680    12.9520    24.2010     2.4380    -0.5370 
  125.6250    83.5010     8.3860     7.3580     8.4300    24.1270     2.3840    -0.5620 
  125.7500    82.6300     7.5550     6.7350     6.8700    24.1280     2.3330    -0.5980 
  125.8750    81.0880     6.9430     6.2160     6.6930    24.1980     2.3000    -0.6100 
  126.0000    80.1100     6.6300     5.9000     6.6620    24.2930     2.2850    -0.5590 
  126.1250    79.6590     6.5680     5.8000     6.3580    24.3120     2.2840    -0.4100 
  126.2500    79.9220     6.6020     5.8020     6.0520    24.2450     2.2860    -0.2170 
  126.3750    80.6120     6.6980     5.8530     6.0540    24.0990     2.2870     0.0020 
  126.5000    82.0910     6.8750     5.9400     6.2600    23.9510     2.2860     0.2270 
  126.6250    82.7250     7.1280     6.0610     6.3390    23.8630     2.2780     0.3940 
  126.7500    80.0050     7.3490     6.1650     6.4780    23.8250     2.2650     0.4660 
  126.8750    75.8870     7.3990     6.1770     7.0510    23.7880     2.2540     0.4530 
  127.0000    73.7720     7.1830     6.0340     7.3600    23.7590     2.2480     0.4070 
  127.1250    75.7710     6.7410     5.7520     7.1630    23.8140     2.2500     0.3410 
  127.2500    78.8690     6.3850     5.5200     6.7300    23.9280     2.2550     0.2580 
  127.3750    80.3420     6.4570     5.5490     6.5970    24.0000     2.2630     0.1620 
  127.5000    79.3660     7.3010     6.0690     6.8210    24.0010     2.2840     0.0590 
  127.6250    77.0400     9.4260     7.4930     8.2040    23.9360     2.3340    -0.0370 
  127.7500    74.4030    12.7800     9.9310    12.0830    23.8800     2.4100    -0.1350 
  127.8750    69.8430    16.9530    13.2600    19.1330    23.8900     2.4970    -0.3090 
  128.0000    63.6880    20.5940    16.5440    27.0910    23.9190     2.5660    -0.6260 
  128.1250    61.6220    21.1680    17.6550    25.9790    23.8960     2.5770    -1.1190 
  128.2500    63.0510    18.9060    16.3860    19.4270    23.8460     2.5300    -1.7470 
  128.3750    63.6760    15.5990    13.9820    14.2860    23.8550     2.4360    -2.4880 
  128.5000    61.5840    12.8160    11.7020    11.5900    23.9130     2.3240    -3.2990 
  128.6250    60.5620    11.2650    10.2130    10.8500    23.8970     2.2290    -4.1160 
  128.7500    61.9580    10.6100     9.4090    10.8810    23.7910     2.1610    -4.9020 
  128.8750    62.8190    10.5490     9.1400    11.1920    23.6750     2.1170    -5.6300 
  129.0000    61.4060    10.7810     9.2290    11.1720    23.6480     2.0900    -6.2870 
  129.1250    60.7510    11.0400     9.4910    11.2500    23.4470     2.0800    -6.8350 
  129.2500    61.4030    11.1910     9.7440    11.4270    23.0870     2.0870    -7.2720 
  129.3750    61.4610    11.2470     9.9350    11.5510    22.8590     2.1080    -7.6120 
  129.5000    60.2870    11.2870    10.0830    11.5820    22.8260     2.1370    -7.8700 
  129.6250    59.0310    11.3980    10.2320    11.7500    22.8810     2.1590    -8.0990 
  129.7500    58.3260    11.5440    10.3710    11.7620    22.8670     2.1660    -8.3050 
  129.8750    57.8420    11.5970    10.4100    11.5370    23.0300     2.1590    -8.4700 
  130.0000    58.4110    11.3750    10.2070    11.2880    23.4730     2.1430    -8.5330 
  130.1250    60.3070    10.6820     9.5950    11.2570    24.1230     2.1350    -8.3840 
  130.2500    63.6190     9.6660     8.7010    10.3590    24.5070     2.1460    -8.0050 
  130.3750    67.7410     8.5850     7.7360     8.8170    24.4620     2.1790    -7.4030 
  130.5000    71.1120     7.7280     6.9260     7.2070    24.2710     2.2200    -6.6970 
  130.6250    74.8520     7.3900     6.5010     6.7120    24.1230     2.2480    -6.0750 
  130.7500    78.0030     7.5750     6.4820     6.6160    23.9760     2.2530    -5.6630 
  130.8750    76.1630     8.2510     6.8740     7.4110    23.7770     2.2380    -5.5220 
  131.0000    68.2240     9.2940     7.6300     8.8380    23.5060     2.2130    -5.6580 
  131.1250    60.2530    10.4620     8.6200    10.5180    23.3510     2.1910    -6.1460 
  131.2500    56.2460    11.4210     9.5480    11.3410    23.3780     2.1750    -6.8930 
  131.3750    53.7570    11.9670    10.1970    11.6710    23.6190     2.1640    -7.8290 
  131.5000    52.4070    12.0670    10.4760    11.6980    23.9140     2.1560    -8.8530 
  131.6250    53.4440    11.8360    10.4240    11.4470    23.9880     2.1530    -9.7810 
  131.7500    54.1260    11.5480    10.2480    11.1050    23.9310     2.1540   -10.4780 
  131.8750    53.3750    11.3340    10.0560    10.9780    23.8320     2.1560   -10.8940 
  132.0000    53.8560    11.2300     9.8960    11.0720    23.7590     2.1600   -11.0600 
  132.1250    57.0320    11.2050     9.7690    11.0800    23.6940     2.1620   -11.0330 
  132.2500    60.2210    11.1880     9.6490    10.9960    23.6230     2.1570   -10.9440 
  132.3750    62.2300    11.1540     9.5310    10.7970    23.5520     2.1420   -10.8260 
  132.5000    63.6190    11.1170     9.4350    10.7450    23.3670     2.1210   -10.6660 
  132.6250    65.2160    11.1320     9.4020    10.6710    23.0920     2.1010   -10.4540 
  132.7500    66.6970    11.2270     9.4540    10.7860    22.8970     2.0930   -10.2370 
  132.8750    66.6690    11.4030     9.5940    11.0950    22.9000     2.1020   -10.0240 
  133.0000    64.9620    11.6370     9.8010    11.5010    23.0750     2.1220    -9.8190 
  133.1250    64.2380    11.8720    10.0170    11.6790    23.4280     2.1420    -9.5670 
  133.2500    64.5690    12.0320    10.1610    11.8330    23.7430     2.1530    -9.3050 
  133.3750    63.8250    12.0560    10.1720    11.8100    23.8390     2.1530    -9.0720 
  133.5000    61.7370    11.9130    10.0220    11.6410    23.7920     2.1510    -8.8190 
  133.6250    62.2600    11.5930     9.7170    11.0880    23.6860     2.1560    -8.4720 
  133.7500    65.3920    11.1930     9.3470    10.2610    23.4990     2.1740    -8.0950 
  133.8750    68.8490    10.7970     8.9880     9.6670    23.2660     2.2010    -7.7550 
  134.0000    71.6040    10.4760     8.7030     9.7330    23.0660     2.2280    -7.4490 
  134.1250    72.1180    10.2970     8.5490     9.8480    22.9700     2.2420    -7.2000 
  134.2500    71.8730    10.2550     8.5130     9.5570    22.9230     2.2400    -7.0110 
  134.3750    73.0290    10.3310     8.5760     9.6620    22.8450     2.2210    -6.8680 
  134.5000    74.3980    10.4740     8.7030    10.0280    22.6670     2.1940    -6.7980 
  134.6250    70.3430    10.6290     8.8660    10.4820    22.5520     2.1700    -6.8310 
