~V
VERS. 2.00: Ver 2.00
~W
STRT.M 57.0000:
STOP.M 257.0000:
STEP.M 0.1250:
NULL. -999.2500:
UWI. F10004:
~C
DEPT.M :
GR.API :
RML.OHMM :
RI. :
RXO.OHMM :
CALI.CM :
DEN.GM/CC :
SP.MV :
~A
# ...
   79.5000    67.8260     9.8690     8.0670     8.7190    24.2960     2.0940   -25.0070 
   79.6250    70.8180    10.0150     8.0330     8.6920    24.0970     2.0860   -24.5170 
   79.7500    72.6080    10.2670     8.0710     8.7840    23.7460     2.0700   -24.0240 
   79.8750    72.1180    10.5930     8.1820     9.0490    23.4170     2.0630   -23.5450 
   80.0000    69.9270    10.9240     8.3310     9.3660    23.2560     2.0790   -23.0780 
   80.1250    66.0740    11.1440     8.4550     9.2250    23.3110     2.1160   -22.5740 
   80.2500    63.3940    11.2010     8.4990     8.9760    23.5180     2.1560   -22.0190 
   80.3750    64.9730    11.0910     8.4430     8.6560    23.7920     2.1870   -21.3900 
   80.5000    68.6530    10.8690     8.3040     8.5340    24.0600     2.2030   -20.6790 
   80.6250    70.6430    10.6150     8.1220     8.5280    24.2560     2.2040   -19.8490 
   80.7500    71.6450    10.4000     7.9450     8.6430    24.3560     2.1970   -18.8850 
   80.8750    74.7500    10.2450     7.7940     8.7520    24.3820     2.1850   -17.7830 
   81.0000    79.5340    10.1330     7.6700     8.6810    24.3860     2.1690   -16.6020 
   81.1250    83.1750    10.0280     7.5490     7.8260    24.4800     2.1550   -15.4210 
   81.2500    85.6730     9.8960     7.4040     7.7500    24.4820     2.1480   -14.2580 
   81.3750    86.8550     9.7140     7.2240     7.7100    24.4300     2.1530   -13.1550 
   81.5000    87.2030     9.4660     7.0090     7.3730    24.3630     2.1720   -12.1590 
   81.6250    88.9200     9.1580     6.7750     7.0260    24.3100     2.2060   -11.3390 
   81.7500    93.6700     8.8540     6.5620     6.7840    24.2840     2.2500   -10.6880 
   81.8750   100.6110     8.6190     6.4030     6.4940    24.2630     2.3000   -10.2010 
   82.0000   104.7480     8.5090     6.3230     6.6910    24.2060     2.3490    -9.8450 
   82.1250   103.3520     8.5690     6.3470     7.2210    24.1270     2.3820    -9.6170 
   82.2500    99.7120     8.7380     6.4470     7.6390    24.0900     2.3920    -9.5220 
   82.3750    97.0160     8.9590     6.6000     7.3830    24.0820     2.3790    -9.5140 
   82.5000    94.3360     9.1860     6.7860     7.5330    24.0880     2.3540    -9.5280 
   82.6250    89.9400     9.3920     6.9860     8.1660    24.0640     2.3290    -9.5540 
   82.7500    86.3670     9.5670     7.1810     8.3070    24.0050     2.3070    -9.6010 
   82.8750    84.1140     9.7100     7.3560     8.1710    23.9340     2.2890    -9.6720 
   83.0000    83.6180     9.8200     7.4970     8.4310    23.8760     2.2750    -9.7420 
   83.1250    85.4800     9.8820     7.5850     8.6880    23.8400     2.2700    -9.7780 
   83.2500    88.1560     9.8890     7.6210     8.7150    23.8270     2.2730    -9.7630 
   83.3750    89.3990     9.8380     7.6090     8.9500    23.8590     2.2800    -9.7290 
   83.5000    88.1170     9.7370     7.5530     9.4470    24.0170     2.2840    -9.7230 
   83.6250    87.7970     9.6090     7.4670     8.7140    24.2170     2.2810    -9.7250 
   83.7500    89.0980     9.4960     7.3770     7.9460    24.3510     2.2740    -9.6900 
   83.8750    90.6790     9.4240     7.3010     7.8400    24.3590     2.2690    -9.6360 
   84.0000    90.8180     9.3870     7.2430     7.9120    24.3060     2.2700    -9.5950 
   84.1250    90.6720     9.3350     7.1840     7.6250    24.2980     2.2770    -9.5570 
   84.2500    93.2190     9.2220     7.1030     7.3360    24.3210     2.2860    -9.5190 
   84.3750    96.9600     9.0390     6.9910     7.2510    24.3440     2.3000    -9.4670 
   84.5000    98.8480     8.8150     6.8600     7.1810    24.3420     2.3190    -9.4000 
   84.6250    97.5810     8.6370     6.7510     7.2620    24.3210     2.3450    -9.3450 
   84.7500    95.3170     8.5800     6.7100     7.2930    24.2980     2.3700    -9.3210 
   84.8750    93.7740     8.6850     6.7650     7.0480    24.2970     2.3840    -9.2870 
   85.0000    91.1840     8.9350     6.9140     7.3660    24.3340     2.3830    -9.2050 
   85.1250    84.5550     9.2710     7.1380     8.4090    24.3340     2.3680    -9.1080 
   85.2500    78.7040     9.5890     7.3740     9.1690    24.3010     2.3460    -9.0250 
   85.3750    78.6340     9.8280     7.5830     9.1430    24.2860     2.3250    -8.9450 
   85.5000    83.7270     9.9580     7.7340     8.5530    24.3150     2.3030    -8.8630 
   85.6250    85.7150     9.9720     7.8070     8.4260    24.3480     2.2820    -8.7610 
   85.7500    82.9620     9.9260     7.8250     8.6010    24.2760     2.2650    -8.6430 
   85.8750    79.2210     9.8690     7.8140     8.8980    24.1100     2.2620    -8.5260 
   86.0000    77.3420     9.8420     7.8100     8.9340    23.9560     2.2820    -8.4360 
   86.1250    79.4220     9.8710     7.8410     8.6380    23.9270     2.3260    -8.3550 
   86.2500    82.2810     9.9170     7.8950     8.9170    23.9500     2.3760    -8.2460 
   86.3750    83.8620     9.9250     7.9390     9.6010    23.9680     2.4090    -8.1200 
   86.5000    83.8230     9.8380     7.9350     9.2510    23.9160     2.4170    -7.9900 
   86.6250    83.8300     9.6280     7.8550     9.0720    23.8940     2.4030    -7.8710 
   86.7500    84.1820     9.3690     7.7310     8.8390    23.8710     2.3870    -7.7700 
   86.8750    84.2430     9.1450     7.6110     8.5550    23.8150     2.3780    -7.6920 
   87.0000    84.0030     9.0420     7.5510     7.8490    23.7170     2.3750    -7.6180 
   87.1250    81.6840     9.1330     7.6170     8.0240    23.6540     2.3680    -7.5380 
   87.2500    78.2960     9.3680     7.7920     8.8330    23.5130     2.3550    -7.4860 
   87.3750    75.8960     9.6740     8.0380     9.2380    23.3620     2.3410    -7.4480 
   87.5000    75.7240     9.9650     8.2950     8.9020    23.2660     2.3300    -7.3860 
   87.6250    76.7040    10.1630     8.4970     8.7040    23.2320     2.3230    -7.2840 
   87.7500    75.8570    10.2770     8.6250     8.5460    23.2050     2.3180    -7.1660 
   87.8750    73.9650    10.3420     8.6940     8.4840    23.1920     2.3150    -7.0490 
   88.0000    75.0090    10.3860     8.7210     8.8230    23.2160     2.3140    -6.9460 
   88.1250    81.3490    10.3940     8.6980     9.0240    23.3310     2.3130    -6.8440 
   88.2500    87.0800    10.3290     8.6090     9.1020    23.5400     2.3100    -6.7300 
   88.3750    87.8510    10.1680     8.4540     9.4410    23.7930     2.3020    -6.6200 
   88.5000    85.2280     9.9450     8.2680     9.4230    23.9420     2.2870    -6.5310 
   88.6250    83.5700     9.7920     8.1550     9.2030    24.0570     2.2670    -6.4500 
   88.7500    81.9190     9.8670     8.2230     9.5400    24.0380     2.2460    -6.3450 
   88.8750    78.2930    10.3130     8.5690    10.1850    23.8830     2.2280    -6.2260 
   89.0000    74.4050    11.2290     9.2710    11.1590    23.6580     2.2200    -6.1100 
   89.1250    73.9210    12.6770    10.4210    12.8120    23.4150     2.2290    -6.0120 
   89.2500    76.1820    14.3780    11.8640    15.4490    23.2520     2.2480    -5.9210 
   89.3750    78.4750    15.9990    13.3850    19.4430    23.1890     2.2640    -5.8290 
   89.5000    78.7830    17.1710    14.6790    24.8640    23.2640     2.2640    -5.7440 
   89.6250    77.5750    17.5330    15.3740    26.3640    23.4720     2.2430    -5.6810 
   89.7500    77.0500    17.2760    15.5020    21.3840    23.7470     2.2140    -5.6520 
   89.8750    77.2840    16.7040    15.2400    17.5000    23.8640     2.1940    -5.6230 
   90.0000    76.3570    16.1690    14.8570    16.8940    23.8700     2.1970    -5.5490 
   90.1250    73.7280    16.0050    14.6420    17.4970    23.8490     2.2260    -5.4340 
   90.2500    69.8540    16.2690    14.7140    17.3200    23.8050     2.2640    -5.3290 
   90.3750    67.9030    16.9100    15.0800    16.9180    23.7440     2.2920    -5.2560 
   90.5000    69.5500    17.7260    15.6250    16.4590    23.7490     2.2950    -5.2130 
   90.6250    72.4130    18.2440    16.0260    16.2740    23.9060     2.2560    -5.1990 
