~V
VERS. 2.00: Ver 2.00
~W
STRT.M 64.0000:
STOP.M 308.0000:
STEP.M 0.1250:
NULL. -999.2500:
UWI. F10040:
~C
DEPT.M :
GR.API :
RML.OHMM :
RI. :
RXO.OHMM :
CALI.CM :
DEN.GM/CC :
SP.MV :
~A
# ...
  232.7500    58.1350    50.0210    40.6920    49.8830    25.2650     2.3180     1.6850 
  232.8750    61.6600    48.7890    39.6550    47.9020    25.2630     2.2900     1.7170 
  233.0000    64.3280    47.5940    38.7110    48.1430    25.2160     2.2700     1.7820 
  233.1250    64.5960    46.2680    37.8160    50.0360    25.1650     2.2680     1.8430 
  233.2500    62.7950    44.6510    36.8400    52.7260    25.1450     2.2810     1.9230 
  233.3750    61.4890    42.7300    35.7290    52.9940    25.1490     2.3010     2.0710 
  233.5000    62.5630    40.7170    34.5660    46.7950    25.1810     2.3140     2.2400 
  233.6250    63.9100    39.1060    33.6320    38.9050    25.2250     2.3100     2.3860 
  233.7500    62.9760    38.1050    33.0650    36.9570    25.2870     2.2930     2.5940 
  233.8750    60.7960    37.4350    32.6670    39.4890    25.3600     2.2700     2.8290 
  234.0000    60.7330    36.3080    31.8430    44.0450    25.3910     2.2530     3.0330 
  234.1250    63.2270    33.5010    29.6090    45.0800    25.3540     2.2550     3.2640 
  234.2500    66.0810    29.0240    25.9560    36.1780    25.3030     2.2750     3.5280 
  234.3750    68.5000    23.6060    21.4570    22.3890    25.2420     2.3110     3.7510 
  234.5000    70.2030    18.3560    17.0140    13.6500    25.1480     2.3540     3.9370 
  234.6250    71.0480    14.3620    13.5260    10.9580    25.0740     2.3920     4.1430 
  234.7500    71.5000    11.6740    11.0820     9.9890    25.0570     2.4190     4.2820 
  234.8750    72.5660    10.0840     9.5530     9.5440    25.0770     2.4330     4.3560 
  235.0000    73.9820     9.2590     8.7120     9.1710    25.1350     2.4370     4.4560 
  235.1250    74.0180     8.9050     8.3600     8.9630    25.2730     2.4390     4.5330 
  235.2500    73.2930     8.6860     8.1980     8.7130    25.4300     2.4430     4.5410 
  235.3750    75.1760     8.4740     8.0840     8.8040    25.3830     2.4490     4.5440 
  235.5000    81.2190     8.2230     7.9470     8.9160    25.2270     2.4530     4.5840 
  235.6250    86.5990     7.9410     7.7670     8.4360    25.1930     2.4510     4.6100 
  235.7500    86.7990     7.6620     7.5750     7.8560    25.2260     2.4440     4.6300 
  235.8750    84.2240     7.4130     7.3920     7.5210    25.2390     2.4350     4.6910 
  236.0000    84.3470     7.2170     7.2360     7.4760    25.2090     2.4270     4.7360 
  236.1250    89.2360     7.0960     7.1090     7.5990    25.1730     2.4230     4.7420 
  236.2500    92.0310     7.0350     7.0000     7.7460    25.0970     2.4230     4.7970 
  236.3750    90.8230     7.0190     6.9000     7.7790    25.0540     2.4250     4.8890 
  236.5000    87.9210     7.0330     6.8020     7.5460    25.0410     2.4280     4.9320 
  236.6250    86.9160     7.0760     6.7120     7.4800    25.0390     2.4290     4.9610 
  236.7500    85.5910     7.1490     6.6450     7.5870    25.0390     2.4250     5.0540 
  236.8750    81.8820     7.2670     6.6220     7.8810    25.0390     2.4160     5.1280 
  237.0000    77.5930     7.4540     6.6660     8.1800    25.0390     2.4040     5.1880 
  237.1250    77.3950     7.7520     6.8130     8.5700    25.0390     2.3980     5.3130 
  237.2500    79.5070     8.1380     7.0470     9.0610    25.0390     2.4060     5.4230 
  237.3750    79.9810     8.5570     7.3320     9.9600    25.0380     2.4300     5.4690 
  237.5000    77.9460     8.9250     7.6040    11.4350    25.0360     2.4610     5.5420 
  237.6250    75.4020     9.1610     7.8030    13.2950    25.0240     2.4860     5.6350 
  237.7500    74.6970     9.3350     7.9710    13.1270    25.0100     2.5020     5.6520 
  237.8750    75.8000     9.5940     8.2100    11.8030    25.0150     2.5200     5.6500 
  238.0000    76.8110    10.0970     8.6290    12.0070    25.0280     2.5500     5.6700 
  238.1250    73.3520    10.9290     9.2960    19.5060    25.0350     2.5910     5.6470 
  238.2500    66.1330    11.8320    10.0410    38.1040    25.0340     2.6200     5.5940 
  238.3750    61.4640    12.4420    10.6060    44.4690    25.0360     2.6180     5.5540 
  238.5000    64.3920    12.4180    10.7250    26.1460    25.0380     2.5780     5.5240 
  238.6250    72.1810    11.5910    10.2240    13.9890    25.0390     2.5170     5.4610 
  238.7500    77.1930    10.4200     9.3980    10.3060    25.0390     2.4620     5.3990 
  238.8750    77.6960     9.3260     8.5460     9.5910    25.0380     2.4280     5.3540 
  239.0000    77.4190     8.5880     7.9020     9.6330    25.0360     2.4200     5.3100 
  239.1250    79.6260     8.3090     7.6060     9.5280    25.0440     2.4320     5.2440 
  239.2500    81.5300     8.2680     7.5420     9.5210    25.0670     2.4500     5.2150 
  239.3750    82.3670     8.2970     7.5910     9.7700    25.0970     2.4630     5.2370 
  239.5000    82.8560     8.2870     7.6360     9.5280    25.1250     2.4660     5.2310 
  239.6250    82.3450     8.2230     7.6010     8.7170    25.0870     2.4610     5.1910 
  239.7500    81.6330     8.1350     7.4940     8.2940    25.0610     2.4540     5.1910 
  239.8750    82.4150     7.9980     7.3480     8.3930    25.0440     2.4510     5.1910 
  240.0000    84.7140     7.8380     7.2030     8.3500    24.9830     2.4530     5.1390 
  240.1250    84.7920     7.6980     7.0920     8.0550    24.9300     2.4580     5.1220 
  240.2500    83.2530     7.6010     7.0180     7.8410    24.8860     2.4620     5.1060 
  240.3750    81.9910     7.5470     6.9690     7.9690    24.8760     2.4660     5.0110 
  240.5000    81.7110     7.5580     6.9270     8.2350    24.8980     2.4680     4.9130 
  240.6250    81.1740     7.6970     6.8880     8.1150    24.9560     2.4710     4.8860 
  240.7500    78.9960     8.0330     6.8980     8.2180    25.0070     2.4750     4.8160 
  240.8750    75.7160     8.6460     7.0500     8.6590    25.0280     2.4800     4.7230 
  241.0000    73.5480     9.6130     7.4660     9.4400    25.0310     2.4810     4.6810 
  241.1250    73.3900    10.9820     8.3550    11.5970    25.0340     2.4730     4.5910 
  241.2500    71.4310    12.7520     9.7350    16.6190    25.0360     2.4560     4.4650 
  241.3750    67.0890    14.6740    11.5630    23.5590    25.0340     2.4310     4.4110 
  241.5000    63.3150    16.7800    13.6140    26.8300    25.0310     2.4010     4.3640 
  241.6250    63.2140    18.5680    15.3830    23.9950    25.0320     2.3750     4.2360 
  241.7500    65.8860    19.5560    16.4450    22.0370    25.0370     2.3600     4.1350 
  241.8750    68.2560    19.5530    16.6430    20.7000    25.0420     2.3590     4.0660 
  242.0000    69.4440    18.8310    16.1410    19.9880    25.0360     2.3710     3.9550 
  242.1250    70.3030    17.8810    15.3170    18.6430    25.0320     2.3830     3.8770 
  242.2500    70.2780    17.2100    14.6260    17.0490    25.0300     2.3830     3.8360 
  242.3750    68.3170    17.0860    14.3090    16.5910    25.0320     2.3710     3.7440 
  242.5000    65.9370    17.6460    14.5030    18.4090    25.0380     2.3540     3.6740 
  242.6250    64.7540    19.0190    15.3560    21.3470    25.0140     2.3410     3.6290 
  242.7500    63.8440    20.9200    16.7010    24.8780    24.9110     2.3330     3.5890 
  242.8750    62.6220    23.0360    18.3360    28.7900    24.7840     2.3270     3.5540 
  243.0000    62.5450    24.9710    19.9720    31.0790    24.7940     2.3160     3.5340 
  243.1250    64.0480    26.2980    21.2540    29.9350    24.8150     2.3060     3.5320 
  243.2500    64.6590    27.0610    22.1120    27.9950    24.7850     2.3090     3.4910 
  243.3750    63.2380    27.4750    22.6390    27.4240    24.8000     2.3300     3.4590 
  243.5000    59.3550    27.8190    23.0080    29.3040    24.9010     2.3650     3.4180 
  243.6250    55.8680    28.2130    23.3430    32.6980    24.9390     2.4000     3.3430 
  243.7500    56.0410    28.2810    23.6240    34.0750    24.9920     2.4230     3.2320 
  243.8750    59.3650    27.6430    23.7290    33.6050    25.0960     2.4280     3.0980 
