~V
VERS. 2.00: Ver 2.00
~W
STRT.M 50.0000:
STOP.M 237.0000:
STEP.M 0.1250:
NULL. -999.2500:
UWI. F10006:
~C
DEPT.M :
GR.API :
RML.OHMM :
RI. :
RXO.OHMM :
CALI.CM :
DEN.GM/CC :
SP.MV :
~A
# ...
  185.0000    70.9260    23.0870    23.2840    20.0190    23.7770     2.4550   -25.0320 
  185.1250    69.5120    15.2680    15.7520     9.1180    23.6490     2.3900   -24.3310 
  185.2500    64.2710    10.1180    10.6320     5.3340    23.4720     2.3460   -23.5560 
  185.3750    60.9670     7.1280     7.4740     4.3920    23.3540     2.3220   -22.7680 
  185.5000    62.1380     5.6170     5.7180     4.3970    23.3150     2.3110   -22.0260 
  185.6250    65.8070     5.1260     5.0350     4.5010    23.3040     2.3110   -21.4290 
  185.7500    69.9380     5.1400     4.9630     4.5930    23.2340     2.3190   -21.0080 
  185.8750    74.8120     5.4860     5.3320     4.7720    23.0730     2.3340   -20.7990 
  186.0000    79.8100     6.0630     6.0300     5.2520    22.9470     2.3500   -20.7840 
  186.1250    81.3870     6.9770     7.0040     6.5420    23.0430     2.3640   -20.9180 
  186.2500    80.2600     8.2160     8.1200     7.6630    23.3480     2.3730   -21.1000 
  186.3750    81.0540     9.5520     9.2510     8.2590    23.6480     2.3800   -21.2970 
  186.5000    85.1840    10.6350    10.2340     8.7210    23.7970     2.3890   -21.4900 
  186.6250    88.8840    11.2490    10.8560     9.0170    23.8430     2.3980   -21.6480 
  186.7500    93.3870    11.5140    11.1130     9.1630    23.8710     2.4060   -21.7870 
  186.8750   101.4180    11.5250    11.0730     9.0890    23.8800     2.4110   -21.9040 
  187.0000   110.4890    11.3860    10.8660     9.0160    23.8760     2.4120   -22.0060 
  187.1250   112.7370    11.1630    10.6450     8.9110    23.8730     2.4060   -22.0970 
  187.2500   109.6340    11.0200    10.5240     9.0100    23.8740     2.3930   -22.1810 
  187.3750   105.7350    11.1230    10.5470     9.1940    23.8680     2.3760   -22.2570 
  187.5000   103.2120    11.4570    10.7150     9.5560    23.8540     2.3570   -22.3140 
  187.6250   102.2970    11.7820    10.9930    10.2050    23.8380     2.3430   -22.3550 
  187.7500   103.1160    12.0000    11.2780    10.5980    23.8270     2.3380   -22.3590 
  187.8750   105.9460    12.0850    11.4800    10.6380    23.7840     2.3410   -22.3350 
  188.0000   109.1950    12.0470    11.5250    10.4950    23.7110     2.3520   -22.2810 
  188.1250   109.5250    11.9820    11.3800    10.3850    23.6790     2.3640   -22.1770 
  188.2500   108.7140    11.8770    11.1680    10.2870    23.7030     2.3760   -22.0420 
  188.3750   110.2360    11.8250    11.0310    10.2060    23.7500     2.3830   -21.9020 
  188.5000   114.1180    11.9920    11.0990    10.3450    23.7920     2.3860   -21.7780 
  188.6250   113.1730    12.4920    11.4810    11.3280    23.8280     2.3790   -21.6900 
  188.7500   105.1700    13.1710    12.0840    12.3530    23.8820     2.3650   -21.6730 
  188.8750    98.1720    13.9000    12.8090    14.2280    23.9000     2.3530   -21.7330 
  189.0000    98.1800    14.6560    13.6050    17.3460    23.8900     2.3500   -21.8790 
  189.1250   102.2080    15.7110    14.6250    17.1390    23.8850     2.3600   -22.1390 
  189.2500   101.5750    17.5320    16.1960    16.9720    23.8770     2.3730   -22.4910 
  189.3750    94.4090    20.7400    18.8350    19.7710    23.8660     2.3760   -22.9250 
  189.5000    84.1760    26.6490    23.2200    29.3500    23.8610     2.3590   -23.4210 
  189.6250    75.4370    37.2950    30.6500    53.8230    23.9040     2.3250   -23.9570 
  189.7500    68.9730    52.2680    41.2900    81.5050    23.9520     2.2890   -24.4970 
  189.8750    64.6290    69.2600    54.9450    95.1260    23.9760     2.2640   -25.0180 
  190.0000    62.7590    87.2460    70.5310   101.0070    23.9710     2.2520   -25.4990 
  190.1250    63.5820   104.9410    86.2450   110.9880    23.9050     2.2530   -25.9180 
  190.2500    63.2590   121.2660   100.7380   120.6250    23.7790     2.2590   -26.2760 
  190.3750    60.9640   135.9780   113.6470   132.0300    23.6260     2.2690   -26.5560 
  190.5000    59.9720   148.9300   124.8370   144.9520    23.4820     2.2780   -26.7540 
  190.6250    63.5820   158.8260   133.3990   153.3880    23.4570     2.2820   -26.8600 
  190.7500    67.1710   164.8710   138.9200   159.2670    23.5380     2.2820   -26.9140 
  190.8750    66.7770   166.5530   141.0330   152.1450    23.6370     2.2830   -26.9230 
  191.0000    63.2820   164.1440   139.8690   130.6630    23.8070     2.2900   -26.9100 
  191.1250    61.0200   157.4830   135.2500   116.6990    23.9680     2.3030   -26.8920 
  191.2500    60.2010   146.9160   127.5610   117.2740    24.0080     2.3150   -26.8570 
  191.3750    60.3860   132.1280   116.5280   114.5730    23.9320     2.3200   -26.8120 
  191.5000    62.7820   114.0620   102.5880    98.2370    23.8030     2.3190   -26.7730 
  191.6250    67.3460    95.7840    87.6810    81.6590    23.4950     2.3180   -26.7520 
  191.7500    70.0230    80.8760    74.8260    64.5430    23.3890     2.3160   -26.7410 
  191.8750    69.2710    71.3840    66.0670    47.5730    23.3650     2.3130   -26.7480 
  192.0000    66.9720    68.1780    62.5670    42.4880    23.3450     2.3060   -26.7520 
  192.1250    65.5700    72.3240    65.6540    56.5890    23.3610     2.2930   -26.7300 
  192.2500    64.5970    82.0120    73.9130    81.6910    23.4270     2.2800   -26.7140 
  192.3750    63.1080    95.5390    85.8650   100.7880    23.5090     2.2680   -26.6980 
  192.5000    62.1250   109.9810    98.9030   106.6110    23.5570     2.2590   -26.6390 
  192.6250    63.0160   120.9660   109.1970   102.2480    23.5450     2.2550   -26.5380 
  192.7500    65.2490   126.8670   115.1790    95.4230    23.5360     2.2580   -26.4120 
  192.8750    66.9400   128.4250   117.3210    94.3080    23.5660     2.2660   -26.2410 
  193.0000    66.6560   127.5150   117.1720   100.2050    23.6360     2.2750   -26.0260 
  193.1250    64.6440   125.2190   115.7850   109.6400    23.7460     2.2760   -25.7720 
  193.2500    63.6840   121.5630   113.3520   108.0260    23.7940     2.2700   -25.4940 
  193.3750    65.7720   115.9870   109.3860    99.1220    23.8040     2.2620   -25.1930 
  193.5000    68.6690   108.5100   103.7400    85.9270    23.7840     2.2610   -24.9070 
  193.6250    68.5870   100.1460    97.0240    74.8580    23.7230     2.2670   -24.6360 
  193.7500    66.7890    92.7600    90.8200    66.8170    23.6250     2.2730   -24.3870 
  193.8750    65.5240    87.6250    86.3570    60.8590    23.5320     2.2710   -24.1690 
  194.0000    65.6730    85.3270    84.3530    58.0160    23.4420     2.2580   -24.0010 
  194.1250    65.8360    85.9970    85.1410    67.8150    23.4400     2.2380   -23.9030 
  194.2500    67.3100    88.1990    87.4930    78.9800    23.6030     2.2210   -23.8560 
  194.3750    70.2060    90.8660    90.4040    84.0890    23.8420     2.2130   -23.8740 
  194.5000    71.6920    93.2810    93.1100    80.8900    23.9830     2.2160   -23.9550 
  194.6250    69.3890    95.4530    95.4460    74.2530    24.0070     2.2250   -24.0980 
  194.7500    66.9210    98.2060    98.1000    73.4600    24.0030     2.2350   -24.2780 
  194.8750    68.8080   102.3970   101.9100    83.3040    24.0020     2.2440   -24.5160 
  195.0000    74.1010   108.5490   107.5140    99.7380    24.0010     2.2510   -24.8070 
  195.1250    77.5400   116.7930   115.2640   108.9720    24.0060     2.2540   -25.1500 
  195.2500    76.4280   125.9920   124.1770   108.9460    24.0120     2.2500   -25.5200 
  195.3750    70.5550   135.2220   133.3550   109.9350    24.0010     2.2390   -25.8950 
  195.5000    62.6670   143.7650   142.0260   119.1090    23.9740     2.2230   -26.2690 
  195.6250    57.9290   150.9970   149.5140   129.2430    23.9620     2.2090   -26.6730 
  195.7500    58.3690   156.8280   155.6990   132.6910    23.9690     2.2020   -27.1040 
  195.8750    61.3920   160.9410   160.2880   134.9740    23.9560     2.2050   -27.5310 
  196.0000    62.9880   163.0640   162.9630   133.2400    23.9000     2.2160   -27.9390 
  196.1250    61.9850   163.1090   163.4370   128.3860    23.8520     2.2300   -28.3400 
