~V
VERS. 2.00: Ver 2.00
~W
STRT.M 60.0000:
STOP.M 262.0000:
STEP.M 0.1250:
NULL. -999.2500:
UWI. F10018:
~C
DEPT.M :
GR.API :
RML.OHMM :
RI. :
RXO.OHMM :
CALI.CM :
DEN.GM/CC :
SP.MV :
~A
# ...
  172.5000    45.5960    19.8760    17.7970    18.7450    24.2830     2.4910    -1.1220 
  172.6250    43.1420    20.6410    18.4610    21.7660    24.2190     2.4900    -1.1020 
  172.7500    41.7000    21.0730    18.9320    23.4270    24.2270     2.4860    -1.1170 
  172.8750    41.2630    21.0350    19.0490    22.6580    24.2840     2.4800    -1.1580 
  173.0000    42.5280    20.6530    18.8500    20.9460    24.3020     2.4710    -1.1610 
  173.1250    44.9240    20.2930    18.5810    20.0430    24.3160     2.4620    -1.1170 
  173.2500    45.7730    20.2880    18.5270    20.7440    24.3520     2.4560    -1.0800 
  173.3750    45.0030    20.7600    18.8220    21.1200    24.3900     2.4570    -1.0870 
  173.5000    44.7600    21.6490    19.4700    21.8920    24.3590     2.4680    -1.1120 
  173.6250    44.5640    22.7070    20.3330    22.9440    24.3020     2.4910    -1.0960 
  173.7500    43.0060    23.5220    21.0720    23.2970    24.2620     2.5130    -1.0300 
  173.8750    42.1480    23.7880    21.3970    22.1490    24.2530     2.5240    -0.9720 
  174.0000    43.7060    23.3480    21.1210    20.8890    24.2440     2.5190    -1.0080 
  174.1250    45.8280    22.1940    20.1840    20.8680    24.2620     2.5050    -1.1680 
  174.2500    45.3360    20.7780    18.9630    19.4400    24.2870     2.4960    -1.3340 
  174.3750    43.0330    19.4890    17.7950    16.8800    24.3280     2.4970    -1.4350 
  174.5000    41.9410    18.6140    16.9380    16.0560    24.3570     2.5020    -1.4480 
  174.6250    43.0390    18.3440    16.5830    16.6450    24.3510     2.4970    -1.4790 
  174.7500    43.8120    18.5160    16.6290    18.5590    24.3200     2.4820    -1.5670 
  174.8750    43.2340    18.9640    16.9620    20.2020    24.2920     2.4680    -1.6580 
  175.0000    41.9060    19.5050    17.4320    20.4310    24.2860     2.4680    -1.7200 
  175.1250    41.5860    20.0070    17.9050    19.0070    24.3070     2.4930    -1.7050 
  175.2500    42.3010    20.4650    18.3380    17.9300    24.3060     2.5290    -1.6480 
  175.3750    43.4590    20.9040    18.7580    18.0270    24.2440     2.5590    -1.5950 
  175.5000    43.4990    21.3170    19.1830    19.4260    24.2100     2.5720    -1.5820 
  175.6250    41.6280    21.6100    19.5670    21.1610    24.0970     2.5600    -1.5640 
  175.7500    40.2080    21.7220    19.8370    21.6460    24.1260     2.5360    -1.5300 
  175.8750    39.9850    21.6450    19.9440    20.7380    24.2890     2.5110    -1.5140 
  176.0000    39.4780    21.4520    19.8990    19.5090    24.2170     2.4890    -1.5320 
  176.1250    39.0180    21.2620    19.7710    19.0430    24.1420     2.4710    -1.5930 
  176.2500    39.4000    21.1500    19.6530    19.4380    24.1080     2.4550    -1.6850 
  176.3750    41.6880    21.1180    19.5800    20.1080    24.2170     2.4380    -1.7930 
  176.5000    44.7750    21.1350    19.5470    20.3180    24.3700     2.4250    -1.8880 
  176.6250    47.1950    21.1730    19.5430    20.6760    24.4540     2.4200    -2.0080 
  176.7500    47.9350    21.2550    19.5800    20.6710    24.4080     2.4230    -2.1770 
  176.8750    47.7280    21.4420    19.7110    20.6550    24.3940     2.4310    -2.3650 
  177.0000    47.8200    21.7730    19.9760    21.9450    24.4690     2.4430    -2.4960 
  177.1250    47.7300    22.2270    20.3710    22.8370    24.4920     2.4550    -2.5460 
  177.2500    47.1320    22.7010    20.8030    23.9160    24.4680     2.4660    -2.5600 
  177.3750    46.5390    23.1390    21.2260    25.8250    24.4600     2.4750    -2.5860 
  177.5000    46.1630    23.5140    21.6120    28.6520    24.4890     2.4810    -2.6840 
  177.6250    45.1080    23.8380    21.9610    25.2640    24.5330     2.4840    -2.7950 
  177.7500    43.3010    24.1840    22.3170    24.7050    24.5740     2.4850    -2.8220 
  177.8750    42.3500    24.5990    22.7160    26.6770    24.6190     2.4830    -2.7610 
  178.0000    43.1890    25.0660    23.1540    29.0780    24.6270     2.4790    -2.6890 
  178.1250    44.2400    25.4450    23.5320    27.1320    24.5770     2.4750    -2.6780 
  178.2500    44.4230    25.5400    23.6820    25.8700    24.5410     2.4720    -2.7090 
  178.3750    45.3830    25.1990    23.4550    25.9380    24.5210     2.4710    -2.7470 
  178.5000    47.9090    24.4130    22.8160    26.0090    24.5090     2.4740    -2.7480 
  178.6250    48.9230    23.3550    21.8950    25.6780    24.5470     2.4780    -2.7250 
  178.7500    47.2650    22.3730    20.9980    23.4530    24.5860     2.4820    -2.7190 
  178.8750    43.9380    21.7050    20.3280    21.1520    24.5710     2.4860    -2.7530 
  179.0000    41.4190    21.4800    20.0050    20.8210    24.5020     2.4910    -2.8030 
  179.1250    41.8040    21.7290    20.0950    21.7060    24.4340     2.4990    -2.8410 
  179.2500    44.4330    22.1750    20.4060    22.7030    24.3830     2.5040    -2.8470 
  179.3750    46.4450    22.5540    20.7350    23.2120    24.3380     2.5030    -2.8350 
  179.5000    46.2410    22.6590    20.8930    22.8940    24.3050     2.4930    -2.8220 
  179.6250    45.1180    22.4200    20.7800    22.4150    24.2840     2.4790    -2.8030 
  179.7500    44.5580    22.0870    20.5660    21.2260    24.2680     2.4710    -2.7660 
  179.8750    44.6750    21.9060    20.4430    20.0030    24.2410     2.4710    -2.6840 
  180.0000    45.0310    22.0530    20.5660    19.6600    24.1330     2.4750    -2.5700 
  180.1250    44.9430    22.6120    21.0270    20.5580    24.0530     2.4740    -2.4540 
  180.2500    43.6000    23.3720    21.6820    22.4000    24.0500     2.4660    -2.3900 
  180.3750    42.1330    24.0870    22.3450    24.5810    24.1510     2.4560    -2.3590 
  180.5000    42.0460    24.4910    22.7910    26.0410    24.2500     2.4520    -2.2890 
  180.6250    43.3010    24.2970    22.7400    25.3490    24.2330     2.4590    -2.1820 
  180.7500    44.8190    23.6030    22.2280    23.7530    24.1180     2.4720    -2.1180 
  180.8750    46.3290    22.6040    21.3990    22.3960    23.9670     2.4840    -2.1280 
  181.0000    47.7920    21.5490    20.4690    21.1480    23.8270     2.4900    -2.2190 
  181.1250    46.7040    20.6800    19.6580    20.8290    23.9240     2.4860    -2.3060 
  181.2500    43.1140    20.0500    19.0400    20.1930    24.1230     2.4730    -2.2790 
  181.3750    40.9980    19.6260    18.6030    20.5060    24.2540     2.4550    -2.1620 
  181.5000    41.8330    19.3380    18.3020    20.3810    24.2900     2.4360    -2.0220 
  181.6250    43.9460    19.1530    18.1180    20.4150    24.2380     2.4220    -1.9190 
  181.7500    44.9150    19.0540    18.0320    19.5470    24.1050     2.4170    -1.8140 
  181.8750    45.1110    19.0520    18.0450    18.8080    23.9520     2.4230    -1.6720 
  182.0000    44.4330    19.1470    18.1500    18.6880    23.9730     2.4380    -1.4880 
  182.1250    41.5000    19.3270    18.3360    20.5120    24.2080     2.4590    -1.3360 
  182.2500    38.9010    19.5270    18.5480    21.8630    24.4480     2.4800    -1.3200 
  182.3750    38.7650    19.6870    18.7310    21.9580    24.5600     2.4960    -1.4410 
  182.5000    40.4330    19.7740    18.8420    21.4230    24.5820     2.5030    -1.6310 
  182.6250    42.6060    19.7960    18.8650    21.2920    24.5410     2.4960    -1.7980 
  182.7500    44.3920    19.8000    18.8420    22.0340    24.4900     2.4790    -1.9380 
  182.8750    45.3760    19.7980    18.7950    22.5620    24.4410     2.4620    -2.0770 
  183.0000    44.5450    19.7770    18.7280    22.6490    24.4500     2.4520    -2.2540 
  183.1250    42.0030    19.7390    18.6560    22.5250    24.4570     2.4560    -2.4840 
  183.2500    40.7300    19.7360    18.6240    22.5370    24.4330     2.4700    -2.6590 
  183.3750    41.3980    19.8180    18.6800    21.3890    24.3510     2.4880    -2.7380 
  183.5000    42.6580    19.9990    18.8370    20.2020    24.2720     2.5040    -2.7880 
  183.6250    43.1570    20.2550    19.0750    20.3430    24.1980     2.5110    -2.8760 
