~V
VERS. 2.00: Ver 2.00
~W
STRT.M 64.0000:
STOP.M 287.0000:
STEP.M 0.1250:
NULL. -999.2500:
UWI. F10052:
~C
DEPT.M :
SP.MV :
DEN.GM/CC :
GR.API :
RML.OHMM :
RI. :
RXO.OHMM :
CALI.CM :
~A
# ...
   97.7500   -23.3130     2.3650   113.4530     4.9250     3.7040     4.4440    23.2200 
   97.8750   -23.3760     2.4280   106.7190     5.8970     4.3880     4.9260    23.1380 
   98.0000   -23.4780     2.4920    97.3380     7.2690     5.4240     6.7730    22.9930 
   98.1250   -23.6280     2.5110    86.5760     8.7080     6.6480    11.9500    22.7810 
   98.2500   -23.7800     2.4830    78.0370     9.5430     7.5880    17.0000    22.5530 
   98.3750   -23.9380     2.4340    74.8260     9.3830     7.8790    13.6260    22.3700 
   98.5000   -24.1190     2.3880    77.9870     8.5720     7.5630     8.3090    22.3200 
   98.6250   -24.3040     2.3520    82.3420     7.9330     7.0670     7.0060    22.5430 
   98.7500   -24.4710     2.3120    79.8870     7.8530     6.8010     7.2360    23.0030 
   98.8750   -24.5910     2.2580    72.8880     8.3050     6.8650     7.9150    23.5630 
   99.0000   -24.6940     2.1960    66.2920     9.0540     7.1890     8.3460    24.0430 
   99.1250   -24.7890     2.1380    60.8990     9.6870     7.5670     8.1060    24.2900 
   99.2500   -24.8350     2.0980    55.1300     9.9110     7.7750     7.8450    24.3260 
   99.3750   -24.8210     2.0850    52.4330     9.7440     7.7540     7.6700    24.1870 
   99.5000   -24.7560     2.0990    55.4110     9.4130     7.5760     7.5230    23.9230 
   99.6250   -24.6780     2.1330    61.3060     9.1660     7.3630     7.4780    23.6050 
   99.7500   -24.6250     2.1650    64.9200     9.0680     7.1940     7.4540    23.3280 
   99.8750   -24.5990     2.1830    65.1910     9.0770     7.0800     7.5090    23.1500 
  100.0000   -24.5550     2.1870    63.3810     9.1250     7.0090     7.6380    23.0640 
  100.1250   -24.4790     2.1830    63.8080     9.1710     6.9690     7.7210    23.0040 
  100.2500   -24.4330     2.1810    66.9640     9.2110     6.9440     7.6250    22.9310 
  100.3750   -24.4190     2.1810    67.9920     9.2660     6.9330     7.5910    22.8960 
  100.5000   -24.4210     2.1770    64.5440     9.3470     6.9340     7.7490    22.9690 
  100.6250   -24.4180     2.1650    61.5880     9.4210     6.9450     7.7460    23.1840 
  100.7500   -24.3760     2.1470    63.9740     9.4230     6.9440     7.6330    23.4580 
  100.8750   -24.3150     2.1260    67.8480     9.2890     6.9020     7.4420    23.7020 
  101.0000   -24.2690     2.1120    68.3990     8.9860     6.7960     7.2460    23.8240 
  101.1250   -24.2360     2.1150    66.7170     8.5130     6.6320     6.9380    23.7530 
  101.2500   -24.2180     2.1290    64.4670     8.0050     6.4770     6.6800    23.5720 
  101.3750   -24.2180     2.1440    61.6570     7.6320     6.3960     6.6820    23.3930 
  101.5000   -24.2270     2.1470    61.9470     7.5410     6.4300     6.8310    23.3100 
  101.6250   -24.2440     2.1310    66.3450     7.7940     6.5970     6.9690    23.3710 
  101.7500   -24.2520     2.1050    70.1000     8.1940     6.8280     7.0770    23.5090 
  101.8750   -24.2510     2.0820    69.7420     8.5560     7.0450     7.1340    23.6560 
  102.0000   -24.2460     2.0740    68.2010     8.7430     7.1580     7.1910    23.7630 
  102.1250   -24.2680     2.0840    68.8110     8.6890     7.0810     7.2150    23.8110 
  102.2500   -24.2920     2.1010    70.7650     8.4850     6.8490     7.2680    23.8380 
  102.3750   -24.2850     2.1160    73.1950     8.1830     6.5160     7.2180    23.8610 
  102.5000   -24.2410     2.1240    75.7360     7.7900     6.1610     6.9800    23.8750 
  102.6250   -24.1890     2.1270    77.8330     7.3400     5.8710     6.7270    23.8680 
  102.7500   -24.1770     2.1300    77.7480     6.9580     5.6860     6.6380    23.8460 
  102.8750   -24.1970     2.1360    74.4370     6.7570     5.6150     6.6420    23.8180 
  103.0000   -24.2290     2.1430    69.6290     6.7900     5.6520     6.6960    23.7850 
  103.1250   -24.2510     2.1470    68.1220     7.0880     5.8020     6.8460    23.7570 
  103.2500   -24.2540     2.1470    70.1030     7.5520     6.0380     7.1160    23.7490 
  103.3750   -24.2620     2.1490    71.6780     8.1030     6.3490     7.4120    23.7800 
  103.5000   -24.2790     2.1570    69.7510     8.6600     6.7110     7.6870    23.8550 
  103.6250   -24.2770     2.1720    66.9010     9.1280     7.0580     8.5930    23.9730 
  103.7500   -24.2510     2.1880    66.5080     9.4360     7.3010    11.0100    24.1180 
  103.8750   -24.2070     2.1980    66.5700     9.5080     7.3610    13.9350    24.2770 
  104.0000   -24.1450     2.1940    66.8660     9.3340     7.2130    12.0060    24.4410 
  104.1250   -24.0600     2.1760    68.3060     8.9850     6.9010     8.5830    24.6270 
  104.2500   -23.9900     2.1520    68.5790     8.6030     6.5620     7.2130    24.8560 
  104.3750   -23.9380     2.1280    66.4590     8.2490     6.2870     6.8650    25.1270 
  104.5000   -23.9020     2.1100    64.5070     7.9650     6.1310     6.7580    25.3970 
  104.6250   -23.8730     2.1060    65.2490     7.7870     6.1280     6.7650    25.5770 
  104.7500   -23.8740     2.1130    66.2570     7.6720     6.2160     6.7630    25.6310 
  104.8750   -23.8810     2.1290    66.4780     7.6040     6.3440     6.8120    25.5640 
  105.0000   -23.8530     2.1460    66.0730     7.6140     6.4630     7.0310    25.4100 
  105.1250   -23.7910     2.1560    64.3880     7.7660     6.5300     7.2610    25.1820 
  105.2500   -23.7100     2.1580    62.4720     8.0400     6.5540     7.2240    24.9040 
  105.3750   -23.6250     2.1570    60.9200     8.3830     6.5620     7.0620    24.6040 
  105.5000   -23.5490     2.1540    58.0560     8.7240     6.5850     7.1160    24.3150 
  105.6250   -23.4740     2.1480    53.7260     8.9740     6.6420     7.3550    24.0380 
  105.7500   -23.3600     2.1430    50.7710     9.1280     6.7200     7.6530    23.7450 
  105.8750   -23.2550     2.1460    50.9950     9.2210     6.8050     7.8630    23.4380 
  106.0000   -23.1890     2.1580    54.9020     9.2690     6.8780     8.0230    23.1400 
  106.1250   -23.1470     2.1680    61.2230     9.2810     6.9240     8.1130    22.8850 
  106.2500   -23.1040     2.1650    63.9590     9.2830     6.9490     8.2440    22.7290 
  106.3750   -23.0570     2.1430    61.2760     9.2920     6.9580     8.3860    22.7470 
  106.5000   -22.9950     2.1090    57.3890     9.3000     6.9540     8.5240    22.9540 
  106.6250   -22.9260     2.0830    57.4860     9.2820     6.9370     8.4780    23.2540 
  106.7500   -22.8670     2.0750    58.8700     9.2330     6.9100     8.2380    23.4990 
  106.8750   -22.7710     2.0850    58.7800     9.1670     6.8760     7.9570    23.6460 
  107.0000   -22.6410     2.1040    58.4560     9.1090     6.8460     7.7660    23.7210 
  107.1250   -22.5100     2.1210    60.6020     9.0830     6.8330     7.6520    23.7760 
  107.2500   -22.3880     2.1280    61.7860     9.0630     6.8210     7.5350    23.8480 
  107.3750   -22.2670     2.1300    59.4810     8.9730     6.7720     7.4110    23.9370 
  107.5000   -22.1540     2.1340    55.2000     8.7030     6.6440     7.2750    24.0270 
  107.6250   -22.0700     2.1520    55.4150     8.1200     6.3870     7.0240    24.0950 
  107.7500   -22.0140     2.1840    61.2670     7.2640     6.0340     6.6320    24.1350 
  107.8750   -21.9710     2.2220    68.2040     6.2550     5.6400     6.1680    24.1570 
  108.0000   -21.9350     2.2560    73.4540     5.3550     5.2800     5.9120    24.1730 
  108.1250   -21.9120     2.2670    78.6290     4.9840     5.0520     5.6900    24.1950 
  108.2500   -21.8830     2.2530    80.9530     5.2230     4.9860     5.6250    24.2230 
  108.3750   -21.8820     2.2200    78.1450     5.9530     5.0970     5.6770    24.2570 
  108.5000   -21.9050     2.1790    72.4800     6.9010     5.3680     5.9940    24.2870 
  108.6250   -21.9100     2.1430    70.9600     7.6790     5.7300     6.6080    24.3030 
  108.7500   -21.8780     2.1190    72.7800     8.0420     6.0310     6.9100    24.3040 
  108.8750   -21.8280     2.1140    71.7920     7.9470     6.1500     6.9980    24.2910 
