~V
VERS. 2.00: Ver 2.00
~W
STRT.M 64.0000:
STOP.M 260.0000:
STEP.M 0.1250:
NULL. -999.2500:
UWI. F10016:
~C
DEPT.M :
GR.API :
RML.OHMM :
RI. :
RXO.OHMM :
CALI.CM :
DEN.GM/CC :
SP.MV :
~A
# ...
  165.2500    55.3490    18.2670    16.7400    16.4900    24.1300     2.5020   -12.4510 
  165.3750    61.7850    18.1740    16.6450    15.4450    24.2330     2.4820   -12.4400 
  165.5000    66.0420    18.3190    16.6720    15.8060    24.2970     2.4530   -12.4020 
  165.6250    64.3740    18.8160    16.9420    16.9050    24.2310     2.4230   -12.3370 
  165.7500    61.6540    19.5130    17.4560    18.0360    24.1040     2.4060   -12.3380 
  165.8750    61.0320    20.2040    18.1160    19.0370    24.0290     2.4050   -12.3900 
  166.0000    62.3470    20.6760    18.7070    19.8470    24.0460     2.4210   -12.4150 
  166.1250    62.4080    20.7560    18.9490    20.8170    24.0860     2.4450   -12.3860 
  166.2500    59.9290    20.5840    18.8630    21.1940    24.1030     2.4660   -12.3720 
  166.3750    57.6440    20.3770    18.6370    20.2970    24.1060     2.4790   -12.3810 
  166.5000    57.8490    20.3860    18.5380    19.0780    24.1230     2.4840   -12.4020 
  166.6250    61.0900    20.8700    18.8260    19.6180    24.1280     2.4840   -12.4190 
  166.7500    63.0770    21.7590    19.4570    22.2060    24.1280     2.4850   -12.4080 
  166.8750    61.2300    22.8460    20.2870    25.6030    24.1490     2.4870   -12.4110 
  167.0000    57.1270    23.7820    21.0780    26.9570    24.1770     2.4890   -12.4510 
  167.1250    55.8820    24.0730    21.4690    25.1400    24.1390     2.4890   -12.5010 
  167.2500    57.8440    23.6450    21.3150    22.5700    24.0510     2.4870   -12.5400 
  167.3750    59.2810    22.6600    20.6330    20.3190    23.9400     2.4840   -12.5920 
  167.5000    57.0660    21.4820    19.6390    18.7070    23.8110     2.4790   -12.6710 
  167.6250    54.0030    20.5770    18.7200    18.3910    23.7250     2.4720   -12.7790 
  167.7500    53.3250    20.1790    18.1980    18.6930    23.6740     2.4630   -12.8880 
  167.8750    55.3500    20.3460    18.2110    19.1180    23.7060     2.4550   -12.9870 
  168.0000    57.6830    21.0150    18.7310    19.5300    23.7740     2.4480   -13.1040 
  168.1250    57.8860    22.0320    19.6190    21.1330    23.8230     2.4440   -13.2370 
  168.2500    56.8090    23.0560    20.5610    23.1200    23.8450     2.4450   -13.3360 
  168.3750    55.6410    23.8210    21.3370    24.9910    23.8520     2.4500   -13.4030 
  168.5000    55.2430    24.1430    21.7860    25.3520    23.8400     2.4610   -13.4890 
  168.6250    54.4920    23.9450    21.7830    24.1850    23.8120     2.4730   -13.6030 
  168.7500    52.7300    23.4970    21.4950    21.8080    23.7770     2.4820   -13.7120 
  168.8750    51.0530    23.0530    21.1250    20.8060    23.7330     2.4860   -13.7830 
  169.0000    50.5010    22.8140    20.8890    21.1930    23.6970     2.4840   -13.8180 
  169.1250    52.2450    22.8810    20.9390    21.3160    23.6230     2.4780   -13.8790 
  169.2500    53.8260    23.0920    21.1480    20.8950    23.6150     2.4730   -13.9770 
  169.3750    53.2170    23.2740    21.3300    20.8940    23.7580     2.4700   -14.0660 
  169.5000    51.1910    23.2860    21.3370    21.4990    24.1340     2.4720   -14.0870 
  169.6250    49.8290    23.0480    21.1170    21.7330    23.7830     2.4750   -14.0520 
  169.7500    50.8990    22.6540    20.7860    20.7710    23.5590     2.4770   -14.0380 
  169.8750    53.5600    22.1890    20.4120    20.5550    23.5180     2.4730   -14.0380 
  170.0000    54.7290    21.7260    20.0100    21.1810    23.5430     2.4640   -14.0200 
  170.1250    52.8910    21.3350    19.5860    20.4870    23.5140     2.4490   -13.9560 
  170.2500    52.4870    21.0590    19.2090    19.2930    23.4980     2.4370   -13.8820 
  170.3750    54.4330    20.9360    18.9730    19.2480    23.5320     2.4330   -13.8270 
  170.5000    56.0160    20.9800    18.9400    20.7520    23.6210     2.4380   -13.7880 
  170.6250    55.4090    21.1900    19.1110    22.2580    23.7290     2.4490   -13.7270 
  170.7500    55.6920    21.4880    19.3690    22.4270    23.8400     2.4600   -13.6320 
  170.8750    55.3350    21.8190    19.6580    21.5250    23.9480     2.4670   -13.5600 
  171.0000    51.6720    22.1530    19.9750    22.0730    24.0350     2.4690   -13.5500 
  171.1250    48.3660    22.5070    20.3800    23.4310    24.0530     2.4680   -13.5740 
  171.2500    48.3110    22.9370    20.8870    23.9390    24.0410     2.4680   -13.5530 
  171.3750    49.6810    23.5000    21.4830    23.1990    24.0530     2.4680   -13.4860 
  171.5000    51.6280    24.2330    22.1440    22.8950    24.0880     2.4710   -13.4520 
  171.6250    53.6240    25.1530    22.8930    23.4270    24.1110     2.4780   -13.4800 
  171.7500    53.9870    26.1430    23.7150    25.2570    24.1110     2.4880   -13.5310 
  171.8750    53.2270    27.0360    24.5150    27.2590    24.1150     2.5010   -13.5650 
  172.0000    53.5110    27.6120    25.0880    28.6220    24.1290     2.5120   -13.5310 
  172.1250    54.3760    27.5670    25.1080    29.1330    24.1430     2.5150   -13.4600 
  172.2500    55.5940    26.9470    24.5890    27.0300    24.1500     2.5070   -13.4250 
  172.3750    58.4440    25.9340    23.7010    24.2580    24.1460     2.4930   -13.4310 
  172.5000    61.3150    24.8460    22.7340    22.0230    24.1370     2.4780   -13.4090 
  172.6250    59.3580    24.1190    22.0440    22.8620    24.1380     2.4700   -13.3350 
  172.7500    55.3260    23.9910    21.8310    24.3900    24.1460     2.4710   -13.2230 
  172.8750    53.2460    24.5910    22.2440    26.3450    24.1600     2.4790   -13.1120 
  173.0000    53.6760    25.9110    23.3600    28.1630    24.1610     2.4900   -13.0490 
  173.1250    54.8800    27.7890    25.1540    30.3510    24.1590     2.5000   -12.9970 
  173.2500    54.8190    29.6880    27.1240    34.0760    24.1760     2.5060   -12.9120 
  173.3750    53.0350    31.1290    28.7560    36.5580    24.1880     2.5040   -12.8130 
  173.5000    51.5630    31.7400    29.6190    37.3600    24.1770     2.4950   -12.7500 
  173.6250    51.9890    31.2890    29.4480    33.0290    24.1610     2.4810   -12.7530 
  173.7500    52.4260    30.2150    28.6610    30.2960    24.1440     2.4680   -12.7720 
  173.8750    52.0230    28.9220    27.6210    29.9330    24.1330     2.4600   -12.8130 
  174.0000    51.2780    27.7510    26.5900    28.7380    24.1560     2.4580   -12.8970 
  174.1250    51.1030    26.9330    25.6980    28.0540    24.1760     2.4630   -13.0320 
  174.2500    51.1190    26.3890    24.9180    28.0700    24.1960     2.4720   -13.1990 
  174.3750    50.7190    25.9780    24.2270    26.5430    24.2080     2.4780   -13.3930 
  174.5000    49.8080    25.5490    23.6160    24.7490    24.1970     2.4810   -13.6290 
  174.6250    49.7960    24.9840    23.0790    24.2670    24.1770     2.4770   -13.9010 
  174.7500    50.5460    24.2980    22.5570    23.5560    24.1700     2.4720   -14.1940 
  174.8750    50.3810    23.5380    22.0050    22.2760    24.1770     2.4680   -14.4730 
  175.0000    49.8820    22.7910    21.4370    21.6590    24.1900     2.4660   -14.7220 
  175.1250    50.3000    22.2230    20.9910    21.2580    24.1960     2.4640   -14.9830 
  175.2500    51.0440    21.9740    20.8240    20.9600    24.1880     2.4590   -15.3050 
  175.3750    50.9090    22.1500    21.0320    21.1800    24.1550     2.4500   -15.6680 
  175.5000    50.3200    22.7480    21.5810    22.2730    24.1230     2.4400   -15.9970 
  175.6250    51.0200    23.5400    22.2240    23.5790    24.0930     2.4360   -16.3150 
  175.7500    53.4800    24.0080    22.5280    24.7050    24.0740     2.4420   -16.7110 
  175.8750    58.0000    23.7260    22.1620    24.9120    24.0360     2.4540   -17.1910 
  176.0000    64.2760    22.5200    21.0210    22.5030    23.9660     2.4640   -17.7120 
  176.1250    70.5940    20.5710    19.2550    17.3970    23.8950     2.4560   -18.2200 
  176.2500    76.1890    18.5880    17.4000    14.6720    23.9160     2.4300   -18.7130 
  176.3750    81.2160    17.0760    15.8240    14.9520    23.9720     2.3930   -19.1970 
