~V
VERS. 2.00: Ver 2.00
~W
STRT.M 50.0000:
STOP.M 279.0000:
STEP.M 0.1250:
NULL. -999.2500:
UWI. F10075:
~C
DEPT.M :
GR.API :
RML.OHMM :
RI. :
RXO.OHMM :
CALI.CM :
DEN.GM/CC :
SP.MV :
~A
# ...
  117.5000    63.3670     9.2400     7.7030     8.5980    24.0000     2.1580   -16.4170 
  117.6250    63.3930     9.1930     7.7320     8.9350    23.8310     2.1500   -16.0780 
  117.7500    65.3420     9.0070     7.6650     8.7280    23.7490     2.1420   -15.7050 
  117.8750    66.6720     8.6830     7.4710     8.3680    23.6910     2.1430   -15.1860 
  118.0000    68.2530     8.2610     7.1550     8.1490    23.6630     2.1540   -14.3890 
  118.1250    73.0750     7.7960     6.7610     7.8600    23.7060     2.1750   -13.3470 
  118.2500    80.2230     7.3450     6.3790     7.0080    23.8810     2.1940   -12.2040 
  118.3750    87.2770     6.9420     6.0600     6.2990    24.1670     2.2080   -10.9950 
  118.5000    92.5210     6.6220     5.8240     6.0170    24.4270     2.2170    -9.8030 
  118.6250    96.3010     6.4310     5.6750     6.2390    24.5380     2.2250    -8.6300 
  118.7500    98.9970     6.3480     5.5790     6.1860    24.5830     2.2370    -7.4540 
  118.8750   101.0800     6.3480     5.5210     6.2040    24.5990     2.2480    -6.4380 
  119.0000   101.6560     6.3930     5.4890     5.9970    24.6060     2.2520    -5.7420 
  119.1250   100.8570     6.4380     5.4780     5.9500    24.5530     2.2440    -5.3740 
  119.2500   100.4170     6.4530     5.4710     6.2260    24.4590     2.2290    -5.1540 
  119.3750   100.8870     6.4370     5.4560     6.4010    24.3060     2.2140    -5.0800 
  119.5000   100.9220     6.4330     5.4500     6.4380    24.0970     2.2070    -5.1240 
  119.6250    98.8560     6.5880     5.5460     6.3250    23.8590     2.2160    -5.1630 
  119.7500    95.5880     7.0280     5.8300     6.4060    23.7860     2.2430    -5.1780 
  119.8750    92.8160     7.8030     6.3470     6.9230    23.8600     2.2830    -5.1470 
  120.0000    90.6030     8.8060     7.0600     8.2780    24.0010     2.3240    -5.0300 
  120.1250    87.7400     9.6720     7.7620    10.7550    24.0110     2.3490    -4.8390 
  120.2500    85.8310     9.9760     8.1300    12.5330    23.8500     2.3500    -4.7310 
  120.3750    87.3860     9.5470     7.9860    10.7900    23.5870     2.3270    -4.7140 
  120.5000    92.4310     8.6020     7.4120     8.2910    23.3420     2.2930    -4.7080 
  120.6250    97.2980     7.6160     6.6890     6.5280    23.1710     2.2610    -4.7580 
  120.7500    98.5700     6.9330     6.1000     5.9300    23.0900     2.2390    -4.9090 
  120.8750    96.5740     6.6220     5.7450     5.7890    23.0160     2.2300    -5.1710 
  121.0000    94.9640     6.6140     5.6300     5.8330    22.9190     2.2300    -5.5270 
  121.1250    94.0840     6.7840     5.7150     5.8170    22.8650     2.2350    -5.8470 
  121.2500    92.0380     6.9770     5.8810     5.8350    22.8490     2.2410    -6.0340 
  121.3750    90.5450     7.1390     6.0600     6.0080    22.8540     2.2420    -6.1390 
  121.5000    91.7920     7.2570     6.2100     6.3070    22.8760     2.2370    -6.2320 
  121.6250    94.5470     7.3250     6.2990     6.3700    22.9500     2.2230    -6.3210 
  121.7500    95.5410     7.3440     6.3280     6.3310    23.0910     2.2020    -6.3860 
  121.8750    93.9100     7.3110     6.2990     6.3150    23.3040     2.1810    -6.4360 
  122.0000    90.3300     7.2300     6.2200     6.5570    23.5260     2.1670    -6.4870 
  122.1250    89.2590     7.1290     6.1030     6.9540    23.7700     2.1670    -6.4780 
  122.2500    92.1810     7.0390     5.9730     7.0120    24.0230     2.1770    -6.3630 
  122.3750    95.0230     6.9740     5.8520     6.8300    24.2390     2.1890    -6.1610 
  122.5000    95.6060     6.9380     5.7570     6.7770    24.4210     2.1900    -5.9030 
  122.6250    96.4480     6.9040     5.6870     6.9080    24.5830     2.1760    -5.5800 
  122.7500    96.6640     6.8560     5.6320     6.9210    24.7420     2.1540    -5.2980 
  122.8750    91.9580     6.8340     5.6230     7.0640    24.8370     2.1420    -5.0520 
  123.0000    84.2770     6.9240     5.7160     7.3940    24.8620     2.1560    -4.7880 
  123.1250    81.8290     7.2570     6.0000     7.3770    24.8710     2.2100    -4.5480 
  123.2500    84.4500     7.8130     6.4530     7.3120    24.8870     2.2870    -4.3620 
  123.3750    86.6870     8.4670     6.9870     8.1770    24.8680     2.3580    -4.1710 
  123.5000    87.3340     8.9590     7.4180    10.5320    24.7560     2.3970    -4.0090 
  123.6250    87.8150     8.9180     7.4690    11.0870    24.5850     2.3850    -3.9980 
  123.7500    87.7370     8.4050     7.1430     9.1070    24.3150     2.3440    -4.0500 
  123.8750    86.5110     7.6620     6.5910     7.2790    23.9680     2.2980    -4.1120 
  124.0000    86.8230     6.9910     6.0210     6.5360    23.5830     2.2620    -4.1770 
  124.1250    90.1900     6.6430     5.6390     6.2260    23.2800     2.2460    -4.3130 
  124.2500    93.2730     6.6030     5.4910     6.3050    23.1180     2.2400    -4.5940 
  124.3750    92.1720     6.7820     5.5560     6.5690    23.0920     2.2360    -5.0500 
  124.5000    87.2310     7.0590     5.7640     7.0490    23.1870     2.2300    -5.5130 
  124.6250    81.8500     7.3340     6.0320     7.5800    23.3750     2.2230    -5.8240 
  124.7500    79.7800     7.5460     6.2690     8.2920    23.5240     2.2160    -6.0470 
  124.8750    82.8220     7.6370     6.4170     9.1720    23.6430     2.2100    -6.2350 
  125.0000    87.3090     7.5680     6.4410     7.5790    23.8090     2.2080    -6.4200 
  125.1250    88.2160     7.3310     6.3240     6.9740    23.8700     2.2130    -6.5570 
  125.2500    85.0810     7.0250     6.1350     6.6740    23.8620     2.2220    -6.5940 
  125.3750    82.1810     6.7200     5.9300     6.4500    23.8910     2.2310    -6.4850 
  125.5000    84.0340     6.4700     5.7580     5.8600    24.0420     2.2300    -6.2850 
  125.6250    89.1590     6.3110     5.6630     5.7620    24.3080     2.2160    -6.0860 
  125.7500    92.0690     6.2200     5.6290     6.2450    24.5800     2.1970    -5.8790 
  125.8750    91.1420     6.1880     5.6300     6.7910    24.8050     2.1800    -5.5920 
  126.0000    88.6530     6.1990     5.6290     6.7340    24.9350     2.1730    -5.2040 
  126.1250    89.2330     6.2030     5.5710     6.5960    24.9690     2.1790    -4.7760 
  126.2500    91.5630     6.1230     5.4350     6.4740    24.9750     2.1950    -4.3620 
  126.3750    94.0500     5.9270     5.2340     6.1670    24.9680     2.2170    -4.0030 
  126.5000    96.5590     5.6510     5.0150     5.9280    24.9250     2.2440    -3.7070 
  126.6250    98.0250     5.3980     4.8500     5.8120    24.8290     2.2740    -3.5010 
  126.7500    97.7390     5.2710     4.7810     5.7300    24.7660     2.3060    -3.3620 
  126.8750    95.0390     5.3360     4.8320     5.6270    24.7800     2.3340    -3.3130 
  127.0000    90.5970     5.6080     5.0110     5.8530    24.7600     2.3510    -3.4190 
  127.1250    85.3630     6.0570     5.3210     6.3510    24.6370     2.3480    -3.8130 
  127.2500    80.4820     6.5570     5.6990     6.9190    24.4820     2.3260    -4.4120 
  127.3750    77.3500     7.0110     6.0880     7.3140    24.3300     2.2960    -5.0870 
  127.5000    76.5380     7.3410     6.4270     7.5760    24.1850     2.2660    -5.8150 
  127.6250    77.2020     7.4860     6.6460     7.6320    23.9960     2.2460    -6.5890 
  127.7500    77.0110     7.5000     6.7520     7.6630    23.7840     2.2370    -7.3660 
  127.8750    75.0540     7.4320     6.7610     7.5230    23.6240     2.2360    -8.1130 
  128.0000    72.9640     7.3260     6.6990     7.4440    23.5370     2.2400    -8.7830 
  128.1250    71.8950     7.2120     6.5880     7.2620    23.4680     2.2470    -9.2530 
  128.2500    70.7780     7.1190     6.4610     7.1610    23.4090     2.2510    -9.5520 
  128.3750    71.1850     7.0600     6.3390     7.1210    23.4010     2.2500    -9.7500 
  128.5000    73.8380     7.0330     6.2330     7.1110    23.4920     2.2450    -9.9110 
  128.6250    76.2730     6.9990     6.1260     7.1430    23.7160     2.2370   -10.1120 
