~V
VERS. 2.00: Ver 2.00
~W
STRT.M 50.0000:
STOP.M 221.0000:
STEP.M 0.1250:
NULL. -999.2500:
UWI. F10024:
~C
DEPT.M :
GR.API :
RML.OHMM :
RI. :
RXO.OHMM :
CALI.CM :
DEN.GM/CC :
SP.MV :
~A
# ...
  128.7500    88.3900    11.9550    11.0830     7.3180    23.0620     2.2950    -4.9350 
  128.8750    83.8100    11.6750    11.0560     8.0910    23.0450     2.3420    -4.8770 
  129.0000    76.5930    12.6760    12.5440    12.6910    23.3040     2.3910    -4.8520 
  129.1250    69.2760    15.1440    15.5430    22.8450    23.6820     2.4380    -4.7910 
  129.2500    64.7010    18.2940    19.2090    28.2870    23.8690     2.4740    -4.7450 
  129.3750    64.4050    20.7670    22.4670    26.5670    23.8970     2.4950    -4.7000 
  129.5000    65.6680    22.0860    24.3880    23.8810    23.9090     2.5020    -4.6570 
  129.6250    64.5670    22.4240    24.8740    24.5380    23.9920     2.4950    -4.6300 
  129.7500    60.6550    22.6390    24.9880    28.5970    24.0910     2.4780    -4.5650 
  129.8750    57.0410    23.1810    25.3250    30.6600    24.1300     2.4550    -4.5430 
  130.0000    57.2610    24.2050    26.0860    26.2360    24.1440     2.4300    -4.4980 
  130.1250    60.7160    25.6830    27.1730    23.8770    24.1410     2.4090    -4.4750 
  130.2500    61.4130    27.3250    28.2520    25.6520    24.1330     2.3980    -4.4650 
  130.3750    59.0520    28.9200    29.1620    30.1030    24.1120     2.3950    -4.4360 
  130.5000    57.4110    30.2670    29.8740    31.1320    24.0530     2.3990    -4.4430 
  130.6250    58.6100    31.0610    30.3230    29.4620    24.0080     2.4090    -4.4430 
  130.7500    59.3910    31.2680    30.4870    29.4620    23.9980     2.4290    -4.4860 
  130.8750    58.7760    31.0310    30.4060    30.8670    23.9870     2.4600    -4.5290 
  131.0000    58.4080    30.6390    30.2070    30.4760    23.9930     2.4980    -4.5590 
  131.1250    58.3060    30.3850    30.0080    29.8420    23.9920     2.5290    -4.6130 
  131.2500    58.0180    30.3810    29.8540    30.3260    23.9460     2.5450    -4.6630 
  131.3750    58.2640    30.6270    29.7660    31.7070    23.8480     2.5430    -4.7090 
  131.5000    59.3670    31.0550    29.7560    33.8360    23.8040     2.5290    -4.7610 
  131.6250    60.9860    31.5070    29.8150    33.1840    23.8650     2.5120    -4.8130 
  131.7500    61.2240    31.7900    29.8760    32.7790    23.9210     2.5040    -4.8550 
  131.8750    60.6000    31.8250    29.9020    33.6700    23.9450     2.5080    -4.8890 
  132.0000    59.9410    31.6760    29.9230    32.7640    23.9580     2.5200    -4.9380 
  132.1250    59.7440    31.4950    29.9970    31.9400    23.9400     2.5400    -5.0000 
  132.2500    59.8360    31.3820    30.1020    30.7080    23.8990     2.5620    -5.0510 
  132.3750    60.2910    31.3210    30.1750    31.4400    23.8220     2.5820    -5.1380 
  132.5000    60.7140    31.2360    30.1530    33.0060    23.7480     2.5940    -5.1940 
  132.6250    60.0790    31.0240    30.0030    32.2370    23.7350     2.5870    -5.2640 
  132.7500    59.5030    30.7230    29.8150    28.6520    23.7260     2.5620    -5.3590 
  132.8750    59.7510    30.4710    29.7120    26.0960    23.6770     2.5290    -5.4210 
  133.0000    58.3660    30.4510    29.8170    25.9420    23.6300     2.5010    -5.4870 
  133.1250    54.1510    30.8830    30.2360    27.8150    23.6210     2.4880    -5.5190 
  133.2500    50.6240    31.6870    30.8640    29.2160    23.6330     2.4860    -5.5300 
  133.3750    49.7890    32.6320    31.5110    30.5410    23.6450     2.4880    -5.5400 
  133.5000    50.8100    33.3430    31.8980    30.5400    23.6120     2.4870    -5.5480 
  133.6250    53.2860    33.3680    31.7210    31.4020    23.5640     2.4810    -5.5600 
  133.7500    55.1710    32.8010    31.1260    31.1980    23.4990     2.4750    -5.5540 
  133.8750    55.1360    31.9860    30.4390    29.0500    23.4570     2.4720    -5.5530 
  134.0000    54.5990    31.4170    30.0560    27.3300    23.4990     2.4770    -5.5720 
  134.1250    54.7280    31.6600    30.4180    27.7750    23.5820     2.4940    -5.5830 
  134.2500    53.3130    32.7550    31.5170    29.8750    23.6280     2.5200    -5.6090 
  134.3750    50.8130    34.5270    33.2000    33.1480    23.6410     2.5440    -5.6170 
  134.5000    51.8100    36.5610    35.1050    39.2600    23.6280     2.5580    -5.6210 
  134.6250    56.4670    38.2370    36.6670    41.8970    23.6620     2.5580    -5.6270 
  134.7500    58.9320    39.2430    37.5990    41.5470    23.7790     2.5520    -5.6090 
  134.8750    57.6350    39.5690    37.8900    40.3220    23.8980     2.5480    -5.6320 
  135.0000    55.4810    39.4080    37.7160    40.4600    23.9670     2.5520    -5.6210 
  135.1250    55.5910    39.0090    37.3260    39.0560    23.9520     2.5630    -5.6000 
  135.2500    57.5050    38.5680    36.9220    38.0740    23.9770     2.5730    -5.5970 
  135.3750    59.4410    38.0440    36.4950    37.9510    24.0600     2.5780    -5.5660 
  135.5000    59.1960    37.3520    35.9520    35.9020    24.0990     2.5770    -5.5540 
  135.6250    58.4790    36.5120    35.2600    34.9040    24.0940     2.5660    -5.5240 
  135.7500    60.5730    35.7600    34.5810    34.0940    24.0650     2.5460    -5.5240 
  135.8750    63.3050    35.3650    34.1460    33.1730    24.0360     2.5200    -5.4920 
  136.0000    62.8890    35.6120    34.2270    32.0170    24.0520     2.4970    -5.4750 
  136.1250    59.3560    36.8630    35.2020    34.0640    24.0630     2.4900    -5.4600 
  136.2500    57.5000    38.9340    36.9920    39.4510    24.0630     2.5020    -5.4380 
  136.3750    58.0580    41.4460    39.3350    43.7690    24.0460     2.5300    -5.4580 
  136.5000    58.1970    43.7120    41.6490    45.8680    24.0120     2.5640    -5.4630 
  136.6250    55.9770    44.6100    42.8950    48.2530    23.9760     2.5920    -5.4950 
  136.7500    53.9410    43.7640    42.5810    50.0190    23.9490     2.6050    -5.4900 
  136.8750    54.4310    41.3310    40.7320    47.9110    23.9480     2.6000    -5.4900 
  137.0000    55.9380    37.9670    37.8960    41.9800    23.9740     2.5800    -5.4870 
  137.1250    55.8590    34.6100    34.9380    34.3430    24.0120     2.5470    -5.4690 
  137.2500    56.1830    32.0350    32.6130    30.4360    23.9760     2.5100    -5.4570 
  137.3750    59.0540    30.6970    31.3360    28.4230    23.8200     2.4750    -5.4120 
  137.5000    62.7060    30.8170    31.3110    28.2190    23.6370     2.4460    -5.3650 
  137.6250    63.0810    32.4980    32.6630    30.5790    23.5870     2.4290    -5.3090 
  137.7500    58.7400    34.9990    34.7930    35.6910    23.7270     2.4270    -5.2460 
  137.8750    51.8000    37.5590    37.0550    41.4610    23.8650     2.4430    -5.1970 
  138.0000    47.1610    39.2930    38.6360    46.9840    23.9160     2.4760    -5.1330 
  138.1250    48.3180    39.1850    38.5410    44.9050    23.9170     2.5180    -5.0830 
  138.2500    51.0340    37.4770    36.9660    38.3070    23.9170     2.5520    -5.0320 
  138.3750    52.2930    34.8160    34.5330    34.4400    23.9270     2.5660    -4.9640 
  138.5000    51.3650    31.9910    31.9660    30.8350    23.9110     2.5590    -4.9260 
  138.6250    50.8590    29.8120    29.8110    26.2720    23.8430     2.5400    -4.8930 
  138.7500    53.1920    28.9700    28.1680    23.6040    23.7890     2.5240    -4.8980 
  138.8750    57.7500    28.3740    27.0570    23.8500    23.8360     2.5210    -4.8980 
  139.0000    60.5580    27.5970    26.5090    25.0760    23.9220     2.5330    -4.9130 
  139.1250    58.2780    26.6950    26.6810    23.3290    23.9350     2.5540    -4.9820 
  139.2500    55.2380    27.5030    27.4560    23.2540    23.8960     2.5740    -5.0230 
  139.3750    54.2690    28.6990    28.6530    28.2690    23.9270     2.5890    -5.1010 
  139.5000    54.7410    30.0050    29.9650    36.9620    24.0180     2.5990    -5.1760 
  139.6250    54.8000    31.0800    30.9920    39.3670    24.0870     2.6000    -5.2170 
  139.7500    54.0950    31.8050    31.5700    35.6130    24.0890     2.5930    -5.2670 
  139.8750    52.2230    32.2170    31.7070    30.6420    24.0430     2.5790    -5.2990 
