~V
VERS. 2.00: Ver 2.00
~W
STRT.M 50.0000:
STOP.M 237.0000:
STEP.M 0.1250:
NULL. -999.2500:
UWI. F10006:
~C
DEPT.M :
GR.API :
RML.OHMM :
RI. :
RXO.OHMM :
CALI.CM :
DEN.GM/CC :
SP.MV :
~A
# ...
  230.0000    35.5280     4.3770     4.1150     4.1720    23.7230     2.3940   -17.1800 
  230.1250    35.5280     4.3200     4.1090     4.2050    23.7300     2.3970   -17.0830 
  230.2500    35.5280     4.2980     4.1070     4.2430    23.7180     2.3970   -17.0110 
  230.3750    35.5280     4.2960     4.0920     4.3530    23.7120     2.3960   -16.9610 
  230.5000    35.5280     4.3010     4.0590     4.5360    23.7130     2.3980   -16.8970 
  230.6250    35.5280     4.3100     4.0040     4.9820    23.7030     2.4070   -16.8580 
  230.7500    35.5280     4.2750     3.9340     5.6350    23.6580     2.4180   -16.8590 
  230.8750    35.5280     4.2350     3.8550     6.2070    23.5890     2.4260   -16.8920 
  231.0000    35.5280     4.1980     3.7730     6.0580    23.5090     2.4260   -16.9310 
  231.1250    35.5280     4.0760     3.7090     5.9510    23.4030     2.4170   -16.9530 
  231.2500    35.5280     4.0000     3.6760     6.1370    23.2560     2.4010   -16.9720 
  231.3750    35.5280     3.9500     3.6770     6.1730    23.1210     2.3850   -17.0190 
  231.5000    35.5280     3.9410     3.7090     5.8840    23.1060     2.3730   -17.0870 
  231.6250    35.5280     4.0010     3.7660     5.5390    23.2090     2.3690   -17.1560 
  231.7500    35.5280     4.1800     3.8330     5.3190    23.2630     2.3710   -17.2130 
  231.8750    35.5280     4.3010     3.8960     5.2350    23.2120     2.3760   -17.2340 
  232.0000    35.5280     4.3040     3.9390     5.1970    23.0160     2.3800   -17.2300 
  232.1250    35.5280     4.3100     3.9560     5.1450    22.8500     2.3810   -17.2160 
  232.2500    35.5280     4.3200     3.9560     5.1060    22.7440     2.3830   -17.1990 
  232.3750    35.5280     4.3320     3.9520     5.0960    22.6900     2.3870   -17.1490 
  232.5000    35.5280     4.3460     3.9570     5.1060    22.6390     2.3930   -17.0750 
  232.6250    35.5280     4.3550     3.9810     5.1050    22.5840     2.3990   -16.9920 
  232.7500    35.5280     4.3610     4.0090     5.0180    22.4970     2.4040   -16.8820 
  232.8750    35.5280     4.3640     4.0270     4.9150    22.3620     2.4050   -16.8030 
  233.0000    35.5280     4.3640     4.0330     4.8900    22.1220     2.4050   -16.7550 
  233.1250    35.5280     4.3640     4.0330     4.9490    21.7640     2.4040   -16.7350 
  233.2500    35.5280     4.3640     4.0330     5.0050    21.3540     2.4030   -16.7170 
  233.3750    35.5280     4.3640     4.0330     4.8990    20.9250     2.3990   -16.7000 
  233.5000    35.5280     4.3640     4.0330     4.8710    20.3710     2.3910   -16.6730 
  233.6250    35.5280     4.3640     4.0330     4.9910    19.5870     2.3770   -16.6690 
  233.7500    35.5280     4.3640     4.0330     5.1770    18.6590     2.3560   -16.6990 
  233.8750    35.5280     4.3640     4.0330     5.2980    17.5740     2.3270   -16.7020 
  234.0000    35.5280     4.3640     4.0330     5.3420    16.5950     2.2940   -16.7130 
  234.1250    35.5280     4.3640     4.0330     5.3800    16.1940     2.2620   -16.7160 
  234.2500    35.5280     4.3640     4.0330     5.4410    16.0510     2.2390   -16.7300 
  234.3750    35.5280     4.3640     4.0330     5.6540    15.9590     2.2270   -16.7680 
  234.5000    35.5280     4.3640     4.0330     5.9430    15.8090     2.2230   -16.8570 
  234.6250    35.5280     4.3640     4.0330     6.3470    15.5270     2.2220   -16.9190 
  234.7500    35.5280     4.3640     4.0330     6.6090    15.1720     2.2200   -16.9250 
  234.8750    35.5280     4.3640     4.0330     6.7010    14.9710     2.2150   -16.9770 
  235.0000    35.5280     4.3640     4.0330     6.7100    14.9160     2.2090   -17.0460 
  235.1250    35.5280     4.3640     4.0330     6.7100    14.9160     2.2040   -17.1250 
  235.2500    35.5280     4.3640     4.0330     6.7100    14.9160     2.2000   -17.2040 
  235.3750    35.5280     4.3640     4.0330     6.7070    14.9160     2.1990   -17.2730 
  235.5000    35.5280     4.3640     4.0330     6.7050    14.9160     2.1980   -17.3300 
  235.6250    35.5280     4.3640     4.0330     6.7060    14.9160     2.1990   -17.3650 
  235.7500    35.5280     4.3640     4.0330     6.7080    14.9160     2.2000   -17.4390 
  235.8750    35.5280     4.3640     4.0330     6.7080    14.9160     2.2040   -17.5270 
  236.0000    35.5280     4.3640     4.0330     6.7080    14.9160     2.2140   -17.5900 
  236.1250    35.5280     4.3640     4.0330     6.7090    14.9160     2.2170   -17.6260 
  236.2500    35.5280     4.3640     4.0330     6.7090    14.9160     2.2090   -17.6130 
  236.3750    35.5280     4.3640     4.0330     6.7100    14.9160  -999.2500   -17.5900 
  236.5000    35.5280     4.3640     4.0330     6.7110    14.9160  -999.2500   -17.5570 
  236.6250    35.5280     4.3640     4.0330     6.7110    14.9160  -999.2500   -17.5290 
  236.7500    35.5280     4.3640     4.0330     6.7100    14.9160  -999.2500   -17.4890 
  236.8750    35.5280     4.3640     4.0330     6.7080    14.9160  -999.2500   -17.4090 
  237.0000    35.5280     4.3640     4.0330     6.7080    14.9120  -999.2500   -17.3410 
