~V
VERS. 2.00: Ver 2.00
~W
STRT.M 57.0000:
STOP.M 307.0000:
STEP.M 0.1250:
NULL. -999.2500:
UWI. F10042:
~C
DEPT.M :
GR.API :
RML.OHMM :
RI. :
RXO.OHMM :
CALI.CM :
DEN.GM/CC :
SP.MV :
~A
# ...
  248.2500    80.9100     6.9250     7.3240     7.2300    26.2050     2.4420   -10.5870 
  248.3750    79.8540     6.8770     7.3000     7.0720    26.2790     2.4410   -10.7040 
  248.5000    82.5320     6.8560     7.2450     6.8930    26.2710     2.4270   -10.9400 
  248.6250    86.1610     6.8550     7.1940     6.7440    26.2280     2.4080   -11.1130 
  248.7500    87.6090     6.8510     7.1570     6.8390    26.1540     2.3900   -11.1730 
  248.8750    87.8550     6.8400     7.1200     7.0540    26.0650     2.3770   -11.2570 
  249.0000    87.4260     6.8340     7.0680     7.0970    26.0220     2.3680   -11.3460 
  249.1250    84.4630     6.8700     6.9900     7.0250    25.9940     2.3650   -11.2890 
  249.2500    80.3090     6.9750     6.9170     7.0250    25.9720     2.3660   -11.2390 
  249.3750    77.8210     7.1810     6.9100     7.0910    25.9470     2.3710   -11.2740 
  249.5000    77.4170     7.5500     7.0720     7.3160    25.9670     2.3770   -11.3520 
  249.6250    77.5380     8.2850     7.6170     7.9810    25.9870     2.3780   -11.4400 
  249.7500    76.8750     9.5660     8.6610     9.0790    26.0260     2.3670   -11.5480 
  249.8750    73.5480    11.5680    10.3360    11.2460    26.0670     2.3430   -11.6470 
  250.0000    68.6560    14.0770    12.6850    15.5520    26.0850     2.3120   -11.7910 
  250.1250    65.7630    16.5940    15.5190    23.1070    26.0520     2.2800   -12.0640 
  250.2500    64.5380    18.8100    18.1490    27.7380    25.9780     2.2540   -12.3400 
  250.3750    64.4360    20.5830    19.9620    27.9990    25.9210     2.2340   -12.5260 
  250.5000    66.3720    21.6770    20.7130    25.2860    25.8790     2.2220   -12.6290 
  250.6250    68.2120    21.8270    20.5890    23.6560    25.8120     2.2170   -12.7130 
  250.7500    68.1440    21.5440    20.2410    23.0650    25.7910     2.2200   -12.8160 
  250.8750    67.6500    21.2620    19.9620    23.4050    25.8980     2.2260   -12.9690 
  251.0000    67.8230    21.1470    19.8150    23.6230    25.9270     2.2300   -13.0620 
  251.1250    66.9400    21.1370    19.7140    23.0600    25.8410     2.2250   -13.1170 
  251.2500    65.0060    21.0410    19.5630    22.5430    25.7470     2.2140   -13.2250 
  251.3750    63.9820    20.7980    19.3710    22.3230    25.7170     2.2000   -13.3530 
  251.5000    63.6850    20.4990    19.2460    22.0700    25.6810     2.1910   -13.5280 
  251.6250    63.8000    20.4460    19.4230    21.3850    25.6180     2.1920   -13.7170 
  251.7500    63.8110    20.9130    20.0430    21.3170    25.4630     2.2010   -13.9870 
  251.8750    63.6260    22.0820    21.2050    22.3560    25.2210     2.2160   -14.2460 
  252.0000    64.4200    23.9630    22.8860    24.9620    25.0330     2.2370   -14.4720 
  252.1250    66.4630    26.3860    24.8900    30.0660    24.9850     2.2610   -14.7080 
  252.2500    67.6050    28.8080    26.7360    34.1620    25.0050     2.2820   -14.9010 
  252.3750    66.1270    30.7600    28.0480    35.1130    25.0440     2.2940   -15.1190 
  252.5000    63.4290    31.9140    28.6620    33.1680    25.1090     2.2930   -15.2640 
  252.6250    62.1400    32.1310    28.6540    30.7140    25.2950     2.2780   -15.3720 
  252.7500    61.9820    31.8910    28.4480    30.3080    25.6200     2.2560   -15.4670 
  252.8750    61.9740    31.5930    28.2660    30.8860    25.8880     2.2330   -15.5270 
  253.0000    60.2050    31.4910    28.1730    31.3270    26.0020     2.2170   -15.5430 
  253.1250    58.1730    31.6130    28.0890    31.4020    26.0290     2.2140   -15.5400 
  253.2500    59.2900    31.7060    27.8820    30.6930    26.0430     2.2220   -15.6000 
  253.3750    63.0020    31.5500    27.4930    30.2360    26.0000     2.2320   -15.6500 
  253.5000    65.6350    31.0220    26.9460    29.8210    25.8960     2.2380   -15.7500 
  253.6250    64.4820    30.1150    26.3210    29.0230    25.8230     2.2360   -15.9130 
  253.7500    62.4910    29.0790    25.7210    27.9950    25.8720     2.2320   -15.9660 
  253.8750    61.9090    28.1360    25.1960    27.1590    25.9650     2.2330   -16.0340 
  254.0000    62.4260    27.4700    24.7720    26.2250    26.0220     2.2410   -16.2020 
  254.1250    62.7190    27.1830    24.4660    26.6130    26.0430     2.2500   -16.4130 
  254.2500    62.3410    27.0950    24.2410    27.4710    26.0380     2.2550   -16.6880 
  254.3750    62.6390    27.0250    24.0600    27.6400    25.9950     2.2540   -17.0370 
  254.5000    63.8730    26.8470    23.8740    26.3650    25.9200     2.2500   -17.4260 
  254.6250    64.2200    26.5540    23.6490    24.6290    25.8380     2.2440   -17.7390 
  254.7500    64.3900    26.2680    23.4160    23.4260    25.8120     2.2380   -18.1310 
  254.8750    64.9210    26.0770    23.2340    23.3940    25.8400     2.2320   -18.5290 
  255.0000    65.7170    26.0490    23.1960    23.0940    25.8910     2.2250   -18.8960 
  255.1250    64.6310    26.4070    23.5470    23.1030    25.9090     2.2200   -19.1640 
  255.2500    61.9860    27.4520    24.4950    24.4870    25.8680     2.2210   -19.3090 
  255.3750    59.9100    29.6050    26.2710    25.7380    25.8330     2.2280   -19.3390 
  255.5000    59.7490    33.2180    29.0180    27.6980    25.8790     2.2390   -19.3220 
  255.6250    61.0250    38.6000    32.7870    34.7680    25.9670     2.2480   -19.3510 
  255.7500    63.5320    45.0190    36.9790    48.9470    26.0310     2.2510   -19.3360 
  255.8750    66.6790    51.6000    40.9550    61.7030    26.0640     2.2470   -19.3110 
  256.0000    68.9290    57.3200    44.1360    62.2070    26.0460     2.2390   -19.2820 
  256.1250    68.4390    61.1210    46.1240    54.6230    25.9700     2.2310   -19.1880 
  256.2500    67.4270    63.1540    47.2140    57.6440    25.9060     2.2250   -19.0790 
  256.3750    67.3890    63.6210    47.4920    68.9700    25.8990     2.2230   -18.9510 
  256.5000    67.7050    62.5540    46.8070    77.8260    25.9330     2.2240   -18.7500 
  256.6250    67.8860    59.4660    44.7510    69.2330    25.9580     2.2240   -18.4320 
  256.7500    67.3780    54.8280    41.8200    59.5320    25.9760     2.2200   -18.0910 
  256.8750    65.8580    49.5740    38.8660    50.0430    25.9820     2.2100   -17.6760 
  257.0000    63.9750    45.0520    36.7980    45.0360    25.9430     2.2000   -17.2270 
  257.1250    64.6560    42.6110    36.1410    38.5180    25.8830     2.2020   -16.8270 
  257.2500    67.1720    41.7800    36.0400    37.7550    25.8430     2.2260   -16.4780 
  257.3750    67.6550    41.3980    35.3910    48.1620    25.8450     2.2830   -16.1790 
  257.5000    64.2500    40.0310    33.2820    64.4170    25.8420     2.3700   -16.0090 
  257.6250    60.1260    36.4220    29.4170    45.9630    25.6930     2.4770   -15.9940 
  257.7500    58.6720    31.1700    24.7860    23.2130    25.5050     2.5760   -16.0420 
  257.8750    58.3350    25.2430    20.0840    15.2470    25.4190     2.6520   -16.2350 
  258.0000    58.4200    19.5650    15.7630    16.3370    25.5110     2.6970   -16.3950 
  258.1250    61.1490    14.9400    12.2170    18.9570    25.6180     2.7070   -16.4960 
  258.2500    64.6110    11.5450     9.4660    18.3580    25.6590     2.6900   -16.4810 
  258.3750    66.6010     9.2880     7.5060    13.2440    25.6620     2.6480   -16.2220 
  258.5000    64.8590     7.8100     6.2480     7.6750    25.6480     2.5880   -15.8030 
  258.6250    59.3540     6.8840     5.6500     6.5860    25.6480     2.5230   -15.1910 
  258.7500    53.8240     6.4210     5.4920     6.6880    25.6630     2.4700   -14.5120 
  258.8750    50.5740     6.4260     5.6600     6.5800    25.6420     2.4350   -13.7890 
  259.0000    50.2280     6.7310     6.0170     6.3720    25.5830     2.4150   -13.0550 
  259.1250    52.6450     7.1580     6.4130     6.5600    25.6330     2.4050   -12.3770 
  259.2500    56.1910     7.5580     6.7560     7.0630    25.7240     2.3960   -11.8540 
  259.3750    59.5230     7.8880     7.0540     7.4650    25.7680     2.3880   -11.5220 
