~V
VERS. 2.00: Ver 2.00
~W
STRT.M 50.0000:
STOP.M 286.0000:
STEP.M 0.1250:
NULL. -999.2500:
UWI. F10036:
~C
DEPT.M :
GR.API :
RML.OHMM :
RI. :
RXO.OHMM :
CALI.CM :
DEN.GM/CC :
SP.MV :
~A
# ...
  241.2500    54.3490   150.2030   143.7140    88.9650    23.3050     2.1940   -18.5740 
  241.3750    55.6220   166.2990   156.5830   103.7470    23.2820     2.1900   -18.7700 
  241.5000    56.4020   184.6650   171.0990   116.2140    23.2370     2.1880   -18.9830 
  241.6250    56.5120   203.4530   185.7500   127.2400    23.2290     2.1890   -19.2270 
  241.7500    55.5650   220.6230   199.0810   139.9440    23.3130     2.1930   -19.4410 
  241.8750    53.0790   235.2450   210.5360   152.0120    23.5340     2.1980   -19.7340 
  242.0000    49.7100   247.0450   220.0440   159.5560    23.8460     2.2020   -19.9750 
  242.1250    47.9360   255.3060   227.2130   177.2650    24.2370     2.2020   -20.2720 
  242.2500    48.2030   260.0650   232.0510   204.9970    24.5560     2.2000   -20.5750 
  242.3750    48.8610   260.9060   234.1510   224.9650    24.7320     2.1980   -20.8730 
  242.5000    50.0020   257.8180   233.3200   226.4500    24.7860     2.2000   -21.2100 
  242.6250    51.4170   250.1980   228.8880   217.8420    24.6480     2.2080   -21.4680 
  242.7500    53.5450   237.8910   220.5690   214.8720    24.2210     2.2170   -21.6910 
  242.8750    56.0290   219.9660   207.3450   214.6880    23.6140     2.2210   -21.7840 
  243.0000    57.1100   196.7940   189.0850   201.0210    23.1610     2.2180   -21.8130 
  243.1250    55.9190   170.6550   167.0940   178.2160    22.9820     2.2100   -21.7880 
  243.2500    54.9230   145.4880   144.8900   141.8970    22.9400     2.2040   -21.6150 
  243.3750    56.5920   123.5770   124.8200   107.5130    23.1760     2.2030   -21.4430 
  243.5000    58.7980   105.9810   108.2840    99.2190    23.8090     2.2050   -21.1340 
  243.6250    58.2760    93.3470    96.2700    94.6420    24.4220     2.2100   -20.8600 
  243.7500    58.2150    84.3120    87.7500    88.3570    24.6680     2.2140   -20.5250 
  243.8750    60.4190    78.2180    82.2040    79.3450    24.7180     2.2160   -20.1860 
  244.0000    61.2440    74.3780    79.0100    73.5350    24.7220     2.2160   -19.8470 
  244.1250    58.5110    72.0730    77.4180    72.4520    24.7230     2.2130   -19.5320 
  244.2500    57.1120    70.1160    76.1210    72.4230    24.7300     2.2090   -19.3110 
  244.3750    58.6670    67.9110    74.4340    73.4600    24.7300     2.2090   -19.0930 
  244.5000    61.0050    65.2050    72.0580    74.8140    24.7040     2.2170   -18.9080 
  244.6250    63.1890    62.1430    69.0730    70.5040    24.6550     2.2350   -18.5860 
  244.7500    64.9170    59.3560    66.1640    57.6900    24.5780     2.2560   -18.3250 
  244.8750    65.2900    57.3420    63.8850    50.9310    24.4720     2.2730   -18.1550 
  245.0000    64.2400    56.2430    62.4440    56.0980    24.2550     2.2760   -18.0440 
  245.1250    63.2830    55.8700    61.6860    52.1130    23.9150     2.2610   -17.8390 
  245.2500    61.2510    55.5680    60.9750    49.4030    23.5550     2.2350   -17.6470 
  245.3750    59.4280    51.0340    59.7530    50.0890    23.3270     2.2080   -17.5410 
  245.5000    60.6760    48.3310    57.7190    47.4540    23.3220     2.1890   -17.4460 
  245.6250    61.5100    46.5840    55.3010    42.3420    23.4360     2.1860   -17.4510 
  245.7500    59.1340    45.6330    53.7220    39.8280    23.5490     2.1950   -17.5360 
  245.8750    56.0170    46.5470    54.1800    37.3590    23.6280     2.2060   -17.5700 
  246.0000    56.0430    50.4000    57.9640    36.5770    23.6930     2.2100   -17.5040 
  246.1250    59.4760    59.2040    67.5720    44.6890    23.8280     2.1990   -17.5450 
  246.2500    60.2830    73.3520    83.3290    73.0150    24.0730     2.1820   -17.6200 
  246.3750    57.2150    92.5440   104.1060   121.4700    24.3940     2.1660   -17.5520 
  246.5000    54.9840   113.2210   125.0950   160.7240    24.6480     2.1570   -17.4750 
  246.6250    56.9300   125.2350   136.2230   161.3290    24.7570     2.1550   -17.4840 
  246.7500    59.1930   124.3120   134.6470   151.3380    24.7850     2.1650   -17.3650 
  246.8750    59.6490   115.6350   125.0390   131.8650    24.7500     2.1950   -17.2070 
  247.0000    61.0080   107.6850   115.3580   102.4530    24.6040     2.2550   -17.0750 
  247.1250    64.7320   106.9020   112.8130    83.4840    24.4170     2.3460   -16.7960 
  247.2500    65.9880   113.6380   118.3570    97.7860    24.2610     2.4420   -16.3650 
  247.3750    64.5190   127.4300   131.2050   147.7380    24.2190     2.5220   -15.8870 
  247.5000    63.4320   146.4130   148.9490   231.3600    24.2160     2.5710   -15.4170 
  247.6250    64.3660   165.2280   166.5380   258.8350    24.1840     2.5810   -14.7890 
  247.7500    64.5630   176.4180   177.9040   214.4730    24.1220     2.5740   -14.1910 
  247.8750    64.6350   176.8660   180.2570   182.8940    24.0070     2.5650   -13.5750 
  248.0000    66.4000   169.5400   175.2350   193.0760    23.8740     2.5650   -12.9880 
  248.1250    68.2900   160.1460   167.1490   215.6720    23.9200     2.5710   -12.5310 
  248.2500    68.3830   152.7200   160.1690   207.3290    24.0370     2.5750   -12.1150 
  248.3750    67.5450   148.4990   155.9180   176.4070    24.1350     2.5690   -11.8160 
  248.5000    67.8170   147.2080   154.6230   189.3570    24.2670     2.5550   -11.5260 
  248.6250    69.4040   142.8700   151.9710   190.5780    24.4290     2.5410   -11.2570 
  248.7500    69.8020   124.7100   138.1920   188.2700    24.4900     2.5340   -11.0540 
  248.8750    68.1770    91.5080   108.1550   185.9520    24.4800     2.5340   -10.8810 
  249.0000    64.0440    56.7760    70.7810   187.8460    24.4770     2.5270   -10.7260 
  249.1250    57.0520    33.8260    42.2760    97.4010    24.3810     2.4920   -10.5510 
  249.2500    46.2080    20.6720    25.1690    34.3460    24.2030     2.4310   -10.3930 
  249.3750    33.2260    13.9820    16.3900    10.9110    23.9130     2.3620   -10.2610 
  249.5000    23.1080    11.2260    12.5710     6.7660    23.5090     2.3160   -10.1230 
  249.6250    19.1900    10.9780    11.6440    10.2280    23.0830     2.3230   -10.1060 
  249.7500    19.1320    11.6240    11.8130    14.2150    23.0930     2.3650   -10.0590 
  249.8750    21.8630    12.1470    12.1720    10.5210    23.4970     2.4150   -10.0520 
  250.0000    27.8220    11.7170    11.8810     6.3650    23.7390     2.4460   -10.0770 
  250.1250    35.2440    10.1480    10.5810     5.4980    23.6740     2.4470   -10.0830 
  250.2500    41.5370     8.3610     8.9840     5.9770    23.6080     2.4320   -10.1490 
  250.3750    44.9990     6.9160     7.5790     6.3020    23.6350     2.4070   -10.1460 
  250.5000    44.7550     5.9490     6.5280     6.1610    23.8110     2.3770   -10.1290 
  250.6250    40.1540     5.3850     5.8350     5.6260    24.0560     2.3380   -10.0120 
  250.7500    33.5560     5.0210     5.3550     4.7440    24.1900     2.2960    -9.8970 
  250.8750    28.5760     4.7980     5.0310     4.3450    24.2250     2.2570    -9.7350 
  251.0000    27.0300     4.6980     4.8330     4.1630    24.2210     2.2310    -9.5200 
  251.1250    27.9410     4.7300     4.7520     3.9940    24.2120     2.2260    -9.3580 
  251.2500    28.3670     4.8280     4.7370     3.9650    24.2210     2.2360    -9.1900 
  251.3750    26.8490     4.9230     4.7430     4.0630    24.2220     2.2560    -9.0650 
  251.5000    24.4430     4.9640     4.7330     4.0900    24.1960     2.2750    -8.9870 
  251.6250    22.8750     4.9300     4.6810     3.9950    24.1440     2.2880    -8.9360 
  251.7500    22.6410     4.8710     4.6050     3.9240    24.1250     2.2960    -8.9030 
  251.8750    23.1950     4.8320     4.5260     3.9640    24.1570     2.3010    -8.9300 
  252.0000    23.9500     4.8360     4.4630     4.0560    24.2070     2.3060    -8.9690 
  252.1250    25.2970     4.8890     4.4400     4.1320    24.2270     2.3110    -8.9950 
  252.2500    26.5670     4.9610     4.4540     4.2720    24.2320     2.3200    -9.0330 
  252.3750    26.7000     5.0360     4.4950     4.4530    24.2360     2.3330    -9.0270 
