~V
VERS. 2.00: Ver 2.00
~W
STRT.M 55.0000:
STOP.M 247.0000:
STEP.M 0.1250:
NULL. -999.2500:
UWI. F10032:
~C
DEPT.M :
GR.API :
RML.OHMM :
RI. :
RXO.OHMM :
CALI.CM :
DEN.GM/CC :
SP.MV :
~A
# ...
  212.5000    75.5650     9.6850     8.1870     6.0250    23.9650     2.4150    -6.7360 
  212.6250    73.3030     9.9830     8.4630     5.9150    23.9460     2.4030    -6.6460 
  212.7500    72.0410    10.3710     8.8280     6.0450    23.8800     2.3880    -6.5560 
  212.8750    72.6370    10.7980     9.2470     6.1640    23.8550     2.3700    -6.4470 
  213.0000    73.3360    11.1370     9.5930     6.3820    23.9400     2.3520    -6.3630 
  213.1250    71.7290    11.1890     9.6840     7.4840    24.1140     2.3420    -6.2870 
  213.2500    70.3400    10.9200     9.5170     8.7150    24.2000     2.3440    -6.1860 
  213.3750    70.1170    10.4030     9.1440     8.9610    24.2500     2.3570    -6.1000 
  213.5000    69.9860     9.8130     8.6780     7.7290    24.2750     2.3790    -6.0030 
  213.6250    69.6370     9.3800     8.3070     7.5240    24.2590     2.4030    -5.9040 
  213.7500    68.8010     9.1910     8.1140     9.0750    24.2060     2.4210    -5.8230 
  213.8750    66.7610     9.2360     8.0790    10.7850    24.1940     2.4320    -5.7840 
  214.0000    63.1600     9.4210     8.1550    11.1190    24.2100     2.4370    -5.7170 
  214.1250    61.7170     9.5890     8.2620    10.9630    24.2210     2.4440    -5.6600 
  214.2500    63.8470     9.6260     8.2830    10.0090    24.2580     2.4530    -5.6590 
  214.3750    65.9760     9.5140     8.1850     8.7100    24.2840     2.4610    -5.6710 
  214.5000    63.9700     9.3050     8.0200     7.3760    24.2980     2.4600    -5.6920 
  214.6250    59.1750     9.1000     7.8500     6.3190    24.3180     2.4420    -5.7230 
  214.7500    57.6150     8.9800     7.7260     5.8530    24.3510     2.4160    -5.7410 
  214.8750    59.6710     8.9840     7.7120     5.8730    24.3800     2.3930    -5.7460 
  215.0000    61.4010     9.1110     7.8460     5.9760    24.4080     2.3860    -5.7780 
  215.1250    61.0770     9.3470     8.1060     5.9180    24.3720     2.4040    -5.7840 
  215.2500    61.4570     9.6250     8.4120     5.6210    24.2830     2.4360    -5.7530 
  215.3750    62.1730     9.8770     8.7110     6.0650    24.1430     2.4680    -5.7410 
  215.5000    62.9510    10.0330     8.9200     7.3380    23.9450     2.4900    -5.7410 
  215.6250    64.6670    10.0050     8.9210     8.6880    23.9000     2.4920    -5.7260 
  215.7500    65.7040     9.8140     8.7540     9.6670    24.0060     2.4770    -5.7170 
  215.8750    65.1620     9.5040     8.4780     9.4450    24.0980     2.4510    -5.7120 
  216.0000    63.9710     9.1580     8.1490     8.3200    24.1250     2.4240    -5.6740 
  216.1250    64.5330     8.8910     7.8710     8.1850    24.1160     2.4030    -5.6340 
  216.2500    65.8560     8.7790     7.7360     8.6630    24.0330     2.3940    -5.6130 
  216.3750    65.8610     8.8680     7.7700     8.6150    23.9070     2.3990    -5.5550 
  216.5000    65.0320     9.1670     7.9610     7.7900    23.8580     2.4170    -5.4720 
  216.6250    64.5460     9.6410     8.3190     7.2540    24.0030     2.4470    -5.3950 
  216.7500    65.1620    10.1320     8.7390     7.6850    24.2030     2.4750    -5.3050 
  216.8750    66.0530    10.4970     9.0880     9.0610    24.3550     2.4940    -5.2100 
  217.0000    66.9170    10.6280     9.2760    10.4420    24.4040     2.4960    -5.1430 
  217.1250    68.8940    10.4840     9.2720    10.8570    24.4080     2.4860    -5.0940 
  217.2500    69.2040    10.2360     9.1530     9.6220    24.4550     2.4750    -5.0390 
  217.3750    66.1510    10.0490     9.0200     8.2540    24.4990     2.4720    -5.0250 
  217.5000    62.7180    10.0590     9.0170     7.7580    24.4940     2.4790    -5.0450 
  217.6250    62.9080    10.3650     9.2680     8.2430    24.4070     2.4900    -5.0540 
  217.7500    64.7220    10.8760     9.7120     9.5080    24.2870     2.4980    -5.0730 
  217.8750    65.4180    11.4870    10.2850    10.4540    24.2110     2.4990    -5.0910 
  218.0000    65.6090    12.0890    10.9060    10.6840    24.2460     2.4960    -5.0940 
  218.1250    67.7410    12.5900    11.4530    10.7900    24.3130     2.4940    -5.0740 
  218.2500    72.2910    12.9870    11.9000    11.3730    24.3230     2.4970    -5.0660 
  218.3750    76.3260    13.3140    12.2860    12.7090    24.2830     2.5050    -5.0270 
  218.5000    78.4040    13.6060    12.6260    14.4840    24.2360     2.5180    -4.9410 
  218.6250    79.3620    13.8760    12.9080    15.4970    24.1910     2.5350    -4.8890 
  218.7500    78.9130    14.1300    13.1840    15.3230    24.1200     2.5490    -4.8770 
  218.8750    76.9200    14.3570    13.4750    15.0200    24.0550     2.5550    -4.8600 
  219.0000    75.4900    14.5410    13.7440    14.2650    24.0330     2.5440    -4.8320 
  219.1250    77.4330    14.6750    13.9540    12.9230    24.0950     2.5180    -4.8180 
  219.2500    80.0020    14.7860    14.1360    11.4140    24.1820     2.4890    -4.8100 
  219.3750    81.2700    14.8980    14.2980    10.3800    24.2420     2.4700    -4.8210 
  219.5000    82.0630    15.0310    14.4460    10.2940    24.2520     2.4660    -4.8560 
  219.6250    82.4600    15.1910    14.6240    12.0230    24.2170     2.4790    -4.8700 
  219.7500    82.6080    15.3420    14.8280    14.8540    24.1850     2.5000    -4.8770 
  219.8750    82.9220    15.4370    14.9950    17.0590    24.1630     2.5250    -4.8940 
  220.0000    82.6960    15.4230    15.0800    17.5310    24.1440     2.5520    -4.9600 
  220.1250    81.2790    15.2190    15.0100    17.1360    24.1350     2.5680    -5.0190 
  220.2500    79.8510    14.8270    14.7330    17.2580    24.1720     2.5650    -5.0510 
  220.3750    78.5730    15.2280    14.2450    16.6860    24.2690     2.5440    -5.1150 
  220.5000    76.9440    14.8750    13.6380    14.4850    24.3620     2.5130    -5.1730 
  220.6250    76.1710    14.2240    13.0220    11.5460    24.4270     2.4930    -5.1980 
  220.7500    77.1950    13.7050    12.4890    10.4960    24.4370     2.4900    -5.2400 
  220.8750    79.8640    13.3660    12.1260    11.2170    24.3550     2.5020    -5.2830 
  221.0000    82.4490    13.2010    11.9700    13.3320    24.2560     2.5160    -5.2770 
  221.1250    81.1350    13.1730    11.9640    14.9570    24.1900     2.5210    -5.3110 
  221.2500    76.2240    13.1810    11.9930    14.8770    24.2180     2.5190    -5.3290 
  221.3750    71.0040    13.1580    12.0110    12.8820    24.2960     2.5130    -5.2920 
  221.5000    68.7920    13.0700    11.9790    10.5950    24.3530     2.5010    -5.2830 
  221.6250    71.1340    12.9170    11.8670     9.2470    24.3310     2.4770    -5.2890 
  221.7500    73.9550    12.7610    11.7330     8.9980    24.3050     2.4450    -5.2950 
  221.8750    74.3140    12.6560    11.6280     8.9000    24.2950     2.4140    -5.3060 
  222.0000    73.2250    12.6360    11.5690     9.7120    24.2890     2.4000    -5.3200 
  222.1250    73.6360    12.7060    11.5820    10.9890    24.2060     2.4130    -5.3430 
  222.2500    75.3750    12.7930    11.6470    11.3180    24.0920     2.4430    -5.3720 
  222.3750    76.3040    12.8310    11.6940    10.3820    23.9750     2.4730    -5.4140 
  222.5000    75.7670    12.8040    11.6650     8.6850    23.8710     2.4900    -5.4420 
  222.6250    74.4190    12.7740    11.6120     8.3230    23.8770     2.4900    -5.4680 
  222.7500    72.3210    12.8310    11.6300     8.6180    23.8960     2.4860    -5.5060 
  222.8750    71.8640    13.0140    11.7380    10.0560    23.8950     2.4900    -5.5530 
  223.0000    74.8390    13.2990    11.9290    12.4670    23.8750     2.5050    -5.6190 
  223.1250    79.4550    13.6080    12.1950    13.6600    23.8980     2.5220    -5.7130 
  223.2500    81.4620    13.8900    12.4680    13.1920    23.9760     2.5290    -5.8260 
  223.3750    79.1280    14.1720    12.7280    12.0810    24.1080     2.5220    -5.9620 
  223.5000    74.6770    14.5200    13.0260    12.7150    24.2350     2.5110    -6.1190 
  223.6250    72.4390    14.9890    13.4190    18.9390    24.3360     2.5100    -6.2690 
