~V
VERS. 2.00: Ver 2.00
~W
STRT.M 57.0000:
STOP.M 296.0000:
STEP.M 0.1250:
NULL. -999.2500:
UWI. F10043:
~C
DEPT.M :
GR.API :
RML.OHMM :
RI. :
RXO.OHMM :
CALI.CM :
DEN.GM/CC :
SP.MV :
~A
# ...
  192.0000    81.6050     9.0980     8.9990     7.7980    22.9000     2.4180   -17.7490 
  192.1250    86.9950     8.8650     8.7700     7.8120    23.2160     2.4140   -17.7120 
  192.2500    90.2790     8.7120     8.5430     8.1500    23.5630     2.4120   -17.6640 
  192.3750    89.6240     8.8630     8.4650     8.7110    23.8670     2.4130   -17.6330 
  192.5000    87.8400     9.5800     8.7940     9.1990    24.1370     2.4090   -17.6150 
  192.6250    85.2470    11.3340    10.0090    10.0050    24.3720     2.3970   -17.5930 
  192.7500    79.3530    14.2800    12.2910    13.0800    24.5340     2.3810   -17.5840 
  192.8750    70.9610    18.5730    15.7990    20.0200    24.5800     2.3730   -17.5890 
  193.0000    62.6560    24.0740    20.4820    30.4030    24.5490     2.3890   -17.5900 
  193.1250    59.1360    30.0730    25.8960    36.3880    24.5020     2.4380   -17.5780 
  193.2500    59.7120    35.2090    30.8640    38.1340    24.4660     2.4990   -17.5600 
  193.3750    62.3090    38.5410    34.4550    40.0060    24.4750     2.5390   -17.5230 
  193.5000    64.9120    39.9650    36.3350    41.7130    24.5450     2.5360   -17.4990 
  193.6250    66.5320    40.0850    36.7580    41.9000    24.6480     2.4770   -17.4970 
  193.7500    66.8740    39.9730    36.6990    41.1650    24.7320     2.3950   -17.4870 
  193.8750    67.0450    40.0310    36.6920    39.6050    24.7830     2.3200   -17.4670 
  194.0000    68.4320    40.3630    37.0320    39.0640    24.8010     2.2700   -17.4440 
  194.1250    70.8270    40.9520    37.7550    41.3510    24.8010     2.2490   -17.4120 
  194.2500    71.5750    41.6190    38.5140    43.7770    24.8000     2.2430   -17.3890 
  194.3750    69.1580    42.1850    39.0060    44.0490    24.7920     2.2400   -17.3660 
  194.5000    66.6150    42.4370    39.0670    42.5260    24.7580     2.2340   -17.3340 
  194.6250    67.0750    42.0440    38.6430    40.6890    24.6980     2.2230   -17.2840 
  194.7500    67.5370    41.0380    37.9180    39.6990    24.6160     2.2170   -17.2480 
  194.8750    65.9710    39.6230    37.0210    38.3450    24.5010     2.2250   -17.2040 
  195.0000    63.5960    41.8330    36.1230    34.6570    24.3580     2.2530   -17.1690 
  195.1250    65.1530    40.7540    35.5100    31.0620    24.3040     2.2930   -17.1870 
  195.2500    69.2030    40.4040    35.3640    31.2860    24.2900     2.3210   -17.2180 
  195.3750    72.9340    40.7610    35.6930    34.2850    24.2590     2.3210   -17.2670 
  195.5000    74.8510    41.5210    36.3100    38.3570    24.2170     2.2950   -17.3160 
  195.6250    72.6710    42.1360    36.8870    39.0540    24.1630     2.2680   -17.3750 
  195.7500    68.3570    42.2040    37.1820    39.2400    24.0810     2.2650   -17.4290 
  195.8750    65.7900    41.6930    37.1410    38.5100    24.0640     2.2930   -17.4960 
  196.0000    67.3660    40.9240    36.8570    35.8750    24.2430     2.3350   -17.5900 
  196.1250    69.5950    40.4700    36.5880    33.2620    24.5370     2.3600   -17.6560 
  196.2500    69.9540    40.6020    36.6310    34.4350    24.7300     2.3530   -17.7180 
  196.3750    70.4130    41.2890    37.1450    37.4730    24.7940     2.3210   -17.7860 
  196.5000    70.1060    42.2840    38.0750    39.9080    24.8010     2.2790   -17.8590 
  196.6250    67.1780    43.1420    39.0620    40.9340    24.8070     2.2470   -17.9400 
  196.7500    64.0650    43.5470    39.6830    41.3880    24.7700     2.2260   -18.0080 
  196.8750    64.0340    43.4790    39.8310    41.0000    24.5850     2.2100   -18.0910 
  197.0000    67.7770    43.1400    39.6700    39.8100    24.1970     2.1980   -18.1820 
  197.1250    70.3460    42.8080    39.4490    38.2470    23.8590     2.1920   -18.2770 
  197.2500    69.0200    42.6720    39.3070    37.5500    23.6820     2.1980   -18.3680 
  197.3750    65.9530    42.7860    39.2680    38.8470    23.6420     2.2150   -18.4460 
  197.5000    65.6630    43.0980    39.3650    40.7590    23.7130     2.2390   -18.5240 
  197.6250    68.5120    43.4360    39.6440    39.9150    23.9270     2.2600   -18.5850 
  197.7500    68.3600    43.5330    39.9240    38.3110    24.2350     2.2750   -18.6400 
  197.8750    64.1630    43.0970    39.8440    37.9290    24.5110     2.2840   -18.6720 
  198.0000    59.2930    41.8510    39.0180    38.8530    24.6380     2.2880   -18.6650 
  198.1250    58.6570    39.6280    37.2390    38.8460    24.5800     2.2830   -18.6390 
  198.2500    63.7140    36.9950    35.0730    37.0120    24.3620     2.2720   -18.6130 
  198.3750    70.3010    34.5990    33.0790    33.2700    24.0460     2.2560   -18.6000 
  198.5000    73.4140    33.0550    31.7050    29.3150    23.7860     2.2430   -18.5910 
  198.6250    70.6210    32.8890    31.3520    27.3970    23.6820     2.2410   -18.5850 
  198.7500    66.6310    33.7360    31.8720    29.2890    23.6540     2.2480   -18.5880 
  198.8750    65.4710    35.0760    33.0300    35.3920    23.6510     2.2580   -18.6050 
  199.0000    66.8510    36.2400    34.3430    40.4670    23.6570     2.2650   -18.6340 
  199.1250    67.2490    36.5250    35.0410    39.3360    23.6890     2.2690   -18.6720 
  199.2500    66.7590    35.9900    34.8510    35.4220    23.7700     2.2740   -18.6830 
  199.3750    68.6280    35.0430    34.0370    32.4990    23.9170     2.2810   -18.6520 
  199.5000    73.5380    34.2230    33.1890    32.2290    24.1530     2.2880   -18.6100 
  199.6250    75.9950    33.9670    32.8670    32.6780    24.3660     2.2890   -18.5810 
  199.7500    74.5700    34.1580    32.9990    32.3620    24.5360     2.2840   -18.5550 
  199.8750    71.6060    34.5240    33.2980    33.0550    24.6110     2.2730   -18.5150 
  200.0000    68.4520    34.7620    33.4930    35.5110    24.5280     2.2600   -18.4750 
  200.1250    66.9120    34.6120    33.4540    37.4130    24.3220     2.2530   -18.4570 
  200.2500    67.8650    34.1530    33.2750    34.5650    24.2200     2.2530   -18.4390 
  200.3750    68.8930    33.5520    32.9980    32.0630    24.2280     2.2570   -18.4300 
  200.5000    68.0030    32.9840    32.6180    31.6090    24.2520     2.2620   -18.4330 
  200.6250    66.2890    32.6170    32.1910    31.8870    24.3020     2.2620   -18.4250 
  200.7500    67.5700    32.4850    31.8980    31.6610    24.4400     2.2580   -18.4230 
  200.8750    70.3490    32.5710    31.8720    30.9340    24.6120     2.2520   -18.4310 
  201.0000    70.6720    32.8430    32.1190    30.6930    24.7060     2.2490   -18.4510 
  201.1250    69.5190    33.3910    32.6260    31.4060    24.7220     2.2490   -18.4550 
  201.2500    69.1420    34.3270    33.4180    32.6800    24.7200     2.2500   -18.4750 
  201.3750    70.3330    35.7740    34.6540    34.1300    24.7090     2.2530   -18.5040 
  201.5000    70.5730    37.7570    36.4660    36.3000    24.6850     2.2570   -18.5300 
  201.6250    66.9370    40.1820    38.8150    38.2890    24.6310     2.2660   -18.5680 
  201.7500    63.3200    42.6040    41.1780    40.9990    24.5100     2.2780   -18.6000 
  201.8750    61.5640    44.5560    43.0400    42.6300    24.3540     2.2890   -18.6320 
  202.0000    62.4690    45.6440    44.0100    41.7300    24.2670     2.2920   -18.6580 
  202.1250    62.5680    45.5400    43.8050    40.8440    24.2980     2.2820   -18.7030 
  202.2500    61.7120    44.6180    42.7660    40.1970    24.2800     2.2610   -18.7500 
  202.3750    61.5760    43.3140    41.2410    39.7180    24.1250     2.2350   -18.8020 
  202.5000    61.3280    42.1450    39.7240    38.5990    23.8470     2.2120   -18.8420 
  202.6250    61.4400    41.7660    38.9220    36.8340    23.7880     2.1980   -18.9040 
  202.7500    63.7520    42.4870    39.2050    35.8800    23.8770     2.1940   -18.9820 
  202.8750    67.0430    44.5840    40.7940    36.6820    24.0680     2.2000   -19.0640 
  203.0000    67.9820    48.2100    43.7540    40.1890    24.1640     2.2140   -19.1470 
  203.1250    65.7080    53.5170    48.2290    46.6820    24.1990     2.2330   -19.2280 
