~V
VERS. 2.00: Ver 2.00
~W
STRT.M 50.0000:
STOP.M 280.0000:
STEP.M 0.1250:
NULL. -999.2500:
UWI. F10023:
~C
DEPT.M :
SP.MV :
DEN.GM/CC :
GR.API :
CALI.CM :
RXO.OHMM :
RI. :
RML.OHMM :
~A
# ...
  162.5000   -19.0380     2.0680    78.7470    23.0340    17.3060    21.3500    22.0900 
  162.6250   -19.1680     2.0710    74.6690    23.0280    18.2720    21.9160    22.6730 
  162.7500   -19.3370     2.0770    75.4650    23.0280    17.9520    21.0010    21.7310 
  162.8750   -19.5470     2.0900    79.1840    23.0310    16.0260    19.0350    19.7060 
  163.0000   -19.8010     2.1120    79.7610    23.0930    13.1890    16.6660    17.2660 
  163.1250   -20.0870     2.1390    79.7010    23.3240    11.0380    14.5600    15.0970 
  163.2500   -20.3890     2.1580    82.6250    23.6580     9.9790    13.0300    13.5210 
  163.3750   -20.6500     2.1610    85.4300    23.8170     9.6270    12.1510    12.6150 
  163.5000   -20.8380     2.1590    85.5710    23.7490     9.7270    11.8870    12.3440 
  163.6250   -20.9150     2.1630    85.0780    23.5940    10.2030    12.2360    12.7040 
  163.7500   -20.8740     2.1630    85.4810    23.5270    10.9210    12.9840    13.4740 
  163.8750   -20.7230     2.1490    84.8980    23.4920    11.6510    13.9840    14.5040 
  164.0000   -20.4590     2.1260    83.1050    23.4280    12.3150    15.0990    15.6520 
  164.1250   -20.1510     2.1000    85.7820    23.3120    13.3040    16.2600    16.8480 
  164.2500   -19.8800     2.0720    91.3220    23.2190    14.4250    17.4440    18.0680 
  164.3750   -19.6310     2.0490    93.2050    23.1650    15.1480    18.6330    19.2920 
  164.5000   -19.3680     2.0400    87.8240    23.1340    15.4160    19.7660    20.4590 
  164.6250   -19.0960     2.0450    80.5240    23.1260    15.5820    20.6990    21.4200 
  164.7500   -18.8580     2.0550    76.8930    23.1680    15.9390    21.3530    22.0930 
  164.8750   -18.7210     2.0650    75.1470    23.2540    16.4780    21.7040    22.4550 
  165.0000   -18.7210     2.0690    74.4250    23.3200    16.9680    21.7960    22.5500 
  165.1250   -18.7670     2.0590    75.1750    23.2890    17.0440    21.6790    22.4300 
  165.2500   -18.8150     2.0500    76.0910    23.1710    16.3120    21.4720    22.2160 
  165.3750   -18.8730     2.0520    77.5750    23.0740    15.2510    21.2580    21.9960 
  165.5000   -18.9100     2.0670    79.8900    23.0650    14.4860    21.1110    21.8440 
  165.6250   -18.9310     2.0830    81.6380    23.0390    14.3170    21.0690    21.8010 
  165.7500   -18.9800     2.0930    82.3010    23.0240    14.3690    21.0880    21.8210 
  165.8750   -19.0240     2.1000    83.8580    23.0170    14.3570    21.1220    21.8560 
  166.0000   -19.0500     2.0980    85.4850    23.0230    14.2150    21.1380    21.8720 
  166.1250   -19.0560     2.0880    83.1330    23.0730    14.1490    21.1210    21.8540 
  166.2500   -18.9980     2.0760    80.9660    23.1920    14.2870    21.0960    21.8290 
  166.3750   -18.8810     2.0690    82.0160    23.3670    14.6920    21.0930    21.8260 
  166.5000   -18.7580     2.0720    83.2870    23.5740    15.2010    21.1420    21.8760 
  166.6250   -18.6690     2.0850    81.9450    23.8180    15.5860    21.2660    22.0040 
  166.7500   -18.6020     2.0990    80.0640    23.9370    15.8610    21.4340    22.1770 
  166.8750   -18.5390     2.1010    78.6210    23.9900    16.0080    21.6010    22.3490 
  167.0000   -18.4220     2.0850    77.2260    24.0100    15.9350    21.7120    22.4630 
  167.1250   -18.2730     2.0690    76.0210    24.0250    15.6200    21.7020    22.4530 
  167.2500   -18.0930     2.0720    75.5500    24.0380    15.3360    21.5990    22.3470 
  167.3750   -17.8990     2.0930    73.8650    24.0290    15.3250    21.4990    22.2440 
  167.5000   -17.7210     2.1140    71.3710    23.9810    15.6360    21.5670    22.3140 
  167.6250   -17.5560     2.1210    71.1760    23.9530    16.3060    22.0520    22.8130 
  167.7500   -17.3450     2.1120    73.3350    23.9540    17.8720    23.0060    23.7960 
  167.8750   -17.0620     2.0950    74.8360    23.9700    21.0390    24.4090    25.2420 
  168.0000   -16.7510     2.0790    72.7650    23.9810    25.5030    26.1100    26.9940 
  168.1250   -16.4470     2.0770    69.7960    23.9880    28.7940    27.8410    28.7760 
  168.2500   -16.2140     2.0810    68.7040    24.0410    29.6430    29.3820    30.3630 
  168.3750   -16.0630     2.0810    68.6680    24.0980    29.1130    30.7170    31.7380 
  168.5000   -15.9640     2.0830    68.2120    24.0950    29.1110    31.9570    33.0160 
  168.6250   -15.8890     2.0950    67.9410    24.0660    31.0870    33.1900    34.2860 
  168.7500   -15.8300     2.1080    68.1400    24.0840    33.7700    34.2770    35.4050 
  168.8750   -15.8200     2.1120    67.6330    24.2090    35.4180    34.8660    36.0120 
  169.0000   -15.9150     2.1120    65.9490    24.3240    35.4520    34.5650    35.7020 
  169.1250   -16.1070     2.1120    65.5320    24.3240    36.1390    33.0420    34.1340 
  169.2500   -16.3390     2.1090    68.2530    24.0820    38.5110    30.7800    31.8030 
  169.3750   -16.5660     2.1020    72.0390    23.7800    38.4470    28.3000    29.2490 
  169.5000   -16.7690     2.0950    73.3230    23.8320    31.8080    26.0720    26.9540 
  169.6250   -16.9090     2.0910    71.3220    24.1800    22.1310    24.4830    25.3180 
  169.7500   -17.0310     2.0830    69.2390    24.2350    17.3620    23.5450    24.3520 
  169.8750   -17.1490     2.0720    69.3550    24.0900    16.7060    23.2500    24.0470 
  170.0000   -17.2450     2.0650    71.5970    23.9700    17.7720    23.5260    24.3310 
  170.1250   -17.3440     2.0700    75.3270    23.9430    18.8530    24.2650    25.0930 
  170.2500   -17.4400     2.0790    78.3090    23.9410    19.6880    25.1240    25.9780 
  170.3750   -17.5270     2.0830    78.2810    23.9450    20.3080    25.7890    26.6630 
  170.5000   -17.5920     2.0790    75.5680    23.9600    20.1920    25.9730    26.8530 
  170.6250   -17.6690     2.0730    73.3830    23.9690    18.5930    25.4890    26.3540 
  170.7500   -17.7850     2.0720    73.7910    23.8930    16.5700    24.6300    25.4690 
  170.8750   -17.9230     2.0780    75.2080    23.7150    15.1260    23.6930    24.5040 
  171.0000   -18.0620     2.0890    75.0750    23.5520    14.7260    22.9420    23.7300 
  171.1250   -18.1110     2.0990    73.8150    23.4630    15.1410    22.5840    23.3610 
  171.2500   -18.0560     2.1040    72.9230    23.4370    15.7370    22.5200    23.2950 
  171.3750   -17.9420     2.1000    73.3840    23.4790    16.1640    22.5980    23.3760 
  171.5000   -17.7940     2.0840    74.3550    23.4600    16.3590    22.6890    23.4690 
  171.6250   -17.6640     2.0630    74.6390    23.0840    16.4080    22.7960    23.5800 
  171.7500   -17.5340     2.0530    75.4800    22.3960    16.3260    23.0480    23.8390 
  171.8750   -17.4000     2.0580    76.8630    21.9120    17.0320    23.5700    24.3770 
  172.0000   -17.2570     2.0700    77.3340    22.0800    19.6350    24.3860    25.2180 
  172.1250   -17.1180     2.0740    74.9850    22.9730    23.5110    25.3290    26.1890 
  172.2500   -17.0190     2.0690    72.6990    23.8960    26.3510    26.0410    26.9220 
  172.3750   -16.9790     2.0640    72.5070    24.4420    26.6480    26.2480    27.1350 
  172.5000   -17.0370     2.0670    72.9210    24.5970    24.0930    25.8730    26.7490 
  172.6250   -17.1560     2.0860    71.8700    24.5300    20.2330    25.1000    25.9530 
  172.7500   -17.3030     2.1070    71.3010    24.3860    17.7790    24.4050    25.2380 
  172.8750   -17.4490     2.1170    72.4240    24.2230    17.1730    24.0540    24.8760 
  173.0000   -17.5620     2.1100    74.3010    24.1000    17.6680    24.0480    24.8690 
  173.1250   -17.6920     2.1050    75.1910    24.0130    18.9660    24.1070    24.9300 
  173.2500   -17.8580     2.1260    76.3410    24.0490    20.7990    23.8630    24.6790 
  173.3750   -18.0380     2.1710    76.9430    24.2170    22.4750    23.1720    23.9670 
  173.5000   -18.2080     2.2130    76.1760    24.3270    22.6350    22.1460    22.9100 
  173.6250   -18.3090     2.2120    76.8320    24.2110    20.6480    21.1460    21.8810 
