~V
VERS. 2.00: Ver 2.00
~W
STRT.M 60.0000:
STOP.M 271.0000:
STEP.M 0.1250:
NULL. -999.2500:
UWI. F10035:
~C
DEPT.M :
GR.API :
RML.OHMM :
RI. :
RXO.OHMM :
CALI.CM :
DEN.GM/CC :
SP.MV :
~A
# ...
  251.2500    64.4930     8.0880     6.9300     8.1720    24.6590     2.3650    -4.3940 
  251.3750    63.1490     8.6150     7.3450     9.4880    24.6360     2.3980    -4.0320 
  251.5000    58.0550     9.0300     7.7160    11.1570    24.6320     2.4290    -3.6970 
  251.6250    51.5020     9.0270     7.7890    11.4630    24.6480     2.4440    -3.4230 
  251.7500    48.9270     8.5970     7.5180     9.9040    24.6790     2.4400    -3.1530 
  251.8750    49.9830     7.8900     6.9930     7.3880    24.7070     2.4230    -2.8600 
  252.0000    50.7970     7.1320     6.3820     5.8870    24.7450     2.4010    -2.5610 
  252.1250    49.2130     6.5360     5.8530     5.4670    24.7710     2.3870    -2.2810 
  252.2500    47.6660     6.1290     5.4520     5.4720    24.8000     2.3870    -2.0280 
  252.3750    47.3660     5.8580     5.1610     5.4230    24.8200     2.4000    -1.8070 
  252.5000    46.9600     5.6390     4.9350     5.2780    24.7710     2.4190    -1.5800 
  252.6250    43.8090     5.4270     4.7440     4.9300    24.7640     2.4340    -1.3970 
  252.7500    39.2570     5.2350     4.5890     4.5260    24.7720     2.4380    -1.2890 
  252.8750    35.8030     5.0960     4.4890     4.3470    24.7790     2.4320    -1.2220 
  253.0000    36.3710     5.0410     4.4660     4.5360    24.7700     2.4150    -1.3160 
  253.1250    42.3740     5.1010     4.5490     5.1680    24.8340     2.3880    -1.4870 
  253.2500    49.3320     5.2690     4.7300     5.4810    25.0430     2.3560    -1.7620 
  253.3750    53.0380     5.5460     5.0060     5.7050    25.2850     2.3220    -2.1540 
  253.5000    54.6660     5.9120     5.3570     6.3230    25.0790     2.2940    -2.6500 
  253.6250    60.0900     6.3090     5.7320     7.5390    24.8820     2.2840    -3.1960 
  253.7500    66.3080     6.6330     6.0470     7.9370    24.7500     2.2890    -3.7000 
  253.8750    67.4650     6.8000     6.2340     7.4560    24.7140     2.3080    -4.1190 
  254.0000    64.1010     6.7770     6.2570     6.6550    24.7030     2.3340    -4.4210 
  254.1250    61.0370     6.6010     6.1260     6.2540    24.7070     2.3590    -4.6900 
  254.2500    58.9060     6.4160     5.9520     6.0180    24.7050     2.3780    -4.8870 
  254.3750    55.9180     6.3140     5.8190     5.9600    24.6930     2.3880    -5.0800 
  254.5000    53.2120     6.3190     5.7680     6.3060    24.6860     2.3870    -5.2520 
  254.6250    52.1750     6.3900     5.7930     6.7670    24.6910     2.3690    -5.4620 
  254.7500    53.8250     6.4610     5.8410     6.7880    24.6970     2.3350    -5.7010 
  254.8750    57.5630     6.5260     5.8960     6.4640    24.7030     2.2900    -5.9620 
  255.0000    59.4660     6.6010     5.9630     5.7020    24.6980     2.2470    -6.2390 
  255.1250    56.9130     6.6930     6.0510     5.3080    24.7230     2.2290    -6.4570 
  255.2500    54.5760     6.7710     6.1410     5.2510    24.7000     2.2460    -6.6850 
  255.3750    55.2680     6.8040     6.2090     5.4080    24.6340     2.2930    -6.8450 
  255.5000    56.5020     6.7860     6.2410     5.7420    24.5770     2.3520    -6.9030 
  255.6250    54.5310     6.7790     6.2680     5.8420    24.5920     2.3900    -6.8910 
  255.7500    53.1080     6.8740     6.3510     6.0320    24.6670     2.3980    -6.8610 
  255.8750    55.4990     7.1130     6.5260     7.1230    24.7190     2.3840    -6.8810 
  256.0000    60.3450     7.4520     6.7730     8.4400    24.7230     2.3660    -6.8190 
  256.1250    62.6890     7.7190     6.9780     9.5730    24.7210     2.3630    -6.6730 
  256.2500    60.8690     7.7490     7.0140     9.5260    24.6860     2.3700    -6.4250 
  256.3750    58.2040     7.5010     6.8430     9.6510    24.6480     2.3760    -6.1760 
  256.5000    57.0250     7.0930     6.5430     9.8690    24.6670     2.3720    -6.0240 
  256.6250    56.8300     6.7780     6.2980     8.0440    24.6940     2.3600    -5.9940 
  256.7500    58.0870     6.7470     6.2600     6.7860    24.7110     2.3490    -6.0390 
  256.8750    61.9650     7.1100     6.5310     6.7960    24.6900     2.3470    -6.1510 
  257.0000    67.1110     7.9420     7.1910     7.8930    24.6620     2.3580    -6.4360 
  257.1250    71.4350     9.3570     8.3690    10.6400    24.6820     2.3840    -6.9090 
  257.2500    74.3510    11.1630     9.9320    15.5050    24.7120     2.4110    -7.5100 
  257.3750    76.4470    13.0370    11.6290    22.0160    24.7230     2.4280    -8.1430 
  257.5000    77.7970    14.4300    12.9870    31.1660    24.6720     2.4260    -8.6860 
  257.6250    77.9800    14.5490    13.2840    26.0570    24.6240     2.4030    -9.0560 
  257.7500    75.8870    13.5500    12.5910    16.9810    24.6330     2.3720    -9.2300 
  257.8750    71.6100    12.0430    11.3860    11.8110    24.6910     2.3470    -9.2510 
  258.0000    67.9050    10.7080    10.2360     9.5630    24.5890     2.3380    -9.1220 
  258.1250    66.9510    10.0530     9.5710     9.2840    24.4110     2.3510    -8.9050 
  258.2500    66.3590    10.0440     9.4200    12.1360    24.4650     2.3780    -8.6530 
  258.3750    65.2760    10.5450     9.7330    17.5220    24.7050     2.4100    -8.3460 
  258.5000    64.5240    11.3120    10.3670    21.2930    24.7720     2.4350    -8.0460 
  258.6250    64.7530    12.0770    11.1400    19.7380    24.7210     2.4420    -7.8150 
  258.7500    64.8770    12.7590    11.9210    16.5390    24.7150     2.4330    -7.7400 
  258.8750    63.9730    13.4690    12.7440    14.6860    24.7350     2.4140    -7.7330 
  259.0000    63.6370    14.3730    13.7160    15.6450    24.7240     2.3970    -7.7400 
  259.1250    65.6470    15.5670    14.9310    18.0910    24.6760     2.3950    -7.6580 
  259.2500    67.9710    16.6910    16.1100    19.3220    24.6110     2.4090    -7.5130 
  259.3750    68.1130    17.0880    16.6620    19.8130    24.5760     2.4250    -7.3640 
  259.5000    66.9150    16.1670    15.9820    20.4270    24.5610     2.4290    -7.1900 
  259.6250    66.9940    13.8380    13.8950    19.3310    24.5810     2.4100    -6.9250 
  259.7500    67.2140    11.0970    11.3370    14.7010    24.6560     2.3820    -6.5410 
  259.8750    65.8690     8.6280     8.9640     8.9430    24.7660     2.3630    -6.1120 
  260.0000    64.0730     6.7840     7.1170     6.2410    24.8650     2.3620    -5.7190 
  260.1250    64.0730     5.7210     5.9470     5.6380    24.9300     2.3710    -5.4500 
  260.2500    64.0730     5.1900     5.2660     5.4890    24.9630     2.3720    -5.2370 
  260.3750    64.0730     5.0180     4.9580     5.2320    25.0030     2.3560    -5.0700 
  260.5000    64.0730     5.0320     4.9030     5.1670    25.1300     2.3310    -4.9470 
  260.6250    64.0730     5.1050     4.9950     5.1380    25.2560     2.3190    -4.9100 
  260.7500    64.0730     5.1790     5.1250     5.1730    25.1930     2.3320    -4.9260 
  260.8750    64.0730     5.2510     5.2560     5.2460    24.9660     2.3690    -4.9960 
  261.0000    64.0730     5.3110     5.3570     5.4150    24.8190     2.4190    -5.0490 
  261.1250    64.0730     5.3150     5.3910     5.7150    24.8100     2.4620    -5.0430 
  261.2500    64.0730     5.2520     5.3580     5.8690    24.7930     2.4830    -4.9500 
  261.3750    64.0730     5.1340     5.2680     5.8360    24.7720     2.4750    -4.8040 
  261.5000    64.0730     4.9930     5.1420     5.7040    24.8030     2.4420    -4.6300 
  261.6250    64.0730     4.8680     5.0070     5.5210    24.9060     2.4010    -4.4400 
  261.7500    64.0730     4.7750     4.8830     5.6160    24.9690     2.3730    -4.2170 
  261.8750    64.0730     4.7200     4.7820     5.3890    24.8990     2.3680    -3.9590 
  262.0000    64.0730     4.7050     4.7110     5.0260    24.8320     2.3840    -3.6970 
  262.1250    64.0730     4.7300     4.6730     4.7870    24.8410     2.4060    -3.4430 
  262.2500    64.0730     4.7710     4.6500     4.7570    24.8890     2.4220    -3.2330 
  262.3750    64.0730     4.8160     4.6320     4.8550    24.9230     2.4290    -3.0510 
