~V
VERS. 2.00: Ver 2.00
~W
STRT.M 50.0000:
STOP.M 266.0000:
STEP.M 0.1250:
NULL. -999.2500:
UWI. F10057:
~C
DEPT.M :
GR.API :
RML.OHMM :
RI. :
RXO.OHMM :
CALI.CM :
DEN.GM/CC :
SP.MV :
~A
# ...
  106.2500    67.6140    10.3140     8.0090    12.1110    22.4140     2.1800   -11.0980 
  106.3750    67.6970    10.5000     8.1320    11.5830    22.3310     2.1910   -10.8170 
  106.5000    65.8770    10.9840     8.4740    10.8720    22.3370     2.2050   -10.4820 
  106.6250    64.0920    11.7360     9.0510    11.2140    22.5990     2.2380   -10.0400 
  106.7500    66.1500    12.4350     9.6760    13.7040    23.0680     2.2880    -9.5500 
  106.8750    69.7710    12.7070    10.0970    18.1320    23.5340     2.3370    -9.0770 
  107.0000    71.1960    12.2830    10.0600    19.9740    23.8070     2.3610    -8.6050 
  107.1250    71.8310    11.1580     9.4420    15.3480    23.9310     2.3420    -8.0480 
  107.2500    75.0560     9.8370     8.5490    11.0240    24.1010     2.3020    -7.4400 
  107.3750    80.4070     8.6740     7.6460     8.5910    24.2960     2.2650    -6.8550 
  107.5000    85.0460     7.8500     6.9090     7.4920    24.4110     2.2500    -6.3300 
  107.6250    86.7500     7.3900     6.4340     7.3430    24.4190     2.2580    -5.8610 
  107.7500    88.1870     7.0850     6.1300     7.2960    24.4090     2.2730    -5.4190 
  107.8750    91.9380     6.8070     5.9150     6.9140    24.4110     2.2900    -4.9910 
  108.0000    98.1950     6.5100     5.7280     6.3740    24.4140     2.3090    -4.6360 
  108.1250   102.0480     6.2330     5.5640     6.0140    24.4180     2.3340    -4.4340 
  108.2500   100.2620     6.0470     5.4430     5.8390    24.4230     2.3620    -4.3530 
  108.3750    95.3930     6.0010     5.4030     5.7290    24.4250     2.3870    -4.3600 
  108.5000    91.5210     6.1030     5.4650     5.6910    24.4240     2.4020    -4.4250 
  108.6250    89.2490     6.3480     5.6460     5.8930    24.4290     2.3970    -4.5840 
  108.7500    86.8680     6.6580     5.8810     6.2770    24.4390     2.3800    -4.8470 
  108.8750    84.3510     6.9540     6.1110     6.6280    24.4180     2.3560    -5.2010 
  109.0000    81.3210     7.1620     6.2700     6.8840    24.3080     2.3340    -5.5800 
  109.1250    76.4960     7.2370     6.3200     7.2480    24.1520     2.3200    -5.9430 
  109.2500    71.4780     7.2490     6.3150     7.6140    24.1460     2.3120    -6.2990 
  109.3750    69.6920     7.2850     6.3250     7.5240    24.3120     2.3090    -6.6690 
  109.5000    70.2880     7.4320     6.4100     7.0050    24.4410     2.3080    -7.0660 
  109.6250    71.5140     7.7940     6.6470     7.0190    24.3480     2.3040    -7.4600 
  109.7500    72.8720     8.3650     7.0430     7.9790    24.1720     2.2930    -7.8180 
  109.8750    74.4680     9.1230     7.5890     9.1660    24.0290     2.2780    -8.1660 
  110.0000    77.1570    10.0020     8.2360     9.6550    23.9430     2.2640    -8.4960 
  110.1250    78.5730    10.8570     8.8930     9.6950    23.9280     2.2620    -8.7840 
  110.2500    77.6330    11.5090     9.4510    10.0320    23.9540     2.2720    -9.0250 
  110.3750    75.1060    11.8330     9.8230    10.4210    23.8790     2.2870    -9.2120 
  110.5000    72.3180    11.8000     9.9600    10.5550    23.5580     2.2940    -9.3290 
  110.6250    70.0390    11.5550     9.8820    10.7010    23.0750     2.2820    -9.3550 
  110.7500    65.8510    11.5170     9.8360    10.7770    22.7300     2.2510    -9.2570 
  110.8750    60.4790    12.0420    10.0660    10.4850    22.6140     2.2160    -8.9930 
  111.0000    57.4010    13.2450    10.7130     9.9730    22.5840     2.2000    -8.6470 
  111.1250    58.3730    14.7380    11.6360    10.3320    22.5010     2.2360    -8.2770 
  111.2500    61.5180    15.4920    12.1920    12.9660    22.4610     2.3150    -7.8400 
  111.3750    65.8210    14.6500    11.7460    18.5990    22.5190     2.4090    -7.3290 
  111.5000    72.9640    12.2280    10.1910    20.1820    22.6290     2.4810    -6.8250 
  111.6250    81.3310     9.3590     8.1660    12.4350    22.7070     2.4990    -6.4350 
  111.7500    85.5210     7.2460     6.5130     7.3340    22.7560     2.4720    -6.2000 
  111.8750    86.5680     6.2120     5.5210     5.5150    22.7860     2.4210    -6.1310 
  112.0000    85.9670     6.2150     5.2410     5.5380    22.7910     2.3650    -6.1740 
  112.1250    82.0430     7.2150     5.7310     6.7380    22.7610     2.3190    -6.3150 
  112.2500    75.5420     8.7840     6.7510     8.4980    22.6820     2.2850    -6.5870 
  112.3750    68.5310    10.5090     8.0730    10.4110    22.5700     2.2650    -6.9600 
  112.5000    63.3600    11.9090     9.3700    11.9640    22.4870     2.2570    -7.3180 
  112.6250    61.9280    12.5560    10.2490    12.6060    22.5120     2.2570    -7.5870 
  112.7500    63.2340    12.6370    10.6710    12.2580    22.6260     2.2540    -7.7920 
  112.8750    66.2710    12.4170    10.7430    11.5120    22.7680     2.2460    -7.9280 
  113.0000    68.8870    12.1420    10.6340    11.0270    22.8970     2.2350    -7.9790 
  113.1250    69.2290    11.9640    10.4820    10.9030    23.0150     2.2220    -7.8960 
  113.2500    67.7970    11.8550    10.3300    11.0390    23.1510     2.2070    -7.7090 
  113.3750    65.1590    11.7150    10.1330    11.4340    23.3370     2.1890    -7.4710 
  113.5000    62.9170    11.4250     9.8090    11.9050    23.6590     2.1790    -7.2120 
  113.6250    64.5240    10.8750     9.2960    11.9630    24.1640     2.1910    -6.8850 
  113.7500    70.5590    10.1170     8.6330    11.2370    24.5980     2.2280    -6.4990 
  113.8750    78.1960     9.2310     7.8760     9.9210    24.7680     2.2750    -6.1140 
  114.0000    83.8110     8.3350     7.1130     8.5740    24.7290     2.3160    -5.7980 
  114.1250    85.9690     7.6000     6.4780     7.6660    24.6790     2.3350    -5.6110 
  114.2500    85.5290     7.1320     6.0440     7.1950    24.6460     2.3380    -5.4880 
  114.3750    85.1160     7.0220     5.8800     6.8720    24.5760     2.3350    -5.3970 
  114.5000    86.7690     7.3240     6.0280     6.5520    24.4770     2.3310    -5.3610 
  114.6250    87.1060     8.0410     6.5340     6.6880    24.3500     2.3240    -5.4090 
  114.7500    82.2570     8.8800     7.2120     7.6840    24.1930     2.3120    -5.5120 
  114.8750    74.2300     9.5120     7.8370     9.5420    24.0290     2.2960    -5.6060 
  115.0000    69.1800     9.6480     8.1490    11.3360    23.9300     2.2810    -5.6140 
  115.1250    71.0080     9.1570     7.9500    11.1420    23.9970     2.2720    -5.5030 
  115.2500    74.0550     8.4140     7.4550     9.2860    24.1900     2.2660    -5.3460 
  115.3750    75.9190     7.7450     6.9040     7.3820    24.3880     2.2580    -5.1810 
  115.5000    76.0270     7.3350     6.4730     6.5770    24.4520     2.2500    -5.0420 
  115.6250    74.4430     7.2170     6.2570     7.0440    24.3240     2.2450    -4.9220 
  115.7500    74.2960     7.2150     6.1780     7.7120    24.1550     2.2510    -4.7810 
  115.8750    78.0920     7.2060     6.1600     7.7840    24.0360     2.2720    -4.6210 
  116.0000    85.1850     7.1300     6.1360     7.2570    23.9740     2.3000    -4.5200 
  116.1250    89.1120     7.0250     6.0930     6.6190    23.9330     2.3210    -4.5310 
  116.2500    89.4640     6.9900     6.0710     6.3440    23.8950     2.3260    -4.5640 
  116.3750    88.3240     7.0640     6.1110     6.5780    23.8810     2.3180    -4.5640 
  116.5000    86.3670     7.2060     6.2140     7.0600    23.9260     2.3080    -4.5220 
  116.6250    84.0520     7.3150     6.3410     7.2400    24.0370     2.3040    -4.4940 
  116.7500    81.4430     7.3230     6.4370     7.2580    24.1530     2.3050    -4.4830 
  116.8750    79.2750     7.2250     6.4740     7.5030    24.2460     2.3060    -4.4730 
  117.0000    78.9950     7.0590     6.4410     7.5900    24.3320     2.3070    -4.4450 
  117.1250    80.8890     6.8870     6.3550     6.9650    24.3480     2.3080    -4.3950 
  117.2500    82.1840     6.7540     6.2510     6.4550    24.2480     2.3140    -4.3880 
  117.3750    82.5290     6.6630     6.1490     6.4970    24.0730     2.3230    -4.4220 
