~V
VERS. 2.00: Ver 2.00
~W
STRT.M 57.0000:
STOP.M 307.0000:
STEP.M 0.1250:
NULL. -999.2500:
UWI. F10042:
~C
DEPT.M :
GR.API :
RML.OHMM :
RI. :
RXO.OHMM :
CALI.CM :
DEN.GM/CC :
SP.MV :
~A
# ...
  180.7500    65.6670    22.4260    19.9920    13.1660    24.8070     2.1310    -4.5860 
  180.8750    65.5150    22.9460    20.3420    12.7210    24.7600     2.1230    -4.4220 
  181.0000    64.7260    22.9060    20.2420    12.1770    24.7810     2.1110    -4.3200 
  181.1250    65.2840    22.3700    19.8050    12.5250    24.8580     2.1090    -4.2650 
  181.2500    66.3110    21.7210    19.3590    13.1190    24.9360     2.1210    -4.1800 
  181.3750    66.4930    21.2320    19.1070    12.9220    24.9860     2.1440    -4.0860 
  181.5000    67.3330    21.0650    19.1310    12.6950    25.0370     2.1690    -3.9740 
  181.6250    70.3470    21.2650    19.4040    14.0370    25.2350     2.1780    -3.8890 
  181.7500    70.7180    21.6120    19.7240    15.5410    25.6140     2.1690    -3.8880 
  181.8750    66.7410    21.8770    19.9090    15.2700    25.9210     2.1510    -3.9260 
  182.0000    62.2950    21.8340    19.8100    13.1500    25.7640     2.1340    -3.9610 
  182.1250    61.8720    21.2610    19.3270    11.7700    25.2800     2.1290    -3.9580 
  182.2500    64.2040    20.2830    18.6160    12.4900    24.9540     2.1330    -3.9510 
  182.3750    67.1750    19.0970    17.8460    13.8930    24.8700     2.1400    -3.9990 
  182.5000    70.7550    17.9580    17.1820    13.4940    24.9270     2.1430    -4.1670 
  182.6250    73.2380    17.1520    16.7880    11.9070    24.9740     2.1410    -4.3730 
  182.7500    72.0040    16.7380    16.6650    11.0250    24.9520     2.1350    -4.4530 
  182.8750    68.4820    16.6860    16.7770    10.9310    24.8920     2.1270    -4.4130 
  183.0000    66.1010    16.8830    17.0240    11.3280    24.8300     2.1180    -4.3730 
  183.1250    66.4340    17.1510    17.2230    11.7370    24.8390     2.1130    -4.4550 
  183.2500    68.8990    17.2910    17.2290    11.9700    24.9930     2.1130    -4.5960 
  183.3750    72.6140    17.2140    17.0310    12.0010    25.2130     2.1200    -4.7030 
  183.5000    76.2080    16.9550    16.7400    11.8680    25.3380     2.1310    -4.7130 
  183.6250    77.2950    16.7230    16.5760    11.5590    25.2900     2.1420    -4.6990 
  183.7500    75.1600    16.7840    16.7180    11.4120    25.1780     2.1500    -4.7560 
  183.8750    71.6180    17.3130    17.2640    11.8840    25.1160     2.1550    -4.8420 
  184.0000    68.4180    18.3250    18.1870    12.9250    25.1160     2.1610    -4.8190 
  184.1250    66.8980    19.6630    19.3110    14.7180    25.1290     2.1690    -4.5510 
  184.2500    66.7970    20.9650    20.3310    16.4940    25.1270     2.1820    -4.1770 
  184.3750    67.4740    22.0250    21.0920    17.6320    25.1290     2.1930    -3.8430 
  184.5000    67.9280    22.8090    21.6060    17.5170    25.1230     2.1990    -3.5550 
  184.6250    66.7980    23.4540    22.0430    16.7160    25.0330     2.1940    -3.2060 
  184.7500    65.3410    24.1810    22.5780    16.6510    24.9480     2.1830    -2.7630 
  184.8750    64.4280    25.0460    23.2000    18.8570    24.9230     2.1690    -2.2810 
  185.0000    62.9610    25.9450    23.7540    20.6520    25.0030     2.1570    -1.9120 
  185.1250    61.4080    26.6040    23.9940    20.3870    25.0910     2.1510    -1.7750 
  185.2500    60.5420    26.8430    23.8490    19.2150    25.1060     2.1490    -1.7450 
  185.3750    59.1630    26.5870    23.3280    17.5190    25.1120     2.1470    -1.7650 
  185.5000    56.9520    25.8840    22.5410    16.2900    25.1720     2.1440    -1.8250 
  185.6250    55.7330    24.8340    21.6150    16.4600    25.3310     2.1380    -1.9170 
  185.7500    57.3760    23.6380    20.6490    16.5550    25.5000     2.1300    -2.0750 
  185.8750    61.2810    22.4040    19.6910    15.0900    25.5550     2.1190    -2.3180 
  186.0000    64.7500    21.2480    18.8300    13.1810    25.5150     2.1080    -2.6240 
  186.1250    65.3930    20.3620    18.2150    12.3400    25.3930     2.1020    -2.9330 
  186.2500    65.8620    19.8250    17.8550    11.7450    25.3380     2.1030    -3.1330 
  186.3750    68.3300    19.6310    17.7050    11.4860    25.3470     2.1090    -3.2070 
  186.5000    71.1620    19.6600    17.6530    11.8010    25.4000     2.1180    -3.2620 
  186.6250    70.1560    19.6930    17.5410    12.7010    25.4310     2.1240    -3.3840 
  186.7500    66.7410    19.5580    17.3100    13.2330    25.4040     2.1270    -3.5180 
  186.8750    64.3660    19.2530    17.0150    12.6640    25.3040     2.1280    -3.6180 
  187.0000    64.3510    18.9150    16.7780    11.7620    25.1960     2.1330    -3.6150 
  187.1250    66.2820    18.7960    16.7700    11.6770    25.1230     2.1430    -3.5280 
  187.2500    66.9840    19.0160    17.0390    12.1830    25.0330     2.1540    -3.4850 
  187.3750    66.4560    19.5810    17.5690    12.6070    24.8930     2.1590    -3.4870 
  187.5000    66.4650    20.3720    18.2530    12.8540    24.6530     2.1520    -3.4090 
  187.6250    66.5710    21.1390    18.8710    12.5850    24.4880     2.1360    -3.1680 
  187.7500    67.1140    21.6300    19.2280    12.9650    24.4840     2.1210    -2.9000 
  187.8750    68.1310    21.6960    19.2160    13.4900    24.5830     2.1150    -2.6670 
  188.0000    69.6120    21.3050    18.8470    13.1650    24.6730     2.1240    -2.4840 
  188.1250    69.7340    20.5150    18.2310    12.6820    24.7500     2.1480    -2.3830 
  188.2500    69.9050    19.5490    17.5460    12.4440    24.8220     2.1730    -2.4010 
  188.3750    70.9130    18.4820    16.7940    11.9870    24.9340     2.1880    -2.4740 
  188.5000    71.1130    17.2660    15.8530    11.1810    25.1160     2.1870    -2.6170 
  188.6250    69.8440    15.7150    14.4850    11.4720    25.2790     2.1720    -2.8780 
  188.7500    69.6680    13.8180    12.7430    11.0880    25.2800     2.1550    -3.1920 
  188.8750    73.8580    11.7010    10.8390     8.9660    25.1970     2.1490    -3.5170 
  189.0000    81.8010     9.6260     9.0730     6.9680    25.1140     2.1610    -3.8280 
  189.1250    92.9250     7.9470     7.7270     6.1100    24.8750     2.1930    -4.0410 
  189.2500   101.9730     6.7510     6.7900     5.2880    24.4390     2.2310    -4.1040 
  189.3750   104.9740     5.9980     6.2020     4.9850    24.0730     2.2620    -4.1070 
  189.5000   103.1410     5.5700     5.8590     5.0170    24.0230     2.2770    -4.1340 
  189.6250    99.9500     5.3320     5.6390     5.1450    24.4190     2.2750    -4.1950 
  189.7500    98.7130     5.1260     5.4280     4.7860    24.9950     2.2620    -4.2040 
  189.8750    99.3090     4.8930     5.2030     4.3590    25.3620     2.2420    -4.1270 
  190.0000   101.6560     4.6360     4.9860     4.1530    25.4740     2.2190    -4.0670 
  190.1250   104.0250     4.4060     4.8220     4.1640    25.2620     2.2050    -4.1270 
  190.2500   102.9740     4.2470     4.7360     4.2850    24.7880     2.2080    -4.2770 
  190.3750    99.5310     4.1830     4.7500     4.5070    24.2510     2.2250    -4.4320 
  190.5000    96.7560     4.2170     4.8710     4.6170    24.0350     2.2470    -4.5060 
  190.6250    96.0230     4.3640     5.0880     4.5610    24.2750     2.2570    -4.4980 
  190.7500    95.9360     4.5970     5.3280     4.7350    24.6820     2.2570    -4.5260 
  190.8750    95.8210     4.8850     5.5280     5.2080    24.8680     2.2570    -4.6490 
  191.0000    95.8020     5.1780     5.6600     5.7490    24.5590     2.2660    -4.7530 
  191.1250    95.7260     5.4420     5.7740     5.6040    24.1530     2.2870    -4.7410 
  191.2500    94.3250     5.7490     6.0040     5.3560    23.9220     2.3090    -4.6890 
  191.3750    89.8440     6.2580     6.4960     5.3330    23.7330     2.3320    -4.6780 
  191.5000    82.8370     7.1450     7.3630     5.9030    23.5480     2.3590    -4.7460 
  191.6250    75.3600     8.5190     8.6490     7.5740    23.6760     2.3910    -4.9190 
  191.7500    68.4320    10.0400     9.9840    10.9860    24.2610     2.4170    -5.1150 
  191.8750    63.9770    11.2200    10.8390    13.4470    25.0440     2.4200    -5.3260 
