~V
VERS. 2.00: Ver 2.00
~W
STRT.M 57.0000:
STOP.M 257.0000:
STEP.M 0.1250:
NULL. -999.2500:
UWI. F10004:
~C
DEPT.M :
GR.API :
RML.OHMM :
RI. :
RXO.OHMM :
CALI.CM :
DEN.GM/CC :
SP.MV :
~A
# ...
  169.5000    60.1020    32.4730    30.9110    32.0490    24.2550     2.5350    -1.5960 
  169.6250    58.6420    31.2550    29.7380    27.9170    24.2140     2.5030    -1.2910 
  169.7500    58.2380    30.3670    28.7980    25.7210    24.1910     2.4900    -0.9590 
  169.8750    58.9340    29.8420    28.1350    26.2930    24.1860     2.4980    -0.6220 
  170.0000    60.5840    29.6610    27.7680    28.7730    24.2040     2.5200    -0.3040 
  170.1250    61.1580    29.8180    27.7600    28.5210    24.2570     2.5470    -0.0170 
  170.2500    60.7210    30.2250    28.0690    27.9170    24.2650     2.5710     0.2380 
  170.3750    60.6740    30.9080    28.7150    30.6920    24.2750     2.5930     0.4580 
  170.5000    61.1230    31.9380    29.7260    32.9840    24.3230     2.6170     0.6340 
  170.6250    59.7900    33.3980    31.1340    33.3270    24.3300     2.6380     0.7490 
  170.7500    57.3840    35.0580    32.7000    35.8040    24.3160     2.6520     0.8250 
  170.8750    56.1900    36.5570    34.1010    41.5560    24.2950     2.6540     0.8780 
  171.0000    55.3540    37.4410    34.9530    46.9200    24.2640     2.6450     0.9130 
  171.1250    53.5150    37.1790    34.8050    41.0190    24.2610     2.6300     0.9170 
  171.2500    52.6480    35.9350    33.7900    31.5540    24.2930     2.6160     0.8960 
  171.3750    53.6350    34.0080    32.1530    27.3640    24.3160     2.6060     0.8530 
  171.5000    54.4790    31.7900    30.2110    25.7000    24.3740     2.6030     0.7820 
  171.6250    53.8100    29.6600    28.2610    24.8160    24.4670     2.6060     0.6810 
  171.7500    54.5070    27.8130    26.4890    22.8050    24.4730     2.6150     0.5640 
  171.8750    57.1700    26.2880    24.9470    21.0060    24.3510     2.6240     0.4390 
  172.0000    59.8640    25.0440    23.6130    19.8670    24.2780     2.6320     0.3160 
  172.1250    60.7290    24.0360    22.4620    19.5070    24.3000     2.6380     0.2150 
  172.2500    59.8690    23.1530    21.4200    19.9400    24.3180     2.6430     0.1440 
  172.3750    58.2670    22.3150    20.4420    19.1650    24.2940     2.6500     0.1050 
  172.5000    56.1300    21.4510    19.5010    17.6360    24.2010     2.6560     0.0820 
  172.6250    55.6990    20.5280    18.6110    16.3450    24.1640     2.6560     0.0710 
  172.7500    58.7650    19.6110    17.8110    15.9980    24.1080     2.6440     0.0780 
  172.8750    62.5890    18.7960    17.1570    16.6110    24.0580     2.6180     0.0940 
  173.0000    63.8530    18.1670    16.6890    16.1000    24.0380     2.5840     0.1040 
  173.1250    61.8350    17.7880    16.4310    15.3160    24.0070     2.5510     0.1100 
  173.2500    58.5920    17.5730    16.3050    15.7760    23.8730     2.5270     0.0910 
  173.3750    55.8410    17.4470    16.2540    15.6040    23.6480     2.5100     0.0490 
  173.5000    54.4910    17.3550    16.2280    14.6710    23.3600     2.4960     0.0040 
  173.6250    55.5760    17.3100    16.2200    14.2510    23.0680     2.4870    -0.0310 
  173.7500    57.2950    17.3570    16.2590    13.9820    22.7600     2.4900    -0.0610 
  173.8750    57.9180    17.5360    16.3800    13.7440    22.4260     2.5060    -0.0810 
  174.0000    57.7650    17.8310    16.5760    13.8730    22.0980     2.5290    -0.0890 
  174.1250    57.1780    18.1310    16.7730    13.7800    21.7780     2.5470    -0.1040 
  174.2500    55.9930    18.2780    16.8510    13.6830    21.5660     2.5530    -0.1150 
  174.3750    53.8170    18.1880    16.7340    13.0810    21.4270     2.5480    -0.1310 
  174.5000    50.3640    17.8950    16.4360    12.6330    21.3060     2.5400    -0.1520 
  174.6250    50.4100    17.5680    16.0760    12.1740    21.2860     2.5370    -0.1940 
  174.7500    54.6490    17.4160    15.8340    11.8320    21.3340     2.5370    -0.2600 
  174.8750    58.9060    17.5540    15.8300    11.8830    21.4130     2.5430    -0.3540 
  175.0000    61.1580    17.9780    16.0960    12.5740    21.4600     2.5530    -0.4660 
  175.1250    63.0360    18.5420    16.5500    13.0200    21.4770     2.5670    -0.5610 
  175.2500    66.1840    18.9900    16.9640    12.9410    21.5240     2.5750    -0.6410 
  175.3750    66.8870    19.1680    17.1660    13.2000    21.6790     2.5720    -0.7070 
  175.5000    64.0030    19.0510    17.0810    13.6060    21.9400     2.5570    -0.7610 
  175.6250    61.5360    18.7180    16.7410    14.1750    22.2840     2.5370    -0.7980 
  175.7500    61.7330    18.3650    16.3300    15.0670    22.6900     2.5240    -0.8350 
  175.8750    63.8180    18.0880    15.9480    15.9040    23.1890     2.5190    -0.8680 
  176.0000    66.2820    17.9170    15.6600    16.5280    23.6310     2.5200    -0.9100 
  176.1250    67.8590    17.8830    15.5520    16.6680    23.9250     2.5220    -0.9930 
  176.2500    68.3360    18.0480    15.6770    16.6920    24.0680     2.5210    -1.1210 
  176.3750    68.3660    18.5720    16.1480    18.2380    24.1380     2.5160    -1.3050 
  176.5000    70.1020    19.6850    17.1260    20.5630    24.1680     2.5060    -1.5530 
  176.6250    73.2810    21.7890    18.9210    23.2620    24.1740     2.4930    -1.8830 
  176.7500    73.5110    24.7990    21.5070    26.6320    24.1560     2.4800    -2.2710 
  176.8750    71.8230    28.3110    24.6320    32.0690    24.1590     2.4720    -2.7050 
  177.0000    73.0060    31.3420    27.4940    39.1090    24.3310     2.4710    -3.1780 
  177.1250    77.8580    32.0720    28.4090    40.6450    24.3930     2.4760    -3.6930 
  177.2500    81.5590    29.9940    26.7630    37.7340    24.4150     2.4840    -4.2230 
  177.3750    83.9470    25.6840    23.0160    24.9330    24.3870     2.4910    -4.7260 
  177.5000    88.3710    20.6070    18.4790    14.2240    24.3570     2.4930    -5.1700 
  177.6250    94.2520    16.4830    14.6550    10.9140    24.3400     2.4830    -5.5200 
  177.7500    96.4910    13.9440    12.1050     9.9880    24.3530     2.4610    -5.7850 
  177.8750    93.8160    13.0390    10.8860    10.4780    24.3890     2.4320    -5.9810 
  178.0000    87.8880    13.5690    10.8940    12.4760    24.4780     2.4080    -6.1120 
  178.1250    80.4380    15.3240    12.1240    18.1750    24.5560     2.4010    -6.1680 
  178.2500    75.2080    17.5830    14.0730    23.3960    24.5940     2.4100    -6.1530 
  178.3750    75.8820    19.7640    16.2630    24.7630    24.6100     2.4300    -6.0790 
  178.5000    81.7080    21.3590    18.1440    22.2160    24.5910     2.4510    -5.9560 
  178.6250    86.0530    21.9840    19.1700    22.1300    24.5560     2.4620    -5.7900 
  178.7500    85.2800    21.9050    19.4090    23.2760    24.5250     2.4630    -5.5970 
  178.8750    83.8790    21.3590    19.0250    22.1650    24.5200     2.4550    -5.3670 
  179.0000    85.0840    20.4810    18.1730    19.6500    24.5230     2.4440    -5.0910 
  179.1250    87.5490    19.1990    16.8680    18.5110    24.5020     2.4380    -4.7730 
  179.2500    91.1920    17.4800    15.2530    17.0450    24.4860     2.4380    -4.4300 
  179.3750    96.7560    15.3330    13.5150    14.4930    24.4810     2.4410    -4.0740 
  179.5000   101.5890    12.9350    11.9390    11.9630    24.4860     2.4450    -3.7080 
  179.6250   102.5190    11.6240    10.9220    10.6360    24.4790     2.4540    -3.3100 
  179.7500    98.3110    11.3510    10.5580    10.5940    24.4700     2.4750    -2.8790 
  179.8750    88.9820    11.9000    10.8300    12.1370    24.4640     2.5140    -2.4620 
  180.0000    77.9950    12.8360    11.5540    15.3220    24.4610     2.5600    -2.0810 
  180.1250    73.6960    13.5920    12.3090    16.4070    24.4210     2.5940    -1.7500 
  180.2500    75.8890    13.6960    12.5940    13.7740    24.3760     2.5990    -1.4500 
  180.3750    79.4150    13.0100    12.1910    11.4540    24.3600     2.5730    -1.1640 
  180.5000    79.7150    11.7440    11.2170    10.3440    24.3530     2.5280    -0.8990 
  180.6250    73.7290    10.3400    10.0190     9.4010    24.3430     2.4800    -0.6870 
