~V
VERS. 2.00: Ver 2.00
~W
STRT.M 55.0000:
STOP.M 293.0000:
STEP.M 0.1250:
NULL. -999.2500:
UWI. F10038:
~C
DEPT.M :
SP.MV :
DEN.GM/CC :
GR.API :
RML.OHMM :
RI. :
RXO.OHMM :
CALI.CM :
~A
# ...
  235.0000    -6.1810     2.4350    69.9560     9.2130     8.4830     9.4720    24.8730 
  235.1250    -6.2180     2.4200    72.4030     9.2950     8.6410     9.6560    24.9280 
  235.2500    -6.3000     2.4030    73.8760     9.2520     8.6780     9.7740    24.9470 
  235.3750    -6.4380     2.3860    73.2360     9.1450     8.6200     9.8640    24.9470 
  235.5000    -6.6270     2.3720    72.8070     9.0470     8.5230     9.9630    24.9400 
  235.6250    -6.8770     2.3650    74.6700     9.0400     8.4570    10.1240    24.9200 
  235.7500    -7.1610     2.3620    76.0130     9.1580     8.4700    10.4060    24.8830 
  235.8750    -7.4630     2.3600    75.8160     9.4300     8.6010    10.9470    24.8270 
  236.0000    -7.7680     2.3530    73.2480     9.8930     8.8940    11.7860    24.7560 
  236.1250    -8.0640     2.3430    70.6350    10.6670     9.4740    12.8440    24.6980 
  236.2500    -8.3480     2.3380    69.9140    11.8220    10.4100    14.3100    24.6290 
  236.3750    -8.6140     2.3430    68.8850    13.4590    11.7980    16.1920    24.5510 
  236.5000    -8.8490     2.3550    67.1450    15.6260    13.6880    18.4950    24.4880 
  236.6250    -9.0520     2.3640    66.0960    18.3020    16.0800    22.0760    24.4750 
  236.7500    -9.2300     2.3610    64.8310    21.1320    18.6690    26.0380    24.5430 
  236.8750    -9.3670     2.3460    61.2890    23.7620    21.1460    29.3640    24.6530 
  237.0000    -9.4650     2.3240    56.3110    25.8680    23.2060    31.7540    24.7440 
  237.1250    -9.5290     2.3080    54.9500    27.1520    24.5440    33.2220    24.7720 
  237.2500    -9.5690     2.3030    58.0890    27.7870    25.2610    33.5580    24.7610 
  237.3750    -9.5900     2.3080    63.0410    27.9470    25.4840    33.1290    24.7180 
  237.5000    -9.5930     2.3160    67.2670    27.7990    25.3640    32.2900    24.6650 
  237.6250    -9.5730     2.3200    67.4430    27.4280    24.9920    30.8670    24.6030 
  237.7500    -9.5260     2.3160    64.4140    26.9390    24.4900    29.7100    24.5790 
  237.8750    -9.4560     2.3070    61.3300    26.4040    23.9270    29.1130    24.6380 
  238.0000    -9.3680     2.3020    60.3060    25.8950    23.3760    28.6160    24.6990 
  238.1250    -9.2590     2.3090    60.8680    25.4940    22.9240    27.9740    24.7130 
  238.2500    -9.1480     2.3250    59.6430    25.2070    22.5950    27.4320    24.7100 
  238.3750    -9.0460     2.3420    59.1380    25.0170    22.3880    27.4120    24.7270 
  238.5000    -8.9530     2.3480    61.9960    24.9010    22.2850    27.8540    24.7670 
  238.6250    -8.8810     2.3280    64.4870    24.8930    22.2950    28.4400    24.8180 
  238.7500    -8.8370     2.2920    63.1970    25.0430    22.4360    28.5590    24.8740 
  238.8750    -8.8150     2.2580    59.2300    25.4160    22.7550    28.2740    24.9200 
  239.0000    -8.8060     2.2480    56.0570    26.0300    23.2820    28.5780    24.9360 
  239.1250    -8.8180     2.2750    55.6500    26.8200    24.0010    29.5760    24.9210 
  239.2500    -8.8550     2.3210    57.5370    27.5830    24.7580    30.8090    24.8790 
  239.3750    -8.9100     2.3610    59.3250    28.1540    25.4040    31.7860    24.8080 
  239.5000    -8.9830     2.3740    59.5940    28.4440    25.8260    31.9160    24.7270 
  239.6250    -9.0670     2.3540    58.8990    28.4760    25.9740    31.4100    24.7040 
  239.7500    -9.1570     2.3230    59.0290    28.4700    25.9990    30.8390    24.7140 
  239.8750    -9.2660     2.2960    58.7580    28.5770    26.0380    30.7590    24.7280 
  240.0000    -9.3920     2.2800    56.7040    28.8440    26.1710    31.1440    24.7260 
  240.1250    -9.5390     2.2780    56.1030    29.1780    26.3770    31.8620    24.6880 
  240.2500    -9.6910     2.2840    58.5960    29.3770    26.5190    32.3000    24.6190 
  240.3750    -9.8440     2.2950    61.7260    29.3040    26.4760    31.9430    24.5190 
  240.5000    -9.9970     2.3040    63.8280    28.9250    26.1930    31.0560    24.3390 
  240.6250   -10.1430     2.3030    64.6620    28.3140    25.6810    30.5830    24.1340 
  240.7500   -10.2930     2.2920    66.8030    27.6720    25.0960    30.5860    24.1320 
  240.8750   -10.4380     2.2780    68.5220    27.1160    24.5510    30.7640    24.3540 
  241.0000   -10.5950     2.2650    66.8090    26.6950    24.1160    30.8220    24.5350 
  241.1250   -10.7640     2.2610    63.5910    26.4030    23.8270    30.4650    24.5690 
  241.2500   -10.9460     2.2590    62.6260    26.1630    23.6320    30.0370    24.4710 
  241.3750   -11.1550     2.2570    64.4550    25.9310    23.4900    29.6710    24.3220 
  241.5000   -11.3940     2.2510    65.6770    25.6840    23.3620    29.3990    24.2310 
  241.6250   -11.6460     2.2430    63.5270    25.4120    23.2090    29.3100    24.2740 
  241.7500   -11.8980     2.2390    61.0980    25.0910    22.9940    29.2920    24.3630 
  241.8750   -12.1360     2.2420    60.1830    24.6700    22.6700    29.2500    24.4900 
  242.0000   -12.3470     2.2520    60.1150    24.0890    22.1940    28.9160    24.6730 
  242.1250   -12.5220     2.2660    59.1190    23.2870    21.5110    27.7670    24.7670 
  242.2500   -12.6550     2.2780    58.7420    22.3460    20.6790    26.3500    24.8010 
  242.3750   -12.7420     2.2860    60.7380    21.3580    19.7690    24.6850    24.8000 
  242.5000   -12.7800     2.2900    64.6060    20.4260    18.8670    23.0160    24.7940 
  242.6250   -12.7890     2.2920    66.9960    19.6670    18.0820    21.8100    24.7710 
  242.7500   -12.7590     2.2950    66.3480    19.1080    17.4590    21.0560    24.7320 
  242.8750   -12.6920     2.3000    65.0550    18.7550    17.0150    20.4730    24.6840 
  243.0000   -12.5850     2.3050    65.8980    18.5770    16.7370    19.9720    24.6410 
  243.1250   -12.4470     2.3100    68.2450    18.5050    16.5830    19.6720    24.6120 
  243.2500   -12.3010     2.3150    66.8860    18.4150    16.4520    19.6030    24.6070 
  243.3750   -12.1270     2.3200    60.9150    18.2340    16.2760    19.7780    24.6200 
  243.5000   -11.9260     2.3230    55.5910    17.9440    16.0290    19.9320    24.6480 
  243.6250   -11.7030     2.3250    56.7010    17.6100    15.7420    19.6460    24.6910 
  243.7500   -11.4770     2.3250    60.1920    17.3690    15.5120    18.9830    24.7230 
  243.8750   -11.2740     2.3240    61.7550    17.3270    15.4280    18.5390    24.7360 
  244.0000   -11.1080     2.3230    61.0690    17.5340    15.5460    18.8130    24.7380 
  244.1250   -10.9740     2.3200    60.6470    17.9910    15.8960    19.6350    24.7460 
  244.2500   -10.8610     2.3160    60.0870    18.5670    16.3840    20.6090    24.7640 
  244.3750   -10.7750     2.3080    60.0170    19.1700    16.9370    21.3930    24.8010 
  244.5000   -10.7290     2.2990    61.4270    19.7540    17.4960    21.7210    24.8530 
  244.6250   -10.7280     2.2890    62.2060    20.3230    18.0300    21.8970    24.8850 
  244.7500   -10.7630     2.2830    61.1870    20.8990    18.5310    22.5980    24.8880 
  244.8750   -10.8260     2.2850    60.1930    21.4330    18.9610    23.9990    24.8880 
  245.0000   -10.9190     2.3010    60.2930    21.8030    19.2350    25.7510    24.8920 
  245.1250   -11.0360     2.3330    59.8790    21.7980    19.1910    27.3650    24.8750 
  245.2500   -11.1720     2.3720    58.6850    21.4270    18.8340    27.2760    24.8520 
  245.3750   -11.3170     2.4110    57.8630    20.8270    18.2530    25.0110    24.7790 
  245.5000   -11.4620     2.4380    58.1640    20.2710    17.6510    21.5760    24.6350 
  245.6250   -11.6160     2.4460    59.9720    20.2030    17.3830    18.7980    24.4400 
  245.7500   -11.7860     2.4370    60.1570    20.8700    17.6880    17.6050    24.2300 
  245.8750   -11.9820     2.4160    58.3800    22.4000    18.7110    18.5380    24.0140 
  246.0000   -12.2010     2.3900    56.5480    24.7090    20.4510    21.6480    23.9690 
  246.1250   -12.4650     2.3650    55.6460    27.4600    22.7510    26.8490    24.1770 
