~V
VERS. 2.00: Ver 2.00
~W
STRT.M 50.0000:
STOP.M 237.0000:
STEP.M 0.1250:
NULL. -999.2500:
UWI. F10006:
~C
DEPT.M :
GR.API :
RML.OHMM :
RI. :
RXO.OHMM :
CALI.CM :
DEN.GM/CC :
SP.MV :
~A
# ...
   83.7500    87.0420     7.6060     6.5120     7.5540    24.4810     2.4060   -21.1510 
   83.8750    82.2740     9.4590     7.6790    12.8640    24.4430     2.4630   -20.9840 
   84.0000    74.5810    12.4480     9.7830    26.5790    24.3860     2.4910   -20.8350 
   84.1250    67.4790    16.3600    12.9060    37.0020    24.2720     2.4600   -20.7430 
   84.2500    64.7330    20.1250    16.3390    30.1620    24.1950     2.3860   -20.6780 
   84.3750    66.6920    22.6680    19.1690    23.0520    24.2590     2.2960   -20.6090 
   84.5000    68.0630    23.3370    20.6190    21.4580    24.4480     2.2120   -20.5270 
   84.6250    66.5620    22.2820    20.4860    21.5090    24.5670     2.1400   -20.5110 
   84.7500    65.8630    20.9550    19.8420    19.6600    24.6100     2.0860   -20.5680 
   84.8750    66.5680    20.4190    19.5660    18.1620    24.5690     2.0720   -20.6810 
   85.0000    66.2510    21.3550    20.3060    20.5350    24.4600     2.1260   -20.8360 
   85.1250    63.1220    24.2840    22.6850    24.9460    24.3520     2.2560   -21.0350 
   85.2500    60.5960    28.6090    26.4720    34.4270    24.2970     2.4000   -21.2830 
   85.3750    62.0280    33.3940    31.0670    58.3870    24.2880     2.4970   -21.5860 
   85.5000    67.7770    37.0420    35.0850    69.1450    24.3020     2.5080   -21.9380 
   85.6250    74.0480    37.1560    36.0580    50.6240    24.2120     2.4400   -22.2670 
   85.7500    75.6770    33.6970    33.4700    30.4020    24.0710     2.3580   -22.5620 
   85.8750    73.3810    27.8650    28.2500    21.8210    23.9970     2.3000   -22.8440 
   86.0000    72.9610    21.3900    22.1800    15.2590    24.0010     2.2800   -23.1190 
   86.1250    79.5380    15.8660    16.9620     9.9830    23.9860     2.2860   -23.3600 
   86.2500    86.4270    11.7690    13.0590     8.0170    23.9960     2.2980   -23.5270 
   86.3750    88.5840     9.3010    10.3770     7.0890    24.0660     2.3070   -23.6250 
   86.5000    87.6540     7.9830     8.6330     6.3550    24.1790     2.3120   -23.6720 
   86.6250    87.8070     7.3510     7.6090     6.7760    24.2800     2.3200   -23.6820 
   86.7500    89.2890     6.9830     6.9600     6.8050    24.3660     2.3350   -23.6400 
   86.8750    91.0880     6.7360     6.5550     6.2900    24.3970     2.3570   -23.5160 
   87.0000    91.8380     6.6010     6.3520     5.7280    24.3950     2.3810   -23.3210 
   87.1250    88.6330     6.7770     6.4550     6.2190    24.3020     2.3870   -23.0750 
   87.2500    82.9190     7.4480     6.9570     7.4010    23.9700     2.3660   -22.8130 
   87.3750    78.6760     8.7740     7.9960     9.6160    23.4420     2.3130   -22.5430 
   87.5000    76.9950    10.7970     9.6720    15.8470    23.2000     2.2370   -22.2570 
   87.6250    77.0890    13.3900    12.0140    33.5400    23.4620     2.1570   -21.9630 
   87.7500    75.2860    15.9750    14.5540    40.7130    23.7020     2.0960   -21.7030 
   87.8750    71.6910    18.0140    16.7570    27.4490    23.8100     2.0660   -21.5070 
   88.0000    68.5580    19.1510    18.1840    19.5370    23.9730     2.0680   -21.3450 
   88.1250    68.3470    19.2980    18.6420    18.9220    24.2880     2.0920   -21.2140 
   88.2500    68.4080    18.9920    18.6000    18.8920    24.5860     2.1170   -21.1200 
   88.3750    65.2490    18.5990    18.4040    18.4060    24.7580     2.1360   -21.0630 
   88.5000    60.6090    18.3250    18.2590    18.4180    24.8100     2.1460   -21.0430 
   88.6250    59.4070    18.2340    18.2180    18.6180    24.7920     2.1490   -21.0730 
   88.7500    63.1880    18.2610    18.2150    18.5670    24.7720     2.1470   -21.1360 
   88.8750    68.7180    18.4010    18.2290    17.4400    24.7740     2.1420   -21.2220 
   89.0000    71.5300    18.6140    18.2740    16.5220    24.7700     2.1350   -21.3330 
   89.1250    71.0940    18.7740    18.3590    16.6910    24.7460     2.1270   -21.4560 
   89.2500    71.4930    18.7360    18.3730    17.2230    24.7160     2.1210   -21.5760 
   89.3750    73.0720    18.6040    18.0680    16.9740    24.7080     2.1250   -21.6870 
   89.5000    73.4410    18.1870    17.1120    16.6990    24.7040     2.1430   -21.7880 
   89.6250    73.6560    16.7160    15.1800    15.0940    24.6470     2.1840   -21.8580 
   89.7500    78.2770    14.0580    12.6730    11.7650    24.4120     2.2420   -21.8780 
   89.8750    86.9670    11.0680    10.1420     8.2110    23.9040     2.3110   -21.8530 
   90.0000    94.8240     8.6850     8.1200     6.2720    23.3450     2.3800   -21.7980 
   90.1250    95.8510     7.7090     7.0830     6.1070    23.2820     2.4280   -21.7130 
   90.2500    90.9550     8.0750     6.9900     8.7300    23.5950     2.4400   -21.6290 
   90.3750    82.5380     9.6020     7.8100    17.6310    23.9910     2.4120   -21.5620 
   90.5000    73.8440    11.8240     9.3670    26.6620    24.3180     2.3580   -21.5140 
   90.6250    70.2430    13.8120    11.1600    24.4900    24.5430     2.3020   -21.4820 
   90.7500    72.5050    14.7030    12.3870    17.4590    24.7340     2.2660   -21.4760 
   90.8750    77.5660    14.2430    12.6060    12.1350    24.7920     2.2510   -21.5030 
   91.0000    81.2560    12.8290    11.9050     9.9420    24.6900     2.2470   -21.5600 
   91.1250    82.0670    11.1950    10.7550     9.6690    24.5410     2.2470   -21.6500 
   91.2500    84.5220     9.8900     9.6970     9.5250    24.4920     2.2510   -21.7610 
   91.3750    89.3090     9.0470     8.9260     8.5380    24.4710     2.2670   -21.8850 
   91.5000    93.4430     8.6770     8.5050     7.8400    24.3900     2.3030   -22.0280 
   91.6250    91.9600     8.8490     8.5150     7.8530    24.2400     2.3630   -22.1830 
   91.7500    87.9190     9.4320     8.8560     8.7860    24.1420     2.4270   -22.2950 
   91.8750    85.0470    10.2500     9.4060    11.4930    24.1470     2.4720   -22.3520 
   92.0000    83.9070    10.9870     9.9310    15.7760    24.1830     2.4810   -22.3550 
   92.1250    85.3040    11.1520    10.0510    13.9680    24.2020     2.4510   -22.3040 
   92.2500    88.4270    10.6450     9.6570     9.0970    24.2220     2.4110   -22.2130 
   92.3750    92.1990     9.6640     8.8770     7.1490    24.2750     2.3820   -22.0720 
   92.5000    94.8510     8.6220     8.0100     6.7900    24.3250     2.3710   -21.8760 
   92.6250    95.1810     8.0400     7.4290     6.8930    24.3400     2.3630   -21.6430 
   92.7500    92.8200     8.0790     7.2750     7.1070    24.3410     2.3400   -21.4380 
   92.8750    86.8440     8.6850     7.5490     7.5350    24.3640     2.3010   -21.2740 
   93.0000    81.5750     9.6130     8.1290     8.6240    24.4120     2.2600   -21.1470 
   93.1250    81.9610    10.4270     8.7590     9.8120    24.4310     2.2430   -21.0590 
   93.2500    83.8930    10.7690     9.1490     9.5690    24.2750     2.2520   -20.9930 
   93.3750    84.4870    10.5280     9.1570     7.9630    23.8510     2.2800   -20.9540 
   93.5000    85.2420     9.8590     8.8180     6.6640    23.3510     2.3080   -20.9370 
   93.6250    89.1080     9.1310     8.3230     6.2820    23.1270     2.3180   -20.8920 
   93.7500    92.6130     8.6900     7.9340     6.4010    23.0560     2.3140   -20.8040 
   93.8750    93.1280     8.6420     7.7700     6.7230    23.0210     2.3060   -20.6800 
   94.0000    92.9810     8.9110     7.8410     7.0200    22.9910     2.3050   -20.5430 
   94.1250    93.5980     9.2610     8.0500     7.2300    22.9860     2.3150   -20.4040 
   94.2500    93.4620     9.4100     8.1920     7.1790    22.9710     2.3290   -20.2490 
   94.3750    93.0670     9.2280     8.1420     6.5890    22.9530     2.3420   -20.0850 
   94.5000    94.2560     8.7470     7.8720     6.1800    22.9430     2.3510   -19.9120 
   94.6250    94.7890     8.1370     7.4660     6.1060    22.9410     2.3560   -19.7620 
   94.7500    93.0320     7.6370     7.1000     6.0160    22.9510     2.3550   -19.6120 
   94.8750    92.0560     7.3920     6.8880     5.9340    23.0410     2.3460   -19.4480 
