~V
VERS. 2.00: Ver 2.00
~W
STRT.M 50.0000:
STOP.M 250.0000:
STEP.M 0.1250:
NULL. -999.2500:
UWI. F10033:
~C
DEPT.M :
SP.MV :
GR.API :
RML.OHMM :
RI. :
RXO.OHMM :
CALI.CM :
DEN.GM/CC :
~A
# ...
  106.2500    -7.8020    71.5040    12.0480     9.7120    13.6730    24.3510     2.4880 
  106.3750    -7.8150    73.7390    12.2950    10.1250    13.7980    24.3040     2.4890 
  106.5000    -7.8770    77.6070    11.4750     9.6540    10.4420    24.2630     2.4400 
  106.6250    -8.0150    81.0180     9.9490     8.5280     8.1540    24.2690     2.3690 
  106.7500    -8.2050    83.8690     8.4640     7.3600     7.2570    24.3300     2.3150 
  106.8750    -8.3660    86.3390     7.3690     6.4390     6.7440    24.4410     2.2930 
  107.0000    -8.4880    86.8140     6.7830     5.8800     6.2880    24.6050     2.2980 
  107.1250    -8.6660    84.8340     6.7790     5.7630     6.1530    24.8150     2.3050 
  107.2500    -8.9080    82.3910     7.2660     6.0290     6.3970    25.0090     2.2990 
  107.3750    -9.2240    79.1850     8.2460     6.6890     7.3960    24.9530     2.2770 
  107.5000    -9.6440    75.3920     9.6620     7.7360    10.2930    24.5840     2.2510 
  107.6250   -10.1500    70.2580    11.2880     9.0880    16.5360    24.1560     2.2310 
  107.7500   -10.7520    64.2180    12.6410    10.3750    24.5220    23.9890     2.2160 
  107.8750   -11.4690    60.4950    13.3220    11.2130    23.0760    24.2350     2.2030 
  108.0000   -12.2650    59.9630    13.1970    11.3840    15.7150    24.7920     2.1840 
  108.1250   -13.0470    62.8420    12.4680    10.9420    12.8080    25.2770     2.1620 
  108.2500   -13.7650    65.3880    11.6710    10.3190    11.9670    25.6030     2.1430 
  108.3750   -14.3910    66.2700    11.0740     9.7590    11.8790    25.7370     2.1330 
  108.5000   -14.8870    65.2010    10.7670     9.3790    11.9680    25.7690     2.1310 
  108.6250   -15.2230    64.0940    10.7220     9.2170    12.0980    25.7650     2.1310 
  108.7500   -15.4060    64.0640    10.7890     9.1800    11.7510    25.7590     2.1270 
  108.8750   -15.4480    62.8450    10.9020     9.2150    11.6030    25.7690     2.1190 
  109.0000   -15.3980    60.0380    11.0420     9.2950    11.6380    25.7720     2.1130 
  109.1250   -15.2980    58.7600    11.1960     9.4040    11.6030    25.7560     2.1150 
  109.2500   -15.1840    58.5660    11.3270     9.5140    11.3710    25.7360     2.1240 
  109.3750   -15.0660    58.0880    11.3980     9.5950    11.4680    25.7500     2.1340 
  109.5000   -14.9530    58.2470    11.3790     9.6230    11.7470    25.8040     2.1380 
  109.6250   -14.8350    59.7040    11.2600     9.5800    11.7370    25.8550     2.1320 
  109.7500   -14.7260    60.3950    11.0940     9.4940    11.4970    25.8390     2.1220 
  109.8750   -14.6490    60.7760    10.9180     9.3930    11.5250    25.7960     2.1150 
  110.0000   -14.6030    62.8190    10.7490     9.2970    11.6600    25.7620     2.1140 
  110.1250   -14.5310    64.8420    10.5870     9.2230    11.8930    25.7330     2.1190 
  110.2500   -14.4060    65.3240    10.4290     9.1770    11.9890    25.7160     2.1280 
  110.3750   -14.2520    65.3520    10.2860     9.1690    12.0060    25.7000     2.1370 
  110.5000   -14.0920    65.6360    10.1970     9.2120    11.7220    25.6840     2.1450 
  110.6250   -13.9370    64.5860    10.2310     9.3400    11.2560    25.7250     2.1490 
  110.7500   -13.7560    63.6230    10.3690     9.5290    10.9240    25.8120     2.1490 
  110.8750   -13.5220    64.6690    10.5140     9.7030    10.6110    25.8810     2.1430 
  111.0000   -13.2040    66.8890    10.5080     9.7290    10.5730    25.9070     2.1320 
  111.1250   -12.7290    68.3240    10.1400     9.4130    10.3900    25.8840     2.1280 
  111.2500   -12.0740    71.4670     9.4320     8.7690     9.7090    25.7980     2.1420 
  111.3750   -11.2600    78.9140     8.4980     7.8990     8.1930    25.6510     2.1800 
  111.5000   -10.3490    87.7090     7.5130     6.9680     6.2520    25.5160     2.2360 
  111.6250    -9.4510    93.5010     6.6530     6.1350     5.6010    25.4310     2.2990 
  111.7500    -8.6240    96.3610     5.9640     5.4570     5.4700    25.3990     2.3510 
  111.8750    -7.8860    97.9270     5.4680     4.9620     5.5420    25.3800     2.3890 
  112.0000    -7.2660    98.9910     5.2140     4.6880     5.5350    25.3490     2.4120 
  112.1250    -6.9090    97.9480     5.3680     4.7440     5.6210    25.3310     2.4240 
  112.2500    -6.8800    95.2190     5.9930     5.1530     6.1070    25.3030     2.4260 
  112.3750    -7.1970    91.4070     7.1330     5.9580     7.5050    25.2520     2.4130 
  112.5000    -7.8160    84.4450     8.6870     7.1470    11.7840    25.2170     2.3790 
  112.6250    -8.6670    71.5280    10.2770     8.5420    15.6910    25.3060     2.3170 
  112.7500    -9.6020    57.5190    11.3640     9.6930    17.2250    25.5380     2.2450 
  112.8750   -10.5610    49.5210    11.6690    10.2670    13.9810    25.7630     2.1790 
  113.0000   -11.5150    48.1440    11.3070    10.2490    11.8480    25.8260     2.1360 
  113.1250   -12.3780    50.1120    10.6880     9.8980    11.5740    25.7870     2.1230 
  113.2500   -13.1070    53.9320    10.2390     9.5760    11.6450    25.7510     2.1280 
  113.3750   -13.6520    58.8720    10.0910     9.4200    11.5670    25.7220     2.1380 
  113.5000   -13.9980    61.2440    10.2210     9.4500    11.2720    25.6920     2.1440 
  113.6250   -14.1400    59.2280    10.5530     9.6330    11.0050    25.6560     2.1440 
  113.7500   -14.1900    57.9800    10.9480     9.8700    11.0940    25.6410     2.1410 
  113.8750   -14.1770    60.1520    11.3010    10.0830    11.3080    25.6470     2.1380 
  114.0000   -14.0870    63.5080    11.4880    10.1770    11.3640    25.6450     2.1370 
  114.1250   -13.9290    61.9930    11.3610    10.0380    11.1840    25.6240     2.1400 
  114.2500   -13.7400    57.0700    10.9760     9.7000    10.8480    25.6020     2.1480 
  114.3750   -13.5260    54.5820    10.4500     9.2430    10.2520    25.5920     2.1620 
  114.5000   -13.2980    58.2570     9.9490     8.7890     9.0680    25.5930     2.1800 
  114.6250   -13.1290    63.6120     9.6600     8.4860     7.9730    25.6060     2.1940 
  114.7500   -13.0180    63.6390     9.6520     8.3970     8.5920    25.7140     2.1880 
  114.8750   -12.9480    59.6850     9.9820     8.5740     9.9900    25.9120     2.1490 
  115.0000   -12.9150    57.8700    10.6860     9.0570    10.9590    26.2050     2.0840 
  115.1250   -12.8690    59.2350    11.7760     9.8810    11.5880    26.5170     2.0300 
  115.2500   -12.7650    59.3040    12.9970    10.8700    12.2840    26.6160     2.0270 
  115.3750   -12.6480    57.2500    14.0290    11.7940    12.8820    26.3040     2.0820 
  115.5000   -12.5540    54.9530    14.5140    12.3550    13.0550    25.6520     2.1650 
  115.6250   -12.4360    55.3790    14.1460    12.2510    12.8180    25.3240     2.2210 
  115.7500   -12.2850    57.1060    13.2550    11.6730    12.2730    25.3730     2.2250 
  115.8750   -12.1120    57.5940    12.2690    10.9220    11.7210    25.6030     2.1860 
  116.0000   -11.9100    55.3730    11.6100    10.3220    11.4410    25.7400     2.1360 
  116.1250   -11.6780    54.6780    11.6050    10.1600    11.5830    25.6930     2.1120 
  116.2500   -11.4040    58.9870    12.0420    10.3610    11.6130    25.5690     2.1300 
  116.3750   -10.9890    64.1670    12.5620    10.7070    12.5070    25.3690     2.1900 
  116.5000   -10.3710    66.5670    12.7220    10.8610    15.4660    25.1270     2.2770 
  116.6250    -9.5420    67.6190    12.0790    10.4250    22.0000    24.8360     2.3610 
  116.7500    -8.5880    70.3660    10.8520     9.5140    16.9040    24.7640     2.4100 
  116.8750    -7.5720    74.8270     9.4840     8.4560    10.5770    24.8990     2.4150 
  117.0000    -6.5670    78.8730     8.4320     7.5940     8.2590    25.1060     2.3860 
  117.1250    -5.6710    82.2230     8.0430     7.2020     8.1440    25.2910     2.3520 
  117.2500    -4.9140    83.5360     8.1890     7.2410     7.9250    25.3620     2.3330 
  117.3750    -4.3530    81.3210     8.6520     7.6090     8.2950    25.3220     2.3310 
