~V
VERS. 2.00: Ver 2.00
~W
STRT.M 50.0000:
STOP.M 279.0000:
STEP.M 0.1250:
NULL. -999.2500:
UWI. F10075:
~C
DEPT.M :
GR.API :
RML.OHMM :
RI. :
RXO.OHMM :
CALI.CM :
DEN.GM/CC :
SP.MV :
~A
# ...
  162.5000    92.0790     8.3470     7.7340     8.4030    24.3270     2.3140    -5.5800 
  162.6250    94.3380     8.2030     7.7480     7.9750    24.5460     2.3460    -5.4110 
  162.7500    91.4840     8.0930     7.7330     8.3980    24.7870     2.3790    -5.2380 
  162.8750    85.6200     8.0140     7.6850     9.9950    24.9580     2.4010    -5.0800 
  163.0000    82.5000     7.9140     7.5780    12.2140    25.0130     2.4040    -4.9490 
  163.1250    85.1350     7.7430     7.3880     9.5290    24.9840     2.3850    -4.8070 
  163.2500    89.9060     7.5370     7.1590     8.1010    24.9030     2.3580    -4.6240 
  163.3750    93.5890     7.3540     6.9430     7.5930    24.7480     2.3330    -4.4610 
  163.5000    94.6510     7.2400     6.7820     7.7580    24.5630     2.3170    -4.3920 
  163.6250    94.7800     7.1950     6.6980     7.8140    24.3950     2.3100    -4.4480 
  163.7500    94.9530     7.1580     6.6510     7.7370    24.2990     2.3090    -4.5030 
  163.8750    95.7700     7.1060     6.6140     7.6480    24.2570     2.3130    -4.4930 
  164.0000    96.7360     7.0520     6.5830     7.5060    24.2450     2.3190    -4.4120 
  164.1250    95.5410     7.0560     6.5880     7.1870    24.2360     2.3250    -4.3330 
  164.2500    94.3950     7.1580     6.6430     7.2210    24.2020     2.3270    -4.3250 
  164.3750    95.7270     7.3600     6.7450     7.7040    24.1290     2.3270    -4.3370 
  164.5000    98.3270     7.6170     6.8680     8.1930    24.0380     2.3270    -4.3250 
  164.6250    96.4690     7.8250     6.9610     8.0600    23.9480     2.3300    -4.2440 
  164.7500    92.4430     7.9030     6.9800     8.2430    23.9120     2.3340    -4.1500 
  164.8750    91.6660     7.8330     6.9150     8.3380    24.0130     2.3350    -4.0510 
  165.0000    93.9440     7.6900     6.8100     8.1820    24.3270     2.3300    -3.9360 
  165.1250    95.2550     7.6310     6.7670     7.7350    24.7680     2.3190    -3.7930 
  165.2500    95.2530     7.7180     6.8450     7.5030    24.9770     2.3050    -3.6370 
  165.3750    94.7540     7.9370     7.0520     7.4470    25.0420     2.2890    -3.5610 
  165.5000    92.6500     8.2530     7.3680     8.1610    25.0420     2.2750    -3.5390 
  165.6250    89.4340     8.5960     7.7340     9.9800    25.0550     2.2700    -3.5430 
  165.7500    88.7230     8.9020     8.0520    10.5610    25.0620     2.2750    -3.5760 
  165.8750    89.9850     9.1670     8.2790     9.5760    25.0270     2.2870    -3.6850 
  166.0000    88.7650     9.3960     8.4230     9.3540    24.9240     2.3020    -3.8480 
  166.1250    85.3810     9.5770     8.5150    10.0250    24.7190     2.3110    -4.0210 
  166.2500    84.9260     9.7840     8.6470    10.0290    24.4960     2.3180    -4.2110 
  166.3750    85.7790    10.1390     8.9210    10.0960    24.3360     2.3340    -4.3700 
  166.5000    83.3700    10.7790     9.4180    12.2040    24.2830     2.3690    -4.4590 
  166.6250    77.2030    11.9420    10.2790    13.6590    24.3350     2.4220    -4.4790 
  166.7500    72.9940    13.7280    11.5850    15.0170    24.4290     2.4760    -4.4690 
  166.8750    71.2070    16.1440    13.4150    20.0710    24.4770     2.5170    -4.4490 
  167.0000    69.2100    18.9710    15.7060    21.8060    24.4950     2.5400    -4.4660 
  167.1250    67.4520    21.7310    18.1840    21.2940    24.5560     2.5480    -4.5010 
  167.2500    66.9390    23.8940    20.3580    25.4570    24.7030     2.5520    -4.4790 
  167.3750    67.1660    25.1120    21.8340    26.7260    24.7570     2.5530    -4.3970 
  167.5000    67.3190    25.3830    22.4790    26.2330    24.6510     2.5460    -4.3720 
  167.6250    66.0140    25.0470    22.4790    23.5390    24.4150     2.5260    -4.4440 
  167.7500    64.1590    24.6820    22.3290    21.4260    24.2140     2.4990    -4.5230 
  167.8750    63.3090    24.5620    22.2880    20.4330    24.1720     2.4760    -4.5420 
  168.0000    63.8350    24.8340    22.5160    20.9110    24.3540     2.4650    -4.5330 
  168.1250    64.9450    25.5000    23.0790    22.3970    24.5200     2.4740    -4.5850 
  168.2500    64.4230    26.2330    23.7540    23.3160    24.4320     2.4920    -4.6980 
  168.3750    63.2480    26.7560    24.3070    24.2620    24.2660     2.5130    -4.8450 
  168.5000    62.2490    26.8880    24.5400    25.1800    24.2800     2.5280    -4.9490 
  168.6250    61.8220    26.5180    24.2830    25.6610    24.5510     2.5290    -5.0000 
  168.7500    63.9130    25.8080    23.6740    26.1440    24.8560     2.5170    -5.0600 
  168.8750    69.0400    24.8990    22.8830    24.3680    25.0890     2.4900    -5.1710 
  169.0000    73.8070    23.9580    22.1040    22.0270    25.1870     2.4550    -5.3120 
  169.1250    72.8080    23.1470    21.5050    21.5640    25.1690     2.4190    -5.4180 
  169.2500    69.3480    22.5530    21.1100    22.6720    25.1190     2.3940    -5.5070 
  169.3750    70.7890    22.2190    20.9090    23.4460    25.1200     2.3870    -5.5800 
  169.5000    77.9340    22.0940    20.8370    23.1940    25.1530     2.4010    -5.6270 
  169.6250    80.5810    22.0170    20.7720    22.3730    25.0850     2.4310    -5.6810 
  169.7500    76.4730    21.8410    20.6260    21.7720    24.9970     2.4630    -5.7520 
  169.8750    72.6040    21.5720    20.4120    21.0760    24.9540     2.4850    -5.8170 
  170.0000    73.6430    21.2890    20.1850    23.3110    24.9840     2.4870    -5.8420 
  170.1250    76.3120    21.1470    20.0520    20.8630    25.0470     2.4660    -5.7800 
  170.2500    77.1280    21.2510    20.1060    19.9280    25.0210     2.4340    -5.6640 
  170.3750    77.1630    21.6260    20.3780    21.9960    24.8050     2.4050    -5.5590 
  170.5000    76.8520    22.2250    20.8400    22.7810    24.4090     2.3930    -5.5130 
  170.6250    77.0960    23.0290    21.4780    21.8050    24.2030     2.4020    -5.4530 
  170.7500    78.2260    23.9790    22.2340    21.6510    24.2540     2.4240    -5.3290 
  170.8750    77.8430    25.0060    23.0470    22.6550    24.5430     2.4490    -5.1690 
  171.0000    76.5580    26.0050    23.8370    23.5580    24.8750     2.4660    -5.0640 
  171.1250    78.5370    26.8330    24.5160    24.3950    25.0280     2.4710    -5.0230 
  171.2500    82.3290    27.3950    25.0150    27.7520    25.0960     2.4710    -4.9760 
  171.3750    83.3520    27.6560    25.2940    31.3670    25.1460     2.4780    -4.8740 
  171.5000    80.7010    27.6790    25.3920    31.6600    25.1810     2.4980    -4.7350 
  171.6250    77.7800    27.5100    25.3390    29.7300    25.1360     2.5280    -4.6410 
  171.7500    74.1740    27.1480    25.1280    28.0830    25.0590     2.5520    -4.5970 
  171.8750    69.4770    26.5500    24.7080    28.2170    24.9800     2.5590    -4.5880 
  172.0000    67.5490    25.7370    24.0860    28.2010    24.9370     2.5490    -4.5400 
  172.1250    71.8430    24.8060    23.3260    26.8760    24.9330     2.5380    -4.4340 
  172.2500    76.4860    23.9270    22.5630    23.9810    24.9400     2.5390    -4.3320 
  172.3750    75.6550    23.2130    21.8840    21.5780    24.9280     2.5530    -4.3050 
  172.5000    69.0390    22.6750    21.3040    21.2940    24.8930     2.5720    -4.3250 
  172.6250    63.4890    22.1310    20.6910    23.3770    24.9280     2.5840    -4.3250 
  172.7500    63.1280    21.3030    19.8230    24.5590    24.9360     2.5840    -4.3350 
  172.8750    65.9160    20.0270    18.5780    22.9170    24.8990     2.5720    -4.3350 
  173.0000    68.9600    18.3560    17.0120    19.9090    24.7980     2.5500    -4.2780 
  173.1250    69.8450    16.5970    15.3830    16.9450    24.7560     2.5250    -4.2360 
  173.2500    67.8540    15.1350    13.9980    14.2350    24.8020     2.5040    -4.2340 
  173.3750    63.4970    14.1740    13.0270    12.6000    24.8810     2.4930    -4.2480 
  173.5000    59.8400    13.7720    12.5310    12.2700    24.9260     2.4950    -4.2380 
  173.6250    59.5410    13.9610    12.5700    13.2600    24.9040     2.5080    -4.1810 
