~V
VERS. 2.00: Ver 2.00
~W
STRT.M 55.0000:
STOP.M 247.0000:
STEP.M 0.1250:
NULL. -999.2500:
UWI. F10032:
~C
DEPT.M :
GR.API :
RML.OHMM :
RI. :
RXO.OHMM :
CALI.CM :
DEN.GM/CC :
SP.MV :
~A
# ...
  167.5000    44.6850     7.4920     6.4840     6.5780    23.9250     2.3180   -10.7090 
  167.6250    43.4200     7.5830     6.5530     6.6800    23.5840     2.3270   -10.5230 
  167.7500    42.7500     7.6690     6.6430     6.7670    23.8280     2.3230   -10.3730 
  167.8750    43.6830     7.7220     6.7200     6.8760    24.4130     2.3110   -10.2830 
  168.0000    45.7190     7.7250     6.7500     6.9560    24.8610     2.2990   -10.2270 
  168.1250    48.1100     7.6690     6.7330     6.7900    24.9970     2.2980   -10.1510 
  168.2500    48.1270     7.5770     6.6840     6.6170    25.0100     2.3080   -10.0900 
  168.3750    46.2460     7.4720     6.6100     6.4460    24.9680     2.3250   -10.0700 
  168.5000    45.7070     7.3830     6.5500     6.3590    24.8960     2.3390   -10.0810 
  168.6250    49.0500     7.3380     6.5470     6.2920    24.8380     2.3400   -10.0940 
  168.7500    52.6080     7.3260     6.5650     6.2180    24.7900     2.3300   -10.1110 
  168.8750    53.4820     7.3430     6.5720     6.1170    24.7240     2.3150   -10.1640 
  169.0000    53.8920     7.3770     6.5790     6.1300    24.6620     2.3040   -10.2760 
  169.1250    58.0830     7.3960     6.6060     6.1920    24.6590     2.3040   -10.4070 
  169.2500    65.4910     7.3880     6.6350     6.3470    24.6270     2.3150   -10.5110 
  169.3750    73.7730     7.3660     6.6610     6.5870    24.5830     2.3330   -10.6190 
  169.5000    81.3120     7.3470     6.6980     6.7270    24.5760     2.3490   -10.7340 
  169.6250    84.7670     7.3550     6.7350     6.6980    24.6700     2.3500   -10.8500 
  169.7500    83.2890     7.4080     6.7710     6.7980    24.7940     2.3330   -10.9750 
  169.8750    79.8860     7.4990     6.8380     7.1740    24.8640     2.3010   -11.1000 
  170.0000    79.2030     7.5850     6.9430     7.3870    24.8230     2.2700   -11.1970 
  170.1250    81.9510     7.5950     7.0090     7.1670    24.7040     2.2590   -11.3040 
  170.2500    85.6080     7.5080     6.9810     6.8800    24.5640     2.2710   -11.4480 
  170.3750    89.1910     7.3310     6.8660     6.8670    24.4610     2.2980   -11.5870 
  170.5000    90.4840     7.1130     6.6950     6.9460    24.3890     2.3220   -11.7040 
  170.6250    86.3570     6.9430     6.5140     6.7660    24.4160     2.3270   -11.8550 
  170.7500    81.5390     6.8680     6.3980     6.8150    24.4950     2.3170   -12.0340 
  170.8750    81.0150     6.8970     6.4010     7.3930    24.5530     2.3040   -12.2210 
  171.0000    83.6930     7.0440     6.5380     7.9660    24.5490     2.2950   -12.4180 
  171.1250    84.6310     7.3480     6.8220     8.2580    24.5250     2.2950   -12.6260 
  171.2500    83.9480     7.7970     7.2300     8.7130    24.4870     2.2970   -12.8420 
  171.3750    83.4360     8.3840     7.7420     9.5860    24.4490     2.3010   -13.0730 
  171.5000    83.0380     9.0780     8.3090    10.7680    24.4360     2.3080   -13.3150 
  171.6250    82.4640     9.7920     8.9050    11.7960    24.4320     2.3170   -13.5600 
  171.7500    82.7520    10.2930     9.5050    12.4590    24.4300     2.3300   -13.7850 
  171.8750    82.8660    10.7230    10.0400    12.7960    24.4320     2.3420   -13.9380 
  172.0000    81.6650    11.1090    10.4410    13.2550    24.4280     2.3530   -14.0420 
  172.1250    81.1720    11.2970    10.6900    13.2960    24.4730     2.3610   -14.1550 
  172.2500    82.6660    11.3150    10.8360    13.2840    24.5980     2.3650   -14.2400 
  172.3750    84.6100    11.2160    10.8750    13.1330    24.7200     2.3660   -14.2660 
  172.5000    85.1200    11.0640    10.8240    13.0110    24.7790     2.3650   -14.2740 
  172.6250    83.4600    10.8900    10.7300    12.9930    24.8090     2.3620   -14.2860 
  172.7500    81.8500    10.7340    10.6220    12.4090    24.8340     2.3580   -14.2770 
  172.8750    82.6970    10.7420    10.5220    11.7550    24.8490     2.3500   -14.2580 
  173.0000    85.3610    10.8640    10.5130    11.4610    24.8460     2.3400   -14.2610 
  173.1250    84.6880    11.0220    10.7080    11.7690    24.8270     2.3290   -14.2680 
  173.2500    81.8700    11.1610    11.0480    11.8780    24.8190     2.3180   -14.2640 
  173.3750    81.3160    11.2810    11.4320    12.1710    24.8170     2.3110   -14.2610 
  173.5000    82.8130    11.4550    11.7550    12.1880    24.8170     2.3080   -14.2920 
  173.6250    83.1170    11.7750    11.8980    12.0760    24.8170     2.3110   -14.3290 
  173.7500    82.3550    12.1150    11.8800    11.1970    24.8170     2.3190   -14.3290 
  173.8750    80.6240    12.2330    11.7840    10.9550    24.8170     2.3280   -14.3700 
  174.0000    76.9290    12.0300    11.6650    11.5200    24.8110     2.3370   -14.4750 
  174.1250    73.5760    11.6140    11.4790    12.1370    24.7940     2.3440   -14.5820 
  174.2500    73.3970    11.1630    11.2030    11.6550    24.7740     2.3490   -14.7010 
  174.3750    76.1200    10.7520    10.8650    11.2250    24.7750     2.3520   -14.8700 
  174.5000    79.0620    10.4710    10.4830    11.4480    24.8000     2.3550   -15.0910 
  174.6250    79.5330    10.3230    10.0950    11.9860    24.8130     2.3550   -15.3390 
  174.7500    77.2610    10.7250     9.8790    12.0460    24.8170     2.3540   -15.6620 
  174.8750    74.3980    11.7250    10.1070    11.4040    24.8170     2.3580   -16.0630 
  175.0000    73.4130    12.8110    11.1510    12.3360    24.8090     2.3800   -16.5070 
  175.1250    72.6790    17.1350    14.0600    18.3020    24.7280     2.4290   -17.0170 
  175.2500    69.0880    23.4350    20.0290    35.2470    24.5560     2.4950   -17.5630 
  175.3750    62.9250    36.6270    31.0510    66.6910    24.3640     2.5630   -18.1510 
  175.5000    57.7660    56.1400    49.2110   122.2360    24.2380     2.6140   -18.7720 
  175.6250    56.4800    81.5870    75.2020   163.6090    24.1730     2.6200   -19.4020 
  175.7500    56.6480   107.0360   101.3110   181.4490    24.2330     2.5790   -20.0140 
  175.8750    57.4600   124.8300   119.6410   160.5720    24.3290     2.4980   -20.6080 
  176.0000    60.1350   132.8070   127.9900   134.7390    24.4840     2.3940   -21.1640 
  176.1250    64.8250   135.3760   130.0470   134.3230    24.7330     2.2970   -21.6360 
  176.2500    67.1620   138.1420   131.5110   149.6360    24.8790     2.2250   -22.0650 
  176.3750    65.0810   142.1770   133.9350   168.3480    24.8640     2.1840   -22.4610 
  176.5000    61.4490   146.7080   137.0310   170.9750    24.8340     2.1690   -22.7820 
  176.6250    60.3680   150.3930   139.7880   159.7120    24.9030     2.1740   -23.0110 
  176.7500    61.5660   153.0850   141.8690   155.4380    24.9470     2.1860   -23.1940 
  176.8750    61.8890   155.3920   143.7400   153.8900    24.9450     2.1980   -23.3170 
  177.0000    60.7240   157.8230   145.9930   156.4910    24.9140     2.2030   -23.3680 
  177.1250    60.9830   159.9850   148.4480   161.8690    24.8500     2.1990   -23.3750 
  177.2500    61.7320   160.9440   150.0640   172.1510    24.7930     2.1870   -23.3830 
  177.3750    60.9340   160.1410   150.1540   170.3390    24.7590     2.1740   -23.3720 
  177.5000    60.1360   157.7930   148.7330   153.4900    24.7430     2.1650   -23.3190 
  177.6250    62.0070   154.8620   146.4540   141.5280    24.7390     2.1640   -23.2980 
  177.7500    63.5420   152.5720   144.5920   137.4780    24.7460     2.1680   -23.2950 
  177.8750    61.7020   151.5520   144.0440   141.3200    24.7460     2.1770   -23.2370 
  178.0000    59.8150   152.0060   145.2120   147.5900    24.7240     2.1840   -23.1850 
  178.1250    62.7090   153.8400   148.0840   147.9710    24.7310     2.1790   -23.2050 
  178.2500    65.3230   161.5480   151.6810   146.3410    24.7950     2.1540   -23.2180 
  178.3750    63.6980   168.8400   155.1360   155.3220    24.9130     2.1100   -23.1630 
  178.5000    61.4720   169.5790   157.7060   160.7770    25.0340     2.0670   -23.1110 
  178.6250    61.8890   169.0200   158.9870   159.1900    25.0360     2.0610   -23.0820 
