~V
VERS. 2.00: Ver 2.00
~W
STRT.M 59.0000:
STOP.M 275.0000:
STEP.M 0.1250:
NULL. -999.2500:
UWI. F10021:
~C
DEPT.M :
GR.API :
RML.OHMM :
RI. :
RXO.OHMM :
CALI.CM :
DEN.GM/CC :
SP.MV :
~A
# ...
  137.7500    77.9980     6.2060     5.9210     6.5630    24.5130     2.4020    -5.3140 
  137.8750    78.2730     6.3410     6.0310     6.7770    24.5030     2.3960    -5.2650 
  138.0000    77.4730     6.5440     6.2130     6.9130    24.4870     2.3950    -5.2370 
  138.1250    74.9660     6.8500     6.4760     7.1700    24.4680     2.4050    -5.1840 
  138.2500    73.2800     7.2310     6.7850     7.6640    24.4530     2.4170    -5.1330 
  138.3750    73.1340     7.6340     7.0960     8.2150    24.4450     2.4240    -5.0510 
  138.5000    73.0760     7.9700     7.3450     8.6110    24.4290     2.4210    -4.9700 
  138.6250    72.1700     8.1150     7.4400     8.2230    24.3750     2.4060    -4.8520 
  138.7500    72.1310     8.0500     7.3730     7.8510    24.2700     2.3880    -4.7200 
  138.8750    73.2640     7.8260     7.1780     7.6450    24.1100     2.3710    -4.5650 
  139.0000    74.7050     7.5970     6.9560     7.5060    23.9060     2.3580    -4.3580 
  139.1250    75.6330     7.7050     6.9390     7.4260    23.7190     2.3520    -4.1270 
  139.2500    76.4420     8.4420     7.3510     7.8130    23.5630     2.3570    -3.8530 
  139.3750    74.9550    10.0250     8.4060     9.4220    23.4420     2.3790    -3.5470 
  139.5000    69.6080    12.4870    10.2250    13.1670    23.3830     2.4150    -3.2000 
  139.6250    62.8180    15.5970    12.8110    20.2120    23.4530     2.4520    -2.8420 
  139.7500    58.5900    18.6080    15.6210    28.6060    23.6400     2.4620    -2.4640 
  139.8750    58.0570    20.8690    18.0730    35.4180    23.9130     2.4330    -2.0780 
  140.0000    59.3050    21.9810    19.6530    37.5240    24.2150     2.3680    -1.7090 
  140.1250    57.2550    21.9620    20.1050    32.3050    24.4870     2.2940    -1.4150 
  140.2500    52.1190    21.6440    20.0580    25.4090    24.6660     2.2420    -1.1660 
  140.3750    49.5650    21.5830    20.0280    21.9430    24.7450     2.2240    -0.9650 
  140.5000    53.8290    21.9580    20.2680    21.6680    24.7050     2.2360    -0.8210 
  140.6250    58.2340    22.5270    20.6860    23.2460    24.4940     2.2620    -0.7910 
  140.7500    56.9630    22.8000    20.9260    24.9320    24.1950     2.2770    -0.8510 
  140.8750    53.7400    22.4970    20.7410    25.8360    24.0260     2.2730    -0.9680 
  141.0000    54.8220    21.6180    20.0880    24.1610    24.1190     2.2520    -1.1460 
  141.1250    60.6020    20.4640    19.1720    19.9710    24.3420     2.2240    -1.3450 
  141.2500    66.7830    19.5190    18.3920    18.2240    24.5220     2.2020    -1.5770 
  141.3750    69.4660    19.0230    17.9730    17.8790    24.6170     2.1920    -1.8000 
  141.5000    65.9780    18.9870    17.9620    18.1690    24.6770     2.1920    -2.0310 
  141.6250    58.9950    19.2310    18.2540    18.8270    24.7520     2.1980    -2.2480 
  141.7500    55.8150    19.4150    18.5450    19.1030    24.8290     2.2040    -2.4500 
  141.8750    57.1240    19.3410    18.6200    18.5010    24.8620     2.2090    -2.6490 
  142.0000    59.8730    18.9250    18.3540    17.2790    24.8230     2.2160    -2.8400 
  142.1250    61.9540    18.1600    17.6920    15.8270    24.7120     2.2240    -3.0310 
  142.2500    63.0730    17.2090    16.7950    14.5790    24.5810     2.2330    -3.1950 
  142.3750    65.0330    16.1730    15.7770    13.5930    24.4570     2.2430    -3.3520 
  142.5000    67.4640    15.1360    14.7370    12.5690    24.3350     2.2510    -3.4800 
  142.6250    67.7150    14.2080    13.7870    11.4420    24.2190     2.2560    -3.5270 
  142.7500    64.5120    13.5130    13.0370    10.6390    24.1540     2.2600    -3.4750 
  142.8750    61.3240    13.2250    12.6290    10.4290    24.1820     2.2630    -3.3260 
  143.0000    62.6200    13.5450    12.7290    10.8160    24.2850     2.2680    -3.0560 
  143.1250    66.4690    14.7780    13.6210    12.2290    24.4000     2.2720    -2.6340 
  143.2500    68.5050    16.8030    15.2660    14.7640    24.5020     2.2730    -2.1230 
  143.3750    67.0730    19.3940    17.5560    18.4180    24.6120     2.2690    -1.5780 
  143.5000    62.4420    22.1190    20.1690    22.6680    24.7140     2.2590    -1.0110 
  143.6250    57.7980    24.2800    22.4980    25.6730    24.7760     2.2440    -0.4910 
  143.7500    56.9020    25.5030    24.0360    27.0940    24.7460     2.2290    -0.0490 
  143.8750    59.7940    25.7570    24.5970    26.8670    24.6410     2.2190     0.2800 
  144.0000    61.2620    25.3750    24.3850    25.7370    24.5100     2.2170     0.5090 
  144.1250    58.2120    24.8920    23.8690    24.0340    24.3900     2.2230     0.6460 
  144.2500    56.0250    24.6670    23.5020    22.5880    24.3190     2.2320     0.6850 
  144.3750    57.0160    24.6900    23.3680    22.3470    24.3120     2.2380     0.6940 
  144.5000    57.7980    24.7720    23.3610    23.1430    24.3330     2.2380     0.6740 
  144.6250    57.3900    24.6910    23.2960    23.7960    24.3310     2.2310     0.6970 
  144.7500    57.2750    24.4240    23.1050    23.8560    24.3070     2.2230     0.7430 
  144.8750    57.1760    24.0910    22.8590    23.3240    24.2810     2.2190     0.8460 
  145.0000    55.6970    23.8920    22.6980    22.3720    24.2790     2.2200     0.9950 
  145.1250    54.8730    24.0220    22.7970    21.6410    24.3070     2.2280     1.1620 
  145.2500    56.1410    24.5240    23.1610    21.9230    24.3630     2.2360     1.3770 
  145.3750    57.2440    25.3300    23.7380    23.2500    24.4550     2.2420     1.5910 
  145.5000    57.2720    26.3070    24.4380    24.6390    24.5790     2.2440     1.8360 
  145.6250    56.1190    27.3250    25.1720    24.8040    24.7170     2.2420     2.0680 
  145.7500    53.0630    28.0370    25.9020    24.4120    24.8230     2.2390     2.2830 
  145.8750    50.5860    28.7990    26.6640    24.0350    24.8680     2.2340     2.4620 
  146.0000    50.7750    29.6440    27.5090    23.9610    24.8760     2.2290     2.5960 
  146.1250    52.2730    30.5110    28.4210    24.5810    24.8610     2.2210     2.6420 
  146.2500    51.5530    31.2150    29.2360    25.6230    24.8130     2.2050     2.6260 
  146.3750    49.6440    31.5650    29.7650    26.4900    24.7260     2.1830     2.5760 
  146.5000    48.5280    31.4340    29.8590    26.6960    24.5620     2.1620     2.4760 
  146.6250    47.0450    30.7640    29.4230    26.1310    24.3040     2.1540     2.3360 
  146.7500    46.0080    29.8280    28.6900    25.5690    23.9970     2.1620     2.2100 
  146.8750    47.7290    28.8750    27.8850    25.4510    23.6980     2.1810     2.1030 
  147.0000    51.1750    28.1270    27.2210    25.5360    23.3930     2.1920     2.0180 
  147.1250    53.6200    27.7720    26.8890    25.6140    22.9910     2.1740     1.9660 
  147.2500    54.9090    27.7380    26.8500    25.4360    22.4470     2.1350     1.9230 
  147.3750    56.3900    27.8970    27.0050    24.9840    21.8220     2.1000     1.9060 
  147.5000    58.7280    28.0890    27.2110    24.2400    21.3580     2.0950     1.8860 
  147.6250    60.3100    28.1570    27.3260    23.3120    21.5170     2.1360     1.8810 
  147.7500    59.8500    28.0680    27.3140    23.0620    22.1630     2.1980     1.8280 
  147.8750    57.5440    27.8520    27.2030    23.5290    22.9830     2.2520     1.7470 
  148.0000    54.8630    27.5840    27.0590    23.9890    23.6430     2.2760     1.6300 
  148.1250    52.4180    27.3630    26.9650    23.5110    23.8630     2.2650     1.4710 
  148.2500    50.9070    27.2320    26.9460    21.8050    23.6440     2.2450     1.2900 
  148.3750    50.9740    27.1710    26.9740    18.9340    22.9950     2.2230     1.0530 
  148.5000    51.9030    27.0920    26.9660    15.0230    21.8790     2.1910     0.7880 
  148.6250    52.7730    26.8390    26.7660    11.0900    20.2740     2.1320     0.4510 
  148.7500    54.0650    26.3570    26.3200     8.6060    18.5770     2.0550     0.0850 
  148.8750    55.5390    25.6840    25.6500     7.5390    17.1760     1.9850    -0.3290 
