~V
VERS. 2.00: Ver 2.00
~W
STRT.M 50.0000:
STOP.M 293.0000:
STEP.M 0.1250:
NULL. -999.2500:
UWI. F10037:
~C
DEPT.M :
GR.API :
RML.OHMM :
RI. :
RXO.OHMM :
CALI.CM :
SP.MV :
DEN.GM/CC :
~A
# ...
  275.0000    24.2440     4.2480     3.6760     3.3180    23.5560    -7.4280     2.3270 
  275.1250    23.0610     4.2250     3.6570     3.3020    23.5470    -7.4330     2.3250 
  275.2500    24.4260     4.2110     3.6500     3.3520    23.5470    -7.4680     2.3250 
  275.3750    26.8010     4.2110     3.6600     3.4400    23.5700    -7.5440     2.3240 
  275.5000    29.4310     4.2270     3.6890     3.5320    23.6240    -7.6480     2.3210 
  275.6250    30.7570     4.2710     3.7430     3.5970    23.6650    -7.7620     2.3190 
  275.7500    30.6280     4.3440     3.8160     3.6250    23.6560    -7.8740     2.3200 
  275.8750    31.0410     4.4440     3.9050     3.6490    23.5880    -7.9850     2.3250 
  276.0000    33.8240     4.5580     4.0030     3.7230    23.4760    -8.0990     2.3330 
  276.1250    37.0780     4.6620     4.0940     3.8030    23.3600    -8.2030     2.3410 
  276.2500    37.8050     4.7320     4.1610     3.9240    23.2740    -8.2790     2.3470 
  276.3750    37.2140     4.7500     4.1910     4.0250    23.2490    -8.3100     2.3490 
  276.5000    37.1740     4.7080     4.1760     4.0720    23.2680    -8.2950     2.3480 
  276.6250    36.2790     4.6100     4.1150     4.0210    23.3400    -8.2410     2.3430 
  276.7500    33.5460     4.4880     4.0330     3.8750    23.4410    -8.1790     2.3390 
  276.8750    29.9880     4.3710     3.9510     3.6660    23.5620    -8.0840     2.3380 
  277.0000    26.3210     4.2830     3.8850     3.4740    23.6600    -7.9770     2.3430 
  277.1250    23.9660     4.2420     3.8500     3.4410    23.7260    -7.8610     2.3560 
  277.2500    23.5790     4.2400     3.8400     3.4420    23.7840    -7.7420     2.3720 
  277.3750    24.2680     4.2640     3.8510     3.4440    23.8460    -7.6460     2.3870 
  277.5000    23.4550     4.3020     3.8750     3.4640    23.9200    -7.5930     2.4000 
  277.6250    21.5460     4.3430     3.9040     3.5350    24.0430    -7.5880     2.4100 
  277.7500    21.6720     4.3820     3.9340     3.6180    24.2210    -7.6080     2.4170 
  277.8750    23.4440     4.4170     3.9620     3.6750    24.4160    -7.6600     2.4170 
  278.0000    25.3900     4.4440     3.9830     3.7120    24.5460    -7.7030     2.4110 
  278.1250    27.4600     4.4510     3.9950     3.7330    24.5760    -7.7410     2.3990 
  278.2500    30.2170     4.4340     3.9940     3.7740    24.5690    -7.7850     2.3860 
  278.3750    32.6470     4.3940     3.9800     3.8200    24.5590    -7.8380     2.3770 
  278.5000    32.5320     4.3370     3.9550     3.8250    24.5610    -7.8860     2.3740 
  278.6250    29.1590     4.2780     3.9270     3.7650    24.5740    -7.9440     2.3790 
  278.7500    25.6600     4.2380     3.9090     3.6860    24.5850    -8.0380     2.3880 
  278.8750    23.9660     4.2290     3.9110     3.6610    24.5840    -8.1830     2.4010 
  279.0000    23.4910     4.2580     3.9400     3.6980    24.5710    -8.3620     2.4130 
  279.1250    23.1530     4.3230     3.9970     3.7940    24.5490    -8.5220     2.4230 
  279.2500    23.7030     4.4010     4.0670     3.9260    24.5240    -8.6910     2.4270 
  279.3750    25.7820     4.4760     4.1370     4.0670    24.5050    -8.8930     2.4260 
  279.5000    28.3650     4.5340     4.1960     4.1650    24.5030    -9.1310     2.4230 
  279.6250    29.4450     4.5690     4.2360     4.1930    24.5350    -9.3400     2.4230 
  279.7500    28.5930     4.5880     4.2610     4.2000    24.6090    -9.5250     2.4270 
  279.8750    26.7440     4.5990     4.2740     4.2030    24.7050    -9.6730     2.4370 
  280.0000    26.0490     4.6080     4.2790     4.2100    24.7760    -9.7660     2.4470 
  280.1250    26.6270     4.6120     4.2800     4.2390    24.7950    -9.8310     2.4550 
  280.2500    26.4620     4.6150     4.2820     4.2920    24.7870    -9.9030     2.4590 
  280.3750    25.9820     4.6260     4.2960     4.3660    24.7580    -9.9330     2.4610 
  280.5000    26.3430     4.6690     4.3410     4.4350    24.7070    -9.9360     2.4590 
  280.6250    26.3730     4.7870     4.4480     4.5210    24.6330    -9.9670     2.4530 
  280.7500    25.1550     4.9800     4.6160     4.7260    24.5550   -10.0010     2.4430 
  280.8750    23.7930     5.2220     4.8230     5.0370    24.4940    -9.9790     2.4330 
  281.0000    23.5310     5.4560     5.0260     5.3120    24.4470    -9.9670     2.4280 
  281.1250    24.0820     5.5810     5.1530     5.3020    24.3980    -9.9500     2.4320 
  281.2500    25.0100     5.5630     5.1720     5.2180    24.3440    -9.8790     2.4440 
  281.3750    25.5200     5.4180     5.0910     5.0720    24.2870    -9.7790     2.4560 
  281.5000    25.1050     5.2190     4.9570     5.0560    24.2220    -9.6740     2.4630 
  281.6250    25.1790     5.0960     4.8610     4.9640    24.1430    -9.5150     2.4600 
  281.7500    25.6480     5.1320     4.8780     5.1010    24.0690    -9.3410     2.4510 
  281.8750    25.1770     5.3520     5.0390     5.7240    24.0350    -9.1630     2.4440 
  282.0000    23.7990     5.7110     5.3300     6.9360    24.0500    -8.9900     2.4420 
  282.1250    23.9560     6.0910     5.6780     8.3460    24.1160    -8.8590     2.4440 
  282.2500    25.4690     6.3510     5.9610     9.4990    24.2040    -8.7710     2.4440 
  282.3750    26.7360     6.4090     6.0970     9.5880    24.2830    -8.6870     2.4400 
  282.5000    26.9460     6.2610     6.0540     7.7270    24.3050    -8.6060     2.4300 
  282.6250    26.9460     5.9680     5.8510     5.8720    24.2480    -8.5600     2.4180 
  282.7500    26.9460     5.6580     5.5900     4.8900    24.1900    -8.4960     2.4040 
  282.8750    26.9460     5.3890     5.3290     4.5980    24.2230    -8.4910     2.3880 
  283.0000    26.9460     5.1730     5.0940     4.5440    24.3910    -8.4960     2.3710 
  283.1250    26.9460     5.0000     4.8920     4.3740    24.6530    -8.4720     2.3590 
  283.2500    26.9460     4.8460     4.7120     4.1390    24.9650    -8.4410     2.3590 
  283.3750    26.9460     4.7150     4.5610     3.9720    25.1790    -8.4340     2.3730 
  283.5000    26.9460     4.6230     4.4510     3.9190    25.2790    -8.4230     2.3940 
  283.6250    26.9460     4.6000     4.4120     3.9790    25.3060    -8.3950     2.4080 
  283.7500    26.9460     4.6360     4.4330     4.0710    25.3050    -8.4010     2.4070 
  283.8750    26.9460     4.7060     4.4950     4.1450    25.2580    -8.3850     2.3930 
  284.0000    26.9460     4.7760     4.5660     4.1540    25.2320    -8.3740     2.3740 
  284.1250    26.9460     4.7990     4.6040     4.1170    25.2800    -8.3420     2.3610 
  284.2500    26.9460     4.7630     4.5940     4.0720    25.3550    -8.3070     2.3560 
  284.3750    26.9460     4.6770     4.5350     3.9630    25.3980    -8.2950     2.3600 
  284.5000    26.9460     4.5610     4.4420     3.9050    25.3910    -8.3010     2.3710 
  284.6250    26.9460     4.4460     4.3340     3.9350    25.3200    -8.3020     2.3870 
  284.7500    26.9460     4.3540     4.2360     3.9800    25.1900    -8.3130     2.4060 
  284.8750    26.9460     4.2920     4.1610     3.9880    25.0470    -8.3100     2.4240 
  285.0000    26.9460     4.2610     4.1150     3.9490    24.9630    -8.2890     2.4330 
  285.1250    26.9460     4.2650     4.1040     3.9550    24.9510    -8.3330     2.4300 
  285.2500    26.9460     4.3050     4.1260     4.0050    24.9640    -8.4010     2.4240 
  285.3750    26.9460     4.3870     4.1850     4.1240    24.9860    -8.4750     2.4190 
  285.5000    26.9460     4.5100     4.2800     4.2930    25.0100    -8.5570     2.4180 
  285.6250    26.9460     4.6550     4.4030     4.5420    25.0210    -8.6350     2.4180 
  285.7500    26.9460     4.7880     4.5280     4.8260    25.0220    -8.6820     2.4160 
  285.8750    26.9460     4.8860     4.6300     5.0860    25.0220    -8.7110     2.4100 
  286.0000    26.9460     4.9410     4.6980     5.2590    25.0140    -8.7340     2.4050 
  286.1250    26.9460     4.9590     4.7270     5.1550    25.0030    -8.7200     2.4060 
