~V
VERS. 2.00: Ver 2.00
~W
STRT.M 57.0000:
STOP.M 296.0000:
STEP.M 0.1250:
NULL. -999.2500:
UWI. F10043:
~C
DEPT.M :
GR.API :
RML.OHMM :
RI. :
RXO.OHMM :
CALI.CM :
DEN.GM/CC :
SP.MV :
~A
# ...
  248.2500    61.8740     8.5360     8.3740     9.6130    23.4950     2.4560   -15.7350 
  248.3750    56.5850     7.7660     7.7680     7.0650    23.3950     2.4840   -15.6330 
  248.5000    55.1500     7.0910     7.2010     6.1040    23.3510     2.4940   -15.6370 
  248.6250    63.0460     6.8220     6.9110     6.0150    23.1130     2.4770   -15.7520 
  248.7500    71.8930     6.9560     6.9250     6.8310    22.8700     2.4380   -15.9480 
  248.8750    74.6610     7.3840     7.1970     8.0490    22.7180     2.3880   -16.1960 
  249.0000    74.0880     7.9000     7.6050     8.5090    22.4240     2.3410   -16.4490 
  249.1250    76.7100     8.2300     7.9440     8.0930    21.8710     2.3130   -16.7170 
  249.2500    80.7270     8.2690     8.0750     7.6960    21.3230     2.3030   -16.9950 
  249.3750    81.4700     8.0620     7.9920     7.1560    21.0260     2.3000   -17.2910 
  249.5000    78.6320     7.7520     7.7810     6.5310    20.8750     2.2910   -17.6020 
  249.6250    75.7290     7.5240     7.5830     6.6530    20.7360     2.2670   -17.9200 
  249.7500    75.5190     7.4480     7.4950     6.9770    20.5920     2.2400   -18.2530 
  249.8750    79.3990     7.5230     7.5430     7.1190    20.1950     2.2240   -18.6080 
  250.0000    83.8160     7.7260     7.7070     6.9780    19.3350     2.2260   -19.0120 
  250.1250    82.9760     8.0350     7.9360     6.8740    17.9560     2.2490   -19.4320 
  250.2500    79.9820     8.3680     8.1490     7.0950    16.5050     2.2760   -19.8460 
  250.3750    80.0500     8.6500     8.2920     7.4290    15.7580     2.2970   -20.2320 
  250.5000    84.0380     8.8060     8.3310     7.1290    15.9430     2.3060   -20.5810 
  250.6250    85.7540     8.7730     8.2670     6.6610    16.9450     2.3040   -20.8750 
  250.7500    84.1610     8.6200     8.1690     6.4420    18.3650     2.3020   -21.1150 
  250.8750    83.0840     8.4460     8.0810     6.4970    19.6680     2.3040   -21.3090 
  251.0000    84.2160     8.3430     8.0330     6.8340    20.4330     2.3130   -21.4720 
  251.1250    87.6980     8.3550     8.0570     7.4770    20.7900     2.3260   -21.6170 
  251.2500    90.1860     8.4260     8.1410     7.8250    21.0380     2.3390   -21.7650 
  251.3750    90.8060     8.4990     8.2460     7.8790    21.1800     2.3470   -21.9220 
  251.5000    90.7880     8.5400     8.3170     7.8020    21.1690     2.3470   -22.0760 
  251.6250    90.2230     8.5540     8.3260     7.3870    21.0030     2.3360   -22.2350 
  251.7500    89.1870     8.6030     8.3490     6.8440    20.7970     2.3210   -22.3850 
  251.8750    88.2200     8.7640     8.4710     6.7250    20.7140     2.3040   -22.5250 
  252.0000    88.7570     9.0950     8.7450     7.2840    20.7070     2.2920   -22.6620 
  252.1250    91.0860     9.6230     9.1830     8.0030    20.6630     2.2890   -22.7890 
  252.2500    93.6590    10.2130     9.6870     8.7920    20.5820     2.2940   -22.8940 
  252.3750    96.0150    10.6900    10.1390     9.3840    20.5270     2.3020   -22.9630 
  252.5000    97.1880    10.8710    10.3930     9.3110    20.4680     2.3100   -23.0040 
  252.6250    95.3720    10.6240    10.2980     8.6030    20.5490     2.3180   -23.0100 
  252.7500    92.3680    10.1330     9.9500     8.2180    20.9600     2.3270   -23.0070 
  252.8750    90.3740     9.5940     9.4940     8.3470    21.7060     2.3340   -22.9860 
  253.0000    88.6480     9.1730     9.0790     8.7510    22.4060     2.3370   -22.9430 
  253.1250    86.7770     9.0130     8.8430     9.2300    22.6910     2.3340   -22.8900 
  253.2500    85.4910     9.1070     8.8240     9.5540    22.8250     2.3310   -22.8390 
  253.3750    86.6340     9.4390     9.0440    10.1140    22.9850     2.3330   -22.7980 
  253.5000    88.8960     9.9600     9.4840    10.8730    23.2450     2.3440   -22.7540 
  253.6250    91.5080    10.6040    10.1020    12.8510    23.6020     2.3590   -22.6900 
  253.7500    94.7890    11.2900    10.8030    16.8530    23.8140     2.3660   -22.6130 
  253.8750    97.1820    11.9780    11.5390    23.6270    23.9690     2.3560   -22.5510 
  254.0000    96.6010    12.6290    12.2540    24.6750    24.0640     2.3270   -22.4980 
  254.1250    94.5820    13.1310    12.8370    19.3940    24.0100     2.2900   -22.4460 
  254.2500    94.6920    13.3830    13.2100    15.4600    23.8470     2.2660   -22.4030 
  254.3750    96.6270    13.3100    13.3150    13.5710    23.7550     2.2660   -22.3740 
  254.5000    98.6090    12.9330    13.1410    12.9500    23.8680     2.2880   -22.3570 
  254.6250    98.7260    12.3710    12.7210    12.7940    24.0590     2.3230   -22.3830 
  254.7500    97.1950    11.8200    12.1970    12.2000    24.1640     2.3510   -22.4180 
  254.8750    94.6530    11.3830    11.6760    11.0760    24.2020     2.3640   -22.4440 
  255.0000    92.2120    11.1440    11.2600    10.2000    24.2320     2.3630   -22.4430 
  255.1250    92.4420    11.2480    11.0940    10.8780    24.2850     2.3500   -22.4460 
  255.2500    94.2530    11.7150    11.2440    11.9590    24.2820     2.3340   -22.4180 
  255.3750    95.3800    12.5590    11.7750    12.3520    24.1480     2.3230   -22.3540 
  255.5000    93.9030    13.7140    12.7000    12.6690    23.8610     2.3220   -22.2720 
  255.6250    92.2210    14.9950    13.9400    14.8360    23.4710     2.3380   -22.1570 
  255.7500    93.3910    16.1120    15.1940    17.9810    23.2640     2.3590   -22.0490 
  255.8750    95.9140    16.8920    16.2290    19.4350    23.2180     2.3740   -21.9500 
  256.0000    96.7140    17.2940    16.8930    18.3240    23.3720     2.3760   -21.8690 
  256.1250    94.4740    17.3490    17.1010    16.2310    23.4640     2.3680   -21.8000 
  256.2500    93.5510    17.2300    17.0140    17.1280    23.5990     2.3630   -21.7680 
  256.3750    95.0940    17.0030    16.7530    20.0250    23.9200     2.3670   -21.7730 
  256.5000    96.1190    16.6700    16.4190    22.0260    24.2400     2.3730   -21.8020 
  256.6250    93.6310    16.2200    16.0580    19.5160    24.2330     2.3630   -21.8440 
  256.7500    89.0630    15.7470    15.6930    15.6020    23.9360     2.3320   -21.8750 
  256.8750    86.1280    15.3510    15.3550    13.6930    23.8010     2.2880   -21.9100 
  257.0000    87.8350    15.0970    15.1040    13.4910    24.0020     2.2520   -21.9480 
  257.1250    93.5960    15.0080    15.0070    15.6600    24.0920     2.2540   -21.9760 
  257.2500    96.5130    14.9990    15.0040    17.2930    23.9340     2.2920   -21.9970 
  257.3750    93.8680    15.0190    15.0230    17.2650    23.9240     2.3470   -22.0180 
  257.5000    88.5000    15.0590    15.0440    15.1430    24.1080     2.3900   -22.0460 
  257.6250    86.8200    15.1690    15.1130    13.7120    24.2340     2.3960   -22.0780 
  257.7500    90.2090    15.3370    15.2300    14.0920    24.1810     2.3790   -22.1100 
  257.8750    95.4130    15.4720    15.3200    16.0000    24.0740     2.3600   -22.1240 
  258.0000    97.5680    15.4220    15.2800    18.0680    23.9730     2.3600   -22.1130 
  258.1250    94.9550    15.0490    15.0240    19.4160    23.8790     2.3830   -22.0920 
  258.2500    91.2930    14.5050    14.6540    17.4540    23.8250     2.4070   -22.0400 
  258.3750    90.2500    14.0530    14.3330    15.5000    23.9120     2.4170   -21.9700 
  258.5000    91.0570    13.9940    14.2610    14.9830    24.1210     2.4100   -21.8750 
  258.6250    90.7550    14.6880    14.7560    16.2650    24.2110     2.3940   -21.7590 
  258.7500    89.0570    16.1100    15.9040    18.8280    24.3340     2.3860   -21.6400 
  258.8750    87.6160    18.1050    17.6810    22.3880    24.4230     2.3880   -21.5210 
  259.0000    87.4130    22.5480    19.7810    26.6650    24.4700     2.3930   -21.4350 
  259.1250    87.7980    23.9220    21.3670    30.7750    24.4660     2.3930   -21.3650 
  259.2500    88.0790    23.7470    21.6640    47.9810    24.3330     2.3890   -21.3160 
  259.3750    88.1340    21.9840    20.4690    59.7100    24.1850     2.3840   -21.2770 
