~V
VERS. 2.00: Ver 2.00
~W
STRT.M 50.0000:
STOP.M 212.0000:
STEP.M 0.1250:
NULL. -999.2500:
UWI. F10013:
~C
DEPT.M :
GR.API :
RML.OHMM :
RI. :
RXO.OHMM :
CALI.CM :
DEN.GM/CC :
SP.MV :
~A
# ...
   95.0000    64.4730    33.9110    32.9140    31.8490    22.8360     2.1130   -14.1910 
   95.1250    64.7900    33.7810    32.7980    32.7820    22.6310     2.0990   -14.1430 
   95.2500    65.1660    33.5970    32.6430    32.4440    22.3860     2.0900   -14.1250 
   95.3750    65.1380    33.3730    32.4810    31.5880    22.5230     2.0950   -14.0800 
   95.5000    64.5750    33.1300    32.3420    31.3720    22.9440     2.1110   -14.0280 
   95.6250    63.2720    32.9140    32.2720    32.7900    23.3650     2.1320   -14.0120 
   95.7500    61.6590    32.7850    32.2960    34.0280    23.5070     2.1450   -14.0140 
   95.8750    61.1530    32.7880    32.4310    33.8710    23.3340     2.1480   -14.0390 
   96.0000    61.6790    32.9180    32.6550    33.3940    23.2160     2.1450   -14.0920 
   96.1250    63.4190    33.0500    32.8560    33.4630    23.4210     2.1400   -14.1670 
   96.2500    66.0950    32.9340    32.8160    33.9650    23.7240     2.1320   -14.2640 
   96.3750    67.8970    32.3020    32.2820    34.4850    23.6240     2.1190   -14.3880 
   96.5000    67.9540    30.9870    31.0770    34.2380    23.2660     2.1050   -14.5400 
   96.6250    66.3410    29.0200    29.1990    32.6190    22.8550     2.1010   -14.6670 
   96.7500    66.2890    26.9700    27.1710    30.2250    22.5250     2.1160   -14.7700 
   96.8750    68.8830    25.3890    25.4870    27.1470    22.3020     2.1480   -14.8550 
   97.0000    71.6920    24.7510    24.5660    24.3430    22.2020     2.1840   -14.8660 
   97.1250    70.2300    25.5050    24.8440    21.6700    22.3450     2.2050   -14.8160 
   97.2500    65.6530    27.3420    26.1550    24.1140    22.5960     2.2050   -14.7660 
   97.3750    61.3780    29.8790    28.2720    29.1100    22.7130     2.1900   -14.7170 
   97.5000    58.5790    32.5970    30.7860    32.8620    22.7910     2.1630   -14.6610 
   97.6250    56.7360    34.9190    33.1390    35.0910    23.1700     2.1300   -14.6110 
   97.7500    56.7110    36.6970    35.0050    36.7400    23.5930     2.0940   -14.5400 
   97.8750    58.9200    38.0630    36.3700    36.6930    23.6600     2.0620   -14.4140 
   98.0000    62.8810    39.2600    37.4050    36.0850    23.4060     2.0480   -14.2850 
   98.1250    64.3150    40.3840    38.2230    37.6850    23.3350     2.0600   -14.1430 
   98.2500    62.5590    41.2380    38.7640    40.1360    23.5950     2.0850   -13.9620 
   98.3750    60.6190    41.4700    38.7770    40.8160    23.8450     2.1020   -13.7630 
   98.5000    60.1840    40.8010    38.0310    40.8450    24.0280     2.1000   -13.5670 
   98.6250    59.4020    39.0650    36.4040    40.1800    23.9250     2.0780   -13.4010 
   98.7500    58.6020    36.6450    34.3520    38.0790    23.5600     2.0570   -13.2690 
   98.8750    60.9980    33.9820    32.3320    33.0120    23.1590     2.0510   -13.1690 
   99.0000    64.8430    31.9970    30.7640    28.3970    23.0980     2.0660   -13.1050 
   99.1250    64.3580    31.2700    30.0420    27.4840    23.3150     2.0960   -13.0880 
   99.2500    61.4230    31.5160    30.0610    29.0370    23.4530     2.1270   -13.1280 
   99.3750    59.7140    32.3440    30.6280    30.4550    23.4470     2.1510   -13.2280 
   99.5000    59.9790    33.3400    31.4090    31.0190    23.4150     2.1590   -13.3830 
   99.6250    61.9310    33.9660    31.9360    29.5580    23.4090     2.1460   -13.5820 
   99.7500    65.6800    33.9990    31.9530    27.5060    23.4010     2.1190   -13.8170 
   99.8750    67.8360    33.4680    31.4370    27.1130    23.2990     2.0890   -14.1030 
  100.0000    66.9890    32.5700    30.5430    26.8710    23.0150     2.0670   -14.4410 
  100.1250    66.5010    31.5270    29.4840    26.1830    22.6270     2.0620   -14.8580 
  100.2500    67.2130    30.5210    28.4610    26.2090    22.4690     2.0710   -15.3180 
  100.3750    67.2440    29.6700    27.5930    27.1240    22.6190     2.0840   -15.7960 
  100.5000    65.9130    29.1910    27.0520    27.7370    22.8940     2.0910   -16.2870 
  100.6250    66.5800    29.7140    27.3210    28.2960    22.9050     2.0910   -16.7620 
  100.7500    68.6240    31.7950    28.8560    28.6010    22.7000     2.0970   -17.2340 
  100.8750    69.3380    36.1620    32.3340    30.4660    22.5080     2.1270   -17.7240 
  101.0000    68.2640    43.5550    38.5580    35.8490    22.4570     2.1980   -18.2420 
  101.1250    66.6760    54.8650    48.6930    55.2000    22.5100     2.3100   -18.7390 
  101.2500    65.9520    67.9400    61.1040    88.0780    22.5290     2.4340   -19.1620 
  101.3750    66.5370    78.3960    72.0070   108.5490    22.4890     2.5420   -19.5030 
  101.5000    67.4340    80.3970    75.9030    98.0990    22.4000     2.6170   -19.7950 
  101.6250    68.4830    69.6790    67.9310    88.7640    22.3450     2.6520   -20.0900 
  101.7500    72.5400    52.9790    53.3260    83.7510    22.3730     2.6640   -20.3850 
  101.8750    79.4350    36.7600    38.0470    57.8070    22.4280     2.6590   -20.6570 
  102.0000    83.9190    24.6840    26.0800    28.8960    22.4390     2.6400   -20.8900 
  102.1250    82.8980    17.7460    18.6470    16.8510    22.3750     2.6020   -21.0630 
  102.2500    83.2230    13.8780    14.0770    13.9520    22.3740     2.5470   -21.2080 
  102.3750    86.0360    11.9260    11.8400    12.2070    22.4210     2.4800   -21.3400 
  102.5000    88.0220    11.0490    11.2610    11.1750    22.4560     2.4100   -21.4660 
  102.6250    91.3270    10.6870    10.9870    10.3620    22.4510     2.3550   -21.5720 
  102.7500    96.2700    10.4010    10.5060     9.6060    22.4160     2.3250   -21.6530 
  102.8750    97.6440    10.0800    10.0360     8.9260    22.3620     2.3170   -21.7030 
  103.0000    96.0940     9.7230     9.6440     8.6170    22.3120     2.3240   -21.6940 
  103.1250    99.5390     9.3470     9.2190     8.4770    22.2500     2.3330   -21.6660 
  103.2500   103.6170     8.9470     8.7290     8.5300    22.1910     2.3380   -21.6800 
  103.3750   101.6600     8.5250     8.3110     8.3110    22.1460     2.3400   -21.7400 
  103.5000    97.8760     8.1070     7.9690     7.7370    22.1220     2.3440   -21.8000 
  103.6250    99.7140     7.7740     7.6670     7.4920    22.1580     2.3480   -21.8130 
  103.7500   103.8070     7.5850     7.4280     7.3050    22.2200     2.3480   -21.7890 
  103.8750   104.4650     7.5940     7.3630     7.3440    22.2480     2.3400   -21.7430 
  104.0000   102.2280     7.8240     7.5700     7.6910    22.2300     2.3260   -21.7170 
  104.1250    99.1720     8.2820     8.0150     8.2300    22.1630     2.3160   -21.7380 
  104.2500    96.3540     8.8530     8.5060     8.4590    22.0820     2.3190   -21.7490 
  104.3750    93.0910     9.4220     8.9850     8.9820    21.9540     2.3390   -21.7190 
  104.5000    89.4320     9.8590     9.4330    10.2310    21.7760     2.3650   -21.6590 
  104.6250    89.5110    10.0160     9.6510    11.1560    21.6300     2.3810   -21.5770 
  104.7500    92.9090     9.9340     9.7020    10.4210    21.5610     2.3780   -21.4890 
  104.8750    95.4180     9.7280     9.6600     9.9470    21.5180     2.3590   -21.4060 
  105.0000    94.4590     9.5820     9.5700    10.0960    21.4720     2.3310   -21.3320 
  105.1250    90.7720     9.8020     9.6550    10.5210    21.4930     2.3050   -21.2570 
  105.2500    88.0950    10.5880    10.1320    11.4280    21.6490     2.2850   -21.1770 
  105.3750    86.7720    12.1140    11.1910    13.3320    21.9240     2.2660   -21.0920 
  105.5000    85.2270    14.4570    12.9490    16.3580    22.2570     2.2410   -21.0100 
  105.6250    80.0410    17.5970    15.5250    19.7010    22.6390     2.2020   -20.9560 
  105.7500    73.3670    20.9840    18.5460    26.3740    23.0280     2.1540   -20.9170 
  105.8750    69.6290    24.0580    21.5390    35.7070    23.2740     2.1080   -20.8830 
  106.0000    68.7550    26.3760    24.0090    40.1870    23.2940     2.0800   -20.8420 
  106.1250    68.5250    27.8480    25.6550    34.3190    23.1660     2.0820   -20.8010 
