~V
VERS. 2.00: Ver 2.00
~W
STRT.M 57.0000:
STOP.M 255.0000:
STEP.M 0.1250:
NULL. -999.2500:
UWI. F10046:
~C
DEPT.M :
GR.API :
RML.OHMM :
RI. :
RXO.OHMM :
CALI.CM :
DEN.GM/CC :
SP.MV :
~A
# ...
  169.5000    56.9170    13.8100    12.6110    13.3480    24.9940     2.5350    -3.9180 
  169.6250    57.0340    13.7120    12.4200    13.3890    25.0110     2.5340    -3.8890 
  169.7500    56.8140    13.5100    12.2860    13.4220    25.0230     2.5340    -3.8730 
  169.8750    55.7540    13.2340    12.2260    13.4570    25.0300     2.5330    -3.8930 
  170.0000    55.8950    13.2260    12.2520    13.4980    24.9830     2.5330    -3.9790 
  170.1250    58.2380    13.2910    12.3820    13.5580    24.8730     2.5360    -4.1210 
  170.2500    60.2360    13.4290    12.5820    13.9520    24.7770     2.5420    -4.2820 
  170.3750    60.0150    13.6920    12.8240    14.3910    24.7070     2.5520    -4.4140 
  170.5000    58.7140    14.0660    13.0690    14.7390    24.6620     2.5640    -4.4860 
  170.6250    59.0970    14.4730    13.2950    15.0620    24.6030     2.5720    -4.5330 
  170.7500    60.1370    14.8370    13.5200    15.3460    24.5000     2.5720    -4.5930 
  170.8750    61.1180    15.1620    13.7870    15.3510    24.3180     2.5590    -4.6620 
  171.0000    62.9790    15.5000    14.1280    15.1450    24.0800     2.5340    -4.7060 
  171.1250    66.5610    15.8710    14.5040    15.0510    23.9860     2.5040    -4.7070 
  171.2500    69.9280    16.1520    14.7600    15.2770    24.1270     2.4830    -4.6810 
  171.3750    71.8800    16.1160    14.7000    15.5920    24.3690     2.4740    -4.6780 
  171.5000    72.3130    15.5230    14.1470    15.7030    24.4780     2.4770    -4.7180 
  171.6250    71.1820    14.1890    12.9610    14.6340    24.4350     2.4820    -4.7550 
  171.7500    68.9080    12.3890    11.4050    12.5520    24.3820     2.4790    -4.7820 
  171.8750    65.8850    10.4950     9.7750    10.5080    24.3240     2.4680    -4.7820 
  172.0000    63.0800     8.8990     8.3610     8.9020    24.2670     2.4580    -4.7550 
  172.1250    60.9180     7.9400     7.4230     7.6460    24.2620     2.4580    -4.7240 
  172.2500    58.7740     7.6670     6.9280     6.9950    24.2620     2.4680    -4.6970 
  172.3750    55.7300     7.6960     6.8020     7.0600    24.2400     2.4820    -4.6650 
  172.5000    51.6650     7.8120     6.9080     7.4220    24.1730     2.4930    -4.6140 
  172.6250    50.3590     7.8090     7.0470     7.6060    24.0830     2.4900    -4.5610 
  172.7500    53.0970     7.6330     7.0380     7.5630    24.0330     2.4720    -4.5040 
  172.8750    56.7440     7.3150     6.8170     7.2330    24.0550     2.4400    -4.4430 
  173.0000    56.1890     6.9650     6.4270     6.6350    24.1900     2.4030    -4.3700 
  173.1250    51.2800     6.6600     5.9990     5.8120    24.4880     2.3750    -4.2980 
  173.2500    46.6000     6.4290     5.6720     5.1960    24.7980     2.3600    -4.2510 
  173.3750    43.7930     6.2510     5.5010     4.9970    24.9320     2.3520    -4.2270 
  173.5000    43.5730     6.2090     5.4820     5.2080    24.8420     2.3440    -4.2300 
  173.6250    48.5290     6.2410     5.5700     5.6020    24.8200     2.3300    -4.2470 
  173.7500    57.1410     6.2330     5.6660     5.9750    24.8420     2.3180    -4.2760 
  173.8750    63.3920     6.1420     5.7100     6.2000    24.7820     2.3170    -4.3320 
  174.0000    64.3860     6.0540     5.6810     6.2350    24.3820     2.3280    -4.4310 
  174.1250    62.0440     6.0200     5.6050     5.9690    23.9440     2.3410    -4.5430 
  174.2500    58.7210     6.0650     5.5540     5.6070    23.6980     2.3460    -4.6360 
  174.3750    55.3690     6.1890     5.5700     5.5140    23.8450     2.3400    -4.7060 
  174.5000    52.6600     6.3570     5.6570     5.6490    24.3120     2.3280    -4.7550 
  174.6250    50.2630     6.5210     5.7750     5.8530    24.6090     2.3200    -4.7990 
  174.7500    46.1830     6.6280     5.8670     5.9740    24.6780     2.3210    -4.8280 
  174.8750    42.1660     6.6720     5.9090     5.9870    24.6240     2.3270    -4.8200 
  175.0000    41.1420     6.6670     5.9040     5.9390    24.5270     2.3350    -4.7610 
  175.1250    42.3400     6.6350     5.8740     5.9060    24.3530     2.3360    -4.6780 
  175.2500    42.7610     6.6010     5.8420     5.8300    24.1940     2.3310    -4.6080 
  175.3750    42.3790     6.5690     5.8130     5.7490    24.1100     2.3280    -4.5560 
  175.5000    43.5070     6.5380     5.7850     5.7860    24.0720     2.3330    -4.5170 
  175.6250    45.3640     6.5190     5.7640     5.9420    23.9800     2.3520    -4.4680 
  175.7500    44.5770     6.5200     5.7600     6.1040    23.8920     2.3720    -4.4100 
  175.8750    40.7460     6.5450     5.7810     6.1930    23.9430     2.3860    -4.3660 
  176.0000    36.1970     6.5720     5.8200     6.0890    24.1640     2.3850    -4.3520 
  176.1250    34.7820     6.5790     5.8610     5.7840    24.3470     2.3680    -4.3660 
  176.2500    35.8770     6.5340     5.8830     5.4910    24.4710     2.3420    -4.3700 
  176.3750    38.2570     6.4330     5.8670     5.3240    24.5300     2.3100    -4.3790 
  176.5000    40.5380     6.3430     5.8140     5.2130    24.6550     2.2720    -4.4010 
  176.6250    39.6250     6.2910     5.7410     5.1780    25.0090     2.2290    -4.4360 
  176.7500    35.9040     6.2890     5.6870     5.1760    25.5150     2.1850    -4.4920 
  176.8750    31.4180     6.3340     5.6700     5.1930    25.8530     2.1460    -4.5620 
  177.0000    29.9610     6.3970     5.6920     5.2470    26.1560     2.1190    -4.6450 
  177.1250    33.0620     6.4730     5.7400     5.2940    26.4120     2.1080    -4.7230 
  177.2500    36.3510     6.5470     5.7920     5.3070    26.8560     2.1050    -4.7970 
  177.3750    35.6070     6.6230     5.8620     5.3730    27.0710     2.1020    -4.8310 
  177.5000    32.9540     6.6590     5.8960     5.4540    26.8900     2.0910    -4.8340 
  177.6250    31.7250     6.6490     5.8870     5.5300    27.2800     2.0700    -4.8250 
  177.7500    32.8550     6.6030     5.8440     5.5300    27.9070     2.0490    -4.8130 
  177.8750    35.4900     6.5310     5.7770     5.4340    28.0210     2.0400    -4.8140 
  178.0000    37.1830     6.4560     5.7070     5.3630    27.6560     2.0490    -4.8340 
  178.1250    36.8040     6.4110     5.6640     5.3870    26.9050     2.0760    -4.8550 
  178.2500    36.1290     6.4060     5.6600     5.4080    26.2970     2.1120    -4.8710 
  178.3750    35.9830     6.4400     5.6910     5.3220    25.7530     2.1490    -4.8950 
  178.5000    36.1860     6.4910     5.7400     5.2300    25.5490     2.1830    -4.9320 
  178.6250    36.8040     6.5410     5.7870     5.2620    25.8310     2.2180    -4.9710 
  178.7500    37.7910     6.5870     5.8260     5.4000    26.1550     2.2550    -5.0170 
  178.8750    38.3770     6.6320     5.8630     5.5780    26.2410     2.2900    -5.0540 
  179.0000    38.1690     6.6840     5.9080     5.7460    26.0190     2.3220    -5.0780 
  179.1250    37.8740     6.7150     5.9590     5.8470    25.8630     2.3440    -5.1190 
  179.2500    38.5080     6.7090     6.0020     5.9870    25.6780     2.3570    -5.1850 
  179.3750    41.0400     6.6450     6.0280     6.1670    25.2690     2.3600    -5.2780 
  179.5000    44.9100     6.5140     6.0270     6.3280    25.0180     2.3530    -5.3770 
  179.6250    48.6880     6.4240     5.9990     6.3360    25.2430     2.3330    -5.4670 
  179.7500    50.5620     6.3630     5.9560     6.1730    25.8560     2.3050    -5.5510 
  179.8750    48.5130     6.3450     5.9060     5.9580    26.1960     2.2770    -5.6300 
  180.0000    42.5730     6.3680     5.8620     5.7620    26.1990     2.2600    -5.7130 
  180.1250    36.7530     6.4560     5.8420     5.6250    26.2910     2.2600    -5.8140 
  180.2500    34.2220     6.5680     5.8500     5.5090    26.6760     2.2740    -5.9110 
  180.3750    34.2620     6.6440     5.8830     5.4050    27.1610     2.2920    -5.9720 
  180.5000    34.1420     6.6900     5.9260     5.2970    27.1810     2.3030    -5.9880 
  180.6250    33.4660     6.7300     5.9630     5.3330    26.8250     2.2970    -5.9630 
