~V
VERS. 2.00: Ver 2.00
~W
STRT.M 50.0000:
STOP.M 293.0000:
STEP.M 0.1250:
NULL. -999.2500:
UWI. F10037:
~C
DEPT.M :
GR.API :
RML.OHMM :
RI. :
RXO.OHMM :
CALI.CM :
SP.MV :
DEN.GM/CC :
~A
# ...
  241.2500    74.6270     7.6710     8.0110     8.0120    24.0930   -10.5250     2.4900 
  241.3750    78.1980     8.0030     8.3800     8.3210    24.2690   -10.6450     2.4930 
  241.5000    81.4990     8.3070     8.6310     8.7630    24.4160   -10.7910     2.4880 
  241.6250    81.3460     8.6660     8.8360     9.2400    24.4920   -10.8920     2.4780 
  241.7500    78.6690     9.0970     9.0630     9.8960    24.5220   -10.9860     2.4700 
  241.8750    77.2370     9.5650     9.3140    10.6680    24.5400   -11.1220     2.4650 
  242.0000    78.7120    10.0120     9.5620    11.4210    24.5680   -11.2240     2.4620 
  242.1250    79.9750    10.4080     9.7850    12.0650    24.6150   -11.3020     2.4600 
  242.2500    79.5320    10.8320    10.0340    12.7130    24.6630   -11.4170     2.4600 
  242.3750    78.1170    11.4270    10.4120    13.4510    24.6880   -11.5040     2.4660 
  242.5000    75.8710    12.3700    11.0630    14.5490    24.6840   -11.5780     2.4820 
  242.6250    73.5100    13.9080    12.2150    16.5410    24.6590   -11.6820     2.5080 
  242.7500    70.6930    15.9980    13.8850    19.5630    24.6210   -11.7800     2.5360 
  242.8750    66.0840    18.5300    16.0410    23.1660    24.5380   -11.9140     2.5560 
  243.0000    61.3080    21.2750    18.5260    25.9950    24.3700   -12.0850     2.5640 
  243.1250    60.9370    23.8770    21.0510    27.6910    24.0850   -12.2800     2.5560 
  243.2500    63.8640    26.0920    23.3170    28.1530    23.7580   -12.5030     2.5380 
  243.3750    65.9010    27.8750    25.2000    27.8920    23.5150   -12.7530     2.5100 
  243.5000    65.4950    29.4240    26.7920    28.1060    23.4940   -13.0310     2.4730 
  243.6250    65.4310    31.2600    28.4770    30.4300    23.7850   -13.3090     2.4330 
  243.7500    66.7010    33.8430    30.7060    34.4490    24.2050   -13.5590     2.3970 
  243.8750    66.3540    37.3380    33.7190    40.2020    24.5500   -13.7860     2.3720 
  244.0000    63.6940    41.4560    37.4060    47.1010    24.6940   -13.9830     2.3580 
  244.1250    60.6200    45.2900    41.1420    55.4990    24.7010   -14.1310     2.3480 
  244.2500    58.1580    47.7460    43.9960    64.2660    24.6890   -14.2460     2.3380 
  244.3750    55.2940    48.2550    45.3530    66.4470    24.6760   -14.3000     2.3290 
  244.5000    53.7050    47.2200    45.2330    54.9070    24.6530   -14.3130     2.3280 
  244.6250    57.1240    46.1250    44.6060    44.9430    24.6280   -14.3540     2.3490 
  244.7500    62.5440    47.2600    45.2680    45.6430    24.6100   -14.3950     2.3880 
  244.8750    64.7280    52.3030    48.8850    54.9950    24.6030   -14.4320     2.4310 
  245.0000    62.6540    62.5720    56.9630    71.0960    24.6140   -14.5450     2.4620 
  245.1250    58.9430    79.8660    71.4430    96.1570    24.6420   -14.6550     2.4760 
  245.2500    55.4490   101.3590    91.0510   126.5810    24.6730   -14.7860     2.4920 
  245.3750    53.2290   126.0210   113.6970   162.6770    24.6870   -15.0130     2.5280 
  245.5000    52.4430   149.7020   135.7260   199.4930    24.6650   -15.2340     2.5910 
  245.6250    52.3990   165.6340   151.3470   215.3400    24.6210   -15.4950     2.6650 
  245.7500    52.6000   171.0770   158.0490   205.1520    24.5940   -15.8230     2.7240 
  245.8750    52.7950   166.2880   155.6010   195.4150    24.5830   -16.1420     2.7530 
  246.0000    52.5780   154.5880   146.2890   190.3420    24.5740   -16.4920     2.7520 
  246.1250    50.6440   140.5850   133.7350   184.7070    24.5610   -16.9080     2.7270 
  246.2500    48.8090   128.1940   121.9490   171.2590    24.5460   -17.3580     2.6880 
  246.3750    48.3340   118.8860   112.7240   149.4420    24.5360   -17.8590     2.6370 
  246.5000    48.9270   113.1150   106.8040   128.7780    24.5480   -18.4080     2.5720 
  246.6250    51.2070   111.0180   104.5730   120.3130    24.5870   -19.0110     2.4990 
  246.7500    54.4280   111.0710   104.6610   118.4050    24.6380   -19.6650     2.4290 
  246.8750    56.8540   112.2350   106.0810   119.3250    24.6810   -20.3930     2.3720 
  247.0000    57.5910   113.6150   107.9200   123.6130    24.6840   -21.1790     2.3340 
  247.1250    56.9830   114.4460   109.3350   124.6990    24.6450   -21.9790     2.3170 
  247.2500    54.8610   114.5340   109.9600   119.1040    24.5940   -22.7630     2.3110 
  247.3750    51.4030   113.9030   109.7290   109.4200    24.5360   -23.5150     2.3100 
  247.5000    50.5460   112.4170   108.7740   102.0920    24.4410   -24.2000     2.3130 
  247.6250    55.0850   110.6990   107.4700    96.3890    24.2990   -24.7740     2.3200 
  247.7500    57.6190   109.8010   106.6770    88.8160    24.1840   -25.2590     2.3290 
  247.8750    54.3500   111.7410   107.4090    86.3240    24.1700   -25.5980     2.3400 
  248.0000    49.7480   117.4310   110.7680    94.9440    24.3030   -25.7690     2.3480 
  248.1250    48.9590   130.6060   118.4640   115.2600    24.5320   -25.8480     2.3510 
  248.2500    48.5310   149.2870   130.3600   138.4680    24.6520   -25.7990     2.3450 
  248.3750    47.4000   169.8790   145.8650   163.3810    24.6360   -25.6550     2.3320 
  248.5000    47.9920   190.3960   163.2520   188.8510    24.5580   -25.4820     2.3120 
  248.6250    48.3130   208.8290   179.3410   212.9600    24.5590   -25.2030     2.2910 
  248.7500    46.7450   221.9430   191.3960   228.3450    24.6630   -24.8840     2.2750 
  248.8750    46.2030   228.2920   198.0520   226.5660    24.7850   -24.5700     2.2660 
  249.0000    48.6970   228.5200   199.5400   213.9640    24.8220   -24.1940     2.2660 
  249.1250    51.8820   224.2940   196.9580   199.4600    24.7940   -23.8190     2.2740 
  249.2500    53.5940   217.8970   192.5250   192.8660    24.7710   -23.4500     2.2860 
  249.3750    53.4470   209.5160   186.7140   192.5130    24.7540   -23.0530     2.2990 
  249.5000    50.6430   198.8930   179.2280   192.3550    24.7360   -22.6930     2.3110 
  249.6250    47.1250   185.5510   169.3610   183.5650    24.7170   -22.3660     2.3180 
  249.7500    48.1890   171.6900   157.9230   166.7710    24.7030   -22.0550     2.3210 
  249.8750    52.9810   159.1100   146.1920   147.1700    24.6880   -21.7670     2.3210 
  250.0000    56.1630   149.2170   135.7340   130.5700    24.6710   -21.5030     2.3220 
  250.1250    54.8290   142.9540   128.1380   122.0320    24.6520   -21.2650     2.3250 
  250.2500    53.9760   136.0470   123.0030   117.8600    24.6370   -21.0300     2.3270 
  250.3750    54.9230   130.8670   119.3960   114.1130    24.6060   -20.8220     2.3240 
  250.5000    55.0040   125.8830   116.0070   108.9520    24.5330   -20.6180     2.3150 
  250.6250    54.7680   119.5800   111.3490   102.2510    24.3630   -20.4040     2.3030 
  250.7500    56.7080   111.7480   105.0370    87.8060    24.1100   -20.1960     2.2920 
  250.8750    60.2710   102.9610    97.4310    69.4350    23.8250   -20.0210     2.2820 
  251.0000    62.5250    94.3140    89.4700    56.7780    23.5840   -19.8550     2.2750 
  251.1250    61.3720    87.3850    82.6030    54.8900    23.5470   -19.6880     2.2750 
  251.2500    58.7680    83.0400    77.8280    58.9730    23.6900   -19.6070     2.2790 
  251.3750    56.7020    82.1030    76.0020    65.0070    23.8660   -19.5310     2.2880 
  251.5000    55.4140    85.3990    77.9350    71.7260    23.9660   -19.4760     2.2950 
  251.6250    53.3140    94.7900    85.3110    82.6290    24.0430   -19.5190     2.2960 
  251.7500    50.4370   110.0970    97.9710    98.6520    24.1970   -19.5220     2.2920 
  251.8750    48.5950   130.9440   115.6120   122.7160    24.4250   -19.5110     2.2840 
  252.0000    48.3080   155.3570   136.5580   153.2400    24.6650   -19.5620     2.2770 
  252.1250    49.6030   178.7310   156.9050   182.2130    24.7850   -19.5370     2.2740 
  252.2500    51.2860   195.7910   172.0980   195.3990    24.8350   -19.4820     2.2740 
  252.3750    51.4450   203.0480   179.1270   190.5530    24.8430   -19.4000     2.2760 
