~V
VERS. 2.00: Ver 2.00
~W
STRT.M 51.0000:
STOP.M 313.0000:
STEP.M 0.1250:
NULL. -999.2500:
UWI. F10047:
~C
DEPT.M :
SP.MV :
GR.API :
RML.OHMM :
RI. :
RXO.OHMM :
CALI.CM :
DEN.GM/CC :
~A
# ...
  152.2500   -12.2610    72.0750     7.6880     6.7980     6.3910    22.1520     2.2410 
  152.3750   -12.5450    73.4770     7.6150     6.6950     6.4490    22.1120     2.2350 
  152.5000   -12.8270    73.3440     7.6630     6.6540     6.4840    22.0010     2.2230 
  152.6250   -13.1730    72.8800     7.8520     6.7030     6.6080    21.8130     2.2100 
  152.7500   -13.5930    70.4180     8.1190     6.8190     6.8580    21.7300     2.1990 
  152.8750   -13.9970    66.5190     8.4010     6.9720     6.9930    21.7110     2.1910 
  153.0000   -14.3370    63.2850     8.6280     7.1130     6.9990    21.7110     2.1860 
  153.1250   -14.6440    63.1740     8.7280     7.1960     7.0490    21.7110     2.1780 
  153.2500   -14.9280    64.7340     8.7430     7.2360     7.1570    21.7110     2.1590 
  153.3750   -15.1670    64.9320     8.7500     7.2640     7.1400    21.7110     2.1250 
  153.5000   -15.3040    63.3380     8.8050     7.3020     7.0530    21.7110     2.0770 
  153.6250   -15.2900    61.9050     8.9150     7.3510     7.0140    21.7130     2.0320 
  153.7500   -15.2270    61.6650     9.0180     7.3950     6.8600    21.7440     2.0090 
  153.8750   -15.2090    62.0490     9.0590     7.4230     6.6990    21.8380     2.0120 
  154.0000   -15.2600    63.5170     9.0030     7.4290     6.5920    21.9880     2.0290 
  154.1250   -15.3590    67.0000     8.8290     7.4140     6.7760    22.0580     2.0350 
  154.2500   -15.4690    68.5980     8.5990     7.3740     6.9700    22.0780     2.0170 
  154.3750   -15.5710    66.3810     8.3760     7.3110     6.9370    22.0780     1.9830 
  154.5000   -15.6720    63.4700     8.2410     7.2430     6.8590    22.0780     1.9510 
  154.6250   -15.8470    63.1680     8.2710     7.1850     6.8890    22.0780     1.9430 
  154.7500   -16.0510    63.8330     8.4040     7.1390     6.9570    22.0780     1.9600 
  154.8750   -16.1940    63.6170     8.5580     7.1000     7.0130    22.0780     1.9930 
  155.0000   -16.2050    61.6870     8.6790     7.0660     7.0640    22.0780     2.0280 
  155.1250   -16.0500    60.4300     8.7220     7.0380     6.9680    22.0790     2.0510 
  155.2500   -15.7660    60.0670     8.6470     6.9970     6.8090    22.0940     2.0620 
  155.3750   -15.2840    60.8750     8.3720     6.9100     6.7800    22.1700     2.0650 
  155.5000   -14.5790    64.0460     7.8510     6.7260     7.0430    22.4150     2.0700 
  155.6250   -13.5940    68.2140     7.1280     6.3910     7.3480    22.9840     2.0900 
  155.7500   -12.4180    71.2080     6.4110     5.9600     7.1350    23.7100     2.1250 
  155.8750   -11.1500    73.9810     5.8470     5.5060     6.5360    24.2780     2.1680 
  156.0000    -9.8170    78.2250     5.4890     5.1060     5.9690    24.5240     2.2100 
  156.1250    -8.4460    83.0070     5.3320     4.8390     5.4470    24.5630     2.2390 
  156.2500    -7.1800    85.6730     5.2980     4.6960     5.1430    24.5620     2.2540 
  156.3750    -6.1570    85.7110     5.3440     4.6550     5.0650    24.5600     2.2570 
  156.5000    -5.3950    84.9060     5.4290     4.6770     5.1430    24.5570     2.2530 
  156.6250    -4.8730    85.9650     5.5070     4.7320     5.1830    24.5560     2.2500 
  156.7500    -4.5400    87.0580     5.5480     4.7910     5.2210    24.5580     2.2510 
  156.8750    -4.3400    86.6710     5.5600     4.8490     5.1760    24.5610     2.2530 
  157.0000    -4.2900    87.4860     5.5630     4.9030     5.2000    24.5630     2.2530 
  157.1250    -4.3840    89.9000     5.5720     4.9520     5.2200    24.5630     2.2520 
  157.2500    -4.4940    89.7890     5.5810     4.9980     5.3770    24.5620     2.2530 
  157.3750    -4.6040    88.1150     5.5930     5.0470     5.3920    24.5610     2.2610 
  157.5000    -4.7520    88.6070     5.6290     5.1120     5.1810    24.5580     2.2720 
  157.6250    -4.9830    89.7550     5.7190     5.2090     5.1240    24.5450     2.2790 
  157.7500    -5.2960    88.2500     5.8500     5.3290     5.5290    24.4920     2.2790 
  157.8750    -5.6870    86.7090     5.9900     5.4470     6.2410    24.3730     2.2720 
  158.0000    -6.0430    86.5700     6.0970     5.5360     6.2130    24.1890     2.2680 
  158.1250    -6.3020    85.6230     6.1210     5.5580     5.9420    24.0400     2.2740 
  158.2500    -6.5260    84.5000     6.0710     5.5210     5.5260    23.9830     2.2860 
  158.3750    -6.7290    84.3990     5.9750     5.4390     5.3320    23.9730     2.2980 
  158.5000    -6.8560    84.9470     5.8610     5.3320     5.3400    23.9730     2.3040 
  158.6250    -6.8790    84.9030     5.7470     5.2180     5.3250    23.9730     2.3020 
  158.7500    -6.8450    85.2800     5.6540     5.1200     5.2630    23.9730     2.2970 
  158.8750    -6.8520    85.3500     5.6180     5.0700     5.2410    23.9730     2.2900 
  159.0000    -7.0640    84.9950     5.6960     5.1090     5.2640    23.9730     2.2770 
  159.1250    -7.5530    84.6670     5.9980     5.3110     5.3950    23.9360     2.2570 
  159.2500    -8.1710    82.7280     6.5330     5.6900     5.7640    23.8310     2.2320 
  159.3750    -8.8140    78.9540     7.2400     6.2230     6.5020    23.6700     2.2090 
  159.5000    -9.4980    78.2270     7.9530     6.8110     7.3520    23.4870     2.1930 
  159.6250   -10.2070    82.5190     8.3960     7.2520     7.9490    23.3680     2.1930 
  159.7500   -10.8080    84.3650     8.4760     7.4390     8.3210    23.3230     2.2050 
  159.8750   -11.2320    81.6080     8.2720     7.3970     7.8790    23.3160     2.2250 
  160.0000   -11.5030    77.8100     8.0190     7.2740     7.0970    23.3160     2.2440 
  160.1250   -11.6470    75.5410     8.0780     7.3120     7.3550    23.3160     2.2550 
  160.2500   -11.7670    72.9970     8.6280     7.6680     9.3160    23.3160     2.2540 
  160.3750   -11.9030    69.6030     9.7280     8.4340    12.2050    23.3160     2.2450 
  160.5000   -12.0740    66.8290    11.2940     9.6120    15.5050    23.3160     2.2340 
  160.6250   -12.3120    65.7610    13.0030    11.0450    20.5310    23.3140     2.2260 
  160.7500   -12.6620    65.1770    14.2850    12.2690    22.1190    23.3020     2.2210 
  160.8750   -13.0900    64.9830    14.7480    12.8960    17.5100    23.2750     2.2160 
  161.0000   -13.5190    65.3810    14.3510    12.7950    11.9380    23.2540     2.2140 
  161.1250   -13.8830    66.3890    13.3750    12.1040     9.5590    23.2490     2.2190 
  161.2500   -14.1400    67.5120    12.3580    11.2470     8.9020    23.2600     2.2310 
  161.3750   -14.3680    70.8410    11.5520    10.4530     8.8520    23.2840     2.2420 
  161.5000   -14.6120    77.0340    11.0270     9.8490     8.7710    23.3040     2.2440 
  161.6250   -14.8260    81.9770    10.7320     9.4920     8.3690    23.3130     2.2250 
  161.7500   -14.9690    82.3820    10.5210     9.3030     8.1080    23.3120     2.1950 
  161.8750   -15.0750    78.4110    10.3480     9.2190     8.1980    23.3120     2.1650 
  162.0000   -15.2000    72.3130    10.2200     9.1910     8.3780    23.3110     2.1450 
  162.1250   -15.3490    66.9490    10.1590     9.1800     8.4030    23.3110     2.1410 
  162.2500   -15.4830    63.5710    10.1240     9.1510     8.2640    23.3090     2.1450 
  162.3750   -15.5580    64.0810    10.0600     9.0820     8.1590    23.3100     2.1540 
  162.5000   -15.5730    67.3610     9.9340     8.9660     8.2570    23.3130     2.1620 
  162.6250   -15.6040    68.3130     9.7610     8.8190     8.4430    23.3040     2.1650 
  162.7500   -15.6450    65.2480     9.5960     8.6780     8.3750    23.2690     2.1620 
  162.8750   -15.6740    62.5420     9.4660     8.5670     8.1210    23.2140     2.1530 
  163.0000   -15.6340    63.8510     9.3830     8.4950     8.0020    23.1790     2.1410 
  163.1250   -15.5500    66.1400     9.3560     8.4710     8.0740    23.1710     2.1310 
  163.2500   -15.5350    66.7500     9.3710     8.4830     8.1430    23.1710     2.1250 
  163.3750   -15.5490    67.0020     9.4100     8.5150     8.1040    23.1710     2.1240 
