~V
VERS. 2.00: Ver 2.00
~W
STRT.M 55.0000:
STOP.M 264.0000:
STEP.M 0.1250:
NULL. -999.2500:
UWI. F10017:
~C
DEPT.M :
DEN.GM/CC :
SP.MV :
GR.API :
CALI.CM :
RXO.OHMM :
RI. :
RML.OHMM :
~A
# ...
  100.0000     2.0560   -43.4930    67.7620    20.8740     8.5380     9.5610    10.8460 
  100.1250     2.0610   -43.4560    69.7420    20.9790     8.8280     9.5100    11.1220 
  100.2500     2.0610   -43.4900    71.1830    20.9910     8.8760     9.3510    11.4350 
  100.3750     2.0670   -43.6010    71.1560    20.9880     8.5400     9.1720    11.6400 
  100.5000     2.0810   -43.7000    70.3450    21.0500     7.9590     9.0060    11.6190 
  100.6250     2.0940   -43.6300    71.1890    21.1440     7.9200     8.8410    11.2920 
  100.7500     2.0970   -43.3650    74.0160    21.1910     7.7610     8.6860    10.8430 
  100.8750     2.0950   -43.0080    77.0990    21.3840     7.6440     8.6020    10.4570 
  101.0000     2.0840   -42.6150    78.7750    21.8540     7.5240     8.6830    10.2750 
  101.1250     2.0620   -42.3070    79.1970    22.3340     7.5800     9.0460    10.4540 
  101.2500     2.0390   -42.0410    79.7470    22.6750     8.9400     9.6310    10.9200 
  101.3750     2.0290   -41.8950    79.7220    23.0410    14.4020    10.2740    11.5040 
  101.5000     2.0380   -41.9250    79.0430    23.4890    23.0690    10.6950    11.9210 
  101.6250     2.0620   -42.1800    78.9620    23.4690    26.3460    10.5320    11.7540 
  101.7500     2.0900   -42.6630    80.2050    22.9950    20.7890     9.8540    11.0190 
  101.8750     2.1240   -43.2930    82.3140    22.6620    13.3420     8.8790     9.9520 
  102.0000     2.1620   -43.9750    84.5060    22.8520     9.0810     7.8520     8.8460 
  102.1250     2.2010   -44.6950    89.0160    23.3090     6.9230     6.9580     7.8900 
  102.2500     2.2290   -45.4790    97.8410    23.6660     6.5780     6.2110     7.0720 
  102.3750     2.2410   -46.1800   107.5950    23.8560     7.5170     5.5940     6.3690 
  102.5000     2.2460   -46.7200   113.2620    23.9660     8.7000     5.1070     5.8180 
  102.6250     2.2570   -47.0480   113.4780    24.0230     7.5590     4.8240     5.6040 
  102.7500     2.2710   -47.2600   111.8680    24.0510     5.2830     4.7690     5.7980 
  102.8750     2.2740   -47.4630   109.3980    24.0700     4.3800     4.9830     6.3880 
  103.0000     2.2630   -47.7080   106.9370    24.1100     5.2630     5.4740     7.2280 
  103.1250     2.2450   -47.8970   105.0540    24.1580     7.4740     6.1970     8.0790 
  103.2500     2.2330   -48.0950   101.0290    24.2110     9.1490     6.9020     8.6540 
  103.3750     2.2260   -48.3120    92.8690    24.2440     9.4910     7.3460     8.7420 
  103.5000     2.2240   -48.5620    83.7560    24.2520     9.2110     7.3900     8.3170 
  103.6250     2.2370   -48.8930    81.5480    24.2320     8.3540     7.0570     7.5490 
  103.7500     2.2690   -49.1690    85.4990    24.1840     7.3730     6.5960     6.8060 
  103.8750     2.3110   -49.3400    90.5940    24.1190     6.8180     6.1430     6.3150 
  104.0000     2.3440   -49.4650    91.0080    24.0860     7.0310     5.7730     6.1400 
  104.1250     2.3480   -49.4890    86.6520    24.0590     8.5600     5.5440     6.2090 
  104.2500     2.3280   -49.3120    84.7860    24.0520     8.8980     5.4620     6.3830 
  104.3750     2.2900   -49.0030    88.2490    24.0490     7.7130     5.5630     6.7000 
  104.5000     2.2440   -48.5680    92.9180    24.0470     6.5720     5.8950     7.2970 
  104.6250     2.1980   -48.0500    90.1970    24.0060     6.7170     6.5490     8.3670 
  104.7500     2.1610   -47.5590    81.9360    23.8990     7.4980     7.4660     9.7880 
  104.8750     2.1380   -47.1410    74.6020    23.7680     8.1270     8.5040    11.2270 
  105.0000     2.1280   -46.8110    71.4040    23.7000     8.5380     9.3660    12.1450 
  105.1250     2.1330   -46.7530    71.4050    23.7250     8.8280     9.6090    11.9500 
  105.2500     2.1520   -46.8790    71.8070    23.7820     8.8760     9.2630    10.9550 
  105.3750     2.1820   -47.1730    73.2960    23.8650     8.5400     8.5630     9.6590 
  105.5000     2.2150   -47.5860    76.8900    23.9810     7.9590     7.8020     8.5330 
  105.6250     2.2380   -48.0070    82.8660    24.0370     7.5080     7.2190     7.9200 
  105.7500     2.2480   -48.4680    87.7990    24.0530     7.5160     6.8690     7.7490 
  105.8750     2.2460   -48.8870    89.8090    24.0520     7.9690     6.7420     7.8960 
  106.0000     2.2350   -49.1780    90.6490    24.0480     8.5000     6.7760     8.2080 
  106.1250     2.2240   -49.3520    88.6830    24.0490     8.6830     6.8720     8.5380 
  106.2500     2.2240   -49.4860    83.3790    24.0510     8.5490     6.9250     8.8070 
  106.3750     2.2360   -49.5200    78.8750    24.0510     8.3420     6.9130     8.9890 
  106.5000     2.2520   -49.5440    79.2060    24.0490     8.1930     6.8530     9.0440 
  106.6250     2.2620   -49.5170    82.0180    24.0450     7.9330     6.7830     8.9090 
  106.7500     2.2630   -49.3860    81.9200    24.0300     7.6010     6.7330     8.6750 
  106.8750     2.2560   -49.2270    81.0190    23.9960     7.5000     6.7150     8.4580 
  107.0000     2.2430   -49.0680    82.5490    23.9560     7.7930     6.7340     8.3490 
  107.1250     2.2270   -48.8110    85.5620    23.9270     7.7220     6.8080     8.4250 
  107.2500     2.2170   -48.5830    88.5370    23.8490     7.0470     6.9390     8.6400 
  107.3750     2.2280   -48.3700    88.5540    23.7430     6.2920     7.1150     8.9170 
  107.5000     2.2630   -48.1290    85.6980    23.6850     5.9590     7.3080     9.1470 
  107.6250     2.3010   -47.9730    84.5740    23.7620     7.2530     7.4750     9.2090 
  107.7500     2.3100   -47.8270    88.1570    23.9070     8.3530     7.5770     9.0990 
  107.8750     2.2880   -47.7040    92.5490    24.0260     8.5490     7.5850     8.8420 
  108.0000     2.2560   -47.6960    93.3170    24.1030     8.3550     7.4980     8.5240 
  108.1250     2.2410   -47.7660    90.2630    24.1430     8.4320     7.3260     8.2640 
  108.2500     2.2470   -47.8330    87.9870    24.1630     8.4810     7.1060     8.1140 
  108.3750     2.2670   -47.9870    88.8860    24.1420     8.1960     6.8600     8.0940 
  108.5000     2.2880   -48.1720    93.8340    24.0830     7.8000     6.6170     8.2050 
  108.6250     2.2970   -48.3620    98.8700    24.0550     7.7950     6.4110     8.4150 
  108.7500     2.2920   -48.5990   100.0920    24.0470     7.9760     6.2820     8.5940 
  108.8750     2.2820   -48.8440   100.1360    24.0470     8.0180     6.2830     8.6660 
  109.0000     2.2790   -49.0140   100.5710    24.0470     7.9910     6.4460     8.6570 
  109.1250     2.2960   -49.1320    97.6580    24.0460     7.9020     6.7560     8.6670 
  109.2500     2.3290   -49.2180    91.3060    24.0390     7.8340     7.0810     8.7380 
  109.3750     2.3650   -49.2710    84.6310    23.9990     7.8590     7.2860     8.8210 
  109.5000     2.3800   -49.3120    82.5450    23.9050     8.0470     7.2650     8.8100 
  109.6250     2.3580   -49.3370    88.0990    23.8220     8.2140     7.0180     8.6060 
  109.7500     2.3180   -49.4160    94.1450    23.8700     8.0760     6.7500     8.3330 
  109.8750     2.2900   -49.5000    94.8200    23.9770     8.1230     6.6210     8.1450 
  110.0000     2.2890   -49.5500    90.8730    24.0390     8.5230     6.7020     8.1640 
  110.1250     2.3060   -49.6690    87.5360    24.0550    10.1590     6.9690     8.4600 
  110.2500     2.3150   -49.7850    85.9030    24.0690    12.0770     7.2250     8.8560 
  110.3750     2.3130   -49.8550    83.8420    24.0830    12.4870     7.2790     9.0830 
  110.5000     2.3070   -49.9530    83.3230    24.1170    10.8320     7.0350     8.9110 
  110.6250     2.3040   -50.0120    87.5450    24.2090     8.6100     6.5360     8.2590 
  110.7500     2.3020   -50.0110    92.7500    24.2830     7.4360     5.9810     7.4070 
  110.8750     2.3000   -50.0410    96.1080    24.3180     6.8300     5.4840     6.6090 
  111.0000     2.3060   -50.0930    98.2090    24.3630     6.5830     5.1080     6.0880 
  111.1250     2.3300   -50.0950   101.5820    24.3730     6.3380     4.8900     5.9940 
