~V
VERS. 2.00: Ver 2.00
~W
STRT.M 57.0000:
STOP.M 208.0000:
STEP.M 0.1250:
NULL. -999.2500:
UWI. F10012:
~C
DEPT.M :
DEN.GM/CC :
SP.MV :
GR.API :
CALI.CM :
RXO.OHMM :
RI. :
RML.OHMM :
~A
# ...
  147.0000     2.1960   -22.5460    82.6680    23.5230    19.8860    22.8230    27.2510 
  147.1250     2.1930   -22.7090    82.6400    23.6570    24.3470    26.0880    30.9170 
  147.2500     2.1820   -22.8410    80.0420    23.7120    29.6810    29.7370    34.8810 
  147.3750     2.1670   -22.9830    76.1560    23.6820    37.1260    33.5360    38.9290 
  147.5000     2.1500   -23.0640    74.2730    23.6220    47.7560    37.0440    42.5650 
  147.6250     2.1360   -23.1190    75.4530    23.5070    54.4130    39.4570    44.8430 
  147.7500     2.1320   -23.0820    77.0700    23.3850    51.9540    40.5860    45.6420 
  147.8750     2.1440   -22.9500    77.4500    23.4090    43.5610    40.6190    45.3270 
  148.0000     2.1650   -22.8260    78.0780    23.5960    36.7790    40.1230    44.6510 
  148.1250     2.2010   -22.7360    77.5340    23.8660    35.1870    40.0170    44.6800 
  148.2500     2.2560   -22.6010    73.6020    24.0780    36.8090    40.8870    45.8810 
  148.3750     2.3100   -22.4370    68.1820    24.2000    40.8510    42.7800    48.1360 
  148.5000     2.3290   -22.2890    65.8920    24.2690    46.6060    45.2110    50.7460 
  148.6250     2.3100   -22.1320    67.8440    24.3110    49.8850    47.0800    52.3570 
  148.7500     2.2790   -22.0390    71.3950    24.2570    47.8050    47.6050    52.2610 
  148.8750     2.2660   -21.9690    71.9490    24.2120    43.1670    46.7420    50.6450 
  149.0000     2.2650   -21.8870    69.4450    24.2830    38.9560    45.0530    48.3260 
  149.1250     2.2610   -21.8010    68.2970    24.4060    37.4760    43.3260    46.2630 
  149.2500     2.2470   -21.7340    72.3300    24.4830    36.9750    42.0720    44.8920 
  149.3750     2.2280   -21.7360    77.5830    24.4800    36.9930    41.4150    44.2160 
  149.5000     2.2160   -21.7220    79.3510    24.4350    37.1510    41.2370    43.9760 
  149.6250     2.2100   -21.6920    79.0910    24.4030    37.7430    41.2940    43.8220 
  149.7500     2.2060   -21.7040    79.6440    24.3980    38.5380    41.3370    43.5720 
  149.8750     2.2020   -21.7750    79.7230    24.4160    38.9350    41.3230    43.2990 
  150.0000     2.1950   -21.8320    77.6310    24.4350    38.3630    41.3010    43.1540 
  150.1250     2.1880   -21.8400    74.1820    24.4220    36.9700    41.3750    43.2710 
  150.2500     2.1830   -21.9140    70.3620    24.3800    36.7710    41.5700    43.5640 
  150.3750     2.1810   -21.9570    69.1310    24.3630    37.9090    41.8690    43.9120 
  150.5000     2.1830   -21.9540    69.9950    24.3810    39.2360    42.2060    44.1880 
  150.6250     2.1850   -21.9830    70.0940    24.4090    39.5000    42.5010    44.2880 
  150.7500     2.1880   -21.9780    67.8850    24.4750    39.4730    42.7430    44.2460 
  150.8750     2.1890   -21.9050    66.5890    24.5130    40.1560    42.9800    44.1300 
  151.0000     2.1870   -21.8080    68.3300    24.5240    41.6610    44.0400    43.3010 
  151.1250     2.1850   -21.6950    71.7830    24.5080    42.7010    44.0990    43.8100 
  151.2500     2.1860   -21.5820    75.7030    24.4830    42.5990    44.3140    44.4630 
  151.3750     2.1910   -21.4640    78.3110    24.4160    41.7040    44.6450    45.1650 
  151.5000     2.1940   -21.3680    78.1520    24.3500    41.3030    45.0010    45.7970 
  151.6250     2.1910   -21.2420    77.3340    24.3170    41.8280    45.1520    46.1600 
  151.7500     2.1820   -21.1060    78.1700    24.3090    42.4880    44.8260    46.0580 
  151.8750     2.1740   -21.0070    77.4280    24.2980    42.2250    43.8090    45.2870 
  152.0000     2.1770   -20.9720    72.7300    24.2810    40.8960    42.1220    43.8120 
  152.1250     2.1860   -20.9950    70.1160    24.2680    38.2480    40.0630    41.8510 
  152.2500     2.1920   -20.9660    74.9150    24.2570    35.1760    38.1430    39.9360 
  152.3750     2.1890   -20.9090    80.7710    24.2770    33.2500    36.6350    38.3820 
  152.5000     2.1900   -20.8860    80.4890    24.3040    33.7840    35.6190    37.3010 
  152.6250     2.2040   -20.9140    78.3970    24.2930    35.8290    35.1220    36.7140 
  152.7500     2.2230   -20.9780    78.6770    24.2410    36.6720    35.0220    36.4960 
  152.8750     2.2250   -21.0970    79.0270    24.1990    35.5990    35.3260    36.6690 
  153.0000     2.2000   -21.2040    77.0500    24.1990    34.3000    36.0900    37.3190 
  153.1250     2.1620   -21.2860    75.4040    24.1950    35.9030    37.4760    38.6580 
  153.2500     2.1330   -21.4260    74.4960    24.1480    40.3740    39.3800    40.5980 
  153.3750     2.1230   -21.6350    71.6120    24.0440    44.0090    41.6380    42.9760 
  153.5000     2.1210   -21.8200    68.2530    23.9380    44.4610    43.9600    45.4950 
  153.6250     2.1230   -21.9810    67.1260    23.8580    43.5330    45.9310    47.7450 
  153.7500     2.1290   -22.1280    68.0380    23.7670    42.6420    47.3770    49.5150 
  153.8750     2.1380   -22.1740    70.3720    23.6110    41.2430    48.3170    50.7710 
  154.0000     2.1390   -22.1800    72.3080    23.3920    39.3900    48.8870    51.6050 
  154.1250     2.1360   -22.1990    73.7390    23.0960    37.1480    49.1310    52.0410 
  154.2500     2.1370   -22.1580    74.0860    22.7590    34.5030    49.0880    52.1500 
  154.3750     2.1470   -22.0620    72.7600    22.6060    32.6050    48.7540    51.9440 
  154.5000     2.1510   -21.9720    72.0110    22.8480    32.9320    48.1610    51.4460 
  154.6250     2.1440   -21.9080    72.4140    23.3680    35.4120    47.2770    50.5910 
  154.7500     2.1300   -21.7430    74.5430    23.9300    38.7330    46.1240    49.4090 
  154.8750     2.1230   -21.5600    74.9890    24.2110    41.8590    44.6940    47.9090 
  155.0000     2.1230   -21.4290    72.5520    24.3020    43.5590    43.0080    46.1330 
  155.1250     2.1270   -21.3330    70.8540    24.3220    42.5990    41.1290    44.1390 
  155.2500     2.1340   -21.1910    71.1030    24.3520    40.5280    39.2100    42.0670 
  155.3750     2.1460   -21.0080    72.8100    24.3910    38.9240    37.3240    39.9940 
  155.5000     2.1660   -20.8320    73.6220    24.3850    38.4030    35.5210    37.9890 
  155.6250     2.1990   -20.6450    74.3190    24.3440    38.0630    34.0290    36.2910 
  155.7500     2.2480   -20.5480    76.1080    24.3150    36.4980    33.1880    35.2150 
  155.8750     2.3160   -20.5370    77.0870    24.2980    34.0100    33.3430    35.0840 
  156.0000     2.3850   -20.4900    75.1750    24.2800    32.8010    34.6560    36.0790 
  156.1250     2.4190   -20.3650    70.6820    24.2760    37.7800    37.1050    38.2960 
  156.2500     2.3880   -20.3190    68.0190    24.2980    51.0770    39.8920    41.0780 
  156.3750     2.3000   -20.3330    69.3540    24.4020    62.2210    42.1380    43.6130 
  156.5000     2.2170   -20.4040    71.1620    24.5060    58.2690    43.0800    45.0370 
  156.6250     2.1720   -20.5340    72.6070    24.5300    46.5330    42.4320    44.7850 
  156.7500     2.1610   -20.6420    75.3130    24.4970    40.2680    41.1640    43.6350 
  156.8750     2.1660   -20.6730    77.3260    24.4740    39.4730    40.0610    42.3810 
  157.0000     2.1720   -20.7160    75.1020    24.4780    39.5950    39.5850    41.6300 
  157.1250     2.1740   -20.8330    70.4010    24.5020    39.8530    39.7860    41.6190 
  157.2500     2.1690   -20.9690    67.6070    24.5220    40.9040    40.1140    41.8540 
  157.3750     2.1570   -21.0910    67.9060    24.5400    42.7000    40.1860    41.9070 
  157.5000     2.1470   -21.1240    69.9930    24.5650    43.7410    39.8740    41.5930 
  157.6250     2.1470   -21.0720    73.9870    24.5930    42.6990    39.2780    40.9850 
  157.7500     2.1510   -20.9990    78.4140    24.6150    40.3700    38.6620    40.3420 
  157.8750     2.1510   -20.9720    80.5860    24.6080    39.6870    38.1770    39.8150 
  158.0000     2.1490   -20.9900    79.4630    24.5650    40.8690    37.8650    39.4560 
  158.1250     2.1490   -20.9980    75.8230    24.5350    41.6160    37.6480    39.2260 
