~V
VERS. 2.00: Ver 2.00
~W
STRT.M 51.0000:
STOP.M 313.0000:
STEP.M 0.1250:
NULL. -999.2500:
UWI. F10047:
~C
DEPT.M :
SP.MV :
GR.API :
RML.OHMM :
RI. :
RXO.OHMM :
CALI.CM :
DEN.GM/CC :
~A
# ...
  231.0000    -0.5990    47.4160     7.1500     6.8090     6.7900    25.0410     2.4270 
  231.1250    -0.6100    48.0680     7.2520     6.7500     6.8740    24.9830     2.4010 
  231.2500    -0.7090    48.1620     7.2680     6.6020     6.4880    24.8990     2.3790 
  231.3750    -0.8280    46.7410     7.2380     6.4030     5.7980    24.8500     2.3700 
  231.5000    -0.9340    44.5850     7.2160     6.2260     5.4490    24.8450     2.3790 
  231.6250    -1.0510    46.8950     7.2850     6.1650     5.5460    24.8910     2.4010 
  231.7500    -1.1790    53.4320     7.4790     6.2460     5.9270    24.9810     2.4250 
  231.8750    -1.3350    61.0640     7.7920     6.4630     6.4940    25.0770     2.4460 
  232.0000    -1.4720    67.4650     8.2050     6.7870     6.9380    25.1470     2.4610 
  232.1250    -1.5220    70.4630     8.7060     7.1820     6.9880    25.2360     2.4670 
  232.2500    -1.5190    70.5630     9.2460     7.5930     7.2640    25.3460     2.4660 
  232.3750    -1.5290    67.7330     9.7640     7.9800     7.9620    25.4510     2.4600 
  232.5000    -1.5490    63.9190    10.1650     8.2810     9.0890    25.5200     2.4500 
  232.6250    -1.4680    60.2230    10.2930     8.3880     9.8490    25.5550     2.4350 
  232.7500    -1.2910    57.1080    10.1270     8.2900     9.6880    25.5660     2.4180 
  232.8750    -1.0930    54.5930     9.7160     8.0260     8.6470    25.5600     2.4010 
  233.0000    -0.9340    51.8150     9.1890     7.6790     7.5060    25.5370     2.3880 
  233.1250    -0.7580    49.0800     8.7240     7.3530     6.9860    25.5080     2.3880 
  233.2500    -0.5330    48.1220     8.4280     7.1140     7.2340    25.4960     2.4040 
  233.3750    -0.3040    48.2570     8.3280     6.9780     7.4410    25.4930     2.4340 
  233.5000    -0.0770    46.7200     8.3880     6.9320     7.2080    25.4930     2.4690 
  233.6250     0.1070    43.5080     8.5320     6.9460     7.0790    25.4930     2.4970 
  233.7500     0.2440    42.3340     8.6520     6.9640     7.0590    25.4930     2.5090 
  233.8750     0.3440    43.4050     8.6870     6.9590     7.0010    25.4930     2.5070 
  234.0000     0.4340    44.2580     8.6230     6.9190     6.9320    25.4930     2.4940 
  234.1250     0.5160    43.4340     8.4880     6.8540     6.8050    25.4930     2.4750 
  234.2500     0.5740    43.3410     8.3590     6.7840     6.5790    25.4930     2.4540 
  234.3750     0.6400    43.5790     8.2840     6.7160     6.3150    25.4930     2.4300 
  234.5000     0.6590    43.8040     8.2760     6.6580     6.2360    25.4930     2.4080 
  234.6250     0.6030    43.5860     8.3260     6.6220     6.2930    25.4930     2.3960 
  234.7500     0.5190    42.1530     8.3980     6.6080     6.3200    25.4930     2.4000 
  234.8750     0.4930    40.5480     8.4650     6.6170     6.2690    25.4930     2.4180 
  235.0000     0.5550    40.3970     8.4980     6.6330     6.2270    25.4930     2.4380 
  235.1250     0.6150    42.7590     8.4580     6.6300     6.4750    25.4880     2.4430 
  235.2500     0.6230    45.5380     8.3420     6.5900     6.5980    25.4490     2.4280 
  235.3750     0.6030    48.1720     8.1670     6.5140     6.2930    25.3420     2.4020 
  235.5000     0.6420    51.0380     7.9860     6.4240     5.8410    25.1980     2.3780 
  235.6250     0.7770    52.8500     7.8790     6.3570     5.6050    24.9460     2.3710 
  235.7500     0.9060    52.1590     7.8690     6.3370     5.5980    24.6770     2.3770 
  235.8750     0.9610    49.0260     7.9360     6.3700     5.6160    24.4820     2.3900 
  236.0000     0.9720    45.9360     8.0320     6.4380     5.6650    24.4070     2.4020 
  236.1250     1.0370    45.3270     8.0860     6.4970     5.7870    24.4000     2.4060 
  236.2500     1.1420    46.5210     8.0600     6.5120     5.8040    24.4000     2.4040 
  236.3750     1.2650    48.1950     7.9590     6.4720     5.6890    24.4000     2.3970 
  236.5000     1.4170    49.8070     7.8240     6.3890     5.5610    24.4000     2.3900 
  236.6250     1.5580    51.4860     7.7210     6.2980     5.4680    24.4000     2.3870 
  236.7500     1.6920    54.0240     7.6830     6.2420     5.3640    24.3700     2.3890 
  236.8750     1.8330    58.2230     7.7060     6.2470     5.2870    24.2540     2.3930 
  237.0000     1.9770    61.7670     7.7570     6.3060     5.2750    24.0020     2.3990 
  237.1250     2.0800    60.0810     7.7960     6.3870     5.2330    23.8610     2.4060 
  237.2500     2.1500    56.9090     7.8200     6.4540     5.2330    23.8130     2.4120 
  237.3750     2.1870    57.6330     7.8500     6.5000     5.2840    23.8110     2.4190 
  237.5000     2.1530    64.0010     7.8960     6.5340     5.4040    23.8110     2.4250 
  237.6250     2.0720    72.9870     7.9420     6.5680     5.6090    23.8110     2.4310 
  237.7500     1.9940    79.9330     7.9460     6.5850     5.8910    23.8110     2.4360 
  237.8750     1.8950    81.8750     7.8780     6.5610     6.1880    23.8110     2.4350 
  238.0000     1.7690    80.1440     7.7350     6.4780     6.2930    23.8110     2.4280 
  238.1250     1.6740    79.7850     7.5480     6.3480     6.2690    23.8070     2.4120 
  238.2500     1.6810    82.1980     7.3810     6.2220     6.2830    23.7790     2.3930 
  238.3750     1.7990    84.9700     7.3030     6.1560     6.4070    23.7070     2.3740 
  238.5000     1.9770    86.6790     7.3850     6.2080     6.6630    23.6330     2.3610 
  238.6250     2.1350    86.5210     7.6700     6.4180     7.2500    23.6030     2.3550 
  238.7500     2.2710    83.3460     8.0410     6.7120     8.0430    23.5980     2.3530 
  238.8750     2.4520    79.0290     8.3600     6.9990     8.6990    23.5980     2.3520 
  239.0000     2.6640    75.9750     8.5140     7.1850     9.3860    23.5980     2.3500 
  239.1250     2.7160    73.8590     8.4560     7.2020     9.2420    23.5980     2.3460 
  239.2500     2.6170    73.3110     8.3270     7.1200     8.4500    23.5980     2.3440 
  239.3750     2.4520    75.2300     8.2820     7.0450     8.2510    23.5980     2.3470 
  239.5000     2.2520    77.8550     8.4330     7.0830     8.7950    23.5980     2.3560 
  239.6250     1.9920    77.6010     8.8330     7.3290     8.9350    23.5970     2.3760 
  239.7500     1.7300    75.7840     9.3460     7.7160     8.6750    23.6020     2.4040 
  239.8750     1.5130    74.3590     9.8020     8.1170     8.5980    23.6390     2.4310 
  240.0000     1.2910    74.3890    10.0290     8.3820     9.6550    23.7510     2.4500 
  240.1250     1.1490    77.7730     9.9610     8.4390    10.0730    23.9420     2.4490 
  240.2500     1.1310    82.1170     9.8490     8.4600     9.4800    24.2340     2.4350 
  240.3750     1.1790    83.4480     9.9910     8.6530     8.8770    24.6310     2.4160 
  240.5000     1.2580    79.9960    10.6750     9.2200     9.2760    25.1260     2.3990 
  240.6250     1.3980    74.1940    13.2340    10.4280    12.4160    25.5870     2.3870 
  240.7500     1.5820    69.6190    15.5580    12.2340    17.2480    25.8890     2.3780 
  240.8750     1.7860    66.9500    18.1570    14.4280    20.0350    25.9910     2.3680 
  241.0000     2.0380    65.7690    20.3600    16.5260    21.2570    26.0000     2.3550 
  241.1250     2.2790    65.3780    21.3380    17.7460    22.2390    26.0120     2.3400 
  241.2500     2.4390    65.6240    21.1300    17.9130    20.9150    26.0590     2.3250 
  241.3750     2.5160    65.6610    20.0190    17.1740    18.2520    26.1440     2.3100 
  241.5000     2.5870    65.6540    18.3450    15.8310    15.8640    26.2020     2.2970 
  241.6250     2.7420    66.6460    16.2960    14.1240    15.8440    26.2190     2.2910 
  241.7500     2.9300    69.3890    14.1470    12.3600    15.6570    26.2190     2.2930 
  241.8750     3.0650    72.4640    12.2280    10.8150    12.1610    26.2190     2.3040 
  242.0000     3.1360    74.5990    10.9310     9.7630     9.5650    26.2190     2.3200 
  242.1250     3.2190    75.8160    10.8050     9.5660     8.9840    26.2190     2.3310 
