~V
VERS. 2.00: Ver 2.00
~W
STRT.M 64.0000:
STOP.M 308.0000:
STEP.M 0.1250:
NULL. -999.2500:
UWI. F10040:
~C
DEPT.M :
GR.API :
RML.OHMM :
RI. :
RXO.OHMM :
CALI.CM :
DEN.GM/CC :
SP.MV :
~A
# ...
  210.2500    50.5650     6.0030     5.1240     5.7320    24.8110     2.4840    -1.8250 
  210.3750    52.0660     6.1220     5.2340     6.0260    24.6780     2.4760    -1.9260 
  210.5000    52.2420     6.2500     5.3520     6.3400    24.6240     2.4510    -2.0390 
  210.6250    52.1050     6.3520     5.4470     6.5030    24.7080     2.4110    -2.1560 
  210.7500    53.2050     6.4090     5.4990     6.4590    24.8670     2.3750    -2.2340 
  210.8750    55.0300     6.4160     5.5060     6.3230    25.1420     2.3610    -2.2610 
  211.0000    55.1820     6.3860     5.4780     6.3940    25.2810     2.3750    -2.2950 
  211.1250    52.0160     6.3440     5.4390     6.3730    25.3570     2.4050    -2.3540 
  211.2500    48.2510     6.3190     5.4160     6.3690    25.3770     2.4290    -2.3470 
  211.3750    46.4810     6.3250     5.4210     6.3390    25.3980     2.4370    -2.2930 
  211.5000    46.7840     6.3570     5.4510     6.3660    25.4240     2.4310    -2.2640 
  211.6250    45.3790     6.3950     5.4860     6.2600    25.4780     2.4250    -2.1910 
  211.7500    42.1830     6.4180     5.5070     6.1680    25.4790     2.4320    -2.0780 
  211.8750    39.6240     6.4110     5.5010     5.9110    25.4120     2.4480    -2.0160 
  212.0000    39.4670     6.3720     5.4650     5.6900    25.3840     2.4660    -1.9780 
  212.1250    41.6680     6.3060     5.4030     5.6210    25.3940     2.4760    -1.9030 
  212.2500    43.0470     6.2270     5.3310     5.6240    25.4300     2.4770    -1.8490 
  212.3750    41.5150     6.1480     5.2580     5.7790    25.2860     2.4740    -1.8370 
  212.5000    38.0610     6.0830     5.1980     6.0840    25.1600     2.4710    -1.8310 
  212.6250    37.4690     6.0560     5.1730     6.3940    25.1580     2.4680    -1.8430 
  212.7500    39.5110     6.0820     5.1970     6.2130    25.1590     2.4570    -1.9160 
  212.8750    42.1440     6.1700     5.2780     6.0010    25.1390     2.4370    -1.9940 
  213.0000    45.1370     6.3040     5.4020     5.8590    25.0880     2.4110    -2.0390 
  213.1250    47.5850     6.4400     5.5280     5.9930    24.9080     2.3940    -2.0550 
  213.2500    47.4310     6.5220     5.6030     6.3040    24.7260     2.3920    -2.0810 
  213.3750    45.3770     6.5090     5.5910     6.4190    24.6020     2.4040    -2.0890 
  213.5000    43.9140     6.3900     5.4810     6.1890    24.5990     2.4180    -2.0510 
  213.6250    42.5980     6.1780     5.2850     5.5840    24.7700     2.4250    -1.9910 
  213.7500    40.9570     5.9420     5.0670     5.1960    24.9350     2.4240    -1.9380 
  213.8750    40.6490     5.7400     4.8810     5.0400    24.8440     2.4220    -1.8710 
  214.0000    41.2670     5.6170     4.7670     5.0480    24.6610     2.4250    -1.7880 
  214.1250    41.0080     5.6050     4.7560     5.1820    24.6170     2.4360    -1.7320 
  214.2500    40.6130     5.6640     4.8100     5.3240    24.6880     2.4480    -1.6970 
  214.3750    40.3840     5.7550     4.8940     5.3940    24.8130     2.4560    -1.6570 
  214.5000    38.7790     5.8410     4.9740     5.3820    24.9730     2.4580    -1.6420 
  214.6250    36.6130     5.8940     5.0230     5.3690    25.2580     2.4540    -1.6880 
  214.7500    35.8430     5.9180     5.0450     5.4390    25.4950     2.4490    -1.6780 
  214.8750    36.4800     5.9230     5.0500     5.4550    25.3750     2.4440    -1.6510 
  215.0000    37.2860     5.9210     5.0480     5.4440    25.1590     2.4420    -1.6850 
  215.1250    38.4350     5.9170     5.0440     5.5050    25.0470     2.4410    -1.7300 
  215.2500    39.0990     5.9110     5.0390     5.5830    25.0050     2.4410    -1.7360 
  215.3750    38.3000     5.9010     5.0290     5.5080    24.9600     2.4410    -1.7520 
  215.5000    36.7980     5.8850     5.0150     5.3770    24.8910     2.4450    -1.7760 
  215.6250    35.1490     5.8650     4.9960     5.2800    24.9100     2.4520    -1.7500 
  215.7500    34.2480     5.8440     4.9770     5.3300    24.9520     2.4590    -1.7670 
  215.8750    35.2390     5.8280     4.9620     5.4470    24.9930     2.4610    -1.8160 
  216.0000    37.9320     5.8200     4.9550     5.4340    24.9140     2.4550    -1.8130 
  216.1250    39.2920     5.8320     4.9660     5.4940    24.9700     2.4430    -1.7910 
  216.2500    38.0740     5.8670     4.9980     5.4990    25.0940     2.4340    -1.8190 
  216.3750    36.7370     5.9250     5.0520     5.4380    25.1990     2.4320    -1.8460 
  216.5000    38.5090     6.0010     5.1220     5.3990    25.2560     2.4370    -1.8370 
  216.6250    42.3370     6.0840     5.1980     5.5230    25.2500     2.4460    -1.8480 
  216.7500    44.1630     6.1600     5.2690     5.6220    25.1100     2.4560    -1.8590 
  216.8750    43.7840     6.2230     5.3270     5.6300    24.9470     2.4650    -1.8280 
  217.0000    42.8900     6.2710     5.3710     5.6540    24.8880     2.4730    -1.8010 
  217.1250    42.3570     6.3030     5.4010     5.8870    24.9970     2.4780    -1.8070 
  217.2500    41.4920     6.3270     5.4230     6.1940    25.1260     2.4820    -1.7580 
  217.3750    41.0810     6.3450     5.4400     6.3390    25.2330     2.4830    -1.7000 
  217.5000    41.2080     6.3550     5.4490     6.2540    25.3480     2.4820    -1.6720 
  217.6250    41.6420     6.3490     5.4430     6.1430    25.5150     2.4790    -1.6080 
  217.7500    42.6450     6.3200     5.4170     6.0120    25.4720     2.4710    -1.5350 
  217.8750    43.2020     6.2710     5.3720     5.8800    25.2700     2.4590    -1.4620 
  218.0000    42.1060     6.2130     5.3180     5.8780    25.1240     2.4420    -1.3850 
  218.1250    40.4330     6.1650     5.2740     5.7870    25.1380     2.4250    -1.3170 
  218.2500    40.1440     6.1410     5.2510     5.6580    25.2310     2.4160    -1.2450 
  218.3750    41.3670     6.1430     5.2530     5.5770    25.2910     2.4190    -1.1730 
  218.5000    42.3540     6.1660     5.2740     5.6030    25.3030     2.4340    -1.1110 
  218.6250    42.3540     6.2030     5.3090     5.7630    25.2180     2.4560    -1.0650 
  218.7500    42.9780     6.2420     5.3450     6.0110    25.1520     2.4750    -1.0130 
  218.8750    44.6300     6.2750     5.3750     6.1850    25.0920     2.4870    -0.9610 
  219.0000    45.9220     6.2890     5.3880     6.1450    24.9950     2.4910    -0.9400 
  219.1250    45.7410     6.2700     5.3700     5.9500    24.9220     2.4860    -0.9220 
  219.2500    47.0400     6.2180     5.3220     5.7690    24.8970     2.4770    -0.8910 
  219.3750    49.4900     6.1400     5.2500     5.6010    24.9140     2.4670    -0.8510 
  219.5000    50.7840     6.0480     5.1660     5.4610    24.9550     2.4600    -0.8180 
  219.6250    51.0490     5.9670     5.0900     5.4150    24.9810     2.4610    -0.8150 
  219.7500    51.3850     5.9140     5.0410     5.4530    24.9950     2.4670    -0.7900 
  219.8750    49.5730     5.8970     5.0260     5.5400    25.0110     2.4750    -0.7660 
  220.0000    45.1260     5.9140     5.0410     5.6480    25.0690     2.4810    -0.7570 
  220.1250    42.4620     5.9450     5.0700     5.7550    25.1740     2.4800    -0.7190 
  220.2500    43.5280     5.9650     5.0880     5.8260    25.2680     2.4750    -0.6840 
  220.3750    44.4000     5.9590     5.0840     5.7480    25.2820     2.4720    -0.6670 
  220.5000    42.9940     5.9300     5.0570     5.6370    25.2730     2.4750    -0.6590 
  220.6250    41.9690     5.8910     5.0210     5.4630    25.3000     2.4830    -0.6130 
  220.7500    44.0370     5.8600     4.9920     5.3650    25.2920     2.4890    -0.5890 
  220.8750    47.0540     5.8500     4.9820     5.3620    25.3010     2.4850    -0.5970 
  221.0000    49.1860     5.8630     4.9950     5.4030    25.1830     2.4700    -0.5490 
  221.1250    51.1710     5.9010     5.0300     5.3970    25.1390     2.4500    -0.4850 
  221.2500    52.6500     5.9450     5.0700     5.3570    25.1460     2.4330    -0.4910 
  221.3750    52.1680     5.9780     5.1010     5.3670    25.1090     2.4200    -0.5020 
