~V
VERS. 2.00: Ver 2.00
~W
STRT.M 50.0000:
STOP.M 221.0000:
STEP.M 0.1250:
NULL. -999.2500:
UWI. F10024:
~C
DEPT.M :
GR.API :
RML.OHMM :
RI. :
RXO.OHMM :
CALI.CM :
DEN.GM/CC :
SP.MV :
~A
# ...
  173.7500    66.0190    32.7530    31.3090    29.5960    23.8660     2.2170    -6.9850 
  173.8750    68.3720    32.2910    30.8350    30.4330    23.9100     2.2100    -6.9610 
  174.0000    70.3900    32.6020    31.0730    32.7440    24.0020     2.2100    -6.9400 
  174.1250    67.7280    33.4440    31.8670    34.2170    24.0300     2.2200    -6.9180 
  174.2500    64.7320    34.3630    32.7880    34.9810    23.9260     2.2300    -6.9000 
  174.3750    64.9160    35.0010    33.4570    35.2250    23.7770     2.2340    -6.8910 
  174.5000    67.5440    35.0440    33.5090    35.2620    23.7300     2.2300    -6.8850 
  174.6250    69.2950    34.1590    32.5890    35.3370    23.7930     2.2230    -6.8760 
  174.7500    68.9440    32.5350    30.9380    33.9270    23.8320     2.2250    -6.8510 
  174.8750    68.4330    30.4960    28.9280    31.8610    23.8020     2.2420    -6.8180 
  175.0000    69.4570    28.5230    27.0420    28.5960    23.6950     2.2740    -6.7690 
  175.1250    71.5480    27.1870    25.8140    24.8390    23.6480     2.3110    -6.7020 
  175.2500    70.7600    26.6690    25.3560    23.3630    23.7140     2.3380    -6.6380 
  175.3750    67.0420    27.0520    25.6970    26.2140    23.8190     2.3450    -6.5690 
  175.5000    62.6120    28.2900    26.7840    32.2380    23.8810     2.3340    -6.5120 
  175.6250    59.0570    30.2760    28.5320    42.8340    23.9290     2.3190    -6.4620 
  175.7500    58.3770    32.5550    30.5420    39.5750    23.9480     2.3150    -6.4300 
  175.8750    60.2650    34.7330    32.4610    39.6830    23.9590     2.3200    -6.3930 
  176.0000    61.7110    36.3800    33.9130    42.1570    23.9680     2.3250    -6.3720 
  176.1250    61.4800    36.9730    34.4670    41.8930    23.9900     2.3140    -6.3670 
  176.2500    61.4260    36.5920    34.2320    38.6760    24.0400     2.2920    -6.3450 
  176.3750    60.9570    35.4850    33.4290    35.7240    24.0900     2.2690    -6.3220 
  176.5000    59.0230    34.0710    32.3640    34.2710    24.1120     2.2550    -6.3050 
  176.6250    58.6770    32.8290    31.3470    33.5170    24.0870     2.2500    -6.2810 
  176.7500    61.8400    31.9390    30.5320    32.7390    24.0380     2.2500    -6.2500 
  176.8750    65.4120    31.3230    29.9210    32.0150    24.0050     2.2500    -6.2290 
  177.0000    67.0080    30.8340    29.4740    31.8750    23.9640     2.2530    -6.2070 
  177.1250    66.7750    30.4900    29.2600    31.6620    23.9190     2.2590    -6.1810 
  177.2500    65.5560    30.4590    29.3780    30.7580    23.8860     2.2730    -6.1770 
  177.3750    64.2080    30.8950    29.8940    29.3850    23.8600     2.3020    -6.1770 
  177.5000    62.4310    31.7280    30.7100    29.9460    23.8730     2.3480    -6.1890 
  177.6250    58.2540    32.5120    31.4310    34.9740    23.9100     2.4010    -6.2320 
  177.7500    52.7870    32.6900    31.5690    42.9840    23.9400     2.4370    -6.3020 
  177.8750    50.4490    32.0770    30.9380    42.7340    23.9340     2.4440    -6.3900 
  178.0000    53.3630    30.9890    29.8080    33.3070    23.9050     2.4300    -6.4940 
  178.1250    57.9950    30.1210    28.8030    26.4770    23.8560     2.4250    -6.6090 
  178.2500    59.2820    29.8750    28.3200    23.8960    23.8040     2.4480    -6.7290 
  178.3750    57.4020    30.2010    28.3810    26.4220    23.7660     2.4850    -6.8540 
  178.5000    54.9090    30.7050    28.7320    34.3910    23.7550     2.5050    -6.9890 
  178.6250    54.6680    30.7360    28.8480    43.2340    23.8590     2.4760    -7.1370 
  178.7500    57.1390    30.0860    28.4150    37.6720    23.9550     2.4140    -7.2690 
  178.8750    61.0310    28.9810    27.5240    28.5900    24.0090     2.3500    -7.3970 
  179.0000    63.3100    27.8840    26.5270    25.8120    24.0300     2.3080    -7.5200 
  179.1250    61.8710    27.3050    25.8660    25.6200    24.0350     2.2950    -7.6710 
  179.2500    61.6800    27.3060    25.6650    26.7970    24.0200     2.2920    -7.7820 
  179.3750    65.3470    27.7480    25.8470    26.8610    24.0120     2.2840    -7.8890 
  179.5000    69.6120    28.3820    26.2020    25.8280    24.0070     2.2690    -7.9710 
  179.6250    69.5100    29.0010    26.5170    26.2240    24.0420     2.2510    -8.0550 
  179.7500    67.3010    29.5680    26.7720    27.1070    24.0660     2.2340    -8.1020 
  179.8750    66.3070    30.1450    27.0780    28.0300    24.0870     2.2220    -8.1410 
  180.0000    67.4100    30.8250    27.5730    28.5140    24.1150     2.2160    -8.1600 
  180.1250    69.5390    31.7700    28.4530    30.1000    24.1310     2.2170    -8.1660 
  180.2500    70.5920    33.0500    29.7330    31.5020    24.1310     2.2260    -8.1970 
  180.3750    69.5460    34.6880    31.3670    33.4590    24.1170     2.2400    -8.2280 
  180.5000    67.6550    36.6110    33.1990    36.2150    24.0950     2.2550    -8.2580 
  180.6250    67.1320    38.6480    34.9440    40.0880    24.1000     2.2670    -8.2670 
  180.7500    68.2280    40.5590    36.3640    41.8210    24.1180     2.2720    -8.3070 
  180.8750    69.5890    42.2140    37.3870    41.5680    24.1270     2.2710    -8.3470 
  181.0000    69.4350    43.6020    38.1130    40.3170    24.1260     2.2660    -8.4110 
  181.1250    67.9070    44.8090    38.7660    41.8610    24.1290     2.2560    -8.4750 
  181.2500    66.2450    46.0090    39.5490    43.3490    24.1270     2.2480    -8.5450 
  181.3750    65.2540    47.3060    40.5470    44.2160    24.1000     2.2440    -8.6150 
  181.5000    65.5750    48.7420    41.7780    43.8170    24.0570     2.2470    -8.7040 
  181.6250    67.6100    50.2900    43.2280    45.5980    24.0530     2.2580    -8.7800 
  181.7500    70.2170    51.9370    44.8730    48.2770    24.0650     2.2680    -8.8590 
  181.8750    70.6190    53.7980    46.8360    53.8740    24.0600     2.2740    -8.9290 
  182.0000    69.2420    55.9830    49.2370    61.2330    24.0700     2.2730    -8.9720 
  182.1250    70.2590    58.4550    52.0620    64.2940    24.0770     2.2660    -8.9770 
  182.2500    73.0980    60.9190    54.9690    62.6190    24.0420     2.2630    -8.9690 
  182.3750    74.9150    63.1670    57.6300    64.4530    23.9520     2.2670    -8.9290 
  182.5000    72.8150    65.2460    59.8490    65.5820    23.7440     2.2820    -8.8260 
  182.6250    67.9840    67.5260    61.7150    56.0900    23.3960     2.3090    -8.6700 
  182.7500    64.3420    69.4610    63.0430    48.1750    23.1210     2.3480    -8.4560 
  182.8750    63.8570    68.6630    62.1530    52.5920    23.0670     2.3950    -8.1920 
  183.0000    65.0070    61.9420    56.3740    66.5960    23.2550     2.4390    -7.8800 
  183.1250    64.0360    48.3470    44.5830    78.4560    23.6320     2.4610    -7.5490 
  183.2500    63.6460    33.7020    31.7620    76.8030    23.8140     2.4570    -7.2050 
  183.3750    67.0110    21.9720    21.4280    43.9480    23.7150     2.4370    -6.8760 
  183.5000    70.8010    14.3480    14.5940    15.8050    23.5430     2.4160    -6.5860 
  183.6250    68.8900    10.5640    10.9820     8.5130    23.4310     2.4120    -6.3510 
  183.7500    64.3490     8.8140     9.0850     7.4430    23.3960     2.4210    -6.1740 
  183.8750    60.9020     8.2380     8.2410     8.7160    23.3900     2.4340    -6.0610 
  184.0000    58.6600     8.1960     7.9760    10.1820    23.3980     2.4420    -6.0120 
  184.1250    57.5430     8.1350     7.8560     8.5800    23.3850     2.4380    -6.0100 
  184.2500    58.8860     7.7760     7.5480     7.0960    23.3650     2.4250    -6.0460 
  184.3750    61.6230     7.1960     7.0530     6.0220    23.3660     2.4080    -6.1260 
  184.5000    64.2970     6.6450     6.5530     5.6210    23.3810     2.3940    -6.2620 
  184.6250    68.3110     6.4120     6.2920     5.5820    23.3690     2.3860    -6.4330 
  184.7500    76.2030     6.5480     6.3460     5.8990    23.3750     2.3850    -6.6190 
  184.8750    86.1090     7.0310     6.7260     6.6360    23.4800     2.3840    -6.8100 
