~V
VERS. 2.00: Ver 2.00
~W
STRT.M 50.0000:
STOP.M 255.0000:
STEP.M 0.1250:
NULL. -999.2500:
UWI. F10005:
~C
DEPT.M :
SP.MV :
GR.API :
RML.OHMM :
RI. :
RXO.OHMM :
CALI.CM :
DEN.GM/CC :
~A
# ...
  207.5000    -7.2390   110.5130    11.3160     9.5780    10.9090    24.3050     2.3930 
  207.6250    -7.3930   106.1320    11.6790     9.7950    10.9550    24.3550     2.3940 
  207.7500    -7.5030   100.7700    11.9830     9.9550    11.4060    24.3820     2.3990 
  207.8750    -7.5800    97.9300    12.1020     9.9900    11.2540    24.3730     2.4050 
  208.0000    -7.6290    98.4240    11.9810     9.8870    10.8330    24.3280     2.4100 
  208.1250    -7.6730    99.4970    11.7510     9.7490    10.7130    24.2680     2.4160 
  208.2500    -7.6950    98.0280    11.7300     9.7700    10.6750    24.2350     2.4300 
  208.3750    -7.7870    95.0670    12.1840    10.1090    10.5710    24.2600     2.4540 
  208.5000    -7.8930    92.6730    13.2810    10.8860    11.4430    24.3250     2.4840 
  208.6250    -8.1030    89.3590    15.1120    12.2400    14.4000    24.3520     2.5030 
  208.7500    -8.4010    85.1900    17.2990    13.9850    18.2710    24.3500     2.4990 
  208.8750    -8.7570    82.3760    19.4280    15.8440    20.4830    24.3360     2.4710 
  209.0000    -9.1950    83.2590    21.1050    17.4550    19.7970    24.3210     2.4270 
  209.1250    -9.6510    85.2150    22.0250    18.4300    18.8700    24.2840     2.3830 
  209.2500   -10.1310    84.0780    22.3670    18.8160    18.9970    24.2220     2.3500 
  209.3750   -10.6160    81.2290    22.2990    18.7480    19.2780    24.1370     2.3300 
  209.5000   -11.1010    82.7970    21.9980    18.4310    19.0330    24.0470     2.3220 
  209.6250   -11.5550    90.6360    21.7420    18.1410    20.5830    23.9960     2.3240 
  209.7500   -12.0100    95.8690    22.0160    18.2400    20.7030    23.9860     2.3290 
  209.8750   -12.5260    93.1770    23.5210    19.2160    20.3810    24.0080     2.3320 
  210.0000   -13.0890    85.1430    27.1370    21.7660    22.6120    24.0480     2.3240 
  210.1250   -13.7610    77.4390    34.6330    27.6060    32.7520    24.0650     2.3030 
  210.2500   -14.4320    69.7970    48.4410    38.1300    51.4560    24.0240     2.2740 
  210.3750   -15.0880    62.7910    69.3270    55.1430    95.8040    23.9240     2.2450 
  210.5000   -15.7320    59.2870    96.9050    79.3680   164.3950    23.8060     2.2210 
  210.6250   -16.3800    59.1380   130.6380   108.6650   216.0420    23.7360     2.2080 
  210.7500   -16.9920    58.5930   161.9710   135.9160   220.6420    23.7180     2.2010 
  210.8750   -17.4940    56.2120   184.3000   156.3030   231.5870    23.7290     2.1980 
  211.0000   -17.9510    54.1750   196.6720   168.8430   238.4030    23.7410     2.1980 
  211.1250   -18.3110    54.4800   202.3050   175.2230   246.4220    23.7340     2.1980 
  211.2500   -18.6540    56.7940   205.9810   179.2550   240.7670    23.7080     2.1990 
  211.3750   -18.9520    58.9930   208.7960   182.1880   220.8750    23.6560     2.2010 
  211.5000   -19.2530    59.3280   210.7870   184.3660   211.0450    23.5640     2.2030 
  211.6250   -19.5100    58.7010   211.4860   185.5840   233.3070    23.4220     2.2030 
  211.7500   -19.7280    57.3350   210.7290   185.6730   243.2210    23.3050     2.2000 
  211.8750   -19.9590    55.2150   208.3100   184.3960   239.8570    23.3110     2.1960 
  212.0000   -20.1920    53.2520   204.3840   181.8360   223.7860    23.4820     2.1910 
  212.1250   -20.3470    53.6680   199.6380   178.5720   210.1020    23.7650     2.1870 
  212.2500   -20.4720    55.4410   195.2950   175.6930   203.9410    24.0080     2.1810 
  212.3750   -20.5640    56.0660   192.0530   173.9030   202.2780    24.1390     2.1740 
  212.5000   -20.6260    55.0390   190.1460   173.5350   203.3850    24.1250     2.1640 
  212.6250   -20.6710    53.6670   189.6460   174.8360   207.5410    23.9810     2.1520 
  212.7500   -20.7470    52.7830   190.1440   177.4390   211.2550    23.7800     2.1400 
  212.8750   -20.7570    52.2220   191.6470   181.3340   212.2070    23.5720     2.1300 
  213.0000   -20.7080    52.2390   194.1760   186.5110   224.2570    23.3940     2.1250 
  213.1250   -20.6860    53.3350   196.8250   192.2140   233.4690    23.2650     2.1260 
  213.2500   -20.6450    54.7440   196.9440   195.9850   237.0310    23.1710     2.1330 
  213.3750   -20.5380    55.2000   191.1720   194.5700   239.3310    23.0620     2.1440 
  213.5000   -20.4120    54.2970   176.8030   184.8910   237.7660    22.9230     2.1600 
  213.6250   -20.2370    54.1590   152.9950   164.7190   207.4400    22.8070     2.1790 
  213.7500   -19.9670    56.7150   125.8080   139.0110   161.0050    22.7910     2.1960 
  213.8750   -19.6630    61.6580   100.3190   112.8500   125.7170    22.9100     2.2120 
  214.0000   -19.2420    65.0410    79.8680    90.4950    97.4440    23.1610     2.2260 
  214.1250   -18.8080    65.8700    66.6850    75.2650    71.7740    23.4980     2.2360 
  214.2500   -18.3660    67.7910    59.3700    66.3520    56.6820    23.8130     2.2410 
  214.3750   -18.0060    69.7780    57.0460    62.9700    49.7320    24.0460     2.2370 
  214.5000   -17.7260    68.9180    58.6750    64.0230    52.5570    24.1850     2.2220 
  214.6250   -17.5950    65.1290    63.6060    68.8220    66.8910    24.2390     2.1950 
  214.7500   -17.5990    62.8190    70.3630    75.7380    87.5750    24.2490     2.1670 
  214.8750   -17.7520    61.8850    78.3600    84.0520   100.5720    24.2380     2.1500 
  215.0000   -18.0550    60.2450    87.7950    93.7860    94.4840    24.2150     2.1510 
  215.1250   -18.4480    57.5040   100.9710   107.2290    89.7260    24.1730     2.1680 
  215.2500   -18.9310    55.1460   120.2350   126.9220   124.7830    24.1010     2.1850 
  215.3750   -19.4770    54.1180   148.0040   155.2040   207.3330    23.9870     2.1940 
  215.5000   -20.0050    54.5170   185.0750   192.2100   314.5880    23.8270     2.1940 
  215.6250   -20.4910    56.3610   227.5380   232.8210   359.3100    23.6460     2.1890 
  215.7500   -20.8810    57.2620   262.4380   264.9200   392.4640    23.5240     2.1860 
  215.8750   -21.1930    56.6550   279.3940   279.9100   396.7100    23.5430     2.1860 
  216.0000   -21.4830    54.4960   278.1250   278.0440   362.0550    23.7170     2.1850 
  216.1250   -21.7470    53.3930   266.4050   266.3500   336.0270    23.9270     2.1830 
  216.2500   -21.9610    54.4060   253.0940   253.3960   322.2730    24.0420     2.1830 
  216.3750   -22.0930    55.8730   240.3880   241.5920   314.6250    24.0500     2.1890 
  216.5000   -22.1860    56.1340   228.4860   231.2490   302.0300    24.0040     2.2030 
  216.6250   -22.2080    55.0570   216.1820   221.1650   273.6500    23.9510     2.2200 
  216.7500   -22.2660    54.1950   202.0390   209.4950   232.0700    23.9010     2.2300 
  216.8750   -22.2700    53.5240   185.6130   195.3600   200.6020    23.8530     2.2260 
  217.0000   -22.2520    53.2810   167.7130   179.1470   211.5800    23.8150     2.2070 
  217.1250   -22.1240    52.9810   150.1120   162.3010   286.4390    23.8040     2.1800 
  217.2500   -21.9640    52.2280   134.3130   146.5590   230.4890    23.8100     2.1580 
  217.3750   -21.8030    52.6300   121.1780   132.9900   144.1950    23.8270     2.1480 
  217.5000   -21.5600    54.2870   111.1010   122.1680   112.4640    23.8490     2.1500 
  217.6250   -21.3570    54.2810   104.8310   114.9480   105.5600    23.8630     2.1610 
  217.7500   -21.1420    52.1200   102.3540   111.5050   104.3750    23.8660     2.1740 
  217.8750   -21.0440    51.3940   104.5810   112.9670   104.6780    23.8590     2.1850 
  218.0000   -20.9500    53.0930   112.6600   120.6980   109.2340    23.8330     2.1930 
  218.1250   -20.9560    53.5030   129.4000   137.7380   124.8500    23.7860     2.1950 
  218.2500   -20.9800    52.4090   155.3020   164.4460   158.1660    23.7510     2.1910 
  218.3750   -21.0500    51.4300   191.2580   201.3830   246.1820    23.7530     2.1830 
  218.5000   -21.1420    51.7800   235.9920   246.6570   396.4450    23.8020     2.1710 
  218.6250   -21.1890    53.4670   283.3590   293.5020   502.4250    23.9090     2.1600 
