~V
VERS. 2.00: Ver 2.00
~W
STRT.M 60.0000:
STOP.M 262.0000:
STEP.M 0.1250:
NULL. -999.2500:
UWI. F10018:
~C
DEPT.M :
GR.API :
RML.OHMM :
RI. :
RXO.OHMM :
CALI.CM :
DEN.GM/CC :
SP.MV :
~A
# ...
   71.2500    52.3140     8.5130     7.2510     8.8490    25.6580     2.0780   -14.3050 
   71.3750    52.1590     8.5960     7.1650     8.8110    25.6550     2.0840   -14.7150 
   71.5000    52.5980     8.7570     7.2500     8.7420    25.4930     2.0930   -15.0340 
   71.6250    53.3110     8.8900     7.3860     8.9140    25.3180     2.0990   -15.2070 
   71.7500    54.7560     8.9640     7.5020     9.0770    25.3320     2.1040   -15.2980 
   71.8750    55.4420     8.9760     7.5760     9.1230    25.4660     2.1070   -15.3820 
   72.0000    53.8220     8.9350     7.6050     9.1510    25.5870     2.1080   -15.4690 
   72.1250    52.5580     8.8600     7.5930     9.2980    25.5830     2.1070   -15.5440 
   72.2500    54.4210     8.7880     7.5610     9.3620    25.4950     2.1060   -15.5950 
   72.3750    58.1790     8.7450     7.5240     9.1480    25.3610     2.1030   -15.6600 
   72.5000    60.0700     8.7420     7.4930     8.9620    25.2350     2.1000   -15.7650 
   72.6250    57.6150     8.7790     7.4770     8.9360    25.0890     2.0980   -15.8820 
   72.7500    54.8000     8.8260     7.4720     9.1010    24.9990     2.1010   -15.9710 
   72.8750    54.1400     8.8680     7.4710     9.0420    24.9830     2.1100   -15.9820 
   73.0000    54.7790     8.8980     7.4680     8.8450    24.9530     2.1260   -15.9430 
   73.1250    56.1300     8.9210     7.4550     8.7620    24.8600     2.1450   -15.9000 
   73.2500    59.6290     8.9320     7.4240     8.6940    24.7960     2.1600   -15.8470 
   73.3750    65.1010     8.8950     7.3500     8.4530    24.7900     2.1670   -15.7350 
   73.5000    69.0770     8.7560     7.2030     8.1600    24.8080     2.1680   -15.5280 
   73.6250    69.0990     8.4700     6.9520     7.8900    24.7880     2.1730   -15.2500 
   73.7500    70.4610     8.0930     6.6430     7.5020    24.6990     2.1860   -14.9450 
   73.8750    76.7460     7.7120     6.3320     6.7690    24.5650     2.2020   -14.6360 
   74.0000    83.7510     7.4300     6.0880     5.7550    24.4340     2.2140   -14.2920 
   74.1250    85.2220     7.3570     5.9870     5.5590    24.3270     2.2080   -13.9700 
   74.2500    85.2020     7.4670     6.0220     5.9230    24.1890     2.1820   -13.7430 
   74.3750    86.1800     7.6950     6.1600     6.4990    24.1150     2.1400   -13.5580 
   74.5000    84.4970     7.9370     6.3390     7.2240    24.2880     2.0950   -13.3780 
   74.6250    77.5050     8.0450     6.4580     7.2670    24.5280     2.0640   -13.2400 
   74.7500    71.6700     7.9650     6.4500     7.1210    24.6300     2.0560   -13.0690 
   74.8750    69.2220     7.7260     6.3120     6.9970    24.3920     2.0690   -12.8150 
   75.0000    67.7840     7.4400     6.1070     7.0940    23.9560     2.1010   -12.5030 
   75.1250    66.8530     7.2670     5.9430     7.0610    23.5470     2.1470   -12.0420 
   75.2500    66.5240     7.2850     5.8910     7.1100    23.3340     2.1980   -11.4870 
   75.3750    64.9810     7.4920     5.9660     7.2610    23.4010     2.2460   -10.9720 
   75.5000    61.0960     7.8090     6.1300     7.3840    23.7200     2.2800   -10.5840 
   75.6250    57.7490     8.0570     6.2790     7.7150    24.0280     2.2870   -10.3030 
   75.7500    59.4110     8.1040     6.3110     7.6580    24.0360     2.2730   -10.0700 
   75.8750    66.2900     7.9430     6.2050     7.4320    23.7560     2.2500    -9.8560 
   76.0000    73.9160     7.6780     6.0230     7.3300    23.4280     2.2300    -9.6150 
   76.1250    77.0860     7.4980     5.8850     7.1430    23.2150     2.2240    -9.3950 
   76.2500    76.4440     7.5410     5.8900     7.3180    23.1610     2.2270    -9.2770 
   76.3750    74.9040     7.8540     6.0880     7.6700    23.2940     2.2320    -9.2730 
   76.5000    72.6270     8.3830     6.4700     8.1910    23.6370     2.2320    -9.3140 
   76.6250    68.7090     8.9640     6.9580     8.8340    24.0650     2.2220    -9.3850 
   76.7500    65.5720     9.3670     7.3830     9.2400    24.3250     2.2050    -9.5680 
   76.8750    63.6630     9.4510     7.6070     9.2080    24.4600     2.1870    -9.8740 
   77.0000    63.2250     9.2060     7.5740     9.0110    24.5150     2.1780   -10.2630 
   77.1250    66.8880     8.7450     7.3130     8.4400    24.5270     2.1850   -10.6340 
   77.2500    72.9800     8.2770     6.9800     7.9250    24.5050     2.2030   -10.7970 
   77.3750    76.4520     7.8960     6.6570     7.4380    24.4550     2.2260   -10.7380 
   77.5000    75.2760     7.6130     6.3710     7.0180    24.4110     2.2470   -10.5200 
   77.6250    74.4550     7.3800     6.1080     6.7270    24.3780     2.2600   -10.1200 
   77.7500    77.8280     7.1190     5.8280     6.4020    24.3700     2.2680    -9.5630 
   77.8750    82.6950     6.7900     5.5090     6.0120    24.4120     2.2700    -8.9890 
   78.0000    85.3110     6.3920     5.1520     5.5480    24.4940     2.2680    -8.5230 
   78.1250    83.4990     5.9680     4.7890     5.0190    24.5500     2.2600    -8.1900 
   78.2500    81.2980     5.6170     4.4850     4.7010    24.5230     2.2520    -8.0040 
   78.3750    80.4520     5.4670     4.3240     4.7260    24.3140     2.2490    -7.9210 
   78.5000    78.7550     5.6440     4.3870     4.6960    23.9460     2.2620    -7.9340 
   78.6250    73.9530     6.3050     4.7850     5.2220    23.7260     2.2950    -8.1120 
   78.7500    68.5320     7.3680     5.4850     6.6240    23.6330     2.3330    -8.4730 
   78.8750    64.7020     8.6730     6.4170    10.5290    23.7140     2.3550    -8.9900 
   79.0000    61.8890     9.8890     7.3820    16.9130    23.9470     2.3470    -9.6050 
   79.1250    59.5950    10.5090     8.0110    14.8910    24.2800     2.3050   -10.3270 
   79.2500    57.9050    10.4850     8.1790    11.2590    24.5260     2.2540   -11.0940 
   79.3750    57.2300    10.0540     8.0030     9.6050    24.5720     2.2140   -11.8040 
   79.5000    58.8450     9.5680     7.7140     9.1040    24.4790     2.1920   -12.4040 
   79.6250    62.2700     9.3400     7.5390     8.8120    24.4250     2.1850   -12.9660 
   79.7500    63.9920     9.3920     7.5400     8.6780    24.5370     2.1800   -13.5110 
   79.8750    63.0230     9.6270     7.6790     8.8670    24.7580     2.1740   -13.9860 
   80.0000    61.7630     9.8940     7.8680     9.1610    24.9140     2.1670   -14.3370 
   80.1250    62.0440    10.0080     7.9810     9.4790    24.9240     2.1580   -14.5020 
   80.2500    63.0040     9.8910     7.9460     9.5230    24.9080     2.1520   -14.5720 
   80.3750    64.7780     9.5620     7.7560     9.1500    24.8960     2.1510   -14.6110 
   80.5000    67.5200     9.1510     7.4830     8.5620    24.8550     2.1570   -14.6090 
   80.6250    70.1100     8.8740     7.2620     7.7170    24.8030     2.1690   -14.5000 
   80.7500    71.5230     8.8440     7.1830     7.0010    24.8350     2.1740   -14.3490 
   80.8750    69.9710     9.0490     7.2570     7.2410    25.0100     2.1600   -14.1690 
   81.0000    63.3430     9.3470     7.4130     8.3040    25.2460     2.1280   -13.9360 
   81.1250    55.5610     9.4690     7.4880     9.3350    25.4290     2.0930   -13.6850 
   81.2500    55.1530     9.2680     7.3660     9.4920    25.3970     2.0810   -13.3580 
   81.3750    63.0010     8.7730     7.0390     8.4220    25.1090     2.1020   -12.9080 
   81.5000    73.9550     8.1660     6.6080     6.7430    24.7350     2.1490   -12.3490 
   81.6250    82.6030     7.7260     6.2470     5.9210    24.4580     2.1970   -11.7580 
   81.7500    88.0000     7.5830     6.0610     5.9480    24.3190     2.2260   -11.1750 
   81.8750    89.1210     7.7420     6.0790     6.5370    24.2260     2.2300   -10.5880 
   82.0000    85.1840     8.1180     6.2730     7.1440    24.1870     2.2150   -10.0310 
   82.1250    79.7330     8.5490     6.5660     7.5600    24.2010     2.1920    -9.5880 
   82.2500    77.3210     8.8550     6.8320     7.9160    24.3480     2.1700    -9.3290 
   82.3750    78.4630     8.9370     6.9890     8.0890    24.6290     2.1550    -9.3210 
