~V
VERS. 2.00: Ver 2.00
~W
STRT.M 50.0000:
STOP.M 274.0000:
STEP.M 0.1250:
NULL. -999.2500:
UWI. F10029:
~C
DEPT.M :
DEN.GM/CC :
SP.MV :
GR.API :
CALI.CM :
RXO.OHMM :
RI. :
RML.OHMM :
~A
# ...
  140.0000     2.2780   -17.9400    99.4050    19.2340     7.4800     7.2520     8.5960 
  140.1250     2.2800   -17.7680   102.3110    19.1930     7.6230     7.5920     8.9600 
  140.2500     2.2840   -17.6750   101.9810    19.2590     8.4190     8.3900     9.8160 
  140.3750     2.2740   -17.6180    97.9510    19.4250     9.8610     9.5570    11.0650 
  140.5000     2.2400   -17.5560    91.2970    19.6420    11.1440    10.8540    12.4550 
  140.6250     2.2020   -17.4510    88.2650    19.9550    11.0230    11.7700    13.4360 
  140.7500     2.1920   -17.3060    90.8870    20.2540    10.1800    11.9390    13.6170 
  140.8750     2.2180   -17.0600    95.9710    20.4440     9.4230    11.3140    12.9470 
  141.0000     2.2660   -16.8300    98.5260    20.5190     8.9830    10.1510    11.7020 
  141.1250     2.3010   -16.5750   100.1970    20.5950     8.2230     8.8400    10.2970 
  141.2500     2.3120   -16.2960   106.7330    20.7530     7.2320     7.7000     9.0760 
  141.3750     2.3090   -16.0630   117.2080    20.9430     6.4580     6.8570     8.1730 
  141.5000     2.3080   -15.8660   124.2230    21.0980     6.0370     6.3440     7.6240 
  141.6250     2.3090   -15.7350   122.3890    21.1520     5.8490     6.1830     7.4510 
  141.7500     2.3020   -15.6400   117.8880    21.1080     5.8200     6.2340     7.5060 
  141.8750     2.2900   -15.6010   115.6040    21.0410     5.9680     6.3780     7.6600 
  142.0000     2.2840   -15.6100   117.0030    21.0310     6.2620     6.4950     7.7860 
  142.1250     2.2860   -15.6420   121.7870    21.0920     6.3170     6.4990     7.7900 
  142.2500     2.2880   -15.6860   126.8790    21.1550     6.0800     6.4420     7.7290 
  142.3750     2.2900   -15.6660   125.0850    21.1120     5.6890     6.4170     7.7020 
  142.5000     2.2970   -15.6590   117.7980    20.9520     5.4400     6.5060     7.7970 
  142.6250     2.3070   -15.7090   119.6250    20.8590     5.5660     6.7660     8.0760 
  142.7500     2.3140   -15.7960   128.6930    20.8730     5.9350     7.1310     8.4670 
  142.8750     2.3180   -15.8870   132.5560    20.9340     6.2710     7.5120     8.8750 
  143.0000     2.3210   -15.8840   124.1790    20.9790     6.3740     7.8040     9.1880 
  143.1250     2.3220   -15.8660   112.8200    20.9930     6.3630     7.8980     9.2880 
  143.2500     2.3160   -15.8390   108.5790    20.9980     6.4490     7.8240     9.2090 
  143.3750     2.3050   -15.8480   109.3300    21.0030     6.6070     7.6540     9.0270 
  143.5000     2.2930   -15.8780   113.0380    21.0080     6.7120     7.4580     8.8170 
  143.6250     2.2820   -15.7750   116.4990    21.0100     6.5640     7.3140     8.6630 
  143.7500     2.2680   -15.6100   116.9740    21.0050     6.4760     7.3220     8.6720 
  143.8750     2.2540   -15.4090   117.7370    20.9420     6.9090     7.6210     8.9920 
  144.0000     2.2520   -15.2380   121.5550    20.7640     8.1130     8.3570     9.7800 
  144.1250     2.2890   -15.0080   120.9880    20.5270     9.5440     9.7290    11.2500 
  144.2500     2.3550   -14.7010   109.9160    20.5500    11.2160    11.6180    13.2740 
  144.3750     2.4130   -14.3440    94.0610    20.7830    13.5210    13.7560    15.5630 
  144.5000     2.4200   -13.8840    82.8110    21.0190    15.3670    15.6340    17.5750 
  144.6250     2.3570   -13.4370    79.6790    21.1650    14.9590    16.6490    18.6630 
  144.7500     2.2670   -12.9560    80.2570    21.2560    14.0630    16.9990    19.0370 
  144.8750     2.1870   -12.4990    83.5000    21.4280    14.9880    17.1060    19.1520 
  145.0000     2.1330   -12.0840    90.0120    21.7920    17.7540    17.3770    19.4430 
  145.1250     2.1050   -11.7070    98.2120    22.2520    19.9070    18.1180    20.1320 
  145.2500     2.0910   -11.4280   103.6640    22.6930    20.5890    19.2440    21.0260 
  145.3750     2.0810   -11.1900   102.0770    22.9670    20.3450    20.5390    22.4130 
  145.5000     2.0750   -11.0840    92.4140    23.2180    20.3820    21.7360    23.6960 
  145.6250     2.0720   -11.0970    81.8860    23.5590    21.0570    22.6140    24.6370 
  145.7500     2.0740   -11.1630    78.5470    23.8290    21.1610    23.1810    25.2440 
  145.8750     2.0800   -11.2790    80.8560    23.7430    20.3430    23.3790    25.4560 
  146.0000     2.0910   -11.3890    80.8680    23.2630    18.9950    23.0770    25.1320 
  146.1250     2.0980   -11.5260    76.3230    22.9630    17.9710    22.1360    24.1240 
  146.2500     2.0980   -11.6600    74.3550    22.8490    17.1420    20.8580    22.7550 
  146.3750     2.0930   -11.7900    76.4870    22.7680    16.0880    19.5930    21.4000 
  146.5000     2.0930   -11.8640    80.1560    22.5390    14.8470    18.6740    20.4150 
  146.6250     2.0980   -11.8320    85.0750    22.1860    14.3640    18.4510    20.1760 
  146.7500     2.1010   -11.7820    89.9480    21.9350    15.4840    18.9120    20.6710 
  146.8750     2.0980   -11.6860    89.0540    21.8720    17.3490    19.9720    21.8060 
  147.0000     2.0950   -11.5900    82.1780    21.9380    18.9260    21.3710    23.3040 
  147.1250     2.0950   -11.4440    75.7360    22.1180    20.4670    22.6000    24.6220 
  147.2500     2.0940   -11.2580    72.7720    22.3920    22.1030    23.2310    25.2980 
  147.3750     2.0940   -11.0810    74.9190    22.6970    23.1270    23.1700    25.2310 
  147.5000     2.0960   -10.9250    80.3490    22.9510    22.6270    22.6400    24.6640 
  147.6250     2.0980   -10.7790    84.2610    23.1070    20.8360    22.0370    24.0180 
  147.7500     2.0950   -10.6230    83.1870    23.1860    20.5930    21.6810    23.6370 
  147.8750     2.0890   -10.4630    77.9990    23.2410    22.0490    21.7020    23.6590 
  148.0000     2.0880   -10.2970    75.2350    23.2720    23.6270    22.1340    24.1220 
  148.1250     2.0950   -10.1640    80.8620    23.2990    24.7850    22.9930    25.0420 
  148.2500     2.0980   -10.0680    87.8590    23.3860    25.7130    24.0890    26.2170 
  148.3750     2.0890   -10.0130    87.0760    23.6080    26.6890    25.2620    27.4730 
  148.5000     2.0710    -9.9860    77.4060    23.9750    27.5010    26.3220    28.6090 
  148.6250     2.0560   -10.0410    73.5220    24.1740    27.3430    26.9720    29.3040 
  148.7500     2.0510   -10.1470    75.8710    24.0950    26.6290    27.0150    29.3510 
  148.8750     2.0550   -10.3180    75.0110    23.7800    26.2390    26.3370    28.6240 
  149.0000     2.0660   -10.5410    70.8150    23.5490    26.3520    25.0440    27.2390 
  149.1250     2.0840   -10.7920    69.0780    23.4350    25.7230    23.4400    25.5210 
  149.2500     2.1030   -11.0380    75.4630    23.3040    23.2740    21.9340    23.9070 
  149.3750     2.1150   -11.2610    86.5350    23.1060    20.5690    20.7300    22.6180 
  149.5000     2.1100   -11.4440    95.0460    22.9850    19.0170    19.9080    21.7380 
  149.6250     2.0920   -11.5840    92.3410    22.9750    18.6080    19.4990    21.2990 
  149.7500     2.0780   -11.6690    84.2980    23.0230    18.4490    19.3510    21.1410 
  149.8750     2.0770   -11.6950    80.0080    23.0870    18.3500    19.3660    21.1570 
  150.0000     2.0850   -11.6080    80.4890    23.1610    18.2010    19.4610    21.2590 
  150.1250     2.0970   -11.4730    80.8410    23.2240    18.0960    19.6050    21.4130 
  150.2500     2.1100   -11.3490    79.3810    23.2830    18.2160    19.8030    21.6250 
  150.3750     2.1160   -11.2210    79.3520    23.3340    18.5300    20.0910    21.9330 
  150.5000     2.1050   -11.0410    82.2860    23.3520    18.8870    20.4860    22.3570 
  150.6250     2.0790   -10.8690    83.5510    23.3300    19.5850    20.9860    22.8920 
  150.7500     2.0560   -10.7450    79.5440    23.2770    21.0280    21.5070    23.4510 
  150.8750     2.0420   -10.6720    73.4730    23.2180    22.7650    21.9670    23.9430 
  151.0000     2.0380   -10.6810    73.1410    23.1940    24.0950    22.2970    24.2970 
  151.1250     2.0460   -10.7380    80.9620    23.2070    24.3800    22.4450    24.4550 
