~V
VERS. 2.00: Ver 2.00
~W
STRT.M 50.0000:
STOP.M 266.0000:
STEP.M 0.1250:
NULL. -999.2500:
UWI. F10057:
~C
DEPT.M :
GR.API :
RML.OHMM :
RI. :
RXO.OHMM :
CALI.CM :
DEN.GM/CC :
SP.MV :
~A
# ...
  128.7500    88.2120     7.7790     6.8140     8.9240    24.4490     2.3280    -1.0010 
  128.8750    87.6640     7.5800     6.7060     7.2060    24.1940     2.3160    -1.0090 
  129.0000    90.1760     7.1760     6.4230     6.5280    23.8140     2.3110    -1.0760 
  129.1250    95.3930     6.7550     6.0730     6.4260    23.5340     2.3150    -1.1620 
  129.2500   100.1450     6.4470     5.7770     6.2680    23.5350     2.3230    -1.2380 
  129.3750   103.3260     6.2730     5.5740     6.0860    23.7400     2.3310    -1.3430 
  129.5000   105.6210     6.2040     5.4730     5.9160    23.9440     2.3370    -1.4990 
  129.6250   105.2010     6.2130     5.4640     6.0670    24.0430     2.3370    -1.6920 
  129.7500   103.0360     6.2530     5.4980     6.4280    24.1150     2.3280    -1.8940 
  129.8750   101.5750     6.2950     5.5380     6.5990    24.1890     2.3100    -2.0680 
  130.0000    98.8260     6.3150     5.5590     6.4630    24.2630     2.2910    -2.2210 
  130.1250    93.2440     6.3000     5.5480     6.3270    24.3340     2.2790    -2.3720 
  130.2500    90.0860     6.2700     5.5270     6.2920    24.3830     2.2800    -2.5520 
  130.3750    91.5920     6.2500     5.5170     6.1660    24.3940     2.2900    -2.7050 
  130.5000    95.4460     6.2600     5.5310     5.9830    24.3240     2.3050    -2.7970 
  130.6250    96.0320     6.2890     5.5520     5.8940    24.0940     2.3240    -2.8440 
  130.7500    92.8600     6.2880     5.5490     5.7100    23.7560     2.3450    -2.8750 
  130.8750    89.6170     6.2130     5.4920     5.5060    23.4490     2.3650    -2.9110 
  131.0000    89.9630     6.0360     5.3610     5.4050    23.2730     2.3770    -2.9460 
  131.1250    93.8270     5.7670     5.1450     5.3720    23.1850     2.3730    -2.9850 
  131.2500    99.1690     5.5010     4.9040     5.4790    23.1060     2.3600    -3.0150 
  131.3750   104.5820     5.3150     4.6960     5.7990    23.1070     2.3460    -3.0850 
  131.5000   108.1510     5.2550     4.5770     6.0040    23.3020     2.3380    -3.1990 
  131.6250   106.3380     5.3560     4.6030     5.7230    23.7010     2.3410    -3.3430 
  131.7500   101.3990     5.5930     4.7640     5.5540    24.0860     2.3510    -3.4840 
  131.8750    96.9810     5.9540     5.0430     5.8410    24.3170     2.3670    -3.6150 
  132.0000    94.2580     6.4040     5.4150     6.3190    24.3920     2.3840    -3.7440 
  132.1250    93.8460     6.8750     5.8310     6.7490    24.3970     2.3920    -3.8320 
  132.2500    91.5840     7.2760     6.2150     7.2300    24.4080     2.3820    -3.9040 
  132.3750    85.1050     7.5450     6.5010     7.7730    24.4670     2.3480    -3.9440 
  132.5000    77.8750     7.6590     6.6490     8.1420    24.5490     2.2980    -3.9540 
  132.6250    75.8530     7.6320     6.6540     8.0650    24.5870     2.2480    -3.9290 
  132.7500    77.7910     7.5720     6.6120     8.0890    24.5970     2.2150    -3.8670 
  132.8750    78.5020     7.5840     6.6150     8.3540    24.6200     2.2040    -3.7770 
  133.0000    76.7970     7.7790     6.7550     8.4170    24.6440     2.2190    -3.6510 
  133.1250    76.2280     8.2610     7.1030     8.2740    24.5880     2.2620    -3.4990 
  133.2500    78.4740     8.9170     7.5960     8.6380    24.4900     2.3290    -3.3260 
  133.3750    80.2820     9.5400     8.1090    10.0610    24.4100     2.4090    -3.1430 
  133.5000    79.7890     9.8560     8.4560    12.1350    24.3560     2.4810    -2.9640 
  133.6250    80.5460     9.5690     8.4020    12.5070    24.3220     2.5190    -2.7800 
  133.7500    84.5700     8.8450     8.0010    10.8290    24.2800     2.5190    -2.6170 
  133.8750    89.6590     7.9700     7.4150     8.6770    24.2110     2.4890    -2.4820 
  134.0000    93.2480     7.2390     6.8460     7.3990    24.1670     2.4450    -2.3800 
  134.1250    94.6560     6.9240     6.4970     7.0300    24.2340     2.3990    -2.3520 
  134.2500    92.9610     7.0140     6.4260     6.8540    24.3660     2.3570    -2.3450 
  134.3750    87.9300     7.4170     6.6090     6.8830    24.4820     2.3180    -2.3380 
  134.5000    83.0100     7.9190     6.9300     7.1500    24.5500     2.2820    -2.3150 
  134.6250    81.4450     8.1800     7.1560     7.9330    24.5960     2.2550    -2.2790 
  134.7500    81.5120     8.0820     7.1540     8.9620    24.6130     2.2440    -2.2220 
  134.8750    82.2770     7.7620     6.9720     9.0610    24.5480     2.2560    -2.1410 
  135.0000    84.9460     7.5180     6.7980     7.5640    24.3660     2.2940    -2.0490 
  135.1250    88.7470     7.7350     6.9020     6.4890    24.1060     2.3530    -1.9560 
  135.2500    88.7590     8.4610     7.3770     8.1640    23.9110     2.4090    -1.8730 
  135.3750    82.3880     9.5350     8.1700    13.1560    23.8820     2.4390    -1.8030 
  135.5000    73.7690    10.6050     9.0760    17.7000    24.0310     2.4310    -1.7400 
  135.6250    68.2640    11.2560     9.7710    15.0850    24.2860     2.3790    -1.6830 
  135.7500    66.6890    11.5430    10.1960    11.5800    24.5010     2.3150    -1.6590 
  135.8750    67.9340    11.6970    10.4710    10.3500    24.5850     2.2680    -1.6620 
  136.0000    71.7910    11.9080    10.7410    10.3100    24.5110     2.2680    -1.6810 
  136.1250    77.2240    12.0920    11.0060    11.9230    24.3110     2.3270    -1.7090 
  136.2500    79.8370    11.9220    11.0470    16.1000    24.0900     2.4060    -1.7280 
  136.3750    78.2450    11.1970    10.6440    18.6120    23.9640     2.4630    -1.7240 
  136.5000    74.8710    10.0820     9.8300    14.3420    24.0250     2.4740    -1.7080 
  136.6250    73.8800     9.0300     8.8970     9.2670    24.2370     2.4350    -1.6990 
  136.7500    76.0810     8.3890     8.1920     7.5830    24.3930     2.3810    -1.6970 
  136.8750    78.6970     8.3080     7.9040     8.1620    24.4100     2.3370    -1.6990 
  137.0000    79.0010     8.7850     8.1140     9.2500    24.3840     2.3110    -1.6920 
  137.1250    78.7160     9.6220     8.7560     9.3290    24.4190     2.3120    -1.6480 
  137.2500    79.1460    10.3530     9.4360     9.2430    24.4650     2.3350    -1.5890 
  137.3750    78.3670    10.6910     9.8580    10.8840    24.4450     2.3750    -1.5300 
  137.5000    75.8400    10.6260     9.9410    14.2790    24.3440     2.4200    -1.4870 
  137.6250    75.3490    10.5180     9.8880    14.2600    24.2370     2.4530    -1.4540 
  137.7500    76.5440    10.8870    10.1010    10.8790    24.1730     2.4740    -1.4240 
  137.8750    74.2100    12.0830    10.8710     9.9440    24.1070     2.4910    -1.3980 
  138.0000    66.6050    14.2420    12.3830    14.2680    23.9290     2.5160    -1.3850 
  138.1250    59.1930    17.2940    14.7510    24.0550    23.5940     2.5520    -1.3980 
  138.2500    57.0340    20.4810    17.4960    30.4680    23.2810     2.5850    -1.4170 
  138.3750    59.0010    23.0450    19.9870    28.2000    23.1290     2.6050    -1.4490 
  138.5000    60.9260    24.5630    21.6990    24.3490    23.1280     2.6130    -1.4730 
  138.6250    60.5950    25.2190    22.5530    24.9810    23.1220     2.6150    -1.4780 
  138.7500    60.0020    25.7200    23.1140    27.6060    23.0460     2.6160    -1.4830 
  138.8750    60.3520    26.2550    23.6010    28.4220    23.0720     2.6150    -1.4930 
  139.0000    61.1520    26.6950    23.9860    27.2180    23.3830     2.6090    -1.5000 
  139.1250    60.5750    26.8080    24.1100    26.9450    23.8730     2.5960    -1.4570 
  139.2500    59.1210    26.5620    23.9480    27.6940    24.2010     2.5820    -1.4120 
  139.3750    59.3240    25.8130    23.3700    27.1470    24.3230     2.5710    -1.3760 
  139.5000    62.7490    24.3350    22.1880    24.7730    24.4040     2.5620    -1.3740 
  139.6250    67.2120    22.0120    20.2970    22.7700    24.5300     2.5520    -1.4000 
  139.7500    69.5420    19.4540    18.2020    21.7590    24.6040     2.5360    -1.4110 
  139.8750    69.9840    17.2800    16.3890    18.7740    24.6080     2.5130    -1.4000 
