~V
VERS. 2.00: Ver 2.00
~W
STRT.M 55.0000:
STOP.M 310.0000:
STEP.M 0.1250:
NULL. -999.2500:
UWI. F10049:
~C
DEPT.M :
GR.API :
RML.OHMM :
RI. :
RXO.OHMM :
CALI.CM :
DEN.GM/CC :
SP.MV :
~A
# ...
  268.7500    98.1970     8.3550     7.0890     6.7390    25.5840     2.3150    -5.7540 
  268.8750    99.7570     8.5760     7.1260     6.8040    25.6390     2.3240    -5.5440 
  269.0000   100.6300     8.7100     7.1490     7.0370    25.7180     2.3320    -5.4220 
  269.1250   102.2660     8.7210     7.1150     7.3310    25.6940     2.3360    -5.2710 
  269.2500   103.7340     8.6460     7.0440     7.2870    25.5180     2.3290    -5.0900 
  269.3750   104.5090     8.5170     6.9630     7.1060    25.3410     2.3100    -4.8980 
  269.5000   105.8460     8.3700     6.8850     6.8560    25.5740     2.2820    -4.6360 
  269.6250   107.3970     8.2470     6.8070     6.6150    26.2050     2.2470    -4.4430 
  269.7500   109.3420     8.1770     6.7240     6.5580    26.5230     2.2060    -4.4080 
  269.8750   110.9380     8.1660     6.6410     6.6670    26.0710     2.1630    -4.3730 
  270.0000   111.1730     8.1950     6.5660     6.6070    25.2270     2.1270    -4.3070 
  270.1250   110.8770     8.2170     6.5030     6.5360    24.6270     2.1210    -4.2890 
  270.2500   110.4800     8.2120     6.4520     6.5600    24.4550     2.1450    -4.2600 
  270.3750   109.4260     8.2150     6.4350     6.7180    24.5080     2.1840    -4.2420 
  270.5000   106.9330     8.2870     6.4850     6.8380    24.7510     2.2110    -4.2400 
  270.6250   102.8730     8.4780     6.6330     6.8430    25.3350     2.2030    -4.2020 
  270.7500    99.1000     8.7250     6.8500     7.2670    26.0570     2.1800    -4.0790 
  270.8750    98.2610     8.9250     7.0800     7.9470    26.5490     2.1690    -3.9410 
  271.0000    99.9300     8.9750     7.2580     8.5980    26.6900     2.1870    -3.9180 
  271.1250    99.7760     8.8100     7.3300     8.0420    26.4140     2.2270    -3.9940 
  271.2500    97.7010     8.5290     7.3240     7.6670    25.9090     2.2600    -4.1430 
  271.3750    97.0330     8.2340     7.2750     7.4360    25.3750     2.2670    -4.2420 
  271.5000    98.0900     8.0140     7.2130     7.5070    25.1480     2.2520    -4.3010 
  271.6250    98.5360     7.9340     7.1630     7.6330    25.5080     2.2330    -4.4740 
  271.7500    98.7190     7.9480     7.1100     7.7080    26.2150     2.2260    -4.6870 
  271.8750   100.3860     7.9840     7.0250     7.1110    26.8580     2.2340    -4.9400 
  272.0000   103.3310     7.9500     6.8950     6.6060    27.2730     2.2480    -5.0930 
  272.1250   104.2110     7.7430     6.7090     6.3780    27.3970     2.2560    -5.1100 
  272.2500   104.0280     7.3870     6.4740     6.1750    27.4560     2.2580    -5.0260 
  272.3750   103.7890     6.9420     6.1970     6.0280    27.5440     2.2550    -4.9020 
  272.5000   103.5490     6.4810     5.8840     5.9790    27.5780     2.2480    -4.8040 
  272.6250   102.3100     6.0670     5.5590     5.5320    27.5390     2.2350    -4.6570 
  272.7500   100.7270     5.7320     5.2850     4.8670    27.6080     2.2190    -4.4110 
  272.8750    98.7830     5.5190     5.1290     4.5650    27.7680     2.2060    -4.0710 
  273.0000    96.2180     5.4760     5.1310     4.5560    27.7990     2.2030    -3.7900 
  273.1250    96.0320     5.6550     5.3100     4.8270    27.5910     2.2090    -3.6160 
  273.2500    96.4170     5.9760     5.5850     5.3110    27.2840     2.2170    -3.5150 
  273.3750    93.8200     6.3510     5.8790     5.5330    26.9790     2.2220    -3.4700 
  273.5000    89.3360     6.7020     6.1290     5.3080    26.7640     2.2230    -3.4010 
  273.6250    88.7910     7.0030     6.3070     5.3820    26.6770     2.2260    -3.3570 
  273.7500    91.4590     7.2740     6.4310     5.7280    26.5750     2.2330    -3.4080 
  273.8750    92.4370     7.4900     6.4870     6.1220    26.3850     2.2440    -3.5340 
  274.0000    90.1370     7.5640     6.4400     6.1550    26.2030     2.2590    -3.6430 
  274.1250    88.5850     7.3680     6.2360     6.1970    26.1360     2.2700    -3.6280 
  274.2500    89.4430     6.9660     5.9330     5.8300    26.1990     2.2740    -3.4920 
  274.3750    89.2850     6.5050     5.6330     5.3690    26.3850     2.2670    -3.3560 
  274.5000    85.5210     6.1780     5.4610     5.0760    26.6340     2.2530    -3.2940 
  274.6250    81.5380     6.1920     5.5520     5.0420    26.7050     2.2420    -3.1930 
  274.7500    80.7860     6.5190     5.8930     5.2250    26.5390     2.2440    -3.1390 
  274.8750    82.9190     7.0650     6.4350     5.7750    26.1280     2.2590    -3.2060 
  275.0000    86.8960     7.6700     7.0550     6.9470    25.5980     2.2770    -3.3200 
  275.1250    89.8420     8.0840     7.5070     7.5370    25.1460     2.2820    -3.4560 
  275.2500    89.3060     8.1550     7.6010     7.3920    25.0530     2.2720    -3.6430 
  275.3750    86.0890     7.8340     7.2910     6.7550    25.2730     2.2550    -3.8140 
  275.5000    83.7160     7.2010     6.6870     6.0970    25.6590     2.2390    -3.8910 
  275.6250    83.8580     6.4490     6.0030     5.6420    26.0000     2.2260    -3.8880 
  275.7500    83.8930     5.8540     5.4720     5.4370    26.1660     2.2180    -3.8040 
  275.8750    81.7610     5.6560     5.2580     5.4190    26.2110     2.2200    -3.6140 
  276.0000    75.9700     6.1190     5.5080     5.7070    26.1950     2.2450    -3.4010 
  276.1250    66.6830     7.6570     6.5470     7.3260    26.1030     2.3020    -3.4030 
  276.2500    57.4190    10.5260     8.5610    12.0210    25.9330     2.3650    -3.4820 
  276.3750    51.5230    15.0110    11.8000    21.9640    25.6670     2.4020    -3.6460 
  276.5000    50.2370    20.6500    16.2370    29.9100    25.2400     2.3930    -4.0190 
  276.6250    53.2510    25.8030    21.0380    30.6960    24.9570     2.3410    -4.5710 
  276.7500    57.8330    29.1250    24.6560    29.3190    24.8810     2.2810    -5.1570 
  276.8750    60.6410    30.4990    26.4480    29.0110    24.9880     2.2340    -5.6720 
  277.0000    60.4350    30.6940    26.9450    28.5040    25.1490     2.2030    -6.1470 
  277.1250    59.0470    30.7860    27.2410    28.0640    25.2660     2.1790    -6.4760 
  277.2500    58.2900    31.5100    28.0250    28.3380    25.3120     2.1520    -6.7950 
  277.3750    57.6240    32.8120    29.3020    29.3120    25.3710     2.1310    -7.1040 
  277.5000    56.3540    34.1450    30.7070    32.6200    25.4530     2.1280    -7.3420 
  277.6250    55.9880    34.6150    31.5010    35.5250    25.5220     2.1530    -7.4660 
  277.7500    56.6500    33.9800    31.3330    33.8280    25.3260     2.1900    -7.5330 
  277.8750    58.0110    32.4990    30.3360    27.9430    25.1830     2.2240    -7.6410 
  278.0000    59.9470    30.7640    29.0270    24.2070    25.1640     2.2430    -7.7110 
  278.1250    62.3610    29.4470    28.0660    24.1340    25.2270     2.2450    -7.7570 
  278.2500    63.8540    28.7340    27.7000    25.7930    25.2620     2.2420    -7.8120 
  278.3750    63.5070    28.4990    27.8410    27.2960    25.2320     2.2380    -7.8370 
  278.5000    62.8210    28.4140    28.1530    27.6400    25.1570     2.2360    -7.7650 
  278.6250    64.4940    28.0030    28.1090    29.3950    25.0400     2.2400    -7.6810 
  278.7500    67.1750    27.0740    27.4970    29.4200    24.9270     2.2510    -7.6840 
  278.8750    68.0610    25.7280    26.4120    25.1400    24.9550     2.2680    -7.7130 
  279.0000    67.6560    24.2800    25.1300    20.2980    25.0220     2.2830    -7.7920 
  279.1250    68.3070    23.1830    23.9980    19.6020    25.0030     2.2850    -7.9850 
  279.2500    68.7590    22.6710    23.2550    20.1210    24.9290     2.2710    -8.1540 
  279.3750    66.3720    22.8870    23.0980    19.1060    24.8410     2.2460    -8.2690 
  279.5000    62.7900    23.9490    23.7280    18.6200    24.7820     2.2160    -8.3960 
  279.6250    62.4780    26.1480    25.5530    20.6380    24.9520     2.1920    -8.5790 
  279.7500    63.6410    29.2990    28.5380    25.3220    25.1100     2.1760    -8.7690 
  279.8750    63.3460    33.0660    32.4870    32.8350    25.1710     2.1690    -8.9430 
