~V
VERS. 2.00: Ver 2.00
~W
STRT.M 50.0000:
STOP.M 250.0000:
STEP.M 0.1250:
NULL. -999.2500:
UWI. F10033:
~C
DEPT.M :
SP.MV :
GR.API :
RML.OHMM :
RI. :
RXO.OHMM :
CALI.CM :
DEN.GM/CC :
~A
# ...
   72.5000   -12.2320    94.8660    17.9010    13.0960    29.8290    25.2920     2.4020 
   72.6250   -12.9930    88.9360    24.3870    18.5710    49.7550    25.2840     2.5000 
   72.7500   -13.8900    81.4300    27.7920    22.1450    50.2900    25.2080     2.5500 
   72.8750   -14.8830    77.8380    25.6520    21.3100    35.5680    25.1140     2.5290 
   73.0000   -15.9420    78.1130    19.7850    17.2320    22.5770    25.0330     2.4430 
   73.1250   -17.0320    77.0090    14.2990    13.0790    14.6480    25.0050     2.3200 
   73.2500   -18.1110    72.7460    10.8280    10.2260     9.7150    25.0940     2.2070 
   73.3750   -19.1400    67.6640     9.1410     8.5980     8.2630    25.3170     2.1250 
   73.5000   -20.0580    63.6490     8.6500     7.8610     8.1280    25.5900     2.0800 
   73.6250   -20.7570    62.0050     8.8690     7.7740     8.3240    25.6900     2.0680 
   73.7500   -21.2430    63.6540     9.2640     7.9750     8.5810    25.6550     2.0720 
   73.8750   -21.5460    67.1070     9.5940     8.2520     8.6330    25.5620     2.0820 
   74.0000   -21.7240    68.9070     9.7500     8.4600     8.4480    25.4150     2.0930 
   74.1250   -21.7850    66.9100     9.7330     8.5320     8.4030    25.2630     2.0980 
   74.2500   -21.7710    64.7160     9.6400     8.5150     8.4640    25.1690     2.0940 
   74.3750   -21.7200    64.4810     9.5330     8.4530     8.5810    25.2000     2.0840 
   74.5000   -21.6630    64.7170     9.4580     8.3810     8.6280    25.3360     2.0750 
   74.6250   -21.6640    63.4800     9.4560     8.3240     8.4880    25.3720     2.0720 
   74.7500   -21.7100    62.9550     9.5260     8.2940     8.4810    25.3600     2.0790 
   74.8750   -21.7720    64.6150     9.6600     8.2950     8.5080    25.3740     2.0900 
   75.0000   -21.8130    66.2000     9.8360     8.3230     8.4610    25.4570     2.1010 
   75.1250   -21.7990    64.6410    10.0170     8.3650     8.6130    25.5870     2.1100 
   75.2500   -21.7430    62.3010    10.1550     8.3920     8.9170    25.6600     2.1170 
   75.3750   -21.6420    63.0240    10.2190     8.3780     9.1510    25.6680     2.1220 
   75.5000   -21.4740    65.7750    10.1950     8.3130     9.2310    25.6510     2.1220 
   75.6250   -21.2380    66.3450    10.1070     8.2100     9.2320    25.6040     2.1150 
   75.7500   -20.9520    65.4660    10.0520     8.1270     9.2850    25.5110     2.1050 
   75.8750   -20.5990    64.9270    10.1270     8.1250     9.2790    25.3850     2.0970 
   76.0000   -20.1690    65.0600    10.3690     8.2380     9.1690    25.2140     2.0990 
   76.1250   -19.6480    65.4700    10.6990     8.4290     9.0320    25.0210     2.1170 
   76.2500   -19.0220    66.3210    10.9060     8.5620     9.3400    24.8140     2.1470 
   76.3750   -18.2330    67.2680    10.8330     8.5240    10.1030    24.6390     2.1860 
   76.5000   -17.2970    70.5370    10.4440     8.2740    10.3540    24.6260     2.2230 
   76.6250   -16.2630    78.8210     9.8250     7.8430     8.7630    24.8480     2.2480 
   76.7500   -15.2530    84.7310     9.1840     7.3650     7.4680    25.1420     2.2550 
   76.8750   -14.3150    83.9360     8.6190     6.9100     6.9180    25.2680     2.2480 
   77.0000   -13.4540    81.3480     8.1530     6.5110     6.4880    25.2940     2.2350 
   77.1250   -12.6790    84.0180     7.7760     6.1880     6.5050    25.2860     2.2310 
   77.2500   -11.9790    89.0830     7.4720     5.9340     6.1290    25.3080     2.2390 
   77.3750   -11.4330    91.8920     7.2780     5.7650     5.6190    25.3450     2.2540 
   77.5000   -11.0880    91.3850     7.2460     5.7010     5.4040    25.3650     2.2640 
   77.6250   -10.8790    89.1830     7.4260     5.7740     5.8410    25.3240     2.2600 
   77.7500   -10.7040    87.3570     7.7250     5.9420     6.1590    25.2530     2.2440 
   77.8750   -10.5540    85.7790     8.0220     6.1390     6.4100    25.2140     2.2250 
   78.0000   -10.4320    84.0100     8.2000     6.2890     6.4480    25.2080     2.2100 
   78.1250   -10.3710    81.8810     8.2010     6.3330     6.7440    25.2090     2.2050 
   78.2500   -10.4070    81.9520     8.1240     6.3160     6.8780    25.2060     2.2060 
   78.3750   -10.5430    83.5370     8.0690     6.2950     6.8940    25.1810     2.2090 
   78.5000   -10.7650    83.1210     8.1090     6.3230     6.6840    25.1120     2.2080 
   78.6250   -11.0700    80.2230     8.3140     6.4530     6.9590    25.0200     2.1990 
   78.7500   -11.4040    77.8480     8.6530     6.6810     7.5280    24.9590     2.1870 
   78.8750   -11.7680    76.7040     9.0580     6.9740     8.1880    24.9280     2.1790 
   79.0000   -12.1320    74.2440     9.4250     7.2630     8.5480    24.9080     2.1800 
   79.1250   -12.3870    70.7790     9.6250     7.4540     8.7640    24.7880     2.1920 
   79.2500   -12.4930    70.8300     9.6320     7.5090     8.9820    24.5590     2.2050 
   79.3750   -12.3980    74.3780     9.4610     7.4250     9.0240    24.4320     2.2190 
   79.5000   -12.1210    77.3320     9.1680     7.2300     8.2210    24.6640     2.2330 
   79.6250   -11.7320    77.5650     8.8210     6.9670     8.7210    25.0450     2.2480 
   79.7500   -11.2960    77.9780     8.4730     6.6900     9.5000    25.2410     2.2580 
   79.8750   -10.7890    80.4420     8.1520     6.4290     8.6340    25.3210     2.2590 
   80.0000   -10.2380    83.4850     7.8830     6.2100     7.3010    25.3750     2.2490 
   80.1250    -9.7590    83.5680     7.6820     6.0510     6.7450    25.4030     2.2320 
   80.2500    -9.4130    82.0140     7.5310     5.9400     6.9200    25.4160     2.2210 
   80.3750    -9.2010    82.6710     7.4410     5.8900     7.0530    25.4410     2.2220 
   80.5000    -9.0550    85.4270     7.4240     5.9120     6.7660    25.4770     2.2410 
   80.6250    -8.9170    85.2980     7.4850     6.0110     6.6420    25.5130     2.2810 
   80.7500    -8.8020    83.7540     7.6010     6.1560     6.9400    25.5140     2.3270 
   80.8750    -8.7530    84.7550     7.7440     6.3220     8.0120    25.4950     2.3610 
   81.0000    -8.7770    87.3350     7.8530     6.4700     9.6020    25.4890     2.3660 
   81.1250    -8.8450    85.1490     7.8360     6.5340     8.1770    25.5100     2.3350 
   81.2500    -8.9020    81.3880     7.6920     6.5080     7.4840    25.5250     2.2940 
   81.3750    -8.9590    81.3700     7.4520     6.4010     7.3840    25.5310     2.2640 
   81.5000    -9.0330    84.3160     7.1700     6.2460     7.0830    25.5340     2.2540 
   81.6250    -9.1060    84.6990     6.9340     6.0920     6.5310    25.5360     2.2640 
   81.7500    -9.1580    81.9620     6.7970     5.9840     6.2550    25.5380     2.2780 
   81.8750    -9.1630    78.9100     6.7670     5.9320     6.1630    25.5370     2.2880 
   82.0000    -9.1210    78.0840     6.8180     5.9220     5.9440    25.5170     2.2910 
   82.1250    -9.0300    79.1180     6.8850     5.9130     5.9890    25.4540     2.2900 
   82.2500    -8.8880    81.1470     6.8730     5.8420     6.1210    25.3730     2.2920 
   82.3750    -8.6920    83.7450     6.7090     5.6560     6.1190    25.3500     2.3000 
   82.5000    -8.4490    86.6530     6.3610     5.3370     5.7940    25.3690     2.3160 
   82.6250    -8.1860    90.5790     5.8490     4.9120     5.3160    25.3670     2.3340 
   82.7500    -7.9220    95.3040     5.3380     4.5040     5.1880    25.3380     2.3470 
   82.8750    -7.6700    98.7960     5.0420     4.2570     5.1990    25.3110     2.3540 
   83.0000    -7.4550    98.9910     5.2000     4.3130     5.2280    25.3080     2.3680 
   83.1250    -7.3110    95.3310     6.1580     4.8970     5.5770    25.3260     2.4120 
   83.2500    -7.2690    87.3950     7.9180     6.0600     7.5520    25.3350     2.4780 
   83.3750    -7.3610    75.8770    10.3520     7.8340    13.2380    25.3350     2.5390 
   83.5000    -7.5940    64.0980    12.9560     9.9990    22.8220    25.3320     2.5570 
   83.6250    -7.9770    58.3160    14.6280    11.7650    20.3660    25.3690     2.5000 
