~V
VERS. 2.00: Ver 2.00
~W
STRT.M 60.0000:
STOP.M 242.0000:
STEP.M 0.1250:
NULL. -999.2500:
UWI. F10022:
~C
DEPT.M :
GR.API :
RML.OHMM :
RI. :
RXO.OHMM :
CALI.CM :
DEN.GM/CC :
SP.MV :
~A
# ...
  105.0000    81.5340     6.0800     5.0650     6.0680    23.9880     2.3040    -4.4080 
  105.1250    74.6590     6.6710     5.5490     6.9200    23.8580     2.2920    -4.6430 
  105.2500    66.7890     7.2330     6.0620     7.6650    23.7580     2.2830    -4.8880 
  105.3750    64.5690     7.6380     6.4900     7.9040    23.7570     2.2740    -5.1050 
  105.5000    67.6340     7.8240     6.7440     7.6730    23.8240     2.2650    -5.3010 
  105.6250    71.3890     7.7530     6.7530     7.3810    23.8810     2.2580    -5.4560 
  105.7500    71.9490     7.4950     6.5750     7.2770    23.9030     2.2590    -5.5650 
  105.8750    70.2290     7.0880     6.2560     7.3200    23.9110     2.2690    -5.6280 
  106.0000    70.8170     6.5810     5.8550     7.2690    23.9250     2.2920    -5.6640 
  106.1250    75.1210     6.0870     5.4650     6.8210    23.9550     2.3190    -5.6830 
  106.2500    80.1920     5.7690     5.1940     6.3030    23.9700     2.3410    -5.6680 
  106.3750    82.2550     5.7690     5.1390     6.1400    23.9670     2.3470    -5.6630 
  106.5000    80.6100     6.1760     5.3700     6.5450    23.9390     2.3340    -5.7030 
  106.6250    77.1590     7.0310     5.9470     7.6200    23.8880     2.3060    -5.8020 
  106.7500    73.4040     8.1020     6.7420     8.9970    23.8390     2.2720    -5.9700 
  106.8750    70.7140     9.1460     7.6030    10.1400    23.8150     2.2360    -6.1710 
  107.0000    67.9090     9.9160     8.3370    10.8580    23.8460     2.2060    -6.3530 
  107.1250    63.1650    10.1840     8.7280    11.3580    23.9240     2.1900    -6.4880 
  107.2500    59.6210    10.0620     8.7910    11.4730    23.9670     2.1890    -6.6080 
  107.3750    60.1380     9.7250     8.6300    10.8860    23.8990     2.1980    -6.7130 
  107.5000    63.7150     9.3970     8.4030     9.8520    23.7450     2.2060    -6.7770 
  107.6250    65.0610     9.3540     8.3190     9.5240    23.6880     2.2020    -6.8080 
  107.7500    64.1750     9.7510     8.5270    10.1350    23.6680     2.1910    -6.7720 
  107.8750    63.4900    10.7050     9.1470    11.0020    23.6110     2.1870    -6.6630 
  108.0000    62.0120    12.1860    10.2110    11.7460    23.4970     2.2100    -6.4990 
  108.1250    59.1190    13.8850    11.5710    13.2090    23.3890     2.2720    -6.3100 
  108.2500    58.1910    15.1650    12.7510    15.9520    23.3360     2.3540    -6.1210 
  108.3750    60.4180    15.4910    13.2900    19.0290    23.2840     2.4270    -5.9280 
  108.5000    63.6450    14.6060    12.8810    21.3360    23.1980     2.4600    -5.7260 
  108.6250    67.2330    12.6360    11.4750    20.4280    23.1880     2.4350    -5.5020 
  108.7500    71.6520    10.4360     9.7120    14.1990    23.2680     2.3820    -5.2700 
  108.8750    74.2700     8.5670     8.0670     8.8660    23.4150     2.3320    -5.0550 
  109.0000    74.0960     7.2800     6.7960     7.1190    23.5620     2.3040    -4.8380 
  109.1250    75.6290     6.5930     5.9930     6.8060    23.6600     2.3030    -4.6340 
  109.2500    80.8450     6.2190     5.4960     6.5240    23.7640     2.3150    -4.4600 
  109.3750    85.9240     6.0210     5.2230     6.0890    23.8580     2.3260    -4.2920 
  109.5000    88.5770     5.9690     5.1430     5.7540    23.9000     2.3330    -4.1570 
  109.6250    88.0590     6.1940     5.3380     5.7390    23.8910     2.3400    -4.0290 
  109.7500    83.8620     6.7430     5.8210     6.2360    23.8670     2.3620    -3.9010 
  109.8750    78.6480     7.5520     6.5500     7.7020    23.8530     2.4040    -3.8010 
  110.0000    75.9840     8.4030     7.3680    10.2600    23.8660     2.4560    -3.7930 
  110.1250    75.2150     8.9160     7.9640    13.4370    23.8810     2.4890    -3.8620 
  110.2500    72.5830     8.9070     8.1290    16.0260    23.8830     2.4850    -3.9190 
  110.3750    69.3530     8.4060     7.8290    16.3820    23.9190     2.4460    -3.9630 
  110.5000    70.1350     7.6580     7.2320    12.9980    23.9980     2.3940    -3.9790 
  110.6250    75.5530     7.0470     6.6480     8.6100    24.0730     2.3550    -4.0070 
  110.7500    78.5830     6.7700     6.2900     7.4980    24.0800     2.3400    -4.0960 
  110.8750    77.7380     6.8150     6.1960     7.5190    24.0460     2.3420    -4.2130 
  111.0000    75.2630     7.0460     6.2940     7.7200    24.0000     2.3480    -4.3050 
  111.1250    73.8590     7.2550     6.4410     7.5860    23.9760     2.3450    -4.3540 
  111.2500    73.8970     7.2890     6.4840     7.4830    23.9600     2.3330    -4.3730 
  111.3750    75.9190     7.1150     6.3620     7.3540    23.9490     2.3190    -4.3690 
  111.5000    79.1320     6.7880     6.0950     7.1870    23.9290     2.3130    -4.3380 
  111.6250    81.9450     6.4090     5.7680     6.9050    23.9370     2.3190    -4.3110 
  111.7500    83.4420     6.0880     5.4850     6.4060    23.9650     2.3320    -4.2900 
  111.8750    82.9620     5.8860     5.3030     6.0040    23.9900     2.3430    -4.2700 
  112.0000    79.9150     5.8270     5.2330     5.7580    23.9970     2.3460    -4.2490 
  112.1250    78.8370     5.9070     5.2570     5.7030    23.9530     2.3360    -4.2050 
  112.2500    80.4600     6.0380     5.3050     5.7150    23.8860     2.3200    -4.1740 
  112.3750    79.8940     6.1480     5.3310     5.8410    23.8070     2.3040    -4.1750 
  112.5000    77.2590     6.1790     5.3060     6.0360    23.7400     2.2950    -4.2150 
  112.6250    77.7860     6.1020     5.2190     6.1370    23.7540     2.3000    -4.2630 
  112.7500    80.4870     5.9700     5.0990     6.0310    23.8290     2.3180    -4.2680 
  112.8750    80.5300     5.8330     4.9730     5.8280    23.8990     2.3440    -4.2410 
  113.0000    78.5060     5.7310     4.8650     5.6900    23.9230     2.3720    -4.1930 
  113.1250    78.8140     5.6850     4.7970     5.7360    23.8980     2.3900    -4.1920 
  113.2500    81.8810     5.6740     4.7690     5.8070    23.8550     2.3930    -4.2620 
  113.3750    85.8870     5.6820     4.7790     5.8420    23.8180     2.3810    -4.3950 
  113.5000    86.4970     5.7160     4.8360     6.0000    23.8440     2.3610    -4.5500 
  113.6250    82.8050     5.8310     4.9790     6.2480    23.8950     2.3410    -4.6850 
  113.7500    79.6180     6.0790     5.2330     6.5050    23.8890     2.3290    -4.8380 
  113.8750    79.1150     6.4850     5.6090     6.9200    23.7990     2.3220    -5.0190 
  114.0000    78.8800     7.0150     6.0740     7.5980    23.7210     2.3180    -5.2360 
  114.1250    75.0450     7.5420     6.5340     8.4900    23.6760     2.3080    -5.4440 
  114.2500    70.2230     7.9060     6.8660     9.2880    23.6370     2.2930    -5.5850 
  114.3750    67.1110     7.9990     6.9860     9.5340    23.6260     2.2740    -5.6260 
  114.5000    68.4180     7.8050     6.8750     8.7600    23.6450     2.2590    -5.6050 
  114.6250    74.8770     7.3880     6.5700     7.6120    23.6300     2.2580    -5.5470 
  114.7500    80.6890     6.9220     6.2110     7.0740    23.5930     2.2700    -5.4540 
  114.8750    82.0800     6.5000     5.8750     6.9710    23.5780     2.2910    -5.3410 
  115.0000    80.4410     6.1700     5.6040     6.7660    23.6140     2.3120    -5.2470 
  115.1250    80.0490     5.9670     5.4290     6.4230    23.6790     2.3240    -5.1880 
  115.2500    81.6820     5.8870     5.3420     6.2340    23.6940     2.3270    -5.1970 
  115.3750    84.8110     5.9540     5.3600     6.1270    23.6290     2.3240    -5.2920 
  115.5000    87.5240     6.1780     5.4930     6.1690    23.4540     2.3190    -5.4330 
  115.6250    86.1700     6.5410     5.7430     6.4620    23.2420     2.3120    -5.6080 
  115.7500    82.2200     6.9320     6.0330     6.9370    23.0770     2.3040    -5.8160 
  115.8750    79.2520     7.2440     6.2830     7.3600    23.0420     2.2940    -6.0510 
  116.0000    78.4410     7.3850     6.4110     7.5350    23.1280     2.2860    -6.2840 
  116.1250    76.7890     7.2770     6.3370     7.4160    23.2550     2.2840    -6.4720 
