~V
VERS. 2.00: Ver 2.00
~W
STRT.M 51.0000:
STOP.M 242.0000:
STEP.M 0.1250:
NULL. -999.2500:
UWI. F10056:
~C
DEPT.M :
GR.API :
RML.OHMM :
RI. :
RXO.OHMM :
CALI.CM :
SP.MV :
DEN.GM/CC :
~A
   51.0000  -999.2500  -999.2500  -999.2500  -999.2500  -999.2500  -999.2500     0.0000 
   51.1250  -999.2500  -999.2500  -999.2500  -999.2500  -999.2500  -999.2500     0.0000 
   51.2500  -999.2500  -999.2500  -999.2500  -999.2500  -999.2500  -999.2500     0.0000 
   51.3750  -999.2500  -999.2500  -999.2500  -999.2500  -999.2500  -999.2500     0.0000 
   51.5000  -999.2500  -999.2500  -999.2500  -999.2500  -999.2500  -999.2500     0.0000 
   51.6250  -999.2500  -999.2500  -999.2500  -999.2500  -999.2500  -999.2500     0.0000 
   51.7500  -999.2500  -999.2500  -999.2500  -999.2500  -999.2500  -999.2500     1.0130 
   51.8750  -999.2500  -999.2500  -999.2500  -999.2500  -999.2500  -999.2500     2.0170 
   52.0000  -999.2500  -999.2500  -999.2500  -999.2500  -999.2500  -999.2500     2.0070 
   52.1250  -999.2500  -999.2500  -999.2500  -999.2500  -999.2500  -999.2500     2.0030 
   52.2500  -999.2500  -999.2500  -999.2500  -999.2500  -999.2500  -999.2500     2.0020 
   52.3750  -999.2500  -999.2500  -999.2500  -999.2500  -999.2500  -999.2500     2.0010 
   52.5000  -999.2500  -999.2500  -999.2500  -999.2500  -999.2500  -999.2500     1.9980 
   52.6250  -999.2500  -999.2500  -999.2500  -999.2500  -999.2500  -999.2500     1.9980 
   52.7500    44.5570    19.2390     1.2370     2.0520    25.7610   241.9190     2.0040 
   52.8750    44.5570    19.2390     1.2370     2.0520    25.7610   241.9190     2.0180 
   53.0000    44.5570    19.2390     1.2370     2.0520    25.7610   241.9190     2.0340 
   53.1250    45.3560    19.5580     1.2390     1.7170    25.7590   233.5030     2.0430 
   53.2500    45.8870    19.8630     1.2440     1.7920    25.7590   224.5780     2.0440 
   53.3750    46.3930    20.1710     1.2480     1.8920    25.7600   215.1000     2.0390 
   53.5000    44.5570    19.2390     1.2370     1.7890    25.7610   205.3820     2.0340 
   53.6250    45.2940    18.8970     1.2400     1.9410    25.7510   195.5480     2.0310 
   53.7500    46.8840    18.5410     1.2460     2.2470    25.7270   184.8950     2.0270 
   53.8750    47.7620    18.1800     1.2530     2.9990    25.7030   173.0880     2.0200 
   54.0000    46.7110    17.8270     1.2590     3.8800    25.6930   160.5050     2.0110 
   54.1250    43.7810    17.5050     1.2650     4.6460    25.6930   146.7690     2.0040 
   54.2500    41.3890    17.2100     1.2740     5.4910    25.6930   131.9220     2.0000 
   54.3750    41.3760    16.9340     1.2820     6.4290    25.6930   116.6380     1.9980 
   54.5000    43.7090    16.6690     1.2870     7.1580    25.6930   100.7370     1.9970 
   54.6250    45.2300    16.4180     1.2890     7.5700    25.6930    84.2430     1.9950 
   54.7500    45.9120    16.1860     1.2870     7.6070    25.6930    67.9630     1.9900 
   54.8750    47.1170    15.9560     1.2820     7.1810    25.6930    52.0440     1.9850 
   55.0000    47.7420    15.6770     1.2690     6.5290    25.6930    36.6530     1.9820 
   55.1250    45.7030    15.2900     1.2390     5.9500    25.6930    22.8020     1.9860 
   55.2500    42.5420    14.8570     1.1930     5.3480    25.6930    11.1220     1.9960 
   55.3750    40.2050    14.4480     1.1270     4.8110    25.6880     2.0080     2.0080 
   55.5000    39.7330    13.9400     1.0390     4.5640    25.6600    -4.0230     2.0200 
   55.6250    41.9120    12.4240     0.9020     4.7490    25.5510    -6.4990     2.0380 
   55.7500    44.8640     9.3330     0.7050     4.9780    25.3260    -6.3440     2.0830 
   55.8750    46.8450     5.6030     0.4750     5.1210    24.9770    -3.4640     2.1770 
   56.0000    47.5460     2.7020     0.2700     5.4660    24.6230     1.7290     2.3280 
   56.1250    47.3340     1.1990     0.1440     5.7330    24.4400     8.0900     2.5000 
   56.2500    47.8780     0.5250     0.0860     4.5220    24.4040    14.0150     2.6220 
   56.3750    49.8650     0.4070     0.0880     2.1890    24.4140    18.3700     2.6440 
   56.5000    53.2250     0.7470     0.1660     2.1120    24.3690    20.6440     2.5620 
   56.6250    57.8820     1.6790     0.3930     3.2570    24.2230    20.4850     2.4190 
   56.7500    62.8530     3.2440     0.8360     5.5780    24.1280    18.6150     2.2920 
   56.8750    67.4270     5.3310     1.5550     7.3930    24.1890    15.3630     2.2120 
   57.0000    69.8260     7.1380     2.4880     7.8110    24.3870    11.0980     2.1830 
   57.1250    70.3810     7.3760     3.3620     7.5940    24.4880     6.4250     2.1920 
   57.2500    71.0320     6.7750     3.9920     7.2750    24.4920     2.2780     2.2140 
   57.3750    73.3500     6.3040     4.4270     6.9270    24.4180    -0.8750     2.2310 
   57.5000    77.0180     6.3290     4.7860     6.8740    24.3190    -3.1290     2.2280 
   57.6250    77.1870     6.8310     5.1420     7.2910    24.2570    -4.8410     2.1930 
   57.7500    72.8660     7.5060     5.4930     7.9040    24.2280    -6.4010     2.1430 
   57.8750    67.9090     8.1340     5.8040     7.8460    24.2900    -7.8090     2.1000 
   58.0000    65.2720     8.5450     6.0330     7.6840    24.5550    -9.2130     2.0810 
   58.1250    64.0380     8.6450     6.1350     7.5670    24.9840   -10.6080     2.0900 
   58.2500    62.1950     8.5570     6.1310     7.7420    25.3540   -12.1600     2.1110 
   58.3750    59.6320     8.3790     6.0540     7.9000    25.6030   -13.9140     2.1290 
   58.5000    55.9470     8.1850     5.9400     7.8110    25.8930   -15.6420     2.1350 
   58.6250    53.3590     8.0300     5.8270     7.4840    26.1880   -17.0360     2.1270 
   58.7500    54.4440     7.9300     5.7440     7.2320    26.3760   -18.1120     2.1100 
   58.8750    58.2840     7.8920     5.7070     6.9560    26.4270   -19.0040     2.0910 
   59.0000    61.6390     7.9220     5.7250     6.7570    26.3740   -19.7210     2.0800 
   59.1250    61.8860     8.0220     5.8040     6.8230    26.2350   -20.2860     2.0830 
   59.2500    61.1450     8.1550     5.9220     7.0570    26.0800   -20.6860     2.0990 
   59.3750    59.9250     8.2850     6.0560     7.3210    25.9640   -20.8210     2.1220 
   59.5000    59.4320     8.3780     6.1810     7.4960    25.9480   -20.7980     2.1460 
   59.6250    59.6090     8.4030     6.2700     7.5220    26.0380   -20.6740     2.1660 
   59.7500    59.5620     8.3750     6.3160     7.5650    26.0750   -20.5570     2.1800 
   59.8750    60.1940     8.3130     6.3260     7.7130    25.9310   -20.4000     2.1870 
   60.0000    61.6690     8.2450     6.3150     7.8880    25.6390   -20.2080     2.1860 
   60.1250    62.4490     8.1940     6.3010     7.8340    25.4760   -20.1170     2.1720 
   60.2500    61.1600     8.1650     6.2950     7.6110    25.5360   -20.1030     2.1370 
   60.3750    59.1940     8.1560     6.2990     7.4220    25.7980   -20.2020     2.0780 
   60.5000    57.3940     8.1400     6.2970     7.4010    26.1380   -20.2900     2.0000 
   60.6250    55.9920     8.0480     6.2520     7.1910    26.4600   -20.1130     1.9290 
   60.7500    57.5000     7.8400     6.1380     6.8350    26.6260   -19.4770     1.9010 
   60.8750    62.5840     7.5080     5.9440     6.4440    26.4100   -18.3470     1.9360 
   61.0000    69.2810     7.0910     5.6830     5.9310    25.5900   -16.7670     2.0300 
   61.1250    76.6270     6.6850     5.4010     5.3270    24.5320   -14.8100     2.1520 
   61.2500    85.0570     6.3920     5.1630     4.9410    23.7460   -12.7530     2.2550 
   61.3750    93.5130     6.2690     5.0130     4.8560    23.4240   -10.7610     2.3150 
   61.5000    98.6900     6.3400     4.9760     5.0600    23.3280    -9.0500     2.3270 
   61.6250    95.4280     6.6210     5.0820     5.5020    23.2320    -7.9420     2.3030 
   61.7500    85.1030     7.0200     5.2930     6.2090    23.1440    -7.5160     2.2780 
   61.8750    73.8540     7.4490     5.5680     6.6710    23.1970    -7.7490     2.2670 
   62.0000    68.8190     7.8170     5.8490     6.9850    23.4930    -8.5620     2.2750 
   62.1250    68.1530     8.0210     6.0590     7.1500    24.2030    -9.8460     2.2840 
