~V
VERS. 2.00: Ver 2.00
~W
STRT.M 64.0000:
STOP.M 260.0000:
STEP.M 0.1250:
NULL. -999.2500:
UWI. F10016:
~C
DEPT.M :
GR.API :
RML.OHMM :
RI. :
RXO.OHMM :
CALI.CM :
DEN.GM/CC :
SP.MV :
~A
   64.0000    83.3730     0.0450     0.0620     3.2770    23.9310     2.6240    40.2380 
   64.1250    91.3200     0.1840     0.1040     4.7970    23.9210     2.4960    31.4260 
   64.2500    91.5150     0.4040     0.2020     6.2410    24.0920     2.3540    22.5990 
   64.3750    85.0470     1.0560     0.6320     8.0260    24.4040     2.2460    14.1560 
   64.5000    75.5040     2.5230     1.7430     9.5770    24.7240     2.1990     6.4620 
   64.6250    66.9900     5.1950     3.9750     9.9000    24.9640     2.2120     0.0620 
   64.7500    62.7330     6.6690     5.6610     9.7600    24.9840     2.2380    -5.0710 
   64.8750    63.8940     7.2250     6.7450     9.9830    24.9410     2.2400    -8.9180 
   65.0000    66.5960     7.3510     7.3810    10.0500    24.9050     2.2120   -11.7140 
   65.1250    67.0710     7.3920     7.7410     9.7450    24.8130     2.1730   -13.7410 
   65.2500    67.0300     7.4670     7.9910     9.3900    24.7170     2.1540   -15.3340 
   65.3750    68.8410     7.6510     8.2320     9.3980    24.6930     2.1560   -16.6380 
   65.5000    70.3980     7.9880     8.5200     9.6610    24.7740     2.1640   -17.7260 
   65.6250    68.2350     8.4930     8.8610     9.7910    24.9090     2.1570   -18.6410 
   65.7500    66.2820     9.0590     9.1970     9.6690    24.9650     2.1370   -19.4710 
   65.8750    66.0090     9.5720     9.4770     9.5110    24.8050     2.1200   -20.2600 
   66.0000    65.4460     9.9240     9.6510     9.2430    24.6710     2.1200   -20.9910 
   66.1250    64.4100    10.0400     9.6620     9.3430    24.7360     2.1390   -21.6230 
   66.2500    63.9500    10.0180     9.5390     9.7580    24.6960     2.1630   -22.1930 
   66.3750    64.7650     9.9530     9.3300     9.9420    24.6040     2.1750   -22.7090 
   66.5000    65.2530     9.9150     9.1160    10.2360    24.7790     2.1710   -23.1640 
   66.6250    64.8260     9.9160     8.9830    10.2890    25.1260     2.1540   -23.5720 
   66.7500    64.9500     9.9190     8.9200    10.0490    24.8110     2.1380   -23.8990 
   66.8750    66.2800     9.9050     8.8720     9.6640    24.5840     2.1310   -24.1610 
   67.0000    68.9370     9.8900     8.7880     9.6690    24.5400     2.1350   -24.4210 
   67.1250    71.7830     9.9140     8.6820     9.8890    24.5590     2.1470   -24.6810 
   67.2500    73.4610     9.9810     8.6400     9.9910    24.5780     2.1550   -24.8970 
   67.3750    73.2670    10.0590     8.7090     9.9440    24.5910     2.1550   -25.0840 
   67.5000    71.4690    10.1030     8.8660     9.9240    24.6180     2.1440   -25.2440 
   67.6250    71.6430    10.0670     8.9960    10.7110    24.6380     2.1290   -25.3980 
   67.7500    72.9120     9.9690     9.0030    11.8050    24.6140     2.1180   -25.5920 
   67.8750    72.2160     9.8410     8.8770    10.9420    24.5640     2.1160   -25.8040 
   68.0000    69.9310     9.7260     8.6940     9.6590    24.5580     2.1180   -26.0310 
   68.1250    68.8910     9.6790     8.5850     9.0550    24.6810     2.1200   -26.2430 
   68.2500    69.7330     9.7090     8.6030     9.2180    24.8390     2.1180   -26.4800 
   68.3750    70.5320     9.7870     8.7110     9.4420    24.9410     2.1120   -26.7210 
   68.5000    70.1590     9.8470     8.8130     9.5300    24.8780     2.1100   -26.9530 
   68.6250    69.1810     9.7930     8.8080     9.4250    24.7850     2.1200   -27.1340 
   68.7500    69.3740     9.6210     8.7120     9.2090    24.7130     2.1380   -27.2970 
   68.8750    71.2010     9.3880     8.5920     8.9030    24.6760     2.1610   -27.4470 
   69.0000    72.9580     9.1900     8.5210     9.2130    24.7480     2.1780   -27.5930 
   69.1250    72.7560     9.1320     8.5440     9.1370    24.9450     2.1810   -27.7670 
   69.2500    69.9560     9.2090     8.6180     9.5060    24.9700     2.1730   -27.9100 
   69.3750    66.2460     9.3790     8.7040     9.6970    24.8590     2.1620   -28.0120 
   69.5000    65.5190     9.5780     8.7780     9.6330    24.7620     2.1540   -28.0930 
   69.6250    67.6510     9.7480     8.8310     9.5270    24.6080     2.1540   -28.1210 
   69.7500    67.3780     9.8640     8.8720     9.6210    24.4600     2.1590   -28.0720 
   69.8750    65.4060     9.9170     8.9090     9.9090    24.4600     2.1620   -27.9220 
   70.0000    65.7720     9.8900     8.9450    10.1400    24.5940     2.1600   -27.6230 
   70.1250    69.3120     9.7380     8.9690    10.1320    24.6470     2.1480   -27.1440 
   70.2500    72.7520     9.4690     8.9590    10.0250    24.6900     2.1380   -26.5210 
   70.3750    77.4160     9.1070     8.8850     9.5930    24.6980     2.1390   -25.7570 
   70.5000    83.3310     8.7050     8.7170     8.9090    24.6280     2.1600   -24.9070 
   70.6250    85.6110     8.3390     8.4420     8.3720    24.4050     2.1970   -24.0720 
   70.7500    83.8430     8.0520     8.1250     8.2810    24.1200     2.2350   -23.3010 
   70.8750    82.6110     7.8480     7.8360     7.9340    23.9630     2.2600   -22.5860 
   71.0000    84.8120     7.7110     7.6370     7.3470    23.9840     2.2680   -21.9770 
   71.1250    87.2450     7.6120     7.5610     7.4800    24.1060     2.2640   -21.4870 
   71.2500    87.8530     7.5020     7.5320     7.3600    24.2460     2.2600   -21.1430 
   71.3750    89.1540     7.3330     7.4480     7.0890    24.3370     2.2590   -20.9880 
   71.5000    92.2810     7.0450     7.2050     6.5960    24.3950     2.2630   -20.9690 
   71.6250    96.4580     6.5600     6.7120     6.0170    24.4570     2.2710   -21.0810 
   71.7500    99.2360     5.9250     6.0650     5.6350    24.4940     2.2810   -21.2860 
   71.8750   100.5320     5.2840     5.4180     5.6890    24.5190     2.2940   -21.5980 
   72.0000   100.8730     4.8850     4.9510     5.6450    24.5390     2.3090   -22.0310 
   72.1250    98.9980     4.8860     4.8750     5.4240    24.5150     2.3250   -22.6140 
   72.2500    93.1410     5.3000     5.1980     6.8120    24.4580     2.3340   -23.3340 
   72.3750    83.2730     6.2260     5.9020    10.6020    24.3990     2.3300   -24.1410 
   72.5000    74.6850     7.6040     6.9050    12.8260    24.3890     2.3090   -24.9970 
   72.6250    73.0370     9.1150     8.0410    13.1170    24.4470     2.2730   -25.8560 
   72.7500    75.2080    10.3060     9.0540    12.3360    24.5500     2.2310   -26.6630 
   72.8750    75.7080    10.9410     9.7830    11.7950    24.6880     2.1920   -27.4110 
   73.0000    72.7970    11.0170    10.1760    11.3480    24.8450     2.1610   -28.0240 
   73.1250    71.0460    10.7310    10.2550    11.3200    24.8840     2.1390   -28.5380 
   73.2500    72.4300    10.4150    10.1640    11.1600    24.7980     2.1230   -28.9450 
   73.3750    73.2030    10.1920     9.9690    10.9250    24.7670     2.1150   -29.2200 
   73.5000    71.8560    10.0700     9.7320    10.8560    24.7850     2.1120   -29.4210 
   73.6250    71.5930    10.0150     9.5340    10.8580    24.7680     2.1130   -29.6010 
   73.7500    73.7670     9.9900     9.4170    10.7560    24.7330     2.1120   -29.7720 
   73.8750    76.3270    10.0000     9.3720    10.6110    24.7300     2.1110   -29.9020 
   74.0000    77.4410    10.0620     9.3560    10.4350    24.7560     2.1110   -30.0500 
   74.1250    77.0600    10.1890     9.3410    10.5190    24.7660     2.1170   -30.1810 
   74.2500    76.3540    10.3560     9.3510    11.0230    24.8030     2.1260   -30.2910 
   74.3750    74.6430    10.5290     9.4130    11.9940    24.8770     2.1370   -30.4280 
   74.5000    71.1440    10.6590     9.5080    12.8070    24.9320     2.1460   -30.5560 
   74.6250    67.9210    10.6780     9.5530    12.4140    24.9090     2.1530   -30.6230 
   74.7500    67.7340    10.5860     9.4960    11.8220    24.8480     2.1590   -30.6500 
   74.8750    68.4880    10.4190     9.3580    11.3440    24.7770     2.1630   -30.6730 
   75.0000    67.2660    10.2430     9.2130    11.3380    24.7990     2.1630   -30.6470 
   75.1250    65.5170    10.1440     9.1480    11.6310    25.0410     2.1580   -30.5810 
