~V
VERS. 2.00: Ver 2.00
~W
STRT.M 50.0000:
STOP.M 250.0000:
STEP.M 0.1250:
NULL. -999.2500:
UWI. F10033:
~C
DEPT.M :
SP.MV :
GR.API :
RML.OHMM :
RI. :
RXO.OHMM :
CALI.CM :
DEN.GM/CC :
~A
# ...
  218.7500   -19.2630    66.6550    41.8970    37.1170    37.0160    25.1430     2.5070 
  218.8750   -18.5270    65.3460    42.4680    37.6690    41.7260    25.1970     2.5310 
  219.0000   -17.9080    65.4120    39.9630    35.6030    45.5050    25.0960     2.5380 
  219.1250   -17.4500    70.0540    34.0700    30.5470    36.8890    24.9380     2.5120 
  219.2500   -17.2030    75.8700    27.3650    24.7770    22.7380    24.8800     2.4600 
  219.3750   -17.1390    78.9420    19.7530    19.8820    12.9470    24.8430     2.4030 
  219.5000   -17.1970    77.7560    15.6390    16.5180     9.2740    24.7280     2.3720 
  219.6250   -17.2920    75.5340    14.1440    14.8090     9.8860    24.5830     2.3970 
  219.7500   -17.3810    74.8690    13.6240    14.0340    12.7900    24.5230     2.4570 
  219.8750   -17.4610    73.8040    13.4020    13.6620    17.8230    24.6780     2.5160 
  220.0000   -17.5140    72.1950    12.9080    13.1740    19.5430    24.9100     2.5410 
  220.1250   -17.6100    74.0600    11.8270    12.2120    14.4650    25.0520     2.5150 
  220.2500   -17.6360    79.4270    10.5030    11.0150    10.4630    25.1370     2.4590 
  220.3750   -17.6170    85.0720     9.3360     9.9180     8.9410    25.2000     2.3940 
  220.5000   -17.6360    87.6230     8.5890     9.1590     9.1170    25.2260     2.3370 
  220.6250   -17.7230    86.5700     8.3890     8.8860     9.7160    25.1470     2.2990 
  220.7500   -17.8580    83.4800     8.5530     8.9800    10.3660    24.9300     2.2830 
  220.8750   -18.0260    81.5490     8.9320     9.3250    10.7110    24.6940     2.2920 
  221.0000   -18.2530    81.7430     9.3570     9.7560    11.4960    24.7370     2.3210 
  221.1250   -18.4000    81.4340     9.6310    10.0570    12.4270    25.0330     2.3580 
  221.2500   -18.4830    79.6320     9.6600    10.1060    12.1000    25.1630     2.3810 
  221.3750   -18.4660    77.8290     9.4300     9.8770    10.4970    25.1360     2.3800 
  221.5000   -18.2690    77.8820     9.0130     9.4380     9.0790    25.0660     2.3580 
  221.6250   -17.9580    80.7630     8.5360     8.9010     8.7760    25.1130     2.3320 
  221.7500   -17.6550    82.9660     8.1190     8.3900     8.6860    25.1850     2.3180 
  221.8750   -17.3150    81.6300     7.8050     7.9640     8.5340    25.2130     2.3200 
  222.0000   -16.9420    77.1490     7.6060     7.6560     8.3780    25.1820     2.3340 
  222.1250   -16.6250    74.1760     7.5460     7.5080     7.8890    25.1580     2.3480 
  222.2500   -16.4090    73.7690     7.6240     7.5120     7.8590    25.1590     2.3550 
  222.3750   -16.4170    74.2110     7.8620     7.6720     8.6640    25.1800     2.3560 
  222.5000   -16.6140    75.9610     8.2500     7.9760    10.0430    25.1790     2.3540 
  222.6250   -16.8810    79.2410     8.7430     8.3960    10.3040    25.1770     2.3500 
  222.7500   -17.1470    82.4980     9.2270     8.8430     9.9910    25.1720     2.3440 
  222.8750   -17.4010    86.4920     9.6160     9.2370     9.8530    25.1640     2.3380 
  223.0000   -17.6140    90.6420     9.8470     9.5050    10.1010    25.1580     2.3350 
  223.1250   -17.7430    90.1820     9.8690     9.5590    11.1560    25.1620     2.3420 
  223.2500   -17.8140    86.6420     9.7310     9.4210    12.0790    25.1810     2.3560 
  223.3750   -17.7220    83.8610     9.4640     9.1160    11.5420    25.2110     2.3710 
  223.5000   -17.5470    83.3310     9.1040     8.6890     9.6930    25.1920     2.3780 
  223.6250   -17.3940    80.6910     8.7030     8.2090     8.6780    25.1340     2.3700 
  223.7500   -17.2610    76.9330     8.3490     7.7740     8.2440    25.0690     2.3560 
  223.8750   -17.2190    75.2700     8.1110     7.4520     8.2810    25.0430     2.3410 
  224.0000   -17.3470    74.7740     8.0330     7.2820     8.1320    25.1030     2.3340 
  224.1250   -17.7400    72.1150     8.1780     7.3150     8.2610    25.1900     2.3370 
  224.2500   -18.3770    70.7040     8.5350     7.5350     9.1220    25.1990     2.3430 
  224.3750   -19.2400    72.5940     9.0950     7.9410    10.5290    25.1900     2.3490 
  224.5000   -20.2020    75.5620     9.8130     8.5060    11.1240    25.2140     2.3510 
  224.6250   -21.2390    77.4420    10.5820     9.1720    12.1310    25.2410     2.3520 
  224.7500   -22.2880    79.0770    11.2380     9.8020    14.2440    25.2450     2.3540 
  224.8750   -23.2030    80.5240    11.6700    10.2900    15.1030    25.2090     2.3590 
  225.0000   -23.9120    80.1880    11.8770    10.5980    13.9760    25.1850     2.3650 
  225.1250   -24.2760    78.7330    11.9910    10.7860    12.8700    25.1760     2.3720 
  225.2500   -24.2950    79.0520    12.1710    10.9750    12.6250    25.1520     2.3810 
  225.3750   -24.0320    79.7180    12.4040    11.1730    13.3010    25.1480     2.3900 
  225.5000   -23.5290    79.5760    12.5360    11.2840    14.0040    25.1440     2.3970 
  225.6250   -22.7320    78.4800    12.2620    11.0820    14.0370    25.1310     2.3970 
  225.7500   -21.6820    76.1920    11.5030    10.4890    13.3800    25.1200     2.3860 
  225.8750   -20.4910    71.2380    10.3680     9.5730    11.6720    25.1270     2.3680 
  226.0000   -19.2250    64.8710     9.1190     8.5340     8.9190    25.1060     2.3500 
  226.1250   -18.0370    61.1630     8.0800     7.6220     7.6840    25.0310     2.3380 
  226.2500   -16.9810    59.5710     7.3700     6.9390     7.0450    24.9920     2.3370 
  226.3750   -15.9990    57.9630     6.9960     6.5080     6.5840    24.9920     2.3470 
  226.5000   -15.1700    56.2960     6.8880     6.2990     6.4670    24.9970     2.3640 
  226.6250   -14.4730    55.8270     6.9270     6.2610     6.5570    25.0290     2.3830 
  226.7500   -13.9480    55.2570     6.9790     6.2870     6.4960    25.0740     2.3980 
  226.8750   -13.5810    53.7280     6.9910     6.3180     6.3450    25.0950     2.4030 
  227.0000   -13.3040    51.9790     6.9280     6.3020     6.2840    25.0980     2.4000 
  227.1250   -13.1200    51.2750     6.7370     6.1840     6.3160    25.0850     2.3850 
  227.2500   -12.9150    51.3250     6.4460     5.9880     6.5180    25.0520     2.3650 
  227.3750   -12.6970    52.7660     6.1200     5.7710     6.4560    25.0260     2.3470 
  227.5000   -12.4600    53.2410     5.8620     5.6050     5.7790    25.0740     2.3460 
  227.6250   -12.1780    47.3610     5.8140     5.5800     5.0070    25.0960     2.3770 
  227.7500   -11.8900    37.2130     5.9680     5.6950     5.4000    25.0550     2.4310 
  227.8750   -11.6490    28.6430     6.2290     5.8980     6.6760    24.9800     2.4930 
  228.0000   -11.4150    25.7160     6.4430     6.0870     7.0140    24.9170     2.5380 
  228.1250   -11.1630    25.9810     6.4370     6.1160     6.7480    24.8900     2.5400 
  228.2500   -10.9400    26.7400     6.2100     5.9550     6.1710    24.8850     2.5020 
  228.3750   -10.7640    28.9560     5.8410     5.6520     5.6690    24.8910     2.4390 
  228.5000   -10.6430    31.9020     5.4550     5.3050     5.1590    24.8810     2.3740 
  228.6250   -10.5750    33.8310     5.1610     5.0150     4.8930    24.8540     2.3350 
  228.7500   -10.5430    34.0990     4.9660     4.8010     5.0110    24.8380     2.3280 
  228.8750   -10.4910    33.6060     4.8350     4.6490     4.9730    24.8160     2.3430 
  229.0000   -10.4430    32.8020     4.7230     4.5370     4.4560    24.7860     2.3630 
  229.1250   -10.3630    31.6360     4.5990     4.4570     4.1850    24.8100     2.3710 
  229.2500   -10.2550    31.0210     4.4820     4.3980     4.1740    24.8850     2.3660 
  229.3750   -10.1460    30.6620     4.4030     4.3600     4.2760    24.9370     2.3560 
  229.5000    -9.9710    30.0400     4.3900     4.3480     4.2380    24.9740     2.3500 
  229.6250    -9.8560    29.1470     4.4500     4.3720     4.1380    25.0190     2.3530 
  229.7500    -9.7490    28.9240     4.5460     4.4320     4.1680    25.0560     2.3630 
  229.8750    -9.6800    29.4500     4.6560     4.5220     4.3550    25.0650     2.3760 
