~V
VERS. 2.00: Ver 2.00
~W
STRT.M 57.0000:
STOP.M 255.0000:
STEP.M 0.1250:
NULL. -999.2500:
UWI. F10046:
~C
DEPT.M :
GR.API :
RML.OHMM :
RI. :
RXO.OHMM :
CALI.CM :
DEN.GM/CC :
SP.MV :
~A
   57.0000    39.1120     0.0160     0.3540     0.5730    24.2140     2.5170    38.1530 
   57.1250    40.6570    -0.0310     0.3460     0.9240    23.6840     2.5910    33.9680 
   57.2500    44.8700     0.1490     0.3730     1.7260    23.1660     2.5870    28.8360 
   57.3750    52.3100     0.5990     0.5030     2.9680    22.6730     2.5220    23.0040 
   57.5000    61.4690     1.3430     0.8130     4.5110    22.3230     2.4320    16.7790 
   57.6250    69.0620     2.3640     1.3980     6.0120    22.1790     2.3530    10.4980 
   57.7500    73.9950     3.4440     2.1990     6.6250    22.1550     2.2970     4.5070 
   57.8750    77.5950     4.3750     3.1250     6.5970    22.1550     2.2650    -0.9610 
   58.0000    79.2510     5.0330     4.0480     6.6090    22.1190     2.2500    -5.6950 
   58.1250    76.5780     5.4670     4.8540     6.9730    22.0490     2.2460    -9.3150 
   58.2500    71.2410     5.9100     5.5340     7.4500    21.9670     2.2510   -11.8590 
   58.3750    66.6300     6.4530     6.0930     7.9550    21.9190     2.2600   -13.5740 
   58.5000    66.1560     7.0620     6.5180     8.2360    21.9250     2.2700   -14.7460 
   58.6250    69.1810     7.5930     6.7550     8.0660    21.9870     2.2720   -15.4820 
   58.7500    71.6850     7.9170     6.8140     7.6100    22.0750     2.2660   -15.8660 
   58.8750    71.3040     7.9640     6.7000     7.3110    22.1270     2.2580   -15.9440 
   59.0000    69.7420     7.7310     6.4290     7.1010    22.1700     2.2550   -15.8020 
   59.1250    73.0320     7.2630     6.0260     6.6160    22.2160     2.2620   -15.5240 
   59.2500    79.6800     6.7130     5.5900     5.9260    22.3230     2.2740   -15.3140 
   59.3750    85.6680     6.2020     5.2180     5.2480    22.5540     2.2870   -15.2820 
   59.5000    87.4880     5.8320     5.0040     4.8910    22.8810     2.2940   -15.4600 
   59.6250    84.2560     5.7070     5.0590     5.0950    23.0930     2.2900   -15.8200 
   59.7500    78.7130     5.7890     5.3520     5.7240    23.0450     2.2760   -16.3270 
   59.8750    72.9940     6.0130     5.8300     6.5820    22.9050     2.2530   -16.9480 
   60.0000    67.8610     6.2850     6.3900     7.4410    22.8120     2.2240   -17.5960 
   60.1250    61.2970     6.4910     6.8750     7.7010    22.7720     2.1960   -18.1620 
   60.2500    57.0270     6.5750     7.1690     7.5850    22.7180     2.1770   -18.5760 
   60.3750    58.8240     6.5180     7.2210     7.4510    22.6750     2.1700   -18.7700 
   60.5000    63.5640     6.3390     7.0500     7.4350    22.7500     2.1780   -18.7380 
   60.6250    67.1950     6.0810     6.7260     7.4440    23.0690     2.1980   -18.5180 
   60.7500    69.2240     5.9200     6.5130     7.3790    23.3300     2.2230   -18.2950 
   60.8750    71.8140     5.7790     6.3160     7.2080    23.6180     2.2450   -18.1460 
   61.0000    76.4660     5.5950     6.0450     6.7810    23.9740     2.2610   -18.0970 
   61.1250    78.4900     5.5340     5.9090     6.5770    24.0220     2.2670   -18.2220 
   61.2500    78.9580     5.5960     5.8980     6.5520    23.7070     2.2670   -18.4970 
   61.3750    80.8750     5.7820     5.9980     6.6400    23.2600     2.2590   -18.8990 
   61.5000    83.3470     6.0790     6.1810     6.8370    22.9480     2.2450   -19.3540 
   61.6250    83.9550     6.4620     6.4030     7.0150    22.8250     2.2260   -19.7720 
   61.7500    82.0070     6.8590     6.6030     7.1040    22.7280     2.2100   -20.0680 
   61.8750    77.5880     7.1950     6.7300     7.3250    22.6240     2.2050   -20.2180 
   62.0000    72.5270     7.3960     6.7360     7.5650    22.5270     2.2190   -20.2820 
   62.1250    68.2200     7.4110     6.5980     7.7660    22.5550     2.2560   -20.3050 
   62.2500    66.0940     7.3530     6.4190     7.9010    22.7220     2.3070   -20.3610 
   62.3750    67.7510     7.3670     6.3150     8.1400    23.0170     2.3560   -20.5370 
   62.5000    73.3370     7.5740     6.3790     8.8880    23.3900     2.3890   -20.8800 
   62.6250    77.3230     8.0200     6.6630     9.9340    23.6300     2.3880   -21.4520 
   62.7500    74.9330     8.5330     7.0470    11.9230    23.5660     2.3580   -22.1470 
   62.8750    68.4240     8.9180     7.3960    13.9180    23.1510     2.3100   -22.9050 
   63.0000    63.6660     9.0240     7.5860    13.1760    22.6960     2.2600   -23.6450 
   63.1250    63.0430     8.8110     7.5480     9.9290    22.4540     2.2210   -24.3000 
   63.2500    62.2140     8.4980     7.3900     8.4730    22.4050     2.1980   -24.8380 
   63.3750    59.5380     8.2610     7.2180     8.1890    22.4260     2.1870   -25.2170 
   63.5000    57.7030     8.1980     7.1110     8.2610    22.4480     2.1810   -25.4090 
   63.6250    59.4350     8.2930     7.0960     8.3420    22.4530     2.1800   -25.4580 
   63.7500    62.1140     8.3940     7.1080     8.3200    22.4360     2.1820   -25.4940 
   63.8750    62.9730     8.4030     7.0950     8.1850    22.3810     2.1870   -25.5680 
   64.0000    61.7140     8.2920     7.0290     8.0000    22.2970     2.1940   -25.7020 
   64.1250    60.5270     8.0860     6.9130     7.9730    22.2090     2.2020   -25.9150 
   64.2500    60.2380     7.8510     6.7830     8.0550    22.1730     2.2060   -26.2110 
   64.3750    60.0040     7.6200     6.6680     8.1540    22.1870     2.2060   -26.5990 
   64.5000    59.8870     7.4040     6.5830     8.2260    22.2330     2.2030   -27.1120 
   64.6250    60.9340     7.2110     6.5240     8.3030    22.2520     2.2000   -27.7100 
   64.7500    62.7480     7.0460     6.4650     8.3270    22.2090     2.1980   -28.3050 
   64.8750    62.5610     6.9190     6.3870     8.2720    22.1560     2.2000   -28.8770 
   65.0000    58.9930     6.8340     6.2880     8.1070    22.1430     2.2040   -29.4620 
   65.1250    54.9060     6.7860     6.1790     7.9660    22.1860     2.2100   -30.0340 
   65.2500    53.7840     6.7560     6.0800     7.9250    22.2330     2.2130   -30.5510 
   65.3750    55.5820     6.7360     6.0090     7.9900    22.2780     2.2120   -30.9770 
   65.5000    56.9080     6.7260     5.9740     8.2030    22.3400     2.2090   -31.3230 
   65.6250    56.0670     6.7320     5.9780     8.4220    22.3880     2.2070   -31.5900 
   65.7500    55.2850     6.7580     6.0000     8.5600    22.4440     2.2050   -31.8210 
   65.8750    55.6770     6.8030     6.0230     8.6580    22.4930     2.2050   -31.9910 
   66.0000    56.6310     6.8610     6.0350     8.7730    22.5010     2.2060   -32.0680 
   66.1250    57.3830     6.9120     6.0260     8.9870    22.4610     2.2070   -32.0530 
   66.2500    57.6980     6.9400     6.0030     9.2510    22.4420     2.2080   -31.9490 
   66.3750    57.0350     6.9320     5.9690     9.4660    22.5200     2.2080   -31.7440 
   66.5000    54.1070     6.8900     5.9250     9.6270    22.6560     2.2080   -31.4150 
   66.6250    50.8800     6.8240     5.8680     9.6740    22.7520     2.2050   -30.9480 
   66.7500    49.8480     6.7590     5.7980     9.5450    22.7620     2.2000   -30.3500 
   66.8750    50.8620     6.7110     5.7230     9.2400    22.6850     2.1930   -29.6550 
   67.0000    52.2900     6.6940     5.6580     8.8320    22.5320     2.1870   -28.8630 
   67.1250    51.8900     6.7310     5.6340     8.4340    22.3910     2.1860   -27.9920 
   67.2500    52.6510     6.8300     5.6670     8.2040    22.3300     2.1910   -27.0810 
   67.3750    54.9810     7.0010     5.7670     8.1770    22.3470     2.1970   -26.1890 
   67.5000    55.9440     7.2390     5.9290     8.2460    22.4340     2.2010   -25.3300 
   67.6250    55.7800     7.5070     6.1340     8.3660    22.5480     2.1990   -24.5130 
   67.7500    57.1640     7.7290     6.3280     8.4500    22.5840     2.1940   -23.7210 
   67.8750    59.4660     7.8340     6.4580     8.4640    22.5560     2.1900   -22.8970 
   68.0000    60.6980     7.7650     6.4700     8.3980    22.5290     2.1930   -22.0280 
   68.1250    62.4140     7.4750     6.3050     8.1790    22.5220     2.2100   -21.0780 
