~V
VERS. 2.00: Ver 2.00
~W
STRT.M 55.0000:
STOP.M 297.0000:
STEP.M 0.1250:
NULL. -999.2500:
UWI. F10076:
~C
DEPT.M :
DEN.GM/CC :
SP.MV :
GR.API :
CALI.CM :
RXO.OHMM :
RI. :
RML.OHMM :
~A
# ...
  145.0000     2.1820   -11.9560    84.7930    23.5880     8.9210     8.8220     9.8770 
  145.1250     2.1680   -11.9700    79.7770    23.6790     8.7180     8.5680     9.6550 
  145.2500     2.1610   -12.0110    73.1000    23.6740     8.5060     8.3620     9.4870 
  145.3750     2.1600   -12.0430    70.0950    23.6730     8.2810     8.2280     9.3910 
  145.5000     2.1560   -12.0230    70.1220    23.7690     8.2590     8.1760     9.3650 
  145.6250     2.1420   -11.9240    71.1400    23.9810     8.5200     8.1990     9.3760 
  145.7500     2.1250   -11.8460    73.5630    24.0200     8.7010     8.2290     9.3590 
  145.8750     2.1190   -11.7410    76.5960    23.9000     8.6360     8.2090     9.2640 
  146.0000     2.1340   -11.5600    78.8720    23.7240     8.3500     8.1030     9.0730 
  146.1250     2.1610   -11.3630    78.4610    23.8230     7.9570     7.9110     8.8140 
  146.2500     2.1720   -11.1900    76.8810    23.9550     7.5030     7.6880     8.5600 
  146.3750     2.1640   -11.0180    76.1730    23.9560     7.0460     7.4840     8.3630 
  146.5000     2.1500   -10.8340    76.3410    23.8050     6.7150     7.3330     8.2470 
  146.6250     2.1520   -10.6930    78.3800    23.6720     6.6440     7.2470     8.2100 
  146.7500     2.1620   -10.5800    80.3620    23.5840     6.6510     7.2020     8.2000 
  146.8750     2.1650   -10.5040    82.3680    23.4540     6.5880     7.1740     8.1860 
  147.0000     2.1560   -10.4490    85.6940    23.2540     6.4240     7.1400     8.1510 
  147.1250     2.1420   -10.4400    89.3740    23.2010     6.2290     7.0810     8.0890 
  147.2500     2.1370   -10.4100    91.0020    23.2150     6.0420     6.9990     8.0130 
  147.3750     2.1410   -10.4250    89.1870    23.1570     5.9000     6.9120     7.9340 
  147.5000     2.1480   -10.4980    86.9330    22.9990     5.8300     6.8360     7.8650 
  147.6250     2.1500   -10.6280    88.7130    22.9040     5.8120     6.8010     7.8310 
  147.7500     2.1470   -10.7760    92.6920    22.8590     5.8780     6.8260     7.8560 
  147.8750     2.1450   -10.9690    93.4520    22.8510     6.1250     6.9260     7.9630 
  148.0000     2.1500   -11.2610    87.9680    22.8720     6.6170     7.1100     8.1630 
  148.1250     2.1590   -11.5660    80.9900    22.9310     7.3020     7.3810     8.4560 
  148.2500     2.1580   -11.8610    78.1290    23.1400     7.9960     7.6960     8.7910 
  148.3750     2.1420   -12.1340    77.2130    23.5690     8.5440     8.0110     9.1190 
  148.5000     2.1150   -12.3890    75.8310    24.0450     8.8050     8.2760     9.3920 
  148.6250     2.0930   -12.5290    73.6800    24.2960     8.8880     8.4290     9.5480 
  148.7500     2.0830   -12.5870    72.1540    24.4580     8.9310     8.4700     9.5750 
  148.8750     2.0820   -12.4760    71.6090    24.5700     9.0490     8.4000     9.4680 
  149.0000     2.0820   -12.2060    72.7260    24.6210     9.0790     8.2390     9.2390 
  149.1250     2.0760   -11.7940    73.4170    24.6680     8.9440     8.0300     8.9520 
  149.2500     2.0800   -11.3090    71.7600    24.7740     8.7890     7.8980     8.7770 
  149.3750     2.1160   -10.6960    68.7780    24.9060     8.7170     7.9910     8.8930 
  149.5000     2.1980    -9.9430    67.4780    24.9510     8.7660     8.4390     9.4370 
  149.6250     2.3110    -9.1230    68.5400    24.9330     9.9180     9.3290    10.4540 
  149.7500     2.3980    -8.2690    69.1880    24.7930    13.6440    10.3690    11.5480 
  149.8750     2.4220    -7.4510    68.8250    24.6260    18.3960    11.0800    12.1290 
  150.0000     2.3910    -6.6800    69.9920    24.5370    18.8090    10.9290    11.6530 
  150.1250     2.3420    -6.0160    76.5370    24.4020    13.3540     9.7030    10.1080 
  150.2500     2.3010    -5.4630    86.4710    24.2350     8.3070     8.1170     8.3950 
  150.3750     2.2650    -5.0780    95.8470    24.1650     5.9230     6.6860     7.0200 
  150.5000     2.2410    -4.8130   102.6560    24.0800     5.1540     5.6620     6.1600 
  150.6250     2.2530    -4.7230   105.5010    23.8990     5.0640     5.1750     5.8770 
  150.7500     2.2900    -4.7610   107.0080    23.7590     5.0880     5.0950     5.9900 
  150.8750     2.3220    -4.9500   109.5130    23.8710     5.3120     5.3390     6.3940 
  151.0000     2.3250    -5.2280   111.7940    24.2060     6.0740     5.8060     6.9710 
  151.1250     2.2850    -5.5530   108.8980    24.5220     7.2780     6.3840     7.5780 
  151.2500     2.2180    -5.8530   100.8290    24.6700     7.5740     6.9240     8.0720 
  151.3750     2.1550    -6.0850    93.2540    24.6100     7.1490     7.3320     8.3750 
  151.5000     2.1260    -6.3070    91.2810    24.2970     6.9770     7.5450     8.4630 
  151.6250     2.1410    -6.4020    93.8440    23.9600     7.1150     7.5020     8.3150 
  151.7500     2.1720    -6.3620    94.6010    24.0280     7.1020     7.2650     8.0030 
  151.8750     2.2040    -6.1630    92.8550    24.3560     6.7500     6.8870     7.5790 
  152.0000     2.2350    -5.8990    92.5510    24.6970     6.1260     6.4310     7.1020 
  152.1250     2.2610    -5.5780    98.6700    24.8620     5.4570     5.9710     6.6500 
  152.2500     2.2790    -5.2700   109.5780    24.8220     5.0410     5.5760     6.2930 
  152.3750     2.2830    -4.9580   120.6880    24.7030     4.8990     5.2900     6.0710 
  152.5000     2.2710    -4.6850   125.1450    24.6330     4.8570     5.1290     5.9890 
  152.6250     2.2470    -4.5190   117.8480    24.6220     4.8470     5.0990     6.0410 
  152.7500     2.2250    -4.4560   107.2370    24.6220     4.8760     5.1420     6.1570 
  152.8750     2.2130    -4.4350   103.5490    24.6220     4.9950     5.2100     6.2730 
  153.0000     2.2100    -4.3980   108.0220    24.6230     5.1390     5.2640     6.3380 
  153.1250     2.2230    -4.3620   111.4220    24.6570     5.1700     5.2850     6.3310 
  153.2500     2.2550    -4.3250   111.3520    24.7340     5.0860     5.2840     6.2930 
  153.3750     2.3010    -4.3430   112.9740    24.8070     4.9830     5.2740     6.2590 
  153.5000     2.3360    -4.3190   117.1180    24.8270     4.9480     5.2640     6.2450 
  153.6250     2.3340    -4.3010   116.5530    24.7750     4.9470     5.2500     6.2380 
  153.7500     2.3060    -4.2850   111.6520    24.6770     5.0010     5.2200     6.2050 
  153.8750     2.2700    -4.3520   108.0940    24.6060     5.0640     5.1690     6.1390 
  154.0000     2.2360    -4.4650   107.1280    24.6990     5.1130     5.1270     6.0830 
  154.1250     2.2100    -4.6190   108.0140    24.8730     5.1290     5.1530     6.1200 
  154.2500     2.1970    -4.7700   109.5730    24.8980     5.1240     5.2680     6.2710 
  154.3750     2.1940    -4.9170   108.1890    24.8030     5.2210     5.4530     6.5060 
  154.5000     2.1890    -5.0630   104.5040    24.7870     5.4680     5.6480     6.7360 
  154.6250     2.1800    -5.1620   104.4790    24.9430     5.5600     5.7300     6.7950 
  154.7500     2.1770    -5.2370   106.7270    25.0760     5.2620     5.6370     6.6300 
  154.8750     2.1780    -5.2660   107.1070    25.1160     4.6900     5.3760     6.2780 
  155.0000     2.1720    -5.3370   108.0000    25.4200     4.1590     5.0100     5.8410 
  155.1250     2.1650    -5.3880   114.1650    26.2790     3.8320     4.6270     5.4340 
  155.2500     2.1760    -5.4530   117.2090    27.3080     3.6600     4.2970     5.1110 
  155.3750     2.2090    -5.5140   113.2560    27.7760     3.5710     4.0440     4.8770 
  155.5000     2.2490    -5.6490   111.2500    27.5850     3.5160     3.8770     4.7330 
  155.6250     2.2760    -5.8270   119.7490    27.0670     3.5000     3.8380     4.7280 
  155.7500     2.2870    -6.0730   127.4690    26.5350     3.5720     3.9460     4.8870 
  155.8750     2.2830    -6.3590   125.8460    26.4220     3.9100     4.2120     5.2290 
  156.0000     2.2620    -6.6730   115.9680    26.1820     4.7320     4.6140     5.7290 
  156.1250     2.2280    -7.0640   103.8070    25.4150     5.9370     5.0880     6.2930 
