~V
VERS. 2.00: Ver 2.00
~W
STRT.M 60.0000:
STOP.M 262.0000:
STEP.M 0.1250:
NULL. -999.2500:
UWI. F10018:
~C
DEPT.M :
GR.API :
RML.OHMM :
RI. :
RXO.OHMM :
CALI.CM :
DEN.GM/CC :
SP.MV :
~A
   60.0000    35.1330    11.7780     1.1360     0.1200    24.6890     1.9540   138.0620 
   60.1250    38.5860    11.2190     1.1320     0.1200    24.4730     1.9630   138.8620 
   60.2500    40.2320    10.6340     1.1160     0.1200    24.3180     1.9660   139.1890 
   60.3750    39.2660    10.1270     1.0940     0.1200    24.2360     1.9650   139.0500 
   60.5000    36.3140     9.7730     1.0780     0.1200    24.1250     1.9650   138.1460 
   60.6250    34.1930     9.6420     1.0800     0.1200    24.0430     1.9640   135.8270 
   60.7500    34.4730     9.6850     1.1040     0.1200    24.0300     1.9610   132.2900 
   60.8750    36.5760     9.8180     1.1430     0.1200    24.1030     1.9510   128.0670 
   61.0000    38.7530     9.9120     1.1860     0.1200    24.2370     1.9400   123.5960 
   61.1250    40.9820     9.8390     1.2120     0.1200    24.3020     1.9460   118.8190 
   61.2500    45.3840     9.6320     1.2170     0.1220    24.4280     1.9750   113.5950 
   61.3750    50.7800     9.3840     1.2070     0.1440    24.7780     2.0210   107.8920 
   61.5000    53.0840     9.2180     1.1850     0.2640    25.2570     2.0680   102.0160 
   61.6250    50.9600     9.2500     1.1480     0.6670    25.3610     2.1020    96.4630 
   61.7500    49.3050     9.3170     1.0860     0.9390    25.1730     2.1250    91.3180 
   61.8750    49.0360     8.8460     0.9760     1.0040    24.8640     2.1480    86.5990 
   62.0000    47.9120     7.0550     0.7870     1.0510    24.5860     2.1820    82.6220 
   62.1250    46.1950     4.3860     0.5350     1.0820    24.4190     2.2450    80.0290 
   62.2500    47.4470     2.3600     0.3140     1.0490    24.3140     2.3360    78.6690 
   62.3750    49.7430     1.2180     0.1690     1.0980    24.2120     2.4460    78.2850 
   62.5000    49.7770     0.6930     0.0970     1.2180    24.0660     2.5470    78.2170 
   62.6250    52.2790     0.5970     0.0990     1.3390    23.9200     2.5930    77.2950 
   62.7500    60.9310     0.7780     0.1780     1.8750    24.0230     2.5740    74.7640 
   62.8750    72.4560     1.2600     0.3840     3.7400    24.2970     2.5070    70.3010 
   63.0000    80.4770     2.1250     0.8020     5.7520    24.4910     2.4240    64.0380 
   63.1250    80.3970     3.4670     1.5900     7.2870    24.4190     2.3580    56.0890 
   63.2500    74.9450     4.8650     2.6520     7.3080    24.3680     2.3160    47.1250 
   63.3750    68.0020     5.7070     3.7160     6.5610    24.3690     2.2920    37.5710 
   63.5000    64.7430     5.8460     4.5050     6.1850    24.3530     2.2770    28.0470 
   63.6250    67.2180     5.7220     4.9460     6.3950    24.3850     2.2690    19.6290 
   63.7500    68.7590     5.7200     5.2300     6.3790    24.5040     2.2620    13.0350 
   63.8750    66.4660     5.8560     5.4440     6.3220    24.6640     2.2480     8.3690 
   64.0000    63.2660     6.0780     5.6450     6.3190    24.7150     2.2160     5.1120 
   64.1250    63.8030     6.4070     5.9310     6.6910    24.7000     2.1650     2.7780 
   64.2500    65.4970     6.9010     6.3900     7.1030    24.7140     2.1230     0.8930 
   64.3750    63.7780     7.6220     7.0690     7.5140    24.7640     2.1200    -0.6580 
   64.5000    58.6300     8.5670     7.9350     8.3300    24.7030     2.1730    -1.9130 
   64.6250    53.8870     9.5620     8.8190    11.3630    24.5590     2.2610    -2.8830 
   64.7500    51.7720    10.2420     9.4260    15.9480    24.5140     2.3300    -3.7350 
   64.8750    52.3060    10.3380     9.5410    14.9440    24.6550     2.3470    -4.5530 
   65.0000    54.9500     9.8790     9.1600    11.0150    24.8670     2.3100    -5.3590 
   65.1250    57.4310     9.1750     8.4910     9.2970    25.0270     2.2470    -6.0720 
   65.2500    57.5370     8.6200     7.8820     9.0300    25.0750     2.1960    -6.6590 
   65.3750    55.5470     8.4130     7.5300     8.9790    25.0700     2.1680    -7.1680 
   65.5000    53.8540     8.6310     7.5400     8.9300    25.0740     2.1610    -7.6720 
   65.6250    54.1320     9.2740     7.9630     8.9080    25.1280     2.1710    -8.1780 
   65.7500    55.5770    10.1010     8.6160     9.0180    25.2260     2.1890    -8.6070 
   65.8750    56.9960    10.8790     9.3190     9.4520    25.3780     2.2110    -8.8910 
   66.0000    57.1720    11.3590     9.8540    10.2840    25.5270     2.2310    -9.1110 
   66.1250    56.0630    11.3040     9.9810     9.8740    25.5570     2.2410    -9.3740 
   66.2500    54.7960    10.8660     9.7540    10.0140    25.5320     2.2400    -9.6990 
   66.3750    53.4680    10.2530     9.3160    10.3380    25.5360     2.2290   -10.0690 
   66.5000    51.8680     9.6660     8.8330    10.0450    25.5510     2.2110   -10.4310 
   66.6250    51.0530     9.2550     8.4520     9.7440    25.4910     2.1900   -10.7550 
   66.7500    52.3460     9.0150     8.1980     9.4220    25.4240     2.1710   -11.1180 
   66.8750    54.8930     8.8940     8.0460     9.2430    25.4270     2.1530   -11.5340 
   67.0000    56.5190     8.8290     7.9590     9.1940    25.4010     2.1400   -11.8650 
   67.1250    55.8400     8.7650     7.9070     9.1510    25.2530     2.1360   -12.0180 
   67.2500    54.5070     8.6800     7.8660     9.0060    25.1120     2.1410   -12.0650 
   67.3750    53.2810     8.5850     7.8340     9.3860    25.0490     2.1520   -12.0710 
   67.5000    52.6910     8.5020     7.8130    10.2660    25.0870     2.1650   -12.0920 
   67.6250    55.3010     8.4480     7.8020    11.3060    25.1960     2.1720   -12.0930 
   67.7500    58.9050     8.4080     7.7890     9.8140    25.2780     2.1720   -12.0250 
   67.8750    60.7110     8.3710     7.7660     9.1430    25.2790     2.1700   -11.9130 
   68.0000    60.9930     8.3360     7.7300     9.1250    25.2550     2.1700   -11.8300 
   68.1250    60.8580     8.3180     7.6890     9.0940    25.2630     2.1720   -11.8080 
   68.2500    58.8770     8.3330     7.6550     9.1060    25.2910     2.1760   -11.8430 
   68.3750    55.8280     8.3860     7.6320     9.1970    25.3080     2.1800   -11.9220 
   68.5000    54.5260     8.4650     7.6110     9.3670    25.3060     2.1830   -12.0080 
   68.6250    55.8130     8.5290     7.5700     9.4870    25.2470     2.1830   -12.1330 
   68.7500    56.0830     8.5220     7.4780     9.5570    25.1260     2.1780   -12.2950 
   68.8750    55.4340     8.3930     7.3090     9.5480    25.0560     2.1660   -12.4790 
   69.0000    54.7410     8.1430     7.0670     9.5110    25.1310     2.1500   -12.6510 
   69.1250    54.7080     7.8740     6.8320     9.4560    25.2740     2.1320   -12.7890 
   69.2500    55.0530     7.7800     6.7390     9.4810    25.4250     2.1210   -12.8810 
   69.3750    55.3480     8.0570     6.9270     9.3650    25.5010     2.1310   -12.8610 
   69.5000    56.0050     8.8780     7.5310     9.2230    25.3580     2.1720   -12.7400 
   69.6250    55.9150    10.5380     8.8210    10.6070    24.9510     2.2500   -12.4940 
   69.7500    53.8690    13.0910    10.9040    14.5330    24.5880     2.3470   -12.1660 
   69.8750    51.3780    16.6320    13.9460    20.8680    24.4300     2.4470   -11.8310 
   70.0000    51.6730    21.0080    17.9090    26.3410    24.3930     2.5340   -11.5430 
   70.1250    55.0350    25.2840    22.0680    31.5000    24.3580     2.5920   -11.2970 
   70.2500    56.1500    27.7250    24.7680    42.8170    24.3300     2.6080   -11.1160 
   70.3750    54.9020    27.0190    24.6410    52.3340    24.3050     2.5720   -11.0640 
   70.5000    54.9780    23.3630    21.6740    40.7380    24.2870     2.4850   -11.1920 
   70.6250    56.8300    18.4710    17.3350    21.6170    24.3700     2.3630   -11.5820 
   70.7500    57.4290    14.2470    13.4440    12.7510    24.6940     2.2450   -12.1170 
   70.8750    56.7000    11.2480    10.5480     9.7430    25.0890     2.1560   -12.6820 
   71.0000    55.6440     9.4490     8.6550     8.8910    25.4080     2.1020   -13.2440 
   71.1250    53.7570     8.7060     7.6810     8.7780    25.5580     2.0810   -13.8090 
