~V
VERS. 2.00: Ver 2.00
~W
STRT.M 60.0000:
STOP.M 271.0000:
STEP.M 0.1250:
NULL. -999.2500:
UWI. F10035:
~C
DEPT.M :
GR.API :
RML.OHMM :
RI. :
RXO.OHMM :
CALI.CM :
DEN.GM/CC :
SP.MV :
~A
# ...
  138.7500    58.7520    11.0930     9.9230    10.6040    24.7930     2.1070   -12.7650 
  138.8750    61.4650    10.5800     9.5020    10.4980    24.8000     2.1060   -13.7080 
  139.0000    62.4870    10.2160     9.1670    10.3730    24.7830     2.1110   -14.3200 
  139.1250    64.0350    10.0870     9.0130    10.2860    24.6590     2.1240   -14.6060 
  139.2500    65.1620    10.1310     9.0090    10.4180    24.5900     2.1400   -14.6970 
  139.3750    63.9590    10.2930     9.1210    10.6520    24.5650     2.1540   -14.6670 
  139.5000    61.1800    10.5160     9.3020    10.7400    24.5100     2.1620   -14.5830 
  139.6250    59.0700    10.7110     9.4940    10.7780    24.4820     2.1590   -14.5170 
  139.7500    58.2610    10.7890     9.6300    10.8570    24.5420     2.1530   -14.5020 
  139.8750    56.9330    10.6980     9.6710    10.9110    24.5760     2.1470   -14.5370 
  140.0000    54.8300    10.4490     9.6160    10.8350    24.5640     2.1470   -14.6430 
  140.1250    54.8600    10.1250     9.5040    10.7030    24.6060     2.1530   -14.7960 
  140.2500    58.6940     9.8630     9.4150    10.4060    24.6060     2.1600   -14.9150 
  140.3750    63.1530     9.7520     9.4090    10.3150    24.5500     2.1650   -15.0080 
  140.5000    64.1410     9.8300     9.5180    10.4720    24.4790     2.1630   -15.1160 
  140.6250    62.4840    10.0730     9.7300    10.9020    24.4210     2.1540   -15.1930 
  140.7500    61.3300    10.3130     9.9180    11.0370    24.3940     2.1410   -15.1450 
  140.8750    61.2830    10.3510     9.9150    10.9080    24.4480     2.1310   -14.9270 
  141.0000    62.6460     9.9940     9.5520    10.4740    24.5230     2.1290   -14.4640 
  141.1250    68.5610     9.0710     8.6970     9.9510    24.5330     2.1440   -13.6610 
  141.2500    76.4720     7.8050     7.5660     8.7830    24.5010     2.1740   -12.5640 
  141.3750    83.1770     6.4930     6.4190     7.3060    24.4570     2.2150   -11.1860 
  141.5000    89.0100     5.4740     5.5140     5.7400    24.4070     2.2590    -9.6490 
  141.6250    93.4080     5.1320     5.1130     5.1210    24.3580     2.3000    -8.1610 
  141.7500    92.6820     5.5200     5.2430     5.1720    24.2890     2.3380    -6.8910 
  141.8750    85.6070     6.6630     5.9600     6.6230    24.2050     2.3770    -5.9800 
  142.0000    75.5310     8.4550     7.2770    10.7110    24.1510     2.4150    -5.5510 
  142.1250    67.3180    10.5110     9.0590    19.9370    24.1570     2.4310    -5.7790 
  142.2500    62.0930    12.0590    10.6650    25.5480    24.2600     2.4110    -6.5980 
  142.3750    59.0270    12.5530    11.4930    21.4650    24.4670     2.3510    -7.9150 
  142.5000    56.2030    12.0110    11.3780    13.9320    24.7080     2.2680    -9.4810 
  142.6250    55.5460    10.9980    10.6810    11.5890    24.8590     2.1930   -11.0110 
  142.7500    58.1050    10.1930    10.0130    11.2600    24.9220     2.1440   -12.3640 
  142.8750    60.3910     9.8000     9.5930    11.2570    24.8990     2.1230   -13.4710 
  143.0000    60.5710     9.7770     9.4420    11.0680    24.8600     2.1200   -14.2960 
  143.1250    62.2200     9.9900     9.5000    11.0030    24.8540     2.1240   -14.7790 
  143.2500    65.2640    10.2550     9.6300    11.1490    24.8630     2.1310   -15.0020 
  143.3750    66.1160    10.5020     9.7710    11.5010    24.8350     2.1410   -15.0720 
  143.5000    63.7580    10.7020     9.8950    11.8620    24.7660     2.1560   -15.1100 
  143.6250    60.7960    10.8440     9.9980    12.2550    24.7410     2.1690   -15.2130 
  143.7500    58.3810    10.9590    10.0930    12.6770    24.7480     2.1740   -15.3970 
  143.8750    57.3200    11.0670    10.1940    13.0190    24.7240     2.1700   -15.6520 
  144.0000    57.8500    11.1710    10.2960    13.0320    24.7360     2.1590   -15.9350 
  144.1250    57.7310    11.2430    10.3760    12.6850    24.7340     2.1480   -16.2100 
  144.2500    56.0610    11.2710    10.4170    12.5730    24.6140     2.1440   -16.4670 
  144.3750    55.8940    11.2700    10.4210    12.5360    24.4300     2.1470   -16.6710 
  144.5000    60.1770    11.2790    10.4110    12.5050    24.3010     2.1550   -16.7780 
  144.6250    65.2040    11.3640    10.4340    12.5020    24.2450     2.1620   -16.8010 
  144.7500    65.7960    11.5320    10.5170    12.5610    24.2020     2.1650   -16.7840 
  144.8750    62.7730    11.7300    10.6440    13.0070    24.2020     2.1640   -16.7540 
  145.0000    59.3850    11.8530    10.7520    13.6760    24.2960     2.1630   -16.7250 
  145.1250    57.4140    11.7770    10.7420    13.6400    24.3460     2.1680   -16.6470 
  145.2500    57.0320    11.5430    10.6080    13.1010    24.3220     2.1790   -16.5060 
  145.3750    59.5280    11.2740    10.4070    12.2530    24.2900     2.1920   -16.3070 
  145.5000    62.6610    11.1210    10.2290    11.4600    24.2560     2.1990   -16.1140 
  145.6250    61.9040    11.2200    10.1770    10.9180    24.2470     2.1930   -16.0130 
  145.7500    58.7920    11.4910    10.2420    11.7310    24.4140     2.1780   -15.9500 
  145.8750    56.3950    11.7850    10.3640    12.6950    24.6540     2.1610   -15.8600 
  146.0000    55.9540    11.9290    10.4460    12.9750    24.8060     2.1470   -15.7380 
  146.1250    57.3980    11.7560    10.3630    12.6240    24.8570     2.1350   -15.6180 
  146.2500    59.9580    11.3490    10.1250    12.5060    24.8350     2.1210   -15.4950 
  146.3750    60.9920    10.9190     9.8520    12.7530    24.6320     2.1030   -15.3460 
  146.5000    59.4790    10.8190     9.7780    13.0590    24.2520     2.0890   -15.0620 
  146.6250    58.3020    12.0950    10.3280    12.8900    24.0390     2.1090   -14.4520 
  146.7500    58.0500    14.1120    11.7450    13.3040    23.9580     2.1800   -13.5720 
  146.8750    56.6510    17.3150    14.1730    16.5450    23.9470     2.2990   -12.4910 
  147.0000    56.2280    21.0570    17.3050    27.4770    23.9930     2.4350   -11.2340 
  147.1250    61.8670    23.1620    19.5620    46.0080    24.1160     2.5330    -9.8230 
  147.2500    68.7980    21.9680    19.2220    47.5950    24.3010     2.5650    -8.3630 
  147.3750    72.1550    18.0200    16.3630    29.1300    24.3930     2.5320    -6.9280 
  147.5000    73.7110    13.4680    12.6740    13.5670    24.3950     2.4630    -5.6110 
  147.6250    77.1800    10.1830     9.7820     8.9390    24.4330     2.3920    -4.5100 
  147.7500    81.7780     8.2830     7.9360     7.6010    24.5050     2.3420    -3.6220 
  147.8750    83.0970     7.4770     6.9780     7.7040    24.6120     2.3160    -2.9540 
  148.0000    81.3270     7.3890     6.6730     7.6720    24.7210     2.3130    -2.5130 
  148.1250    79.6170     7.6530     6.8040     7.6770    24.8100     2.3280    -2.1870 
  148.2500    80.0060     7.8640     7.0160     7.5090    24.8360     2.3460    -1.8850 
  148.3750    82.8530     7.8490     7.1150     7.6330    24.8150     2.3550    -1.6180 
  148.5000    87.5040     7.6000     7.0330     7.3180    24.8020     2.3500    -1.3940 
  148.6250    90.8410     7.2280     6.8130     6.6440    24.8250     2.3320    -1.1980 
  148.7500    91.4900     6.8990     6.5810     6.1950    24.8360     2.3130    -0.9870 
  148.8750    91.1980     6.6740     6.4000     6.0320    24.8360     2.3030    -0.7270 
  149.0000    91.3460     6.5500     6.2840     6.0860    24.8290     2.3020    -0.4130 
  149.1250    90.8980     6.4860     6.2160     6.3010    24.8330     2.3070    -0.2170 
  149.2500    91.9480     6.4060     6.1430     6.3710    24.8390     2.3090    -0.1620 
  149.3750    95.3380     6.2700     6.0330     6.3550    24.8450     2.3100    -0.1470 
  149.5000    96.8630     6.0740     5.8820     6.1640    24.8560     2.3130    -0.0960 
  149.6250    93.8350     5.8600     5.7170     5.9580    24.8370     2.3210     0.0130 
  149.7500    91.2570     5.6910     5.5750     5.7490    24.8200     2.3310     0.1430 
  149.8750    91.7670     5.6020     5.4790     5.6120    24.8160     2.3410     0.2640 
