~V
VERS. 2.00: Ver 2.00
~W
STRT.M 50.0000:
STOP.M 293.0000:
STEP.M 0.1250:
NULL. -999.2500:
UWI. F10045:
~C
DEPT.M :
DEN.GM/CC :
SP.MV :
GR.API :
CALI.CM :
RXO.OHMM :
RI. :
RML.OHMM :
~A
# ...
  275.0000     2.2980   -12.2000    89.5950    24.0710     8.4160     6.1600     6.7690 
  275.1250     2.3010   -12.0960    80.3520    23.9360     5.7000     5.2370     5.7700 
  275.2500     2.3060   -12.0410    69.9620    23.8880     4.6880     4.6410     5.1260 
  275.3750     2.3170   -11.9730    60.9070    23.8820     4.5190     4.3230     4.7820 
  275.5000     2.3330   -11.8830    52.8820    23.8840     4.5690     4.2170     4.6670 
  275.6250     2.3460   -11.7620    44.6100    23.8840     4.6560     4.2580     4.7120 
  275.7500     2.3460   -11.5990    39.8480    23.8840     4.7900     4.3260     4.7850 
  275.8750     2.3390   -11.3950    39.9520    23.8840     4.8490     4.3340     4.7940 
  276.0000     2.3390   -11.2120    43.0580    23.8840     4.6890     4.2390     4.6910 
  276.1250     2.3570   -11.0350    48.4620    23.8840     4.3950     4.0480     4.4840 
  276.2500     2.3790   -10.8120    48.7920    23.8840     4.1290     3.8310     4.2500 
  276.3750     2.3930   -10.6030    42.0180    23.8940     3.9670     3.6320     4.0350 
  276.5000     2.3940   -10.4310    34.2480    23.9230     3.8510     3.4730     3.8630 
  276.6250     2.3910   -10.2770    32.6020    23.9830     3.7660     3.3750     3.7570 
  276.7500     2.3930   -10.1660    33.2670    24.0100     3.7380     3.3360     3.7150 
  276.8750     2.3960   -10.1090    32.4980    24.0330     3.7700     3.3530     3.7340 
  277.0000     2.3900   -10.0830    31.8600    24.0480     3.8500     3.4130     3.7980 
  277.1250     2.3740   -10.0730    31.9120    24.0220     3.8780     3.4880     3.8800 
  277.2500     2.3550   -10.0710    31.9000    23.9100     3.7800     3.5610     3.9580 
  277.3750     2.3390   -10.0420    32.8290    23.8430     3.6010     3.6140     4.0150 
  277.5000     2.3310   -10.0220    35.2330    23.8260     3.5080     3.6310     4.0340 
  277.6250     2.3320    -9.9950    37.4090    23.8260     3.6130     3.6060     4.0070 
  277.7500     2.3330   -10.0380    38.3590    23.8260     3.7630     3.5540     3.9500 
  277.8750     2.3350   -10.0940    37.8330    23.8260     3.8820     3.4770     3.8680 
  278.0000     2.3450   -10.1140    36.3020    23.8260     3.8920     3.3770     3.7600 
  278.1250     2.3690   -10.1350    34.0580    23.8260     3.8580     3.2680     3.6410 
  278.2500     2.3960   -10.1720    32.8660    23.8260     3.8460     3.1870     3.5530 
  278.3750     2.4120   -10.2500    33.8600    23.8260     3.9850     3.1800     3.5460 
  278.5000     2.4190   -10.3150    35.2510    23.8260     4.2810     3.2960     3.6720 
  278.6250     2.4230   -10.4260    34.3290    23.8350     4.5970     3.5930     3.9920 
  278.7500     2.4220   -10.5040    31.6900    23.8550     4.9840     4.0180     4.4530 
  278.8750     2.4060   -10.5450    30.2010    23.8810     5.4420     4.4920     4.9650 
  279.0000     2.3740   -10.5650    31.1710    23.9060     5.7960     4.8890     5.3940 
  279.1250     2.3450   -10.5990    32.1100    23.9390     5.9020     5.0240     5.5400 
  279.2500     2.3330   -10.6320    34.7210    23.9530     5.7580     4.8740     5.3770 
  279.3750     2.3330   -10.6380    40.1920    23.9500     5.3370     4.5040     4.9770 
  279.5000     2.3340   -10.6020    43.8370    23.9510     4.8740     4.0480     4.4850 
  279.6250     2.3310   -10.5120    39.8890    23.9860     4.4610     3.6520     4.0570 
  279.7500     2.3330   -10.3790    34.5930    24.0480     4.2010     3.3710     3.7530 
  279.8750     2.3440   -10.2510    34.4330    24.0870     3.9580     3.2080     3.5760 
  280.0000     2.3550   -10.1810    37.5040    24.1190     3.7840     3.1380     3.5000 
  280.1250     2.3470   -10.1020    38.0900    24.1650     3.7680     3.1360     3.4990 
  280.2500     2.3210   -10.0440    37.5860    24.1550     3.8740     3.1690     3.5340 
  280.3750     2.2870   -10.0090    39.0540    24.0880     4.0390     3.2210     3.5910 
  280.5000     2.2560   -10.0590    42.4940    24.0270     4.1680     3.2790     3.6530 
  280.6250     2.2400   -10.1490    46.8280    23.9710     4.1790     3.3230     3.7010 
  280.7500     2.2400   -10.3300    51.5030    23.9010     4.1380     3.3470     3.7260 
  280.8750     2.2510   -10.5350    53.9720    23.8470     4.1010     3.3470     3.7260 
  281.0000     2.2640   -10.6690    50.8700    23.8260     4.1130     3.3260     3.7040 
  281.1250     2.2730   -10.7540    44.8900    23.8410     4.1870     3.2900     3.6650 
  281.2500     2.2810   -10.8120    44.0230    23.9090     4.1110     3.2510     3.6230 
  281.3750     2.2930   -10.8700    48.0390    24.0940     3.9850     3.2160     3.5850 
  281.5000     2.3090   -10.8950    50.7760    24.3570     4.0000     3.1870     3.5530 
  281.6250     2.3180   -10.8900    50.9000    24.5400     4.1440     3.1540     3.5190 
  281.7500     2.3120   -10.8370    50.2200    24.4790     4.1340     3.1100     3.4700 
  281.8750     2.3000   -10.7330    47.4370    24.4000     3.9270     3.0540     3.4100 
  282.0000     2.2960   -10.6750    45.4710    24.4190     3.7180     2.9980     3.3500 
  282.1250     2.3030   -10.6860    51.6900    24.4410     3.6990     2.9680     3.3170 
  282.2500     2.3130   -10.6930    59.2380    24.3900     3.8180     2.9730     3.3230 
  282.3750     2.3200   -10.7280    58.4850    24.2520     4.0110     3.0130     3.3650 
  282.5000     2.3250   -10.7790    49.5230    24.0880     4.1400     3.0700     3.4270 
  282.6250     2.3350   -10.8610    49.5230    23.9320     4.0570     3.1240     3.4850 
  282.7500     2.3480   -10.9650    49.5230    23.7940     3.9160     3.1600     3.5250 
  282.8750     2.3640   -11.0910    49.5230    23.7240     3.8860     3.1780     3.5440 
  283.0000     2.3780   -11.1810    49.5230    23.7000     3.9580     3.1800     3.5460 
  283.1250     2.3810   -11.2240    49.5230    23.7000     4.0320     3.1660     3.5310 
  283.2500     2.3750   -11.2450    49.5230    23.7280     4.0300     3.1440     3.5070 
  283.3750     2.3630   -11.2530    49.5230    23.8040     4.0020     3.1170     3.4780 
  283.5000     2.3490   -11.2910    49.5230    23.8950     4.0290     3.0950     3.4540 
  283.6250     2.3370   -11.2960    49.5230    23.9640     4.0850     3.0880     3.4470 
  283.7500     2.3310   -11.2850    49.5230    24.0020     4.0920     3.0930     3.4530 
  283.8750     2.3250   -11.3110    49.5230    24.0140     4.0480     3.1020     3.4620 
  284.0000     2.3150   -11.4010    49.5230    24.0160     4.0100     3.1050     3.4660 
  284.1250     2.3090   -11.5440    49.5230    24.0130     4.0160     3.1070     3.4670 
  284.2500     2.3200   -11.7490    49.5230    23.9970     4.0350     3.1160     3.4770 
  284.3750     2.3450   -11.9620    49.5230    23.9540     4.0490     3.1380     3.5010 
  284.5000     2.3670   -12.1510    49.5230    23.9070     4.0620     3.1750     3.5410 
  284.6250     2.3690   -12.3460    49.5230    23.8890     4.0960     3.2250     3.5950 
  284.7500     2.3540   -12.5050    49.5230    23.9000     4.1530     3.2810     3.6560 
  284.8750     2.3330   -12.5950    49.5230    23.9530     4.2210     3.3370     3.7160 
  285.0000     2.3180   -12.6390    49.5230    24.0250     4.3440     3.3870     3.7710 
  285.1250     2.3160   -12.6380    49.5230    24.0740     4.5630     3.4150     3.8010 
  285.2500     2.3220   -12.5750    49.5230    24.0460     4.7160     3.4140     3.7990 
  285.3750     2.3280   -12.5360    49.5230    24.0350     4.6030     3.3850     3.7680 
  285.5000     2.3330   -12.4810    49.5230    24.0680     4.2920     3.3390     3.7180 
  285.6250     2.3380   -12.3800    49.5230    24.1070     4.1590     3.2950     3.6700 
  285.7500     2.3480   -12.2920    49.5230    24.0960     4.1490     3.2730     3.6460 
  285.8750     2.3600   -12.2580    49.5230    23.9920     4.1970     3.2830     3.6580 
  286.0000     2.3720   -12.2120    49.5230    23.9350     4.2440     3.3250     3.7030 
  286.1250     2.3770   -12.1530    49.5230    23.9480     4.2690     3.3870     3.7700 
