~V
VERS. 2.00: Ver 2.00
~W
STRT.M 55.0000:
STOP.M 247.0000:
STEP.M 0.1250:
NULL. -999.2500:
UWI. F10032:
~C
DEPT.M :
GR.API :
RML.OHMM :
RI. :
RXO.OHMM :
CALI.CM :
DEN.GM/CC :
SP.MV :
~A
# ...
  235.0000    80.7600    12.9530    12.5070    20.0930    24.3030     2.4470    -5.3200 
  235.1250    79.2630    13.0460    12.5270    17.1600    24.4240     2.4290    -5.2530 
  235.2500    80.8340    13.0250    12.5230    16.9470    24.4610     2.4300    -5.1670 
  235.3750    82.7250    12.8250    12.3980    16.0990    24.4500     2.4420    -5.1140 
  235.5000    83.1990    12.4760    12.1290    13.2470    24.4450     2.4590    -5.1000 
  235.6250    83.0050    12.0950    11.7870    12.7720    24.4710     2.4740    -5.0650 
  235.7500    83.0050    11.7980    11.4880    12.7950    24.4570     2.4820    -5.0240 
  235.8750    83.0050    11.6170    11.2920    12.3140    24.4140     2.4790    -5.0240 
  236.0000    83.0050    11.5410    11.2130    10.3650    24.3420     2.4620    -5.0390 
  236.1250    83.0050    11.5400    11.2430     8.9090    24.3400     2.4340    -5.0480 
  236.2500    83.0050    11.5710    11.3230     9.1200    24.3850     2.4070    -5.0600 
  236.3750    83.0050    11.6130    11.4180     9.6170    24.4220     2.3900    -5.0540 
  236.5000    83.0050    11.6500    11.4900    10.4440    24.4290     2.3890    -5.0210 
  236.6250    83.0050    11.6620    11.5130    10.0570    24.4180     2.4020    -4.9960 
  236.7500    83.0050    11.6330    11.4970     8.9780    24.4200     2.4180    -5.0020 
  236.8750    83.0050    11.5610    11.4400     8.1570    24.4320     2.4290    -5.0180 
  237.0000    83.0050    11.4520    11.3430     7.7930    24.4340     2.4330    -5.0330 
  237.1250    83.0050    11.3250    11.2250     7.3030    24.3910     2.4330    -5.0560 
  237.2500    83.0050    11.2130    11.0970     6.7880    24.3110     2.4370    -5.0760 
  237.3750    83.0050    11.1490    10.9790     6.7230    24.2450     2.4460    -5.1000 
  237.5000    83.0050    11.1610    10.9090     7.5980    24.2090     2.4590    -5.1490 
  237.6250    83.0050    11.2760    10.9200     7.6530    24.1890     2.4730    -5.1790 
  237.7500    83.0050    11.4660    11.0000     6.9730    24.1900     2.4840    -5.2130 
  237.8750    83.0050    11.6940    11.1360     6.1290    24.2080     2.4860    -5.2470 
  238.0000    83.0050    11.9270    11.3090     5.8440    24.2420     2.4760    -5.2650 
  238.1250    83.0050    12.1670    11.5070     5.7520    24.2520     2.4560    -5.2980 
  238.2500    83.0050    12.4180    11.7240     5.8170    24.2130     2.4420    -5.3810 
  238.3750    83.0050    12.6570    11.9460     6.0020    24.1530     2.4420    -5.4590 
  238.5000    83.0050    12.8380    12.1460     6.1840    24.0920     2.4510    -5.4910 
  238.6250    83.0050    12.9240    12.2930     6.7620    24.0750     2.4490    -5.5200 
  238.7500    83.0050    12.9460    12.4010     7.4180    24.0960     2.4230    -5.5330 
  238.8750    83.0050    12.9480    12.4800     8.1710    24.1640     2.3850    -5.5150 
  239.0000    83.0050    12.9660    12.5280     9.5240    24.2640     2.3630    -5.4600 
  239.1250    83.0050    12.9980    12.5520    11.9340    24.2420     2.3910    -5.3470 
  239.2500    83.0050    13.0210    12.5620    14.6510    24.1940     2.4580    -5.1730 
  239.3750    83.0050    13.0280    12.5660    17.4620    24.1720     2.5330    -4.9950 
  239.5000    83.0050    13.0250    12.5780    23.0930    24.1900     2.5840    -4.8320 
  239.6250    83.0050    13.0200    12.5920    35.6860    24.2030     2.5900    -4.6870 
  239.7500    83.0050    13.0140    12.5900    51.4270    24.2120     2.5690    -4.5320 
  239.8750    83.0050    13.0100    12.5720    53.4610    24.2250     2.5410    -4.3740 
  240.0000    83.0050    13.0120    12.5650    39.7960    24.2250     2.5210    -4.2270 
  240.1250    83.0050    13.0220    12.5920    29.9000    24.2280     2.5110    -4.1070 
  240.2500    83.0050    13.0380    12.6210    25.2440    24.2610     2.5060    -4.0290 
  240.3750    83.0050    13.0600    12.6380    25.5180    24.2920     2.5020    -3.9460 
  240.5000    83.0050    13.0790    12.6440    26.8780    24.2800     2.5010    -3.8430 
  240.6250    83.0050    13.0810    12.6280    32.4860    24.2170     2.5100    -3.7280 
  240.7500    83.0050    13.0520    12.5960    42.2140    24.1670     2.5290    -3.6350 
  240.8750    83.0050    13.0010    12.5740    50.7230    24.1260     2.5560    -3.5880 
  241.0000    83.0050    12.9570    12.5620    51.3900    24.0940     2.5810    -3.5500 
  241.1250    83.0050    12.9580    12.5500    44.7070    24.0860     2.5890    -3.5190 
  241.2500    83.0050    13.0020    12.5430    33.3460    24.0910     2.5730    -3.4920 
  241.3750    83.0050    13.0600    12.5380    22.5830    24.0920     2.5390    -3.4730 
  241.5000    83.0050    13.0970    12.5220    17.4030    24.1020     2.4980    -3.4520 
  241.6250    83.0050    13.0970    12.5220    17.5010    24.1330     2.4720    -3.4370 
  241.7500    83.0050    13.0970    12.5220    15.5040    24.1330     2.4650    -3.4150 
  241.8750    83.0050    13.0970    12.5220    12.6980    24.0960     2.4740    -3.3940 
  242.0000    83.0050    13.0970    12.5220    11.5040    24.1350     2.4850    -3.4030 
  242.1250    83.0050    13.0970    12.5220    11.1040    24.1670     2.4850    -3.4200 
  242.2500    83.0050    13.0970    12.5220    10.6740    24.1850     2.4710    -3.4490 
  242.3750    83.0050    13.0970    12.5220    10.3200    24.1810     2.4480    -3.5010 
  242.5000    83.0050    13.0970    12.5220    10.2230    24.1700     2.4240    -3.5800 
  242.6250    83.0050    13.0970    12.5220    10.7630    24.1410     2.4100    -3.6460 
  242.7500    83.0050    13.0970    12.5220    10.6460    24.0900     2.4110    -3.6900 
  242.8750    83.0050    13.0970    12.5220    11.1190    24.0070     2.4280    -3.6980 
  243.0000    83.0050    13.0970    12.5220    12.1280    23.9100     2.4590    -3.6900 
  243.1250    83.0050    13.0970    12.5220    12.6340    23.8500     2.4960    -3.6990 
  243.2500    83.0050    13.0970    12.5220    12.5840    23.8100     2.5250    -3.7120 
  243.3750    83.0050    13.0970    12.5220    12.0480    23.7420     2.5350    -3.7050 
  243.5000    83.0050    13.0970    12.5220    11.2060    23.5200     2.5120    -3.6960 
  243.6250    83.0050    13.0970    12.5220     9.9880    22.6730     2.4510    -3.6960 
  243.7500    83.0050    13.0970    12.5220     8.6460    21.0050     2.3680    -3.7120 
  243.8750    83.0050    13.0970    12.5220     7.5830    19.0710     2.2860    -3.7680 
  244.0000    83.0050    13.0970    12.5220     7.1440    17.9870     2.2240    -3.8000 
  244.1250    83.0050    13.0970    12.5220     7.0890    17.7480     2.1930    -3.7890 
  244.2500    83.0050    13.0970    12.5220     7.0890    17.7460     2.1810    -3.7570 
  244.3750    83.0050    13.0970    12.5220     7.0900    17.7460     2.1760    -3.7070 
  244.5000    83.0050    13.0970    12.5220     7.0910    17.7460     2.1710    -3.6660 
  244.6250    83.0050    13.0970    12.5220     7.0910    17.7460     2.1650    -3.6570 
  244.7500    83.0050    13.0970    12.5220     7.0900    17.7460     2.1610    -3.6230 
  244.8750    83.0050    13.0970    12.5220     7.0890    17.7460     2.1610    -3.5530 
  245.0000    83.0050    13.0970    12.5220     7.0890    17.7460     2.1650    -3.5130 
  245.1250    83.0050    13.0970    12.5220     7.0880    17.7460     2.1700    -3.4920 
  245.2500    83.0050    13.0970    12.5220     7.0890    17.7460     2.1730    -3.4950 
  245.3750    83.0050    13.0970    12.5220     7.0900    17.7460     2.1720    -3.5480 
  245.5000    83.0050    13.0970    12.5220     7.0900    17.7460     2.1690    -3.6230 
  245.6250    83.0050    13.0970    12.5220     7.0900    17.7460     2.1660    -3.6720 
  245.7500    83.0050    13.0970    12.5220     7.0890    17.7460     2.1660    -3.7080 
  245.8750    83.0050    13.0970    12.5220     7.0900    17.7460     2.1680    -3.7680 
  246.0000    83.0050    13.0970    12.5220     7.0900    17.7460     2.1710    -3.8120 
  246.1250    83.0050    13.0970    12.5220     7.0890    17.7460     2.1720    -3.8430 
