~V
VERS. 2.00: Ver 2.00
~W
STRT.M 50.0000:
STOP.M 266.0000:
STEP.M 0.1250:
NULL. -999.2500:
UWI. F10057:
~C
DEPT.M :
GR.API :
RML.OHMM :
RI. :
RXO.OHMM :
CALI.CM :
DEN.GM/CC :
SP.MV :
~A
# ...
  173.7500    57.6430   233.0800   245.3210   254.6960    24.2320     2.2020   -17.6640 
  173.8750    60.9970   178.7830   185.1230   159.4880    24.2800     2.2200   -16.5490 
  174.0000    64.6200   143.9380   145.9270   109.4380    24.2650     2.2370   -15.4410 
  174.1250    68.0450   124.9490   124.1390    87.2510    24.1390     2.2510   -14.3490 
  174.2500    68.9950   116.1050   113.2170    77.7080    24.0450     2.2620   -13.2660 
  174.3750    67.3910   116.1080   111.5310    75.1960    24.0750     2.2710   -12.2150 
  174.5000    63.9950   124.8900   118.9250    74.8770    24.1770     2.2780   -11.2130 
  174.6250    60.5540   145.3870   138.3720    78.5460    24.2240     2.2770   -10.2560 
  174.7500    58.9320   177.7500   169.4760    96.0310    24.2110     2.2670    -9.3340 
  174.8750    58.8770   222.0040   210.8690   134.4670    24.1410     2.2520    -8.4500 
  175.0000    58.0800   272.9620   255.9730   182.9750    23.9960     2.2360    -7.6080 
  175.1250    55.6660   307.9300   289.2780   187.6930    23.8540     2.2180    -6.8230 
  175.2500    53.6930   307.9430   301.9120   171.3330    23.8240     2.1980    -6.1110 
  175.3750    53.0230   304.4860   296.1020   157.3010    23.8780     2.1860    -5.4720 
  175.5000    53.1830   289.6220   280.0430   136.7040    23.9060     2.1970    -4.8520 
  175.6250    53.7080   264.2360   256.7690   120.0970    23.8630     2.2600    -4.2530 
  175.7500    53.1950   226.1310   224.6920   125.3860    23.8090     2.3700    -3.6870 
  175.8750    51.1610   178.6210   183.7040   159.7060    23.8030     2.5010    -3.1540 
  176.0000    50.8070   132.7860   140.6370   185.1290    23.8810     2.6150    -2.6930 
  176.1250    55.7500   100.3110   106.5550   138.2250    24.0450     2.6640    -2.3030 
  176.2500    61.0930    80.7010    84.2670    87.3990    24.2240     2.6520    -1.9190 
  176.3750    61.6080    70.6630    71.9910    59.6340    24.3520     2.6090    -1.5160 
  176.5000    58.3180    65.2940    65.2590    48.6540    24.3910     2.5770    -1.1060 
  176.6250    56.6300    58.1920    57.6800    54.1950    24.3420     2.5940    -0.6880 
  176.7500    56.5390    46.2900    45.8660    84.5650    24.2670     2.6460    -0.2630 
  176.8750    54.4430    31.9820    32.0800   138.5360    24.1970     2.7090     0.1610 
  177.0000    50.3020    19.6640    20.3720    77.3550    24.1290     2.7520     0.6090 
  177.1250    48.0100    13.0070    13.1330    24.9850    24.1030     2.7560     1.0790 
  177.2500    47.5000     8.7770     8.9940    10.1040    24.1450     2.7310     1.5460 
  177.3750    47.2480     6.8610     6.8860     6.0740    24.2150     2.6850     1.9760 
  177.5000    48.1770     6.3110     6.0570     5.5680    24.2890     2.6260     2.3430 
  177.6250    50.8860     6.5910     6.1390     5.8680    24.3580     2.5640     2.6580 
  177.7500    52.0730     7.1260     6.6210     6.3060    24.4200     2.5130     2.9100 
  177.8750    51.2810     7.5990     7.1840     7.1010    24.4570     2.4820     3.0890 
  178.0000    50.6270     7.8160     7.5770     7.7580    24.4940     2.4650     3.2210 
  178.1250    50.0030     7.7050     7.6400     7.5400    24.6250     2.4480     3.3010 
  178.2500    49.7410     7.4220     7.4740     6.7370    24.7870     2.4220     3.3340 
  178.3750    51.0270     7.1110     7.2040     6.0150    24.9170     2.3870     3.3450 
  178.5000    53.2070     6.8920     6.9570     5.7650    25.0280     2.3530     3.3310 
  178.6250    52.2640     6.8600     6.8330     5.8650    24.9980     2.3280     3.2770 
  178.7500    49.1810     6.9850     6.8260     6.0500    24.7590     2.3150     3.2000 
  178.8750    47.1150     7.2190     6.9030     6.3460    24.4640     2.3120     3.0990 
  179.0000    45.6910     7.5040     7.0160     6.7120    24.3730     2.3170     2.9520 
  179.1250    43.5590     7.7860     7.1220     6.9620    24.5130     2.3320     2.7630 
  179.2500    42.1490     7.7410     7.2050     7.0220    24.6490     2.3520     2.5400 
  179.3750    42.1080     7.2100     7.2460     6.9620    24.7320     2.3730     2.2490 
  179.5000    42.8330     7.1720     7.2280     6.8430    24.7600     2.3880     1.8900 
  179.6250    42.9120     7.2080     7.1350     6.7930    24.6600     2.3900     1.4290 
  179.7500    44.0070     7.2150     6.9930     6.9280    24.4290     2.3820     0.8830 
  179.8750    48.5880     7.2460     6.8470     7.1040    24.1250     2.3730     0.2590 
  180.0000    57.5960     7.3730     6.7760     7.1750    23.8380     2.3740    -0.4720 
  180.1250    69.2220     7.7060     6.8980     7.1920    23.6830     2.3950    -1.3400 
  180.2500    78.2130     8.2520     7.2220     7.3740    23.6470     2.4320    -2.3060 
  180.3750    82.4190     8.9650     7.7120     8.3800    23.6360     2.4730    -3.3130 
  180.5000    83.1600     9.7210     8.2640    10.3320    23.6190     2.4990    -4.2990 
  180.6250    83.1280    10.3070     8.7010    11.8050    23.7490     2.4900    -5.2150 
  180.7500    83.5940    10.6250     8.9310    11.8190    24.0600     2.4510    -6.0630 
  180.8750    84.3720    10.6920     8.9530    11.1130    24.3960     2.3940    -6.8430 
  181.0000    85.7840    10.6270     8.8420    10.7330    24.5920     2.3420    -7.5340 
  181.1250    88.3400    10.5970     8.7190    10.7020    24.6330     2.3150    -8.0710 
  181.2500    89.4310    10.6910     8.6800    10.7510    24.6320     2.3130    -8.4650 
  181.3750    86.0320    10.9060     8.7520    10.9270    24.6120     2.3290    -8.7030 
  181.5000    80.1880    11.1920     8.9210    11.1140    24.5800     2.3540    -8.8100 
  181.6250    78.3020    11.4950     9.1530    11.4620    24.5420     2.3800    -8.7950 
  181.7500    81.4420    11.7930     9.4050    11.9340    24.5110     2.4040    -8.6670 
  181.8750    85.2050    12.1030     9.6710    12.2820    24.5070     2.4220    -8.4060 
  182.0000    85.2150    12.4420     9.9520    12.4040    24.5080     2.4340    -8.0110 
  182.1250    81.2390    12.7950    10.2430    12.5310    24.4590     2.4400    -7.5060 
  182.2500    78.3770    13.0860    10.4960    13.0550    24.3960     2.4480    -6.9310 
  182.3750    79.7150    13.2160    10.6360    13.8320    24.3920     2.4590    -6.2910 
  182.5000    85.1310    13.0820    10.5900    14.1790    24.4530     2.4740    -5.5820 
  182.6250    91.5620    12.5590    10.2630    13.4010    24.5080     2.4860    -4.7670 
  182.7500    93.7850    11.7440     9.7090    11.9300    24.5260     2.4860    -3.8610 
  182.8750    89.0970    10.7690     9.0030    10.4120    24.5420     2.4710    -2.8900 
  183.0000    79.1930     9.7970     8.2490     8.9330    24.6370     2.4460    -1.8590 
  183.1250    70.8450     9.0080     7.5780     7.5130    24.8210     2.4220    -0.8120 
  183.2500    65.8470     8.4500     7.0620     6.7650    24.9800     2.4110     0.1980 
  183.3750    60.2770     8.1220     6.7340     6.8710    25.0390     2.4110     1.0980 
  183.5000    55.0850     7.9790     6.5880     7.2640    25.0760     2.4100     1.8700 
  183.6250    55.7680     7.9720     6.5940     7.1840    25.2220     2.3970     2.4820 
  183.7500    59.2980     8.0130     6.6620     6.9350    25.3520     2.3730     2.9410 
  183.8750    58.6780     8.0550     6.7500     6.8820    25.3560     2.3490     3.2450 
  184.0000    52.6230     8.0800     6.8300     6.8940    25.2180     2.3360     3.4020 
  184.1250    47.0500     8.0890     6.8900     6.7270    25.0770     2.3360     3.4260 
  184.2500    44.0590     8.0920     6.9410     6.5480    25.0350     2.3410     3.3590 
  184.3750    43.0020     8.0850     6.9910     6.5080    25.0460     2.3440     3.2650 
  184.5000    44.3430     8.0610     7.0330     6.6240    25.0890     2.3400     3.1520 
  184.6250    47.5240     8.0040     7.0370     6.7750    25.2160     2.3240     3.0360 
  184.7500    48.8690     7.9130     6.9870     6.7410    25.4570     2.2950     2.9260 
  184.8750    47.5360     7.8000     6.8870     6.5310    25.7620     2.2560     2.8200 
