~V
VERS. 2.00: Ver 2.00
~W
STRT.M 50.0000:
STOP.M 300.0000:
STEP.M 0.1250:
NULL. -999.2500:
UWI. F10041:
~C
DEPT.M :
DEN.GM/CC :
GR.API :
RML.OHMM :
RI. :
RXO.OHMM :
CALI.CM :
SP.MV :
~A
   50.0000     2.1510    51.1200    63.4160     5.4740     0.9060    24.3660    92.6160 
   50.1250     2.2000    53.1620    65.1900     5.4940     1.1190    23.9660    93.5860 
   50.2500     2.2400    54.8130    66.0490     5.4730     1.2860    23.7600    94.9200 
   50.3750     2.2680    55.5900    64.4140     5.3450     1.3080    23.6920    96.6510 
   50.5000     2.2720    55.2560    59.9760     5.0900     1.2980    23.6620    98.7650 
   50.6250     2.2860    55.0720    53.8800     4.7460     1.2980    23.6430   101.1020 
   50.7500     2.3000    56.5600    48.4080     4.4140     1.2940    23.6670   103.2500 
   50.8750     2.3180    59.6180    44.7390     4.1580     1.2900    23.6820   104.8520 
   51.0000     2.3350    61.0510    42.9810     3.9960     1.2790    23.6650   105.7050 
   51.1250     2.3460    57.3490    42.4000     3.9070     1.2980    23.5790   105.7580 
   51.2500     2.3490    52.4800    41.7340     3.8330     1.3200    23.4280   105.2900 
   51.3750     2.3480    50.6860    40.5210     3.7500     1.3330    23.3100   104.4490 
   51.5000     2.3490    52.9340    38.9030     3.6650     1.3250    23.2800   103.2720 
   51.6250     2.3560    56.0480    37.4750     3.6020     1.3080    23.3330   101.9050 
   51.7500     2.3700    57.6830    36.7140     3.5710     1.2570    23.4290   100.5750 
   51.8750     2.3860    57.9790    36.7790     3.5710     1.1590    23.5860    99.4340 
   52.0000     2.4000    57.1860    37.5060     3.5910     1.0320    23.7080    98.5890 
   52.1250     2.4030    55.7870    38.3300     3.6100     0.9290    23.7060    98.0120 
   52.2500     2.3920    54.2190    38.5270     3.6080     0.8430    23.6910    97.5480 
   52.3750     2.3650    52.9880    37.7410     3.5800     0.7700    23.6910    97.0330 
   52.5000     2.3240    52.0280    36.0420     3.5360     0.6890    23.7070    96.4510 
   52.6250     2.2740    50.1550    33.8540     3.4920     0.6640    23.7370    95.8330 
   52.7500     2.2240    48.9600    31.8460     3.4620     0.6900    23.7450    95.2630 
   52.8750     2.1790    48.7410    30.3860     3.4460     0.7710    23.7690    94.8010 
   53.0000     2.1500    47.4820    29.5320     3.4310     0.9040    23.8910    94.3700 
   53.1250     2.1500    42.9980    28.9690     3.3910     1.0450    24.1210    93.8080 
   53.2500     2.1830    37.2850    28.1550     3.3080     1.1450    24.3120    92.8580 
   53.3750     2.2410    34.1670    26.9030     3.1820     1.1720    24.4850    91.3570 
   53.5000     2.3070    34.5940    25.4080     3.0430     1.1370    24.7100    89.2530 
   53.6250     2.3570    36.8590    24.2190     2.9460     1.1040    24.9340    86.3960 
   53.7500     2.3830    39.9280    23.7300     2.9230     1.1460    25.0430    82.9290 
   53.8750     2.3950    43.9830    24.0690     2.9800     1.3540    24.9930    78.9520 
   54.0000     2.4110    48.4240    25.0720     3.0970     1.5540    24.8100    74.6680 
   54.1250     2.4410    50.5640    26.2240     3.2310     1.4860    24.5160    70.4170 
   54.2500     2.4820    48.9390    26.7890     3.3280     1.4030    24.2380    66.6780 
   54.3750     2.5230    44.9510    26.3170     3.3570     1.6040    24.0850    63.8960 
   54.5000     2.5510    42.1070    24.7910     3.3150     1.8880    24.0370    62.1580 
   54.6250     2.5490    41.7820    22.6420     3.2200     2.0500    24.0810    61.5950 
   54.7500     2.5160    41.3890    20.6460     3.1160     1.9750    24.2440    61.7800 
   54.8750     2.4580    40.2480    19.1720     3.0200     1.4240    24.5370    62.3340 
   55.0000     2.3910    40.8760    18.2520     2.9340     0.8800    24.8240    62.8740 
   55.1250     2.3340    43.6340    17.7400     2.8460     0.6920    24.9350    62.8410 
   55.2500     2.2970    44.9530    17.3970     2.7490     0.6850    24.9520    62.0480 
   55.3750     2.2800    44.4560    17.1830     2.6450     0.6860    24.9550    60.3350 
   55.5000     2.2790    44.2160    17.0140     2.5350     0.7740    24.9650    57.8010 
   55.6250     2.2890    44.8900    16.3430     2.3700     0.9380    24.9710    54.4250 
   55.7500     2.3100    44.8960    14.5040     2.0920     1.0790    24.9650    50.6440 
   55.8750     2.3480    43.9340    11.3030     1.6750     1.0710    24.9540    46.7400 
   56.0000     2.4060    43.5100     7.3970     1.1730     0.9620    24.9680    43.0150 
   56.1250     2.4780    43.9080     4.0930     0.7200     0.7900    25.0980    39.8610 
   56.2500     2.5420    42.9460     1.9770     0.4010     0.6700    25.2370    37.0900 
   56.3750     2.5730    41.4990     0.9550     0.2330     0.7890    25.0710    34.5880 
   56.5000     2.5560    42.8090     0.7640     0.2070     1.4230    24.6370    32.0950 
   56.6250     2.4830    47.8690     1.4410     0.3690     3.2520    24.2900    29.2360 
   56.7500     2.3780    53.6830     3.0210     0.7720     5.7480    24.4150    25.8270 
   56.8750     2.2660    57.5740     5.6160     1.5160     8.2120    24.6180    22.0130 
   57.0000     2.1680    60.1360     8.8530     2.6430     9.4440    24.5010    17.9130 
   57.1250     2.1060    63.6690    11.4110     4.0150     9.5040    24.2310    13.5130 
   57.2500     2.0790    68.2380    12.2870     5.2490     8.9050    24.0050     9.1740 
   57.3750     2.0790    71.3040    11.6050     6.1220     8.2780    23.8540     4.9950 
   57.5000     2.0950    71.0440    10.3410     6.6290     7.6920    23.7410     1.1020 
   57.6250     2.1180    70.2140     9.5850     6.9320     7.7160    23.7120    -2.0740 
   57.7500     2.1440    69.9370     9.5880     7.2530     8.4120    23.7480    -4.4840 
   57.8750     2.1750    67.2810    10.2810     7.6940     8.9230    23.7790    -6.3220 
   58.0000     2.2080    63.1290    11.5210     8.2900     9.1420    23.7730    -7.7870 
   58.1250     2.2290    60.7110    13.0920     9.0140     9.6380    23.7660    -8.8500 
   58.2500     2.2300    59.8860    14.5480     9.7120    10.0450    23.7890    -9.7930 
   58.3750     2.2130    58.7700    15.5170    10.2350    10.7080    23.7200   -10.7030 
   58.5000     2.1870    58.4190    15.7750    10.4730    11.3920    23.4930   -11.4900 
   58.6250     2.1650    61.3570    15.2820    10.3720    11.1590    23.2200   -12.2440 
   58.7500     2.1540    63.6660    14.4800    10.0880    10.4620    23.0820   -13.0800 
   58.8750     2.1500    62.9150    13.6990     9.7620    10.1040    23.0440   -13.9350 
   59.0000     2.1510    61.6450    13.1500     9.5140    10.0020    23.0850   -14.7970 
   59.1250     2.1560    62.3840    12.9360     9.4330    10.0360    23.3640   -15.7160 
   59.2500     2.1650    62.2820    12.9370     9.4830    10.1030    23.9500   -16.6200 
   59.3750     2.1750    58.7020    13.0550     9.6120    10.4860    24.6040   -17.5000 
   59.5000     2.1750    53.8630    13.1960     9.7560    11.6600    25.1150   -18.3740 
   59.6250     2.1500    51.4240    13.2560     9.8460    13.6530    25.3470   -19.1530 
   59.7500     2.0990    49.9950    13.1900     9.8560    14.5180    25.4640   -19.8570 
   59.8750     2.0300    48.8530    13.0120     9.7860    12.9710    25.5440   -20.4480 
   60.0000     1.9640    48.7490    12.7830     9.6510    11.8480    25.5130   -20.8320 
   60.1250     1.9290    50.7560    12.5650     9.4770    11.2430    25.3970   -21.1070 
   60.2500     1.9340    54.7820    12.3430     9.2920    10.3240    25.2180   -21.2840 
   60.3750     1.9760    59.4770    12.0530     9.1120     9.6080    25.0470   -21.2730 
   60.5000     2.0410    59.6730    11.6580     8.9560     9.2860    24.8870   -21.1900 
   60.6250     2.1100    54.1110    11.1900     8.8540     9.2300    24.6610   -21.0930 
   60.7500     2.1660    50.3730    10.7790     8.8130     9.4120    24.5490   -20.8820 
   60.8750     2.1990    51.7280    10.5240     8.8340     9.5870    24.6080   -20.6430 
   61.0000     2.2010    54.7510    10.4480     8.9000     9.6860    24.8400   -20.5300 
   61.1250     2.1680    56.6380    10.4850     8.9780     9.6820    25.1230   -20.4720 
