~V
VERS. 2.00: Ver 2.00
~W
STRT.M 57.0000:
STOP.M 307.0000:
STEP.M 0.1250:
NULL. -999.2500:
UWI. F10042:
~C
DEPT.M :
GR.API :
RML.OHMM :
RI. :
RXO.OHMM :
CALI.CM :
DEN.GM/CC :
SP.MV :
~A
# ...
  135.7500    85.5180     5.3540     4.4860     5.0270    26.1160     2.2620    -5.4680 
  135.8750    82.9280     5.4500     4.6130     5.2030    25.9840     2.2520    -5.7370 
  136.0000    81.3490     5.5400     4.7390     5.4760    25.8240     2.2420    -6.0900 
  136.1250    79.2150     5.6000     4.8550     5.9200    25.5980     2.2310    -6.4860 
  136.2500    77.4270     5.6440     4.9760     6.2310    25.4700     2.2160    -6.9150 
  136.3750    78.2570     5.7160     5.1150     6.1770    25.4100     2.1980    -7.3690 
  136.5000    79.4600     5.8590     5.2670     6.0890    25.3360     2.1800    -7.7730 
  136.6250    77.2560     6.0750     5.3840     6.0820    25.1400     2.1690    -7.9580 
  136.7500    75.8360     6.2630     5.4060     6.3070    24.9460     2.1690    -7.9160 
  136.8750    78.0630     6.3060     5.2920     6.1740    24.7950     2.1820    -7.7050 
  137.0000    81.3400     6.1270     5.0440     5.7190    24.6470     2.2070    -7.3600 
  137.1250    82.3480     5.7370     4.7150     5.6580    24.5260     2.2430    -6.8910 
  137.2500    82.3970     5.3150     4.4050     5.4630    24.5670     2.2780    -6.3190 
  137.3750    82.5820     5.0020     4.1830     4.9710    24.8000     2.3050    -5.7470 
  137.5000    82.7810     4.8620     4.0790     4.6310    25.0920     2.3140    -5.3050 
  137.6250    84.5840     4.8780     4.1010     4.9100    25.2530     2.3000    -5.1750 
  137.7500    87.5080     4.9470     4.1940     5.3250    25.1960     2.2740    -5.3350 
  137.8750    89.7650     5.0330     4.3380     5.4290    25.0080     2.2480    -5.6890 
  138.0000    90.4230     5.1630     4.5370     5.2790    24.8400     2.2310    -6.1830 
  138.1250    87.8680     5.4230     4.8220     5.1020    24.7240     2.2250    -6.9160 
  138.2500    83.3080     5.8390     5.1900     5.1370    24.6470     2.2220    -7.9430 
  138.3750    78.1630     6.3940     5.6190     5.6260    24.6140     2.2150    -9.1480 
  138.5000    73.3370     7.0090     6.0580     7.2470    24.6260     2.2020   -10.3810 
  138.6250    69.6670     7.5360     6.4080     9.2890    24.6530     2.1870   -11.4750 
  138.7500    66.4230     7.8560     6.6040     9.6460    24.6820     2.1750   -12.4270 
  138.8750    64.3980     7.9150     6.6260     8.4460    24.7230     2.1680   -13.3030 
  139.0000    64.5830     7.7530     6.5090     7.4840    24.7840     2.1660   -14.1000 
  139.1250    68.3780     7.4920     6.3280     7.2930    24.8500     2.1650   -14.6850 
  139.2500    72.2480     7.3050     6.1780     7.2330    24.8250     2.1630   -15.0740 
  139.3750    72.5550     7.2830     6.1130     7.2080    24.7880     2.1600   -15.3690 
  139.5000    70.9480     7.4390     6.1550     7.2430    24.8930     2.1560   -15.5900 
  139.6250    69.6780     7.7250     6.2990     7.4150    25.2380     2.1510   -15.7480 
  139.7500    68.4720     8.0270     6.4920     7.6240    25.6120     2.1460   -15.9190 
  139.8750    67.0230     8.2870     6.7070     7.8870    25.8400     2.1420   -16.1360 
  140.0000    67.4840     8.4860     6.9230     8.1660    25.9150     2.1410   -16.4280 
  140.1250    68.8660     8.6280     7.1180     8.2670    25.8870     2.1460   -16.8870 
  140.2500    66.4540     8.7340     7.2740     8.4380    25.8080     2.1510   -17.3900 
  140.3750    62.8770     8.8030     7.3720     8.7850    25.6900     2.1530   -17.7720 
  140.5000    62.8860     8.8280     7.3990     9.0170    25.5500     2.1460   -18.0710 
  140.6250    65.5890     8.8010     7.3370     9.0970    25.4420     2.1350   -18.3430 
  140.7500    66.5350     8.7360     7.2080     9.0420    25.4090     2.1280   -18.5800 
  140.8750    65.6130     8.6300     7.0280     8.9570    25.3960     2.1280   -18.7330 
  141.0000    65.0420     8.4770     6.8210     8.8530    25.3910     2.1370   -18.7430 
  141.1250    65.2730     8.2730     6.6220     8.6090    25.3750     2.1490   -18.5490 
  141.2500    67.0100     8.0530     6.4540     8.2290    25.3330     2.1590   -18.2980 
  141.3750    68.6110     7.8540     6.3270     7.8630    25.2930     2.1660   -18.1410 
  141.5000    66.8250     7.7100     6.2460     7.8410    25.3130     2.1710   -18.0380 
  141.6250    65.4240     7.6440     6.2250     7.8330    25.3600     2.1710   -17.9680 
  141.7500    68.5730     7.6210     6.2530     7.8320    25.3770     2.1630   -17.9320 
  141.8750    72.6190     7.6040     6.3090     7.8490    25.3550     2.1470   -17.9750 
  142.0000    71.3610     7.5630     6.3650     8.0240    25.3140     2.1250   -18.1580 
  142.1250    66.1660     7.4940     6.3910     8.2600    25.2810     2.1080   -18.4370 
  142.2500    64.6410     7.4290     6.3840     8.3810    25.2450     2.1040   -18.7200 
  142.3750    66.3630     7.4050     6.3550     8.3430    25.1710     2.1140   -18.9080 
  142.5000    67.3300     7.4350     6.3220     8.3710    25.0150     2.1340   -19.0030 
  142.6250    65.3170     7.5030     6.3130    10.0090    24.8990     2.1510   -19.0830 
  142.7500    62.2630     7.5580     6.3420    12.8730    24.9250     2.1590   -19.2020 
  142.8750    59.9710     7.5760     6.4040    12.0510    25.1490     2.1580   -19.3420 
  143.0000    59.2950     7.5670     6.4790     9.9070    25.4310     2.1510   -19.4620 
  143.1250    59.2680     7.5700     6.5380     8.8230    25.6310     2.1420   -19.5880 
  143.2500    58.3930     7.6060     6.5720     8.8970    25.7010     2.1350   -19.6680 
  143.3750    58.1660     7.6670     6.5890     9.0270    25.6610     2.1320   -19.7130 
  143.5000    59.7790     7.7260     6.6060     9.0680    25.5500     2.1310   -19.7550 
  143.6250    60.8530     7.7650     6.6370     8.9520    25.4900     2.1330   -19.8110 
  143.7500    61.1130     7.7930     6.6790     8.8530    25.4780     2.1330   -19.9010 
  143.8750    62.9560     7.8130     6.7200     8.8550    25.4970     2.1320   -19.9960 
  144.0000    65.9180     7.8110     6.7490     8.9270    25.5090     2.1300   -20.0270 
  144.1250    65.1960     7.7610     6.7610     8.8920    25.4680     2.1310   -19.9240 
  144.2500    61.6820     7.6740     6.7640     8.7350    25.4210     2.1330   -19.7710 
  144.3750    59.9770     7.5720     6.7530     8.4990    25.4040     2.1330   -19.6180 
  144.5000    61.1260     7.4550     6.6960     8.0960    25.4070     2.1340   -19.4090 
  144.6250    61.0980     7.2630     6.5150     7.5390    25.4380     2.1490   -18.8570 
  144.7500    61.8320     6.9370     6.1990     6.8970    25.4600     2.1850   -17.8150 
  144.8750    67.3220     6.4660     5.7770     6.2650    25.4830     2.2390   -16.3100 
  145.0000    75.5330     5.9130     5.3310     5.5140    25.5360     2.2950   -14.5850 
  145.1250    80.1590     5.4260     4.9850     4.9000    25.7080     2.3250   -12.8720 
  145.2500    80.9000     5.1200     4.7840     4.6960    25.8790     2.3240   -11.2720 
  145.3750    80.8610     5.0260     4.7170     4.8850    25.9840     2.3010    -9.8120 
  145.5000    80.2340     5.1000     4.7350     5.4910    25.9570     2.2710    -8.5050 
  145.6250    79.3610     5.2310     4.7600     5.9750    25.9380     2.2520    -7.4250 
  145.7500    80.9940     5.2950     4.7270     5.8160    25.9100     2.2450    -6.6350 
  145.8750    84.9290     5.2460     4.6180     5.1340    25.8700     2.2460    -6.1850 
  146.0000    88.8030     5.0990     4.4510     4.7570    25.7920     2.2510    -5.9830 
  146.1250    89.7220     4.9050     4.2620     4.7120    25.6660     2.2570    -5.9380 
  146.2500    88.0250     4.7150     4.0920     4.6880    25.6020     2.2620    -5.8900 
  146.3750    86.2050     4.5410     3.9740     4.5350    25.6530     2.2660    -5.7820 
  146.5000    85.7280     4.4010     3.9390     4.3650    25.7470     2.2660    -5.7170 
  146.6250    84.9000     4.3710     4.0510     4.7340    25.7290     2.2560    -5.9070 
  146.7500    82.9670     4.5540     4.3500     5.6260    25.5080     2.2460    -6.3190 
  146.8750    80.0770     5.1010     4.9230     6.7680    25.2160     2.2450    -6.8810 
