~V
VERS. 2.00: Ver 2.00
~W
STRT.M 59.0000:
STOP.M 275.0000:
STEP.M 0.1250:
NULL. -999.2500:
UWI. F10021:
~C
DEPT.M :
GR.API :
RML.OHMM :
RI. :
RXO.OHMM :
CALI.CM :
DEN.GM/CC :
SP.MV :
~A
# ...
  149.0000    56.6930    24.9600    24.8740     7.1000    16.2190     1.9430    -0.7780 
  149.1250    58.6170    24.4310    24.2000     7.0260    15.7420     1.9510    -1.2520 
  149.2500    60.0370    24.2390    23.7800     7.0390    15.5940     1.9990    -1.7390 
  149.3750    59.3560    24.4030    23.6660     7.0390    15.6420     2.0740    -2.2260 
  149.5000    58.2530    24.8070    23.8000     6.9910    15.7390     2.1530    -2.6760 
  149.6250    58.6780    25.2030    24.0260     7.0050    15.7590     2.2110    -3.0360 
  149.7500    61.8640    25.3540    24.1240     7.1700    15.7370     2.2470    -3.3150 
  149.8750    67.3890    25.1660    23.9710     7.4240    15.7460     2.2630    -3.5020 
  150.0000    71.8070    24.7150    23.5720     7.6600    15.8790     2.2650    -3.5670 
  150.1250    71.4270    24.2730    23.1110     7.9740    16.2880     2.2540    -3.4810 
  150.2500    68.7810    24.1320    22.8730     8.4690    16.9620     2.2380    -3.2750 
  150.3750    66.0410    24.4110    23.0130     9.5100    17.8370     2.2260    -2.9570 
  150.5000    62.6180    25.0290    23.5150    11.2750    18.7610     2.2270    -2.5850 
  150.6250    58.9350    25.7260    24.1930    13.5640    19.5890     2.2480    -2.1800 
  150.7500    56.3440    26.1900    24.7310    15.6980    20.2050     2.2770    -1.7880 
  150.8750    55.4600    26.2880    24.9510    16.8900    20.6820     2.2970    -1.4070 
  151.0000    55.9010    26.0710    24.8460    16.4350    21.1540     2.2940    -1.0810 
  151.1250    56.4550    25.7450    24.5660    16.2450    21.6520     2.2660    -0.7870 
  151.2500    55.0740    25.5180    24.3420    16.6930    22.0420     2.2330    -0.5540 
  151.3750    52.0790    25.4330    24.2590    17.2550    22.2390     2.2080    -0.4000 
  151.5000    50.3750    25.4140    24.2880    17.7790    22.3250     2.1990    -0.3160 
  151.6250    50.2590    25.3190    24.3050    18.1460    22.3820     2.2040    -0.2990 
  151.7500    51.4820    25.1050    24.2120    18.0090    22.4390     2.2120    -0.2950 
  151.8750    52.3170    24.8480    24.0280    17.5390    22.4950     2.2180    -0.3410 
  152.0000    51.1500    24.6840    23.8500    17.0400    22.5360     2.2220    -0.4090 
  152.1250    50.4480    24.7330    23.7950    16.8910    22.5530     2.2220    -0.5580 
  152.2500    52.0260    24.9020    23.8320    16.8420    22.5570     2.2200    -0.7390 
  152.3750    53.5550    24.9890    23.8210    16.7090    22.5440     2.2160    -0.9420 
  152.5000    51.8490    24.7360    23.5560    16.4090    22.5140     2.2110    -1.1530 
  152.6250    49.4720    23.8630    22.7930    15.7750    22.4500     2.2070    -1.4060 
  152.7500    50.4540    22.5260    21.6330    14.6430    22.3790     2.2060    -1.6830 
  152.8750    52.6780    21.0310    20.3130    13.0920    22.3210     2.2120    -1.9680 
  153.0000    54.1130    19.8060    19.1830    11.6930    22.2480     2.2240    -2.2700 
  153.1250    54.6320    19.4050    18.7170    11.3590    22.1080     2.2370    -2.5830 
  153.2500    55.4500    19.9490    19.0690    12.4980    21.9310     2.2460    -2.9020 
  153.3750    55.7120    21.4260    20.2940    14.3940    21.8130     2.2470    -3.2340 
  153.5000    55.1610    23.5920    22.2400    16.1720    21.7780     2.2440    -3.6070 
  153.6250    55.6120    25.8170    24.3960    16.9840    21.8070     2.2380    -4.0220 
  153.7500    55.6590    27.1670    25.8570    16.4510    21.7720     2.2340    -4.5280 
  153.8750    55.9060    26.8620    25.8140    15.2050    21.5390     2.2360    -5.0880 
  154.0000    56.8920    24.5510    23.8360    13.9600    21.1310     2.2460    -5.7300 
  154.1250    58.1940    20.4580    20.0720    12.2980    20.6790     2.2710    -6.4060 
  154.2500    60.1910    15.9630    15.8740    10.0450    20.3540     2.3070    -7.1130 
  154.3750    64.3860    12.0140    12.1420     7.6450    20.2910     2.3480    -7.7830 
  154.5000    71.3710     9.0950     9.3060     6.0800    20.4770     2.3810    -8.3790 
  154.6250    77.5450     7.3600     7.5090     5.6320    20.9640     2.3960    -8.8730 
  154.7500    81.2960     6.3700     6.4010     5.4980    21.5360     2.3980    -9.2320 
  154.8750    82.4930     5.8890     5.8030     5.3070    21.9530     2.3980    -9.4930 
  155.0000    80.3990     5.7580     5.5830     5.0220    22.1100     2.4020    -9.6190 
  155.1250    77.1120     5.9270     5.6940     4.8380    22.1130     2.4110    -9.6690 
  155.2500    74.8980     6.2870     6.0190     4.9490    22.0980     2.4130    -9.6620 
  155.3750    73.4420     6.7530     6.4770     5.3730    22.0740     2.4030    -9.6390 
  155.5000    71.6050     7.2060     6.9620     5.9730    22.0420     2.3820    -9.6100 
  155.6250    71.5250     7.4970     7.3270     6.4340    22.0150     2.3610    -9.5960 
  155.7500    73.7850     7.6200     7.5240     6.5960    21.9870     2.3510    -9.5950 
  155.8750    76.6660     7.6750     7.5970     6.4790    21.9350     2.3520    -9.6000 
  156.0000    77.4870     7.8160     7.6570     6.2910    21.8270     2.3580    -9.6170 
  156.1250    74.6180     8.2140     7.8640     6.3550    21.6080     2.3520    -9.6070 
  156.2500    71.7650     8.8320     8.2620     6.7440    21.2780     2.3280    -9.5760 
  156.3750    70.9150     9.5620     8.8210     7.2770    20.8860     2.2960    -9.5280 
  156.5000    70.7430    10.2320     9.4550     7.6830    20.5200     2.2690    -9.4620 
  156.6250    68.4890    10.7630    10.0580     7.9080    20.2600     2.2630    -9.3590 
  156.7500    65.9950    11.2290    10.5760     8.1100    20.1720     2.2730    -9.2340 
  156.8750    65.2310    11.7700    11.0160     8.3020    20.3110     2.2840    -9.0830 
  157.0000    64.8470    12.3120    11.4080     8.4780    20.6230     2.2820    -8.9480 
  157.1250    63.2050    12.8250    11.7450     8.6780    21.0080     2.2570    -8.8000 
  157.2500    61.6600    13.2040    11.9820     8.8640    21.2990     2.2220    -8.6650 
  157.3750    62.9300    13.3500    12.0530     9.0210    21.3990     2.1890    -8.5310 
  157.5000    66.0560    13.2480    11.9410     9.0250    21.3330     2.1680    -8.4210 
  157.6250    66.1100    13.0140    11.7150     8.8700    21.1950     2.1660    -8.3110 
  157.7500    64.0690    12.9140    11.5670     8.7150    21.0390     2.1800    -8.1690 
  157.8750    64.1540    13.1700    11.6730     8.6540    20.9210     2.2060    -8.0090 
  158.0000    65.3560    13.9190    12.1660     8.8820    20.9410     2.2350    -7.7960 
  158.1250    61.1380    15.1980    13.1360     9.6520    21.2160     2.2560    -7.5840 
  158.2500    55.0800    16.6970    14.3810    10.5200    21.6580     2.2590    -7.3490 
  158.3750    53.8310    18.1060    15.6640    11.1200    22.0690     2.2410    -7.1180 
  158.5000    56.6610    19.1340    16.7120    11.3660    22.2640     2.2090    -6.8840 
  158.6250    58.5700    19.5070    17.2210    11.2080    22.2310     2.1770    -6.6810 
  158.7500    59.8660    19.3730    17.2380    10.7490    22.1130     2.1570    -6.5260 
  158.8750    62.7200    18.9490    16.9220    10.4780    21.9970     2.1540    -6.4100 
  159.0000    64.4770    18.5140    16.5130    10.4650    21.9330     2.1640    -6.3530 
  159.1250    63.2300    18.4230    16.3110    10.5550    21.9210     2.1780    -6.3360 
  159.2500    61.4980    18.9060    16.5290    10.8820    21.9330     2.1890    -6.3470 
  159.3750    59.8700    20.1420    17.3410    11.7680    21.9590     2.2000    -6.3440 
  159.5000    58.5360    22.1580    18.8260    13.4480    22.0010     2.2230    -6.3250 
  159.6250    58.3600    24.7770    20.9610    16.3270    22.0420     2.2780    -6.2420 
  159.7500    60.1140    27.3450    23.2610    19.8500    22.0540     2.3590    -6.1010 
  159.8750    61.5460    29.2530    25.2160    22.7950    22.0150     2.4450    -5.8620 
  160.0000    60.9050    30.0640    26.3530    23.9100    21.9340     2.4970    -5.5200 
  160.1250    58.7400    29.6250    26.3510    22.2020    21.8490     2.4740    -5.0670 
