~V
VERS. 2.00: Ver 2.00
~W
STRT.M 50.0000:
STOP.M 307.0000:
STEP.M 0.1250:
NULL. -999.2500:
UWI. F10044:
~C
DEPT.M :
GR.API :
RML.OHMM :
RI. :
RXO.OHMM :
CALI.CM :
DEN.GM/CC :
SP.MV :
~A
# ...
   61.2500    71.4740     6.9120     6.8460     7.2930    23.8510     2.2450    -6.5150 
   61.3750    71.5420     6.8080     6.6170     7.2830    23.8260     2.2480    -6.3310 
   61.5000    72.4900     6.7030     6.4100     7.1380    23.8220     2.2570    -6.1340 
   61.6250    75.3610     6.5860     6.2200     6.8700    23.8120     2.2710    -5.9620 
   61.7500    80.2150     6.4920     6.0740     6.5810    23.7580     2.2820    -5.8650 
   61.8750    84.7600     6.4950     6.0300     6.5590    23.6390     2.2870    -5.8650 
   62.0000    85.3580     6.6820     6.1610     6.7130    23.4750     2.2880    -5.9510 
   62.1250    82.0760     7.1620     6.5620     6.9790    23.3350     2.2970    -6.1200 
   62.2500    78.9470     7.8620     7.1720     7.2360    23.2460     2.3210    -6.3480 
   62.3750    75.8940     8.6570     7.8930     7.6670    23.1770     2.3560    -6.6670 
   62.5000    71.6400     9.3640     8.5760     8.3250    23.1080     2.3880    -7.1040 
   62.6250    66.4780     9.7550     9.0150     8.8980    23.0610     2.3940    -7.5940 
   62.7500    62.7710     9.8070     9.1600     9.3990    23.0400     2.3710    -8.0840 
   62.8750    61.0610     9.5990     9.0510     9.7420    23.0350     2.3280    -8.5460 
   63.0000    60.2510     9.2820     8.8040     9.9460    23.0360     2.2830    -8.9720 
   63.1250    59.1380     9.0290     8.5740     9.9610    23.0380     2.2530    -9.3870 
   63.2500    57.2110     8.9170     8.4540     9.9340    23.0400     2.2360    -9.8020 
   63.3750    55.6560     8.9400     8.4590     9.9250    23.0380     2.2270   -10.1580 
   63.5000    55.3440     9.0460     8.5400     9.9360    23.0290     2.2200   -10.4370 
   63.6250    56.3690     9.1370     8.5990    10.0650    23.0140     2.2130   -10.6340 
   63.7500    57.6530     9.1150     8.5420    10.1500    23.0180     2.2060   -10.7330 
   63.8750    58.7850     8.9200     8.3220     9.8900    23.0710     2.2020   -10.7590 
   64.0000    60.9230     8.5550     7.9500     9.1850    23.1870     2.2010   -10.6990 
   64.1250    64.6440     8.0850     7.4850     8.2760    23.3550     2.2070   -10.5320 
   64.2500    68.5400     7.6340     7.0260     7.5110    23.5040     2.2190   -10.3300 
   64.3750    70.4590     7.2740     6.6270     7.0660    23.5770     2.2370   -10.1200 
   64.5000    68.8800     7.0460     6.3270     6.8810    23.5610     2.2610    -9.8880 
   64.6250    66.4480     7.0140     6.1980     7.0860    23.4800     2.2870    -9.6620 
   64.7500    66.9500     7.1920     6.2650     7.3610    23.4090     2.3050    -9.5060 
   64.8750    69.2440     7.6090     6.5520     7.4710    23.3560     2.3060    -9.4240 
   65.0000    68.7130     8.2400     7.0350     7.7490    23.2880     2.2870    -9.4480 
   65.1250    63.8900     8.9700     7.6270     8.5260    23.2430     2.2500    -9.5580 
   65.2500    60.3810     9.5870     8.1660     9.3480    23.3010     2.2120    -9.6370 
   65.3750    59.9420     9.9550     8.5440     9.7070    23.3850     2.1830    -9.6890 
   65.5000    60.6760    10.0480     8.7260     9.7460    23.4350     2.1660    -9.7290 
   65.6250    60.1280     9.9570     8.7500     9.5890    23.4410     2.1630    -9.7640 
   65.7500    58.6660     9.8770     8.7380     9.7280    23.4260     2.1680    -9.7590 
   65.8750    57.2610     9.8710     8.7290     9.9380    23.4020     2.1810    -9.6270 
   66.0000    56.2750     9.8800     8.6920    10.0650    23.3930     2.1990    -9.2830 
   66.1250    56.5490     9.7210     8.5140    10.0370    23.4080     2.2220    -8.8090 
   66.2500    57.7070     9.3130     8.1550     9.7660    23.4320     2.2420    -8.3310 
   66.3750    60.5960     8.7060     7.6470     9.1630    23.4440     2.2560    -7.8670 
   66.5000    66.0240     8.0830     7.1060     8.3780    23.4240     2.2620    -7.4520 
   66.6250    71.7770     7.7690     6.7350     7.7810    23.3680     2.2640    -7.1820 
   66.7500    74.8590     7.9240     6.6590     7.9300    23.3070     2.2650    -7.0250 
   66.8750    74.8480     8.5730     6.9300     9.4340    23.2720     2.2670    -7.0050 
   67.0000    72.3200     9.5960     7.5000    13.3330    23.2820     2.2680    -7.1960 
   67.1250    67.9530    10.6770     8.2090    19.5230    23.3240     2.2670    -7.5380 
   67.2500    65.4130    11.4500     8.7930    25.9520    23.3630     2.2630    -7.9190 
   67.3750    67.2260    11.6830     9.0850    29.2870    23.3820     2.2580    -8.3790 
   67.5000    69.4800    11.4090     9.0480    25.0880    23.3500     2.2520    -8.8990 
   67.6250    66.9410    10.7580     8.7840    16.2740    23.2570     2.2460    -9.3050 
   67.7500    63.4650    10.1620     8.5300    11.1500    23.1280     2.2390    -9.6470 
   67.8750    61.8830     9.9200     8.4040     9.7240    22.9880     2.2310    -9.9150 
   68.0000    60.6160    10.0350     8.4340     9.5110    22.8690     2.2180   -10.0710 
   68.1250    59.0000    10.3220     8.5800     9.3120    22.7840     2.2000   -10.1650 
   68.2500    58.0620    10.6100     8.7360     9.0430    22.7340     2.1810   -10.2450 
   68.3750    56.5310    10.8050     8.8470     8.8810    22.7410     2.1660   -10.2830 
   68.5000    52.8750    10.8860     8.8970     8.9000    22.8020     2.1610   -10.2540 
   68.6250    51.4590    10.8810     8.9020     9.1220    22.8800     2.1650   -10.2330 
   68.7500    54.2280    10.8640     8.8900     9.4220    22.9680     2.1730   -10.1470 
   68.8750    57.4360    10.8600     8.8650     9.6630    23.0550     2.1820   -10.0850 
   69.0000    58.9650    10.8580     8.8160     9.7740    23.1320     2.1890   -10.0280 
   69.1250    59.6600    10.8040     8.7270     9.7550    23.2010     2.1960    -9.9550 
   69.2500    60.2510    10.6740     8.6110     9.6720    23.2670     2.2050    -9.9120 
   69.3750    60.1850    10.5020     8.5030     9.5800    23.3230     2.2180    -9.8280 
   69.5000    59.0330    10.3850     8.4570     9.6320    23.3580     2.2330    -9.7290 
   69.6250    57.1530    10.4920     8.5620     9.9180    23.3680     2.2450    -9.6020 
   69.7500    54.5180    10.8630     8.8250    10.8540    23.3650     2.2500    -9.4270 
   69.8750    53.5060    11.4250     9.2040    13.2430    23.3450     2.2450    -9.1830 
   70.0000    54.3850    11.9850     9.5940    16.5880    23.2950     2.2280    -8.9290 
   70.1250    55.5050    12.2170     9.8020    20.0360    23.1950     2.2030    -8.5620 
   70.2500    55.9160    11.9720     9.7150    21.7000    23.0600     2.1780    -8.0930 
   70.3750    56.1120    11.2590     9.3100    17.6660    22.9260     2.1620    -7.6200 
   70.5000    56.2670    10.2630     8.6700    10.4960    22.8440     2.1600    -7.0740 
   70.6250    57.8960     9.2940     7.9640     7.8840    22.8460     2.1720    -6.5050 
   70.7500    62.1810     8.5760     7.3610     6.8700    22.8790     2.1910    -6.0240 
   70.8750    69.0610     8.1560     6.9260     6.4500    22.9110     2.2110    -5.5570 
   71.0000    75.2700     7.9670     6.6570     6.2960    22.9410     2.2270    -5.1270 
   71.1250    76.9720     7.8980     6.5240     6.4580    22.9830     2.2380    -4.8400 
   71.2500    76.0400     7.8440     6.4530     6.5460    23.0400     2.2470    -4.5900 
   71.3750    76.3710     7.7900     6.4150     6.5160    23.1270     2.2550    -4.3530 
   71.5000    79.4650     7.7530     6.3950     6.3910    23.2490     2.2600    -4.1930 
   71.6250    80.9870     7.7510     6.3810     6.4450    23.4150     2.2630    -4.0130 
   71.7500    78.6980     7.7470     6.3550     6.6720    23.5910     2.2650    -3.7960 
   71.8750    76.0720     7.6920     6.2990     6.9520    23.7590     2.2710    -3.5930 
   72.0000    76.2960     7.5460     6.2040     7.0640    23.9100     2.2810    -3.3080 
   72.1250    79.0720     7.3050     6.0720     6.8310    24.0110     2.2940    -2.9540 
   72.2500    81.9410     7.0500     5.9360     6.4550    24.0420     2.3020    -2.6730 
   72.3750    83.7070     6.8550     5.8250     6.3060    24.0250     2.3050    -2.4110 
