~V
VERS. 2.00: Ver 2.00
~W
STRT.M 63.0000:
STOP.M 195.0000:
STEP.M 0.1250:
NULL. -999.2500:
UWI. F10020:
~C
DEPT.M :
GR.API :
CALI.CM :
RXO.OHMM :
RI. :
RML.OHMM :
DEN.GM/CC :
SP.MV :
~A
# ...
  108.0000    64.7390    23.1620    49.7840    42.0110    42.4170     2.4910   -25.6930 
  108.1250    65.7520    23.3110    51.8310    43.2860    43.5680     2.4650   -25.7500 
  108.2500    66.2540    23.6170    54.6130    44.9900    45.1330     2.4570   -25.8120 
  108.3750    66.5780    23.9220    58.6370    47.1290    47.1520     2.4610   -25.8430 
  108.5000    65.5060    24.0830    73.2450    49.3750    49.3350     2.4660   -25.8760 
  108.6250    62.8210    24.1130    78.8860    50.9080    50.9470     2.4690   -25.9450 
  108.7500    61.7280    24.0630    71.8780    51.2620    51.5040     2.4740   -26.0410 
  108.8750    62.3450    23.9700    59.9640    50.5200    50.9450     2.4850   -26.1100 
  109.0000    62.8000    23.9340    52.7810    49.3090    49.6910     2.5000   -26.1810 
  109.1250    61.8820    24.0400    48.7930    48.6070    48.6110     2.5200   -26.2640 
  109.2500    61.8190    24.0990    47.9270    48.8900    48.4090     2.5400   -26.3860 
  109.3750    62.7930    24.1160    49.5100    50.1930    49.3460     2.5540   -26.5210 
  109.5000    63.7670    24.1180    53.0220    52.1850    51.2910     2.5620   -26.6390 
  109.6250    63.2650    24.1150    60.2360    54.1750    53.6950     2.5700   -26.7650 
  109.7500    60.8410    24.1060    68.1950    55.4430    55.6420     2.5730   -26.8860 
  109.8750    58.2770    24.1020    70.2580    55.6440    56.5570     2.5570   -27.0150 
  110.0000    57.5030    24.1000    67.5330    54.8210    56.2860     2.5200   -27.1020 
  110.1250    60.0150    24.0910    66.1250    53.2700    54.9710     2.4870   -27.1680 
  110.2500    63.1100    24.0950    64.6030    51.5630    53.2760     2.4840   -27.1850 
  110.3750    65.6800    24.0900    60.8500    50.0030    51.6170     2.5040   -27.2010 
  110.5000    67.3720    24.0880    55.3030    48.7460    50.2710     2.5210   -27.2000 
  110.6250    65.4240    24.1040    51.1110    47.9690    49.4800     2.5130   -27.1470 
  110.7500    62.7460    24.1140    50.8910    47.6890    49.2350     2.4910   -27.0840 
  110.8750    63.5430    24.1010    53.4160    47.9150    49.4870     2.4650   -27.0120 
  111.0000    67.5660    24.0470    56.3400    48.5340    50.0500     2.4410   -26.9440 
  111.1250    68.8190    23.9440    56.7810    49.2410    50.5930     2.4290   -26.8430 
  111.2500    64.7800    23.9290    54.8750    49.6320    50.8270     2.4300   -26.8060 
  111.3750    61.2900    24.0130    51.5010    49.4950    50.6500     2.4360   -26.7740 
  111.5000    62.5200    24.0750    47.7000    48.8100    50.0930     2.4380   -26.7360 
  111.6250    66.0610    24.0380    44.6820    47.7280    49.2430     2.4440   -26.7130 
  111.7500    66.5690    23.9040    42.6480    46.6260    48.3080     2.4600   -26.6540 
  111.8750    63.6670    23.7190    41.0460    45.7270    47.4280     2.4780   -26.5850 
  112.0000    60.9270    23.4970    38.6200    45.1280    46.7160     2.4880   -26.5110 
  112.1250    61.0620    23.3320    36.4100    44.8920    46.3000     2.4870   -26.4500 
  112.2500    61.3460    23.3100    35.8720    44.9100    46.1400     2.4880   -26.3490 
  112.3750    59.8010    23.4200    37.4950    45.0580    46.1540     2.4900   -26.2570 
  112.5000    59.0640    23.5750    39.3650    45.1550    46.2210     2.4840   -26.2240 
  112.6250    62.7950    23.6560    39.6600    44.9010    46.1410     2.4700   -26.1890 
  112.7500    66.7070    23.6930    39.0320    44.1770    45.7520     2.4590   -26.2090 
  112.8750    65.9400    23.7550    38.9310    43.0940    45.0220     2.4530   -26.2420 
  113.0000    61.4540    23.8970    39.6210    41.9630    44.0910     2.4490   -26.3150 
  113.1250    58.7270    24.0200    39.6170    41.0900    43.1610     2.4420   -26.4240 
  113.2500    58.4400    24.0790    38.4640    40.4490    42.3580     2.4340   -26.5380 
  113.3750    60.4270    24.1050    38.4880    39.8890    41.7230     2.4290   -26.6250 
  113.5000    63.6490    24.1170    41.1280    39.2700    41.2280     2.4350   -26.6570 
  113.6250    65.4530    24.1330    41.5980    38.6290    40.8240     2.4490   -26.7240 
  113.7500    65.5350    24.1500    39.6900    38.2220    40.5450     2.4520   -26.7820 
  113.8750    64.5490    24.1210    37.2600    38.2650    40.5350     2.4360   -26.8310 
  114.0000    64.2210    24.0280    36.2080    38.8270    40.9340     2.4120   -26.8400 
  114.1250    65.7550    23.9630    37.2370    39.8980    41.8740     2.3930   -26.8110 
  114.2500    66.4530    23.9800    39.1240    41.2020    43.1820     2.3810   -26.7850 
  114.3750    64.8780    23.9790    43.5020    42.4800    44.6120     2.3770   -26.7770 
  114.5000    61.5230    23.9900    50.7010    43.4750    45.8560     2.3860   -26.8030 
  114.6250    59.0720    24.1250    58.4220    43.9840    46.6400     2.4100   -26.7770 
  114.7500    58.7520    24.1690    62.6060    44.1570    47.0700     2.4290   -26.7640 
  114.8750    59.6380    24.0790    58.9240    44.2100    47.3230     2.4350   -26.7450 
  115.0000    61.2490    23.8820    48.4970    44.3510    47.5870     2.4400   -26.7490 
  115.1250    62.6960    23.6910    43.5740    44.6050    47.8910     2.4670   -26.7580 
  115.2500    64.9620    23.5530    43.7030    44.6840    47.9380     2.5100   -26.7820 
  115.3750    67.1450    23.5770    47.2240    44.2610    47.3270     2.5490   -26.8060 
  115.5000    67.0600    23.6670    48.6210    43.1110    45.7910     2.5720   -26.8160 
  115.6250    66.7550    23.7060    44.6420    41.1330    43.2980     2.5740   -26.8420 
  115.7500    67.6360    23.6840    38.5700    38.6610    40.3700     2.5550   -26.8700 
  115.8750    68.3500    23.6950    33.3770    36.0030    37.3850     2.5160   -26.9360 
  116.0000    68.3180    23.7270    30.4850    33.5190    34.6770     2.4670   -27.0050 
  116.1250    67.5110    23.7320    29.1710    31.7470    32.6860     2.4310   -27.1040 
  116.2500    66.5560    23.7750    28.0420    30.9790    31.6540     2.4150   -27.2090 
  116.3750    65.6410    23.9140    27.6280    31.4780    31.8710     2.4170   -27.3460 
  116.5000    65.4690    24.0540    29.3350    33.3850    33.5290     2.4340   -27.5050 
  116.6250    65.6560    24.1090    35.8810    36.6670    36.6600     2.4800   -27.6450 
  116.7500    63.8350    24.1150    46.1500    40.2050    40.1990     2.5440   -27.7890 
  116.8750    61.3620    24.1140    56.2690    42.6000    42.8400     2.6030   -27.9090 
  117.0000    60.2090    24.1140    58.9700    42.5610    43.3060     2.6280   -28.0170 
  117.1250    61.0490    24.1380    50.2600    39.6420    40.9030     2.6010   -28.1000 
  117.2500    63.2960    24.1790    38.1040    35.7380    37.2030     2.5490   -28.1610 
  117.3750    65.1700    24.1960    30.8570    32.2900    33.5650     2.4960   -28.1800 
  117.5000    66.2610    24.1430    28.7370    30.0570    30.8570     2.4570   -28.1820 
  117.6250    66.9960    24.1090    28.7380    29.4240    29.5390     2.4370   -28.1840 
  117.7500    67.4090    24.1060    29.9420    29.8690    29.3710     2.4310   -28.1970 
  117.8750    67.8300    24.1200    32.3210    30.7810    30.4210     2.4400   -28.2290 
  118.0000    68.2680    24.1120    35.7940    32.3180    31.9380     2.4670   -28.2800 
  118.1250    69.5290    24.0960    39.1570    34.1060    33.6420     2.5100   -28.3250 
  118.2500    70.0760    24.1010    40.2390    35.5600    34.9730     2.5500   -28.3710 
  118.3750    68.8610    24.1070    38.8110    36.0280    35.2720     2.5750   -28.4210 
  118.5000    67.2550    24.1110    37.4830    34.9700    34.0710     2.5820   -28.4690 
  118.6250    66.3160    24.1110    36.8010    32.1420    31.2460     2.5790   -28.5020 
  118.7500    66.1990    24.1130    32.1360    28.4720    27.7110     2.5740   -28.4930 
  118.8750    66.2550    24.1110    24.5680    24.7700    24.2140     2.5670   -28.4570 
  119.0000    65.8230    24.1060    18.5230    21.6440    21.3010     2.5570   -28.4140 
  119.1250    66.0330    24.1180    16.3180    19.5190    19.3840     2.5510   -28.3390 
