~V
VERS. 2.00: Ver 2.00
~W
STRT.M 55.0000:
STOP.M 314.0000:
STEP.M 0.1250:
NULL. -999.2500:
UWI. F10048:
~C
DEPT.M :
DEN.GM/CC :
GR.API :
RML.OHMM :
RI. :
RXO.OHMM :
CALI.CM :
SP.MV :
~A
# ...
   66.2500     2.2550    61.7820    11.7180     9.8850    11.6010    22.7740   -16.3330 
   66.3750     2.2420    62.3180    11.6690     9.9040    11.5540    22.8450   -16.2770 
   66.5000     2.2310    61.0820    11.5890     9.9000    11.3150    22.9390   -16.2940 
   66.6250     2.2250    59.1260    11.4760     9.8410    11.1400    23.0530   -16.3720 
   66.7500     2.2220    59.1520    11.3280     9.7170    11.0820    23.1620   -16.4740 
   66.8750     2.2230    60.5320    11.1290     9.5200    11.1290    23.2530   -16.6350 
   67.0000     2.2280    61.3890    10.8770     9.2680    11.1320    23.3050   -16.8250 
   67.1250     2.2360    61.7630    10.6100     9.0070    10.8860    23.2590   -16.9670 
   67.2500     2.2490    62.3230    10.4120     8.8060    10.6110    23.1340   -17.0260 
   67.3750     2.2620    62.2710    10.3550     8.7230    10.5410    22.9740   -16.9890 
   67.5000     2.2750    62.4430    10.4750     8.7930    10.8220    22.8580   -16.8740 
   67.6250     2.2830    63.4670    10.7710     9.0260    11.3350    22.8640   -16.6460 
   67.7500     2.2880    63.1060    11.1250     9.3300    11.8170    22.9610   -16.3670 
   67.8750     2.2900    62.5950    11.4170     9.6090    11.9740    23.0840   -16.0010 
   68.0000     2.2920    63.8840    11.5310     9.7680    11.7690    23.1710   -15.5920 
   68.1250     2.2940    65.0610    11.3420     9.6940    11.5590    23.2150   -15.1860 
   68.2500     2.2950    63.6470    10.9080     9.4120    11.0940    23.2640   -14.7890 
   68.3750     2.2970    61.6790    10.3340     8.9800    10.4260    23.3400   -14.4380 
   68.5000     2.3000    61.7050     9.7770     8.5040     9.4880    23.4390   -14.1450 
   68.6250     2.3020    63.9580     9.4440     8.1350     8.5070    23.5270   -13.9550 
   68.7500     2.3020    67.5040     9.4030     7.9610     8.0240    23.5730   -13.8610 
   68.8750     2.2960    70.9970     9.6360     8.0040     8.4530    23.5810   -13.8600 
   69.0000     2.2860    71.4290    10.0320     8.2080     9.5000    23.5830   -13.8890 
   69.1250     2.2760    66.5880    10.3850     8.4440    10.3550    23.5810   -13.9290 
   69.2500     2.2690    61.4470    10.5150     8.5540    10.7320    23.5580   -13.9770 
   69.3750     2.2650    60.4470    10.3450     8.4560    10.5080    23.5060   -14.0310 
   69.5000     2.2630    63.5890     9.9250     8.1620     9.6010    23.4380   -14.0660 
   69.6250     2.2610    66.5420     9.4490     7.7950     8.5280    23.3970   -14.1220 
   69.7500     2.2630    68.4450     9.1800     7.5530     8.0180    23.3990   -14.2090 
   69.8750     2.2670    69.5990     9.2810     7.5610     8.3910    23.4180   -14.3830 
   70.0000     2.2720    69.0100     9.7990     7.8590     9.4290    23.4140   -14.6580 
   70.1250     2.2720    65.8690    10.6590     8.4180    10.6970    23.3290   -15.0490 
   70.2500     2.2660    60.7570    11.5550     9.0460    11.6680    23.1730   -15.5120 
   70.3750     2.2560    54.1510    12.2380     9.5820    12.2370    23.0230   -15.9630 
   70.5000     2.2460    48.3340    12.5480     9.9110    12.3790    22.9330   -16.3730 
   70.6250     2.2430    47.7900    12.4520     9.9800    12.3950    22.8980   -16.7120 
   70.7500     2.2480    52.0310    12.1910     9.9160    12.5530    22.8700   -16.9650 
   70.8750     2.2580    56.9660    11.9520     9.8280    12.9590    22.8310   -17.0900 
   71.0000     2.2680    58.7970    11.8490     9.7920    13.3780    22.7790   -17.0930 
   71.1250     2.2740    57.6650    11.9180     9.8480    13.8880    22.7170   -16.9100 
   71.2500     2.2740    57.2350    12.0740     9.9570    13.8850    22.6460   -16.5530 
   71.3750     2.2690    58.2120    12.2470    10.0800    13.1620    22.5680   -16.0590 
   71.5000     2.2590    59.9300    12.3620    10.1670    12.5870    22.5030   -15.4090 
   71.6250     2.2480    62.1720    12.2790    10.1190    12.3500    22.4770   -14.5160 
   71.7500     2.2400    63.2490    11.9130     9.8640    12.2970    22.4870   -13.4400 
   71.8750     2.2420    61.7860    11.2290     9.3580    11.9460    22.5310   -12.1720 
   72.0000     2.2580    60.4560    10.2980     8.6260    11.1970    22.6130   -10.7520 
   72.1250     2.2920    66.2950     9.2860     7.7790     9.9720    22.7900    -9.3170 
   72.2500     2.3340    76.7950     8.3880     6.9950     8.4540    23.0830    -7.9560 
   72.3750     2.3700    84.9670     7.6830     6.3850     7.1810    23.4450    -6.7550 
   72.5000     2.3910    87.1240     7.1620     5.9950     6.6940    23.7670    -5.7960 
   72.6250     2.3900    85.8190     6.7790     5.8310     6.6890    23.9610    -5.1350 
   72.7500     2.3800    84.0700     6.5130     5.7990     6.7310    24.0600    -4.6790 
   72.8750     2.3680    83.6270     6.4160     5.8390     6.6970    24.0670    -4.4510 
   73.0000     2.3580    85.6160     6.4640     5.9110     6.5660    23.9900    -4.4280 
   73.1250     2.3510    87.3620     6.6170     6.0010     6.4730    23.8470    -4.5250 
   73.2500     2.3410    85.1130     6.8520     6.1080     6.4410    23.6790    -4.6850 
   73.3750     2.3290    82.3530     7.1420     6.2290     6.4940    23.5250    -4.8590 
   73.5000     2.3180    82.1170     7.3500     6.3440     6.8550    23.4340    -4.9900 
   73.6250     2.3100    82.5020     7.5070     6.4120     7.2850    23.4080    -5.0940 
   73.7500     2.3070    80.7430     7.5740     6.4080     7.5160    23.4270    -5.1820 
   73.8750     2.3050    80.5000     7.4990     6.3170     7.5480    23.4750    -5.2660 
   74.0000     2.3050    84.6140     7.2650     6.1440     7.3130    23.5530    -5.3500 
   74.1250     2.3070    88.5490     6.8990     5.9060     6.8760    23.6290    -5.4370 
   74.2500     2.3130    88.4060     6.5200     5.6600     6.4950    23.6850    -5.4780 
   74.3750     2.3250    86.5070     6.2410     5.4600     6.1590    23.7730    -5.4460 
   74.5000     2.3430    86.3900     6.1680     5.3630     5.7680    23.9110    -5.3870 
   74.6250     2.3660    87.1110     6.3910     5.4280     5.9320    23.9850    -5.3550 
   74.7500     2.3870    85.8640     6.8080     5.6170     6.6080    23.9320    -5.3960 
   74.8750     2.3970    82.8140     7.2730     5.8670     7.6710    23.7990    -5.4600 
   75.0000     2.3920    78.5530     7.6060     6.0850     8.5050    23.6580    -5.4840 
   75.1250     2.3730    74.8860     7.5960     6.1460     8.4900    23.6060    -5.4040 
   75.2500     2.3510    75.6690     7.2720     6.0230     7.2440    23.6920    -5.3200 
   75.3750     2.3370    80.1050     6.7670     5.7440     6.2030    23.8560    -5.2860 
   75.5000     2.3340    85.2880     6.2800     5.3950     5.5420    23.9820    -5.2950 
   75.6250     2.3430    90.1340     6.0120     5.0950     5.1890    24.0130    -5.3290 
   75.7500     2.3500    93.5170     5.9780     4.9160     5.0120    23.9530    -5.3870 
   75.8750     2.3440    93.3260     6.1420     4.8800     5.0570    23.8280    -5.5040 
   76.0000     2.3230    88.1340     6.4610     4.9850     5.3110    23.6620    -5.7160 
   76.1250     2.2980    82.3550     6.9110     5.2250     5.6290    23.5000    -6.0570 
   76.2500     2.2840    79.4590     7.4090     5.5260     6.0380    23.3910    -6.4610 
   76.3750     2.2880    78.5770     7.8510     5.8260     6.6220    23.3370    -6.8970 
   76.5000     2.3030    79.1200     8.1120     6.0560     7.4330    23.2890    -7.3090 
   76.6250     2.3150    80.1320     8.1010     6.1530     8.1160    23.2370    -7.5990 
   76.7500     2.3180    79.4650     7.9990     6.1890     8.1770    23.2380    -7.7430 
   76.8750     2.3160    77.9770     8.0810     6.3060     8.1710    23.3090    -7.7210 
   77.0000     2.3210    78.5720     8.5870     6.6480     8.5630    23.4360    -7.5840 
   77.1250     2.3430    80.0530     9.5970     7.2880    10.1570    23.5970    -7.3840 
   77.2500     2.3770    77.8280    10.7030     8.0080    12.4850    23.7200    -7.1720 
   77.3750     2.4120    72.4620    11.4200     8.5220    15.2270    23.7460    -6.9280 
