~V
VERS. 2.00: Ver 2.00
~W
STRT.M 56.0000:
STOP.M 312.0000:
STEP.M 0.1250:
NULL. -999.2500:
UWI. F10077:
~C
DEPT.M :
GR.API :
RML.OHMM :
RI. :
RXO.OHMM :
CALI.CM :
DEN.GM/CC :
SP.MV :
~A
# ...
  123.5000    73.0110     6.7250     6.1670     7.5650    24.6340     2.1950    -8.3300 
  123.6250    73.3790     6.8860     6.2470     8.0600    24.6050     2.1830    -8.7360 
  123.7500    72.6970     7.2380     6.5010     7.9520    24.5560     2.1720    -9.2770 
  123.8750    69.7710     7.6960     6.8760     7.9890    24.5120     2.1620    -9.9540 
  124.0000    65.7970     8.1560     7.2950     8.8200    24.4760     2.1510   -10.7080 
  124.1250    64.1450     8.5000     7.6630     9.2760    24.4620     2.1390   -11.3340 
  124.2500    64.9460     8.6740     7.9130     9.3390    24.4810     2.1300   -11.6910 
  124.3750    65.2680     8.6280     7.9880     9.4070    24.5400     2.1320   -11.6900 
  124.5000    66.1120     8.3520     7.8580     9.4070    24.5980     2.1520   -11.3400 
  124.6250    72.1500     7.8950     7.5350     9.1200    24.6130     2.1900   -10.7180 
  124.7500    80.7180     7.4050     7.1420     8.2810    24.5560     2.2340    -9.9010 
  124.8750    87.7870     6.9680     6.7560     7.2520    24.4110     2.2700    -8.8900 
  125.0000    90.1150     6.6310     6.4250     6.3700    24.1990     2.2890    -7.7580 
  125.1250    89.2780     6.4300     6.1860     6.3310    23.9490     2.2910    -6.6350 
  125.2500    89.0560     6.3320     6.0320     6.4050    23.8680     2.2890    -5.5910 
  125.3750    91.0510     6.3050     5.9440     6.0960    24.0240     2.2940    -4.6880 
  125.5000    93.2240     6.3040     5.8940     5.8140    24.3080     2.3080    -3.9300 
  125.6250    93.4740     6.2700     5.8330     5.9510    24.3960     2.3260    -3.3210 
  125.7500    94.6470     6.1460     5.7140     6.8340    24.4010     2.3390    -2.8120 
  125.8750    95.3870     5.9050     5.5140     8.2830    24.4240     2.3430    -2.3930 
  126.0000    94.1290     5.5950     5.2680     8.7670    24.5080     2.3360    -2.0340 
  126.1250    93.2010     5.4300     5.1240     6.8520    24.5590     2.3200    -1.7830 
  126.2500    93.6220     5.6420     5.2390     6.0170    24.6060     2.3080    -1.6770 
  126.3750    93.0260     6.3890     5.7380     6.0560    24.6530     2.3200    -1.7530 
  126.5000    88.2170     7.6840     6.6770     7.4860    24.7170     2.3680    -2.0620 
  126.6250    79.1260     9.2910     7.9930    12.3910    24.7430     2.4380    -2.6870 
  126.7500    70.3130    10.5540     9.1990    19.5780    24.6440     2.4840    -3.6410 
  126.8750    65.1080    10.9070     9.7580    18.8000    24.3460     2.4720    -4.8880 
  127.0000    63.5830    10.2440     9.4550    11.1890    23.8690     2.3970    -6.3080 
  127.1250    61.8390     9.0410     8.5870     8.2070    23.4850     2.2880    -7.7250 
  127.2500    60.5150     8.0390     7.7610     7.4850    23.2060     2.1960    -9.0630 
  127.3750    60.9030     7.5260     7.2260     7.6430    23.0310     2.1410   -10.2850 
  127.5000    62.4760     7.5020     7.0400     7.8610    22.9210     2.1210   -11.3670 
  127.6250    64.1450     7.7960     7.1470     7.8780    22.9680     2.1210   -12.2240 
  127.7500    65.9660     8.0830     7.3300     7.8920    23.0940     2.1250   -12.8120 
  127.8750    67.0390     8.1680     7.4330     8.1060    23.2230     2.1310   -13.1320 
  128.0000    65.1620     7.9850     7.3740     8.5750    23.3850     2.1400   -13.2510 
  128.1250    60.5560     7.6320     7.1870     8.8060    23.6960     2.1560   -13.2240 
  128.2500    58.4470     7.3980     7.0600     8.8760    24.0810     2.1720   -13.0730 
  128.3750    62.4710     7.5030     7.1570     8.6540    24.4410     2.1820   -12.8070 
  128.5000    69.9900     8.0400     7.5700     8.2160    24.7040     2.1840   -12.4490 
  128.6250    71.6210     8.9060     8.2800     8.3690    24.8680     2.1850   -11.9870 
  128.7500    66.0700     9.6250     8.9380     9.0400    24.9200     2.1980   -11.3620 
  128.8750    60.1830     9.7300     9.1160     9.6530    24.8220     2.2270   -10.5100 
  129.0000    62.2670     8.9850     8.5410    10.3060    24.6170     2.2640    -9.4340 
  129.1250    73.3410     7.5920     7.3470     8.2450    24.3170     2.2960    -8.1280 
  129.2500    86.3410     6.2280     6.1220     6.3240    24.0760     2.3170    -6.7340 
  129.3750    95.6760     5.5960     5.1700     5.0450    24.0100     2.3310    -5.3650 
  129.5000    99.9870     5.2240     4.5870     4.6440    24.0740     2.3430    -4.0280 
  129.6250   100.0020     5.1740     4.3730     4.7560    24.2150     2.3550    -2.7660 
  129.7500    97.8890     5.2790     4.3530     5.3460    24.4070     2.3620    -1.6550 
  129.8750    94.4670     5.3940     4.4280     6.3590    24.5640     2.3620    -0.7590 
  130.0000    89.6410     5.4990     4.5580     6.1040    24.6290     2.3580    -0.1280 
  130.1250    85.5630     5.7070     4.7930     5.4820    24.6290     2.3610     0.1670 
  130.2500    82.1040     6.0970     5.1660     5.2970    24.6090     2.3860     0.2480 
  130.3750    78.6310     6.6440     5.6700     6.6120    24.5790     2.4320     0.2220 
  130.5000    74.8830     7.2000     6.2120    10.2940    24.5560     2.4850     0.1410 
  130.6250    71.8070     7.4660     6.5560    14.8610    24.5420     2.5130     0.0360 
  130.7500    71.6810     7.3320     6.5670    11.9780    24.4970     2.5000    -0.0820 
  130.8750    76.1340     6.8770     6.2730     7.8660    24.3660     2.4550    -0.1960 
  131.0000    82.9710     6.3200     5.8410     6.2060    24.2320     2.3970    -0.2380 
  131.1250    84.8120     5.9200     5.4800     5.7270    24.3670     2.3560    -0.2450 
  131.2500    81.0770     5.7690     5.2950     5.7680    24.5860     2.3380    -0.2460 
  131.3750    76.2140     5.8450     5.2960     6.0640    24.6400     2.3410    -0.2440 
  131.5000    72.4220     6.0500     5.4260     6.3530    24.4090     2.3540    -0.2440 
  131.6250    71.1090     6.2480     5.5880     6.7990    23.8850     2.3700    -0.2400 
  131.7500    72.4920     6.3220     5.6700     6.6880    23.4910     2.3840    -0.1890 
  131.8750    77.4340     6.2160     5.6030     6.5000    23.4320     2.3940    -0.0680 
  132.0000    84.1560     5.9380     5.3750     6.1710    23.7560     2.3970     0.0690 
  132.1250    88.9360     5.5580     5.0370     5.7240    24.2710     2.3940     0.2400 
  132.2500    89.9270     5.2080     4.7050     5.0880    24.6940     2.3880     0.3910 
  132.3750    88.0930     4.9760     4.4570     4.5740    24.8750     2.3850     0.5250 
  132.5000    86.9960     4.9180     4.3380     4.3870    24.8930     2.3880     0.6680 
  132.6250    87.9000     5.0640     4.3800     4.6000    24.8680     2.3960     0.7810 
  132.7500    89.1380     5.3290     4.5350     5.0640    24.8410     2.4040     0.7970 
  132.8750    90.4220     5.6360     4.7650     5.3970    24.8080     2.4050     0.6570 
  133.0000    91.8640     5.9200     5.0270     5.6840    24.7850     2.3980     0.3720 
  133.1250    91.4370     6.1680     5.3020     5.8750    24.7700     2.3820    -0.0790 
  133.2500    88.2380     6.4530     5.6170     6.0810    24.7270     2.3630    -0.6940 
  133.3750    83.4200     6.8500     6.0160     6.3120    24.6210     2.3410    -1.5190 
  133.5000    78.2680     7.3960     6.5330     6.6460    24.4480     2.3110    -2.5560 
  133.6250    74.9040     8.0590     7.1630     7.0000    24.2720     2.2690    -3.7630 
  133.7500    71.6100     8.6950     7.7980     7.4310    24.1540     2.2190    -5.0640 
  133.8750    66.9010     9.1620     8.3110     8.0190    24.0490     2.1730    -6.3640 
  134.0000    62.1430     9.3430     8.5720     8.3230    23.8900     2.1420    -7.5550 
  134.1250    61.3470     9.1400     8.4530     8.0230    23.6060     2.1390    -8.4810 
  134.2500    64.1410     8.6540     8.0260     7.6400    23.3280     2.1590    -9.0330 
  134.3750    67.9630     7.9740     7.3720     7.2850    23.2120     2.1930    -9.1230 
  134.5000    74.0030     7.2040     6.6060     6.5970    23.2350     2.2310    -8.7640 
  134.6250    81.5830     6.4630     5.8570     5.8890    23.3420     2.2660    -7.9990 
