~V
VERS. 2.00: Ver 2.00
~W
STRT.M 55.0000:
STOP.M 279.0000:
STEP.M 0.1250:
NULL. -999.2500:
UWI. F10072:
~C
DEPT.M :
GR.API :
RML.OHMM :
RI. :
RXO.OHMM :
CALI.CM :
DEN.GM/CC :
SP.MV :
~A
# ...
  178.7500    67.2330    92.8880    86.4830    84.6400    24.7950     2.2240   -20.0440 
  178.8750    69.7040    92.9400    86.1530    77.7380    24.7640     2.2220   -20.0390 
  179.0000    72.3620    94.6150    87.3280    82.6010    24.5970     2.2220   -20.0040 
  179.1250    73.6620    98.1420    90.4550    98.0630    24.3130     2.2210   -19.9720 
  179.2500    72.8010   102.3640    94.4850   109.6880    24.2370     2.2170   -19.9670 
  179.3750    69.6750   106.3390    98.4720   119.2390    24.3690     2.2120   -19.9670 
  179.5000    66.6240   109.3390   101.6030   121.6170    24.4960     2.2070   -19.9030 
  179.6250    65.4110   110.8780   103.3340   114.5500    24.2890     2.2070   -19.8160 
  179.7500    65.5420   111.4030   104.1290   107.8780    24.1940     2.2130   -19.6980 
  179.8750    65.6840   111.2520   104.3540   107.7590    24.3390     2.2190   -19.5610 
  180.0000    64.7340   110.5770   104.1920   110.6770    24.6870     2.2220   -19.3860 
  180.1250    63.9500   109.1390   103.4870   108.7850    24.8410     2.2200   -19.1740 
  180.2500    65.6830   106.8520   102.1150   107.5740    24.8860     2.2190   -18.9430 
  180.3750    68.8890   103.7410    99.9820   107.5860    24.8980     2.2220   -18.7870 
  180.5000    71.5870   100.1190    97.2500   109.0070    24.9130     2.2300   -18.6880 
  180.6250    72.4080    96.6060    94.3940   106.1590    24.9120     2.2400   -18.6070 
  180.7500    72.6510    93.7450    91.9960    95.9940    24.9250     2.2480   -18.6210 
  180.8750    72.7100    91.7790    90.3840    88.7350    24.9440     2.2510   -18.6840 
  181.0000    72.3580    90.7240    89.6370    89.3670    24.9600     2.2480   -18.7680 
  181.1250    71.1240    90.6560    89.7680    94.4230    24.9830     2.2410   -18.8270 
  181.2500    68.8350    91.4710    90.5700   100.3520    25.0070     2.2350   -18.8620 
  181.3750    66.5300    93.2930    92.1430   102.7750    25.0130     2.2310   -18.8520 
  181.5000    66.3930    96.1630    94.6580   100.4150    25.0010     2.2300   -18.8690 
  181.6250    68.0160    99.8310    98.2030    98.9320    24.9710     2.2300   -18.9160 
  181.7500    68.0650   103.2870   101.9830   104.1540    24.9450     2.2310   -18.9360 
  181.8750    65.3680   105.4930   104.8770   122.9440    24.9160     2.2330   -18.8860 
  182.0000    62.6490   105.6320   105.7210   135.7350    24.8960     2.2390   -18.7680 
  182.1250    64.1720   103.3430   103.7260   117.7530    24.8800     2.2490   -18.6210 
  182.2500    67.1150   100.0310   100.2690    97.4390    24.8540     2.2600   -18.4830 
  182.3750    68.3820    97.0620    96.8960    89.7880    24.8200     2.2690   -18.3450 
  182.5000    67.1680    95.5160    94.9470    92.1680    24.7870     2.2730   -18.2240 
  182.6250    64.6610    96.0440    95.3440    96.2720    24.7680     2.2710   -18.1590 
  182.7500    63.6170    97.8480    97.3120   101.2820    24.7510     2.2650   -18.0800 
  182.8750    64.9170   100.0490    99.9390   102.0410    24.7680     2.2570   -18.0620 
  183.0000    66.4870   101.7030   102.3390    91.4950    24.8000     2.2490   -18.1170 
  183.1250    63.5210   101.7080   103.5840    83.5030    24.8080     2.2440   -18.1860 
  183.2500    59.3950    99.7840   103.1900    72.7530    24.5940     2.2410   -18.2350 
  183.3750    59.2180    95.8890   100.6790    77.2820    24.5000     2.2380   -18.3130 
  183.5000    62.8740    90.4750    95.9710    86.7710    24.5520     2.2360   -18.3250 
  183.6250    64.9320    84.5790    89.7720    77.7410    24.7180     2.2380   -18.2760 
  183.7500    64.3260    79.5230    84.0140    63.5400    24.8290     2.2440   -18.2550 
  183.8750    63.5080    75.9250    79.9200    55.0140    24.9190     2.2530   -18.2730 
  184.0000    63.1820    73.6090    77.6430    53.4100    24.5770     2.2590   -18.2920 
  184.1250    62.8640    71.6790    76.2320    63.5230    24.2240     2.2540   -18.3740 
  184.2500    62.9320    69.1730    74.2070    78.8840    24.0240     2.2410   -18.4960 
  184.3750    62.9320    66.0300    71.0740    76.2630    23.9850     2.2320   -18.6190 
  184.5000    62.6830    63.0940    67.4410    59.8980    24.0020     2.2330   -18.8290 
  184.6250    63.6180    62.3600    65.2770    47.4030    24.1020     2.2470   -19.0870 
  184.7500    64.5900    64.9760    66.1830    50.5290    24.2830     2.2640   -19.3290 
  184.8750    63.4090    71.2800    71.0100    61.5690    24.4800     2.2740   -19.5000 
  185.0000    60.2900    80.5050    79.6570    74.8080    24.6480     2.2760   -19.6480 
  185.1250    57.9680    90.8330    90.8250    91.5970    24.7320     2.2710   -19.7960 
  185.2500    56.8630    99.8390   101.0820   102.4100    24.7640     2.2660   -19.9330 
  185.3750    56.5580   106.3030   107.9860    97.6970    24.7660     2.2610   -20.0360 
  185.5000    58.0670   110.3860   111.2130    82.5990    24.7500     2.2550   -20.1180 
  185.6250    59.9660   113.4900   112.7160    72.7350    24.6510     2.2480   -20.1090 
  185.7500    59.5320   117.1430   115.0420    69.7310    24.6420     2.2390   -20.0670 
  185.8750    59.0950   121.4810   118.7510    74.8520    24.6690     2.2310   -20.0510 
  186.0000    61.6040   125.8380   123.0680    79.7570    24.6880     2.2250   -20.0370 
  186.1250    63.3080   129.3220   126.3180    80.6650    24.6910     2.2220   -20.0070 
  186.2500    61.1880   132.2870   128.0670    88.0910    24.6920     2.2230   -19.9970 
  186.3750    57.9360   136.1300   129.4600    87.4760    24.6910     2.2260   -19.9720 
  186.5000    57.0050   142.7750   132.7240    74.0920    24.6920     2.2290   -19.8760 
  186.6250    57.4920   154.2810   140.8570    70.4540    24.6930     2.2280   -19.8440 
  186.7500    57.1810   169.2510   153.6410    84.0450    24.6990     2.2210   -19.9030 
  186.8750    55.6050   185.0450   169.1020   114.2920    24.7170     2.2090   -19.9770 
  187.0000    54.4170   198.0180   183.3090   142.8130    24.7570     2.1960   -20.0980 
  187.1250    54.9920   203.7710   190.4660   150.2700    24.7910     2.1910   -20.2070 
  187.2500    56.4100   202.7600   189.7840   151.0590    24.8020     2.1950   -20.3230 
  187.3750    57.6330   197.2230   183.5660   144.6050    24.7700     2.2040   -20.4430 
  187.5000    58.6290   190.3910   175.7220   134.3990    24.7250     2.2160   -20.5270 
  187.6250    60.0860   185.1430   169.6540   152.5850    24.7060     2.2250   -20.6410 
  187.7500    60.7790   182.1240   165.9760   158.1800    24.7020     2.2300   -20.7290 
  187.8750    60.5950   181.0450   164.2680   156.5510    24.7020     2.2300   -20.8110 
  188.0000    61.4400   181.2320   163.8320   152.6170    24.7020     2.2290   -20.8290 
  188.1250    63.0910   181.7480   164.0480   149.6950    24.7020     2.2280   -20.8040 
  188.2500    64.0960   181.4740   164.1390   144.0960    24.7010     2.2280   -20.7090 
  188.3750    64.7330   179.5680   163.2110   142.9110    24.6970     2.2260   -20.6280 
  188.5000    65.1410   175.6370   160.2940   154.3990    24.6950     2.2210   -20.6350 
  188.6250    63.7190   170.0920   155.0110   160.4110    24.6940     2.2150   -20.5830 
  188.7500    60.5030   164.7440   149.2210   152.1760    24.7230     2.2100   -20.4800 
  188.8750    58.6420   160.8560   144.7470   129.4660    24.7690     2.2090   -20.2870 
  189.0000    59.2860   158.5660   142.6140   111.9910    24.8040     2.2110   -20.0910 
  189.1250    60.4630   156.2170   142.2070   114.9840    24.4680     2.2150   -19.8780 
  189.2500    61.3070   151.2190   140.4830   153.3700    24.2290     2.2170   -19.7490 
  189.3750    60.9890   141.9120   134.7600   182.2960    24.1050     2.2200   -19.5740 
  189.5000    59.5380   128.3620   124.0540   165.6310    24.0730     2.2260   -19.3990 
  189.6250    58.8400   112.5780   109.7130   124.3910    24.0700     2.2380   -19.2030 
  189.7500    61.2850    98.0050    95.5990    98.2600    24.0770     2.2510   -18.9900 
  189.8750    65.5200    86.5790    84.0840    87.1580    24.1120     2.2610   -18.8320 
