~V
VERS. 2.00: Ver 2.00
~W
STRT.M 60.0000:
STOP.M 271.0000:
STEP.M 0.1250:
NULL. -999.2500:
UWI. F10035:
~C
DEPT.M :
GR.API :
RML.OHMM :
RI. :
RXO.OHMM :
CALI.CM :
DEN.GM/CC :
SP.MV :
~A
# ...
  206.2500    80.3840     7.7860     7.0150     7.7400    24.8830     2.4080    -2.7100 
  206.3750    83.1190     7.7740     7.0000     7.9940    24.8880     2.4000    -2.5440 
  206.5000    84.2530     7.6140     6.8780     7.8460    24.8750     2.3970    -2.3990 
  206.6250    82.8920     7.3300     6.6540     7.3260    24.8550     2.3990    -2.3090 
  206.7500    81.1430     7.0530     6.4200     7.0110    24.8560     2.4020    -2.2520 
  206.8750    80.5720     6.8920     6.2620     6.7180    24.8610     2.4010    -2.2090 
  207.0000    79.8680     6.9580     6.2640     6.7720    24.8770     2.3950    -2.2020 
  207.1250    79.2340     7.4220     6.5610     7.8090    24.8860     2.3840    -2.2330 
  207.2500    78.9880     8.2620     7.1700     9.5760    24.8920     2.3750    -2.2760 
  207.3750    78.9550     9.4120     8.0820    11.3550    24.8920     2.3730    -2.3510 
  207.5000    78.8080    10.7550     9.2410    13.2010    24.8910     2.3740    -2.5010 
  207.6250    78.7100    12.1860    10.5940    18.7860    24.8810     2.3770    -2.7130 
  207.7500    80.4070    13.7030    12.0860    23.5740    24.8640     2.3810    -2.9490 
  207.8750    81.5950    15.5340    13.8400    20.4860    24.8470     2.3960    -3.2210 
  208.0000    77.5520    18.0940    16.1580    19.6940    24.8450     2.4280    -3.4940 
  208.1250    69.0850    21.9880    19.6030    27.5150    24.8160     2.4670    -3.7150 
  208.2500    64.1300    26.8550    24.0130    40.9380    24.7670     2.4860    -3.9210 
  208.3750    63.9020    31.4240    28.4420    49.7120    24.7020     2.4690    -4.1140 
  208.5000    64.2970    33.3480    30.9040    50.9290    24.6310     2.4190    -4.2890 
  208.6250    65.6650    30.2270    28.9660    43.6980    24.5210     2.3670    -4.4600 
  208.7500    70.9710    24.4970    24.3050    36.0480    24.3530     2.3410    -4.6060 
  208.8750    76.6330    18.8810    19.3000    24.5280    24.1660     2.3460    -4.6990 
  209.0000    77.9100    14.8080    15.4270    14.4730    24.0690     2.3690    -4.7740 
  209.1250    76.8410    12.6440    13.1820    12.1000    24.1680     2.3890    -4.8650 
  209.2500    77.9290    11.6450    12.0020    12.3540    24.4520     2.3960    -4.9650 
  209.3750    81.7300    11.3260    11.5250    13.6450    24.7070     2.3920    -5.0650 
  209.5000    86.1090    11.2310    11.3970    14.4980    24.8010     2.3830    -5.1390 
  209.6250    88.2560    10.9570    11.2600    12.9920    24.8150     2.3740    -5.1550 
  209.7500    86.8530    10.4210    10.9340    11.2690    24.8220     2.3660    -5.1450 
  209.8750    81.4550     9.7460    10.4580    10.3280    24.8210     2.3610    -5.1300 
  210.0000    75.6190     9.1060     9.9700     9.9830    24.8210     2.3590    -5.1090 
  210.1250    76.9140     8.6340     9.5990     9.5510    24.8270     2.3630    -5.0680 
  210.2500    81.9240     8.3120     9.3530     9.1310    24.8250     2.3700    -5.0040 
  210.3750    84.0670     8.1140     9.2120     9.0480    24.8160     2.3780    -4.8860 
  210.5000    82.2420     8.0340     9.1590     9.1950    24.8010     2.3830    -4.6900 
  210.6250    81.8020     8.1100     9.2130     9.0370    24.8100     2.3820    -4.4450 
  210.7500    83.2620     8.3400     9.3780     9.0340    24.8170     2.3770    -4.2230 
  210.8750    82.7980     8.7290     9.6690     9.2600    24.8220     2.3730    -4.0510 
  211.0000    81.3040     9.2460    10.0760     9.8780    24.8210     2.3720    -3.9000 
  211.1250    80.8200     9.8030    10.5370    10.7830    24.8230     2.3730    -3.7930 
  211.2500    78.8560    10.2370    10.9010    11.4700    24.8220     2.3710    -3.7540 
  211.3750    75.8970    10.4020    11.0160    12.3550    24.8230     2.3630    -3.7730 
  211.5000    75.2770    10.2570    10.8290    13.0440    24.8280     2.3470    -3.8640 
  211.6250    77.0760    10.0130    10.5150    12.2330    24.8350     2.3360    -4.0600 
  211.7500    77.3080    10.1300    10.4670    11.0530    24.8360     2.3440    -4.3010 
  211.8750    74.4030    11.0640    11.0450    10.9570    24.8210     2.3740    -4.5730 
  212.0000    70.1520    13.2750    12.6470    13.0020    24.7770     2.4110    -4.8930 
  212.1250    65.3330    17.5050    16.0800    21.0390    24.6750     2.4240    -5.2700 
  212.2500    61.1910    23.5570    21.4310    37.5130    24.5800     2.4050    -5.6680 
  212.3750    59.8240    30.7070    28.2210    49.8810    24.5670     2.3740    -6.1020 
  212.5000    60.5610    37.2290    34.8230    49.8260    24.5580     2.3620    -6.5500 
  212.6250    60.3380    40.6560    38.6530    50.1050    24.4790     2.3940    -6.9840 
  212.7500    56.9560    41.4730    39.7880    49.1930    24.3920     2.4440    -7.4140 
  212.8750    53.4270    41.5530    39.7940    40.6480    24.2940     2.4740    -7.8450 
  213.0000    53.2030    42.7850    40.4860    30.0060    24.1420     2.4600    -8.2730 
  213.1250    54.5560    46.5180    43.3010    36.6170    24.1110     2.3980    -8.6410 
  213.2500    54.1060    52.2890    48.0220    52.7260    24.2940     2.3220    -8.9850 
  213.3750    53.5150    59.2320    53.9630    69.6430    24.5840     2.2550    -9.3240 
  213.5000    55.5090    65.8050    59.8220    79.5680    24.7320     2.2100    -9.6490 
  213.6250    58.3940    69.6980    63.6030    75.9960    24.5870     2.1890    -9.9100 
  213.7500    59.2010    70.6620    64.8530    69.3650    24.2400     2.1830   -10.0880 
  213.8750    59.2290    69.6980    64.2120    63.9740    23.8470     2.1880   -10.1850 
  214.0000    59.9140    68.1970    62.8240    61.3890    23.7400     2.2000   -10.1810 
  214.1250    59.5310    67.1050    61.6220    62.1070    23.9660     2.2160   -10.0520 
  214.2500    58.2490    66.5320    60.8870    61.8610    24.3410     2.2280    -9.8460 
  214.3750    57.9200    66.3810    60.6250    61.8840    24.6620     2.2310    -9.6260 
  214.5000    57.7870    66.6340    60.8420    64.7910    24.8420     2.2220    -9.4150 
  214.6250    55.5750    67.6050    61.7980    67.9520    24.9210     2.2030    -9.2190 
  214.7500    53.7280    69.4310    63.5590    68.0720    24.9810     2.1850    -9.0500 
  214.8750    54.9000    71.9080    65.9480    69.5750    25.0590     2.1710    -8.8900 
  215.0000    56.9890    74.0150    68.1250    76.7200    25.2090     2.1630    -8.7810 
  215.1250    55.8690    73.2140    68.0130    83.3070    25.3420     2.1610    -8.7570 
  215.2500    53.4990    68.2000    64.3590    82.7370    25.3270     2.1640    -8.7390 
  215.3750    53.8420    59.4090    57.1560    71.4450    25.0870     2.1710    -8.6630 
  215.5000    58.4760    48.9770    47.9280    53.1030    24.8530     2.1810    -8.5540 
  215.6250    63.1390    39.6030    39.0900    37.5320    24.7460     2.1930    -8.4340 
  215.7500    64.4720    32.3800    32.0490    29.0370    24.7030     2.2060    -8.3180 
  215.8750    63.1920    27.3450    27.0230    23.7900    24.6940     2.2160    -8.2140 
  216.0000    62.5380    24.1190    23.7150    21.8370    24.6860     2.2240    -8.1230 
  216.1250    63.6330    22.3380    21.8180    21.6380    24.6740     2.2290    -8.0590 
  216.2500    64.3220    21.2290    20.6370    21.1750    24.6600     2.2360    -8.0130 
  216.3750    64.6810    20.3800    19.8010    20.3510    24.5810     2.2500    -7.9890 
  216.5000    65.0680    19.5230    19.0380    19.5490    24.3250     2.2710    -7.9800 
  216.6250    64.3600    18.5470    18.1960    18.1660    23.9500     2.2970    -7.9380 
  216.7500    61.6610    17.5270    17.2980    16.5320    23.8350     2.3170    -7.8330 
  216.8750    59.2810    16.5540    16.4140    14.7420    24.0870     2.3270    -7.6790 
  217.0000    59.3320    15.6840    15.6020    13.4640    24.4070     2.3290    -7.4650 
  217.1250    60.7520    14.9390    14.8900    12.8920    24.6070     2.3330    -7.2290 
  217.2500    61.3900    14.2790    14.2510    12.6330    24.6530     2.3410    -7.0140 
  217.3750    62.3620    13.6870    13.6710    12.2460    24.6110     2.3500    -6.8210 
