~V
VERS. 2.00: Ver 2.00
~W
STRT.M 50.0000:
STOP.M 265.0000:
STEP.M 0.1250:
NULL. -999.2500:
UWI. F10025:
~C
DEPT.M :
SP.MV :
DEN.GM/CC :
GR.API :
CALI.CM :
RXO.OHMM :
RI. :
RML.OHMM :
~A
# ...
   95.0000   -24.5690     2.1130    77.3240    22.4590    10.2220     7.2760     9.1810 
   95.1250   -24.9890     2.1130    74.2730    22.6940    10.5430     7.3650     9.4980 
   95.2500   -25.2940     2.1140    70.2670    23.3010    10.7490     7.4330     9.8350 
   95.3750   -25.5220     2.1160    69.2100    23.8130    10.8340     7.4660     9.9870 
   95.5000   -25.6600     2.1170    71.8460    23.9670    10.8620     7.4630     9.8820 
   95.6250   -25.6530     2.1150    76.0800    23.9170    10.8920     7.4300     9.6170 
   95.7500   -25.5630     2.1070    78.9370    23.9790    10.9970     7.3770     9.4340 
   95.8750   -25.4000     2.0920    77.6780    24.0420    11.1000     7.3110     9.5350 
   96.0000   -25.1420     2.0710    74.8630    23.9930    10.9610     7.2260     9.7660 
   96.1250   -24.8290     2.0520    73.0030    23.8120    10.4880     7.1120     9.9130 
   96.2500   -24.5010     2.0460    72.2190    23.6160     9.8180     6.9770     9.8350 
   96.3750   -24.1230     2.0510    72.3720    23.5360     9.3660     6.8560     9.5550 
   96.5000   -23.6960     2.0610    76.1880    23.6370     9.3440     6.7920     9.2640 
   96.6250   -23.3160     2.0700    82.6710    23.8950     9.6660     6.8090     9.0610 
   96.7500   -22.9670     2.0750    87.5840    23.9870    10.0090     6.9090     8.9780 
   96.8750   -22.6040     2.0770    87.3310    23.7940    10.2380     7.0740     9.0330 
   97.0000   -22.2570     2.0800    84.9340    23.4960    10.3480     7.2500     9.2190 
   97.1250   -21.8680     2.0850    83.8240    23.4370    10.4050     7.3930     9.4960 
   97.2500   -21.3660     2.0840    83.8060    23.5670    10.3180     7.4530     9.7360 
   97.3750   -20.7910     2.0740    82.8980    23.7600    10.0630     7.3620     9.7250 
   97.5000   -20.1280     2.0640    83.0440    23.9110     9.5910     7.1210     9.4170 
   97.6250   -19.4290     2.0620    86.2660    23.9330     8.6720     6.7510     8.8920 
   97.7500   -18.7250     2.0660    90.4540    23.6980     7.5180     6.3160     8.3350 
   97.8750   -18.0930     2.0740    93.9230    23.3100     6.7080     5.9240     7.9610 
   98.0000   -17.5050     2.0960    99.3420    22.8990     6.2890     5.6640     7.8350 
   98.1250   -17.0520     2.1370   106.2220    22.3720     6.1850     5.5790     7.9360 
   98.2500   -16.7850     2.1810   109.0130    21.8800     6.5340     5.6630     8.1650 
   98.3750   -16.6870     2.2110   103.9460    21.8230     7.1900     5.8670     8.3950 
   98.5000   -16.7120     2.2150    95.9570    22.3390     7.5370     6.0640     8.5530 
   98.6250   -16.7420     2.1880    88.9280    22.9870     7.5060     6.1720     8.6140 
   98.7500   -16.7700     2.1530    86.9740    23.2640     7.2360     6.1560     8.6050 
   98.8750   -16.8110     2.1330    93.2100    23.3180     6.9570     6.0420     8.6010 
   99.0000   -16.9440     2.1330   101.1270    23.2780     6.7710     5.9320     8.6490 
   99.1250   -17.1280     2.1450   104.9490    23.2410     6.8830     5.8890     8.7270 
   99.2500   -17.2760     2.1510   103.3750    23.2710     7.2080     5.9440     8.7960 
   99.3750   -17.3420     2.1450    99.7630    23.3200     7.5420     6.1040     8.8410 
   99.5000   -17.3220     2.1260    96.3500    23.3230     7.6510     6.3210     8.8840 
   99.6250   -17.2840     2.0940    92.3060    23.1530     7.5710     6.5540     8.9590 
   99.7500   -17.2030     2.0610    87.5880    22.7700     7.5060     6.7530     9.0830 
   99.8750   -17.0530     2.0420    84.4040    22.3100     7.6120     6.8440     9.1790 
  100.0000   -16.7420     2.0510    85.5090    22.0040     7.6230     6.7980     9.1260 
  100.1250   -16.2120     2.0960    91.7530    21.9550     7.3370     6.6060     8.8740 
  100.2500   -15.6200     2.1590    99.9820    21.9990     6.9180     6.3010     8.5110 
  100.3750   -15.1150     2.2120   105.8800    22.1100     6.6100     5.9570     8.2470 
  100.5000   -14.6930     2.2340   107.5200    22.2490     6.5580     5.6690     8.1960 
  100.6250   -14.3310     2.2200   106.2680    22.3570     6.7070     5.4900     8.3140 
  100.7500   -14.0430     2.1950   104.6540    22.4420     6.7930     5.4380     8.4730 
  100.8750   -13.8330     2.1710   103.6220    22.4060     6.5250     5.4850     8.5240 
  101.0000   -13.6980     2.1550   102.6590    22.2900     6.3930     5.5560     8.4410 
  101.1250   -13.6450     2.1520   101.3000    22.4260     6.7190     5.6160     8.2540 
  101.2500   -13.5820     2.1500    99.6830    23.0810     7.0840     5.6500     8.0250 
  101.3750   -13.3960     2.1340   101.2230    23.8360     6.8690     5.6570     7.8130 
  101.5000   -13.1980     2.1080   106.9940    24.2050     6.4820     5.6420     7.6590 
  101.6250   -12.9770     2.0980   114.1540    24.2510     6.3880     5.6070     7.5920 
  101.7500   -12.6800     2.1140   115.6360    24.2140     6.4760     5.5520     7.5970 
  101.8750   -12.3270     2.1400   107.5050    24.1100     6.3540     5.4700     7.5450 
  102.0000   -11.9170     2.1570    99.8660    23.9440     6.1220     5.3650     7.3140 
  102.1250   -11.5310     2.1640   100.6540    23.7930     5.9610     5.2390     6.8920 
  102.2500   -11.1790     2.1790   109.1480    23.8400     5.7830     5.1050     6.4090 
  102.3750   -10.9270     2.2040   116.5750    24.0900     5.4670     5.0040     6.1050 
  102.5000   -10.6910     2.2310   118.3970    24.3300     5.3450     4.9650     6.1100 
  102.6250   -10.4840     2.2450   117.5770    24.4210     5.4800     4.9860     6.4310 
  102.7500   -10.3680     2.2460   115.7140    24.4430     5.7340     5.0370     6.9130 
  102.8750   -10.2660     2.2370   113.5930    24.4680     5.9860     5.0620     7.2660 
  103.0000   -10.2460     2.2270   112.7680    24.5200     6.1510     5.0210     7.3330 
  103.1250   -10.2700     2.2250   113.7780    24.5910     5.9740     4.9240     7.1700 
  103.2500   -10.3160     2.2320   115.7510    24.6280     5.5840     4.8450     7.0010 
  103.3750   -10.3750     2.2440   116.3030    24.5720     5.5830     4.9220     7.1170 
  103.5000   -10.4650     2.2500   115.4510    24.4520     6.3220     5.2060     7.5850 
  103.6250   -10.5230     2.2410   110.3840    24.3550     8.2110     5.6730     8.2940 
  103.7500   -10.5170     2.2300   100.1650    24.3200    11.5360     6.2050     8.9590 
  103.8750   -10.5750     2.2390    91.4240    24.3140    13.4030     6.5360     9.1560 
  104.0000   -10.6300     2.2700    89.1640    24.3080    11.6550     6.5160     8.8360 
  104.1250   -10.6470     2.2990    91.9440    24.2890     8.2910     6.1910     8.2190 
  104.2500   -10.6880     2.3020    97.1390    24.2670     6.3350     5.7350     7.5980 
  104.3750   -10.7110     2.2810   103.3970    24.2680     5.9190     5.3500     7.1630 
  104.5000   -10.7640     2.2530   106.3090    24.2910     5.9730     5.1310     6.9120 
  104.6250   -10.8010     2.2320   102.9590    24.2910     6.0050     5.0870     6.8260 
  104.7500   -10.8650     2.2160    98.6290    24.2800     5.9540     5.1630     6.8850 
  104.8750   -10.8830     2.2040    99.6420    24.2810     5.9070     5.2750     7.0490 
  105.0000   -10.8860     2.2050   101.7130    24.2990     5.9890     5.3560     7.2280 
  105.1250   -10.9640     2.2300   102.2490    24.2980     6.0980     5.3880     7.3960 
  105.2500   -11.0140     2.2640   103.5380    24.2670     6.1310     5.3730     7.5380 
  105.3750   -11.0920     2.2850   107.6020    24.2220     6.0690     5.3270     7.6230 
  105.5000   -11.1850     2.2810   111.1130    24.1870     6.0390     5.2890     7.6600 
  105.6250   -11.3440     2.2560   111.7620    24.2230     6.0930     5.2930     7.6940 
  105.7500   -11.5760     2.2250   109.4940    24.2440     6.2060     5.3750     7.8190 
  105.8750   -11.9080     2.1890   104.5930    24.2500     6.2760     5.5690     8.1280 
  106.0000   -12.3440     2.1460    99.4230    24.2470     6.4940     5.8570     8.5270 
  106.1250   -12.7300     2.1120    95.9300    24.2430     6.8750     6.1980     8.8720 
