~V
VERS. 2.00: Ver 2.00
~W
STRT.M 50.0000:
STOP.M 278.0000:
STEP.M 0.1250:
NULL. -999.2500:
UWI. F10031:
~C
DEPT.M :
GR.API :
RML.OHMM :
RI. :
RXO.OHMM :
CALI.CM :
DEN.GM/CC :
SP.MV :
~A
# ...
  230.0000   100.4900     5.5050     4.9050     4.9900    23.7990     2.3980    -5.0710 
  230.1250    98.1780     5.4530     4.8740     4.9710    23.7990     2.4030    -5.0610 
  230.2500    94.2460     5.4130     4.8590     5.0060    23.7990     2.4020    -5.0530 
  230.3750    92.3060     5.4100     4.8780     5.0660    23.7990     2.3970    -5.0520 
  230.5000    93.5230     5.4840     4.9630     5.1280    23.7970     2.3900    -5.0500 
  230.6250    94.1110     5.6910     5.1590     5.1900    23.7910     2.3860    -5.0620 
  230.7500    91.2990     6.0060     5.4500     5.3350    23.7790     2.3880    -5.0940 
  230.8750    85.3930     6.3750     5.7940     5.5830    23.7550     2.3930    -5.1430 
  231.0000    78.9020     6.7060     6.1190     5.9440    23.7250     2.3980    -5.2240 
  231.1250    76.3300     6.8730     6.3080     6.2350    23.7120     2.3970    -5.3260 
  231.2500    76.0770     6.8510     6.3250     6.2440    23.7320     2.3910    -5.4340 
  231.3750    75.7310     6.6740     6.1790     5.9660    23.7630     2.3810    -5.5550 
  231.5000    75.3670     6.4160     5.9280     5.6220    23.7910     2.3710    -5.6990 
  231.6250    77.5240     6.1620     5.6460     5.3440    23.8010     2.3640    -5.8540 
  231.7500    81.4200     5.9560     5.3950     5.2530    23.8040     2.3630    -6.0200 
  231.8750    85.0350     5.8080     5.1990     5.2900    23.8060     2.3670    -6.1900 
  232.0000    87.6560     5.7320     5.0750     5.3740    23.8090     2.3770    -6.3650 
  232.1250    88.8580     5.8300     5.0880     5.5040    23.8130     2.3870    -6.5850 
  232.2500    89.2160     6.2270     5.3170     5.7690    23.8180     2.3930    -6.8550 
  232.3750    88.8910     7.0870     5.8830     6.4530    23.8280     2.3870    -7.1620 
  232.5000    87.3100     8.5290     6.9130     8.1380    23.8470     2.3680    -7.4970 
  232.6250    83.9140    10.6500     8.5760    11.8300    23.8480     2.3400    -7.8590 
  232.7500    79.8670    13.1540    10.7210    16.7560    23.8380     2.3160    -8.2370 
  232.8750    77.1740    15.6880    13.1240    22.3530    23.8360     2.3050    -8.6230 
  233.0000    77.2580    17.7240    15.4420    27.1670    23.8530     2.3120    -9.0060 
  233.1250    78.6940    18.9380    17.2380    27.4700    23.8650     2.3320    -9.3730 
  233.2500    78.7450    19.6350    18.5020    27.3850    23.8680     2.3540    -9.7330 
  233.3750    77.8700    20.7410    19.5480    29.0900    23.8680     2.3670   -10.0710 
  233.5000    76.7720    23.1450    21.1050    30.5350    23.8680     2.3670   -10.3920 
  233.6250    74.7480    29.6070    24.8420    32.6340    23.8680     2.3550   -10.7130 
  233.7500    72.2330    40.3920    31.8900    41.0310    23.8670     2.3360   -11.0460 
  233.8750    69.9540    54.3420    42.7040    59.7060    23.8650     2.3150   -11.3950 
  234.0000    66.9900    69.4070    56.0870    88.8010    23.8590     2.2970   -11.7570 
  234.1250    62.9020    81.0060    67.9440   121.4370    23.8450     2.2810   -12.1210 
  234.2500    60.1280    84.1660    73.3930   143.2690    23.8250     2.2690   -12.4780 
  234.3750    60.2230    76.9440    69.7610   144.2200    23.8070     2.2610   -12.8350 
  234.5000    63.4100    62.7160    58.8450   118.4040    23.7990     2.2610   -13.1920 
  234.6250    69.1470    48.8160    46.5290    75.1200    23.7970     2.2710   -13.5670 
  234.7500    74.5230    39.2390    37.3450    42.7800    23.7920     2.2870   -13.9580 
  234.8750    77.8320    33.9140    31.8320    29.2790    23.7840     2.3040   -14.3920 
  235.0000    78.7440    31.6840    29.1930    27.1530    23.7710     2.3170   -14.8790 
  235.1250    77.9490    31.6220    28.6900    28.8250    23.7540     2.3250   -15.4370 
  235.2500    76.6930    32.6600    29.3320    30.4290    23.7400     2.3290   -16.0800 
  235.3750    76.2800    34.6570    30.9280    31.0280    23.7460     2.3300   -16.7900 
  235.5000    76.6310    38.0060    33.7680    31.7290    23.7690     2.3250   -17.5540 
  235.6250    75.5490    44.2780    39.3280    35.9850    23.8060     2.3140   -18.3460 
  235.7500    71.7100    54.6650    48.8350    48.0720    23.8340     2.2990   -19.1240 
  235.8750    66.4790    70.4050    63.4920    70.5490    23.8430     2.2800   -19.8370 
  236.0000    61.5110    91.7990    83.4200   101.9950    23.8290     2.2620   -20.4480 
  236.1250    58.5060   117.7220   107.0360   137.7910    23.7740     2.2480   -20.9010 
  236.2500    57.4770   143.5270   129.6890   163.5460    23.6940     2.2400   -21.1770 
  236.3750    56.7390   164.8930   147.5070   170.4930    23.6370     2.2370   -21.2990 
  236.5000    55.3280   178.8130   158.3170   170.4270    23.6340     2.2400   -21.2610 
  236.6250    54.7920   184.2380   161.7930   174.0080    23.6440     2.2450   -21.0470 
  236.7500    55.4580   185.1560   161.5880   176.6400    23.6170     2.2510   -20.6930 
  236.8750    56.2650   184.1560   159.9410   175.2560    23.5950     2.2540   -20.2180 
  237.0000    56.3790   183.2080   158.5440   171.4960    23.6220     2.2540   -19.6590 
  237.1250    55.3820   184.5320   159.3130   168.9010    23.6840     2.2490   -19.0520 
  237.2500    54.4690   189.2580   163.2350   169.6730    23.7060     2.2480   -18.4340 
  237.3750    55.4510   197.6200   170.6490   176.6610    23.6990     2.2590   -17.8250 
  237.5000    57.8320   208.4590   180.7240   194.7380    23.6780     2.2900   -17.2490 
  237.6250    58.3800   218.7870   191.1500   219.0730    23.6350     2.3350   -16.7250 
  237.7500    56.2350   225.2130   198.9090   243.6270    23.5540     2.3690   -16.2680 
  237.8750    53.4370   225.5670   201.9150   260.0470    23.5380     2.3730   -15.8790 
  238.0000    51.4110   219.3870   199.3140   240.3480    23.6150     2.3450   -15.5540 
  238.1250    51.7060   207.2290   190.9490   206.8820    23.7120     2.3000   -15.2880 
  238.2500    54.2630   191.8970   179.1090   185.9000    23.7680     2.2630   -15.0530 
  238.3750    56.5610   174.5790   164.9420   175.3680    23.7850     2.2410   -14.8170 
  238.5000    56.8090   155.9960   149.2360   164.4960    23.7840     2.2340   -14.5510 
  238.6250    56.5300   136.9920   132.6740   148.8320    23.7750     2.2340   -14.2360 
  238.7500    56.7630   119.0550   116.5480   129.0800    23.7630     2.2350   -13.8600 
  238.8750    57.1990   103.7540   102.3010   109.5030    23.7510     2.2330   -13.4400 
  239.0000    57.1820    92.6270    91.5550    94.8540    23.7340     2.2310   -12.9870 
  239.1250    56.4850    88.1350    86.9420    86.7140    23.7240     2.2400   -12.5050 
  239.2500    55.7460    90.0060    88.5520    87.9940    23.7200     2.2750   -12.0050 
  239.3750    54.9920    97.1520    95.5620   100.1180    23.7170     2.3430   -11.4990 
  239.5000    53.5360   106.2480   104.9110   121.2010    23.7090     2.4420   -11.0000 
  239.6250    52.3080   110.2510   109.7600   144.3590    23.6910     2.5460   -10.5270 
  239.7500    53.7630   103.5300   104.2200   159.5220    23.6550     2.6210   -10.0980 
  239.8750    57.4330    84.4710    86.1350   152.7790    23.6020     2.6430    -9.7110 
  240.0000    59.9240    58.3140    60.0490   120.6460    23.5580     2.6090    -9.3670 
  240.1250    59.9310    35.7080    36.6850    79.3060    23.5120     2.5320    -9.0760 
  240.2500    60.3130    20.8490    21.2310    37.9450    23.4450     2.4470    -8.8390 
  240.3750    59.9750    12.4580    12.5550    13.9670    23.3630     2.3800    -8.6600 
  240.5000    57.7010     8.2160     8.1290     5.9500    23.2940     2.3500    -8.5480 
  240.6250    55.1260     6.5510     6.2410     4.6750    23.2640     2.3620    -8.4900 
  240.7500    53.1860     5.9740     5.4380     4.6450    23.2360     2.3930    -8.4510 
  240.8750    51.3920     5.9600     5.2620     4.8430    23.1630     2.4190    -8.4290 
  241.0000    49.2680     6.2030     5.4400     5.0260    23.0540     2.4280    -8.4240 
  241.1250    49.4490     6.5190     5.7850     5.2240    23.1060     2.4180    -8.4290 
