~V
VERS. 2.00: Ver 2.00
~W
STRT.M 55.0000:
STOP.M 310.0000:
STEP.M 0.1250:
NULL. -999.2500:
UWI. F10049:
~C
DEPT.M :
GR.API :
RML.OHMM :
RI. :
RXO.OHMM :
CALI.CM :
DEN.GM/CC :
SP.MV :
~A
   55.0000    50.0040     0.2760     1.0000     2.3650    25.6560     2.1330   171.9110 
   55.1250    49.1020     0.3070     1.0120     2.2260    25.6560     2.1680   169.4710 
   55.2500    47.9340     0.3650     1.0120     2.0860    25.6530     2.1940   167.1070 
   55.3750    49.9380     0.4260     1.0090     1.9630    25.6460     2.2010   164.5630 
   55.5000    53.0960     0.4650     1.0130     1.9000    25.6430     2.1900   161.7060 
   55.6250    51.6450     0.4580     1.0280     1.9250    25.6620     2.1690   158.4970 
   55.7500    49.5540     0.4120     1.0440     1.8480    25.6990     2.1520   154.9720 
   55.8750    50.7310     0.3350     1.0510     1.6400    25.7050     2.1390   151.1300 
   56.0000    53.0760     0.2340     1.0440     1.4460    25.6060     2.1280   146.8680 
   56.1250    53.3580     0.1190     1.0300     1.3920    25.5240     2.1170   142.0830 
   56.2500    52.3520     0.0150     1.0210     1.4400    25.5020     2.1110   136.8450 
   56.3750    50.2900    -0.0340     1.0210     1.4610    25.5140     2.1150   131.3590 
   56.5000    46.0630     0.0300     1.0300     1.5200    25.5230     2.1240   125.9550 
   56.6250    42.3200     0.2520     1.0460     1.6440    25.5280     2.1300   120.5170 
   56.7500    41.9640     0.5540     1.0630     1.7230    25.5270     2.1270   114.8030 
   56.8750    43.5390     0.8360     1.0720     1.7270    25.5150     2.1170   108.8980 
   57.0000    44.5810     0.9950     1.0610     1.6930    25.4940     2.1040   103.1550 
   57.1250    45.1580     0.9200     1.0010     1.6520    25.4760     2.1000    97.9130 
   57.2500    45.9450     0.6670     0.8600     1.6310    25.4690     2.1150    93.1580 
   57.3750    46.5600     0.3430     0.6510     1.6150    25.4680     2.1570    88.6190 
   57.5000    46.6590     0.0670     0.4460     1.6010    25.4680     2.2320    83.9390 
   57.6250    47.2040    -0.0890     0.3140     1.5500    25.4580     2.3450    79.3000 
   57.7500    49.6610    -0.1580     0.2450     1.4030    25.4330     2.4710    74.9870 
   57.8750    53.9050    -0.1520     0.2280     1.2780    25.3770     2.5740    70.8440 
   58.0000    58.5050    -0.0240     0.2730     1.6920    25.2160     2.6180    66.0340 
   58.1250    61.7360     0.4390     0.4640     3.3950    24.8020     2.5680    59.4140 
   58.2500    63.0990     1.4730     0.9120     6.6880    24.3440     2.4560    51.5380 
   58.3750    62.2880     3.2250     1.7850     9.1640    24.0670     2.3250    43.1490 
   58.5000    60.5220     5.4230     3.1690     9.5090    24.0230     2.2230    34.8950 
   58.6250    59.7480     7.2400     4.8050     9.3230    24.0430     2.1840    26.8720 
   58.7500    60.8900     8.2110     6.1630     9.1080    23.9540     2.1890    19.1140 
   58.8750    63.6490     8.5320     7.1050     8.8230    23.7570     2.2090    11.8850 
   59.0000    67.2510     8.6740     7.7330     8.8030    23.5600     2.2180     5.8370 
   59.1250    69.3700     8.8890     8.0870     9.0080    23.5220     2.2050     1.8260 
   59.2500    68.5110     9.0150     8.1660     9.3140    23.5920     2.1840    -0.7190 
   59.3750    67.3100     8.8510     7.9390     9.6520    23.7280     2.1660    -2.1810 
   59.5000    69.8720     8.3500     7.4520     9.4070    23.9580     2.1590    -2.9240 
   59.6250    76.7440     7.6680     6.8360     7.8870    24.3540     2.1650    -2.9530 
   59.7500    83.4910     7.0890     6.2720     6.2640    24.7730     2.1780    -2.6020 
   59.8750    85.2880     6.7410     5.8420     5.3110    25.0620     2.1940    -1.9890 
   60.0000    82.3480     6.6110     5.5720     4.9110    25.2240     2.2110    -1.2320 
   60.1250    79.1440     6.6060     5.4670     4.8680    25.3300     2.2270    -0.3280 
   60.2500    79.0820     6.6140     5.4510     4.8750    25.3950     2.2390     0.6410 
   60.3750    81.4430     6.6310     5.4790     4.8800    25.4280     2.2460     1.4780 
   60.5000    84.3010     6.7110     5.5320     4.7460    25.4440     2.2460     2.0510 
   60.6250    85.9880     6.9130     5.6240     5.0240    25.4960     2.2390     2.0590 
   60.7500    86.2730     7.1650     5.7280     5.6830    25.4880     2.2240     1.6880 
   60.8750    85.3080     7.3660     5.7950     6.0480    25.2790     2.2050     0.9950 
   61.0000    83.7300     7.4610     5.8000     6.3790    24.9320     2.1860     0.1040 
   61.1250    83.1200     7.5040     5.7750     7.5460    24.6910     2.1750    -0.9050 
   61.2500    83.7290     7.6420     5.8010     7.3350    24.5460     2.1830    -1.8130 
   61.3750    81.8550     7.9650     5.9410     6.1280    24.5490     2.2100    -2.6360 
   61.5000    74.9480     8.4490     6.2260     6.9570    24.7290     2.2440    -3.6360 
   61.6250    67.2180     8.9040     6.6300    10.7170    24.9640     2.2610    -4.7640 
   61.7500    65.5200     9.1020     7.0190    12.0950    25.0200     2.2490    -5.8990 
   61.8750    69.0450     8.9780     7.2770    10.3210    24.8880     2.2120    -6.8020 
   62.0000    72.9280     8.6800     7.3610     8.7240    24.7720     2.1690    -7.3550 
   62.1250    74.7430     8.5690     7.3480     8.0960    24.7850     2.1410    -7.6410 
   62.2500    75.6060     8.8580     7.4170     7.4560    24.8620     2.1350    -8.0100 
   62.3750    75.4230     9.4850     7.6450     7.5730    24.9090     2.1500    -8.3990 
   62.5000    73.6600    10.1350     7.9680     9.2400    24.8960     2.1880    -8.4570 
   62.6250    72.2830    10.2960     8.1250    12.6100    24.9410     2.2440    -7.9110 
   62.7500    74.8360     9.8240     7.9080    14.5340    25.0350     2.2990    -7.0130 
   62.8750    81.0180     8.8770     7.3290    10.5450    25.1460     2.3320    -6.0650 
   63.0000    87.7180     7.8090     6.5950     6.4880    25.3120     2.3360    -5.2000 
   63.1250    91.3250     7.0190     5.9710     5.1830    25.4560     2.3170    -4.4100 
   63.2500    90.5790     6.6020     5.5720     4.8610    25.5720     2.2970    -3.6230 
   63.3750    85.9630     6.4860     5.4080     4.8070    25.5800     2.2910    -2.8960 
   63.5000    82.3960     6.5150     5.4110     4.9010    25.4670     2.2980    -2.3200 
   63.6250    84.8670     6.5050     5.4580     4.9550    25.3940     2.3070    -1.9710 
   63.7500    89.1460     6.3810     5.4550     4.9430    25.4350     2.3110    -1.8030 
   63.8750    90.6910     6.1800     5.4010     4.8870    25.4640     2.3090    -1.7460 
   64.0000    90.6360     5.9920     5.3380     4.7730    25.4980     2.3030    -1.8100 
   64.1250    92.0340     5.9280     5.3180     4.7370    25.5890     2.2980    -2.0100 
   64.2500    93.4030     5.9900     5.3400     5.0640    25.5950     2.2950    -2.3000 
   64.3750    92.3660     6.1470     5.3870     5.9530    25.4670     2.2920    -2.5650 
   64.5000    91.0000     6.3690     5.4460     6.0010    25.3750     2.2860    -2.8300 
   64.6250    92.5050     6.6760     5.5560     5.4450    25.4030     2.2740    -3.2210 
   64.7500    93.5300     7.0940     5.7530     5.3180    25.3650     2.2580    -3.7200 
   64.8750    89.8900     7.6170     6.0490     5.6410    25.0670     2.2400    -4.3800 
   65.0000    82.6910     8.1720     6.4090     6.3470    24.6710     2.2240    -5.2000 
   65.1250    79.3190     8.6260     6.7600     7.9090    24.4720     2.2150    -6.1870 
   65.2500    80.1400     8.9660     7.0710     8.9100    24.3340     2.2130    -7.1200 
   65.3750    80.4960     9.3170     7.4030     8.9790    24.2810     2.2230    -8.0540 
   65.5000    78.1900     9.8840     7.8590     8.2450    24.3140     2.2450    -9.0470 
   65.6250    72.5950    10.8650     8.5620     9.2380    24.4510     2.2800   -10.0930 
   65.7500    67.6270    12.0720     9.4490    11.7990    24.5960     2.3150   -11.0750 
   65.8750    65.5390    13.1280    10.3220    17.5890    24.7050     2.3360   -12.0420 
   66.0000    65.6740    13.6120    10.8450    20.2470    24.7380     2.3300   -12.9750 
   66.1250    65.6670    13.2270    10.6740    14.4940    24.6950     2.2910   -13.8090 
