~V
VERS. 2.00: Ver 2.00
~W
STRT.M 50.0000:
STOP.M 280.0000:
STEP.M 0.1250:
NULL. -999.2500:
UWI. F10023:
~C
DEPT.M :
SP.MV :
DEN.GM/CC :
GR.API :
CALI.CM :
RXO.OHMM :
RI. :
RML.OHMM :
~A
# ...
  140.0000   -26.5900     2.0730    76.1320    22.8070    10.4980     9.4280    10.2290 
  140.1250   -26.6550     2.0660    77.7610    22.7670    11.1270     9.8340    10.6490 
  140.2500   -26.6690     2.0710    78.5830    22.7910    11.6300    10.1680    10.9500 
  140.3750   -26.6510     2.0810    78.9520    22.9130    11.7680    10.3730    11.0910 
  140.5000   -26.6080     2.0850    78.4980    23.1970    11.5520    10.4440    11.0830 
  140.6250   -26.5640     2.0790    75.9780    23.6330    11.2400    10.4040    10.9750 
  140.7500   -26.5410     2.0750    74.2190    24.0110    11.0940    10.3290    10.8510 
  140.8750   -26.5410     2.0810    75.9700    24.2330    11.0670    10.2620    10.7580 
  141.0000   -26.5470     2.0940    78.6530    24.4430    11.0400    10.2140    10.7150 
  141.1250   -26.5610     2.1000    76.6000    24.6290    11.0090    10.1700    10.7250 
  141.2500   -26.5660     2.0950    72.8450    24.6150    11.0010    10.1280    10.7630 
  141.3750   -26.5520     2.0890    71.4430    24.3150    11.0180    10.0960    10.8190 
  141.5000   -26.4800     2.0930    72.3940    24.0200    10.9940    10.0790    10.8720 
  141.6250   -26.3410     2.1140    72.8680    23.9370    10.9900    10.0520    10.8590 
  141.7500   -26.1230     2.1390    72.3660    23.9560    11.1780     9.9570    10.7150 
  141.8750   -25.8180     2.1570    73.2150    23.9750    11.4920     9.7400    10.4020 
  142.0000   -25.4430     2.1620    77.5250    23.9620    11.6790     9.4030     9.9700 
  142.1250   -24.9640     2.1550    82.7680    23.8940    11.2780     9.0920     9.6330 
  142.2500   -24.4550     2.1450    86.1560    23.7780    10.5190     9.0430     9.6860 
  142.3750   -23.9320     2.1430    87.0180    23.6830    10.1670     9.4820    10.3780 
  142.5000   -23.4000     2.1640    85.8570    23.6300    11.4180    10.5690    11.8250 
  142.6250   -22.8410     2.2260    82.9130    23.6410    16.4340    12.3360    13.8980 
  142.7500   -22.3050     2.3080    80.3490    23.7300    24.9120    14.0930    15.6490 
  142.8750   -21.8180     2.3760    80.6490    23.8960    30.8350    14.8170    15.9020 
  143.0000   -21.3810     2.4000    83.0100    24.0450    27.4590    13.8180    14.2030 
  143.1250   -21.0270     2.3720    85.8360    24.1070    17.1200    11.5450    11.5270 
  143.2500   -20.7000     2.3240    89.6510    24.1350    10.0320     9.3360     9.2780 
  143.3750   -20.3920     2.2800    94.7080    24.1520     7.4450     7.7010     7.8150 
  143.5000   -20.1360     2.2580    97.5940    24.1590     6.8240     6.7190     7.0870 
  143.6250   -19.9550     2.2690    98.6220    24.1610     6.6770     6.3690     6.9810 
  143.7500   -19.8280     2.2970    99.3040    24.1630     6.6620     6.3750     7.1630 
  143.8750   -19.7430     2.3240   101.2420    24.1580     6.8690     6.5470     7.4080 
  144.0000   -19.6600     2.3400   104.0600    24.1490     7.1790     6.6940     7.5400 
  144.1250   -19.5980     2.3430   106.8470    24.1490     7.1870     6.6840     7.4540 
  144.2500   -19.5630     2.3300   108.4040    24.1560     6.9630     6.5740     7.2670 
  144.3750   -19.5410     2.3070   108.2560    24.1660     6.6520     6.4700     7.1220 
  144.5000   -19.5020     2.2890   107.6720    24.1710     6.3630     6.4660     7.1280 
  144.6250   -19.4480     2.2880   107.7220    24.1710     6.3600     6.6250     7.3270 
  144.7500   -19.3830     2.2930   107.2190    24.1460     6.5940     6.8700     7.5990 
  144.8750   -19.2940     2.2950   105.8670    24.0700     6.9300     7.0830     7.8120 
  145.0000   -19.2150     2.2950   102.7380    23.9730     6.8170     7.1460     7.8510 
  145.1250   -19.1390     2.2930   101.2340    23.9600     6.2920     6.9990     7.6780 
  145.2500   -19.0660     2.2870   103.6160    24.0420     5.9160     6.7450     7.4210 
  145.3750   -19.0020     2.2780   107.2410    24.0950     6.0300     6.4850     7.1880 
  145.5000   -18.9770     2.2690   107.0670    24.1070     6.3420     6.3300     7.0860 
  145.6250   -18.9890     2.2630   105.3130    24.1050     6.6350     6.4170     7.2650 
  145.7500   -19.0320     2.2520   105.2340    24.0860     6.7780     6.7720     7.7560 
  145.8750   -19.0790     2.2300   106.4990    24.0390     6.9220     7.4110     8.5530 
  146.0000   -19.0870     2.2000   106.5360    23.9750     7.5580     8.2810     9.5520 
  146.1250   -19.0610     2.1750   103.0670    23.8930     9.2830     9.1440    10.4080 
  146.2500   -19.0200     2.1670    98.7140    23.7970    10.6660     9.6140    10.7060 
  146.3750   -18.9880     2.1800    96.3360    23.7850    10.5030     9.4500    10.2710 
  146.5000   -18.9650     2.2080    97.1620    23.9160     9.1110     8.7320     9.3170 
  146.6250   -18.8690     2.2370   101.4480    24.0700     7.8300     7.8350     8.3520 
  146.7500   -18.6540     2.2570   104.3660    24.1280     7.2200     7.1910     7.8010 
  146.8750   -18.3660     2.2600   103.8580    24.0720     7.3000     7.0150     7.8700 
  147.0000   -18.0680     2.2380    99.9990    23.9120     7.9900     7.4400     8.6640 
  147.1250   -17.7770     2.1920    95.5930    23.6880     9.3430     8.7170    10.3820 
  147.2500   -17.5250     2.1370    91.9220    23.5960    11.7250    10.8130    12.8770 
  147.3750   -17.3060     2.0890    87.3920    23.7840    15.0070    13.6450    15.9440 
  147.5000   -17.0980     2.0580    82.5570    24.1480    18.0860    16.8420    19.0950 
  147.6250   -16.9610     2.0510    79.8360    24.3230    19.7540    19.5940    21.4540 
  147.7500   -16.9210     2.0590    78.5500    24.2390    19.4710    21.3210    22.6620 
  147.8750   -17.0010     2.0800    77.1050    23.9320    18.0990    21.9200    22.8010 
  148.0000   -17.2080     2.1100    75.2450    23.6470    16.4390    21.6160    22.1770 
  148.1250   -17.4980     2.1350    75.7350    23.5120    15.2850    20.6110    21.0020 
  148.2500   -17.7330     2.1410    78.4930    23.6730    14.6650    19.2860    19.6160 
  148.3750   -17.8940     2.1300    81.3480    23.9610    14.2170    17.9480    18.3130 
  148.5000   -17.9890     2.1140    81.4380    24.0970    13.5110    16.9090    17.3970 
  148.6250   -18.0510     2.1050    78.7960    23.9820    12.7890    16.4930    17.2060 
  148.7500   -18.1230     2.1040    78.1520    23.7400    13.1380    16.7130    17.7100 
  148.8750   -18.1720     2.1050    79.8550    23.4560    14.9110    17.5370    18.8210 
  149.0000   -18.1410     2.1010    79.8890    23.1400    17.0490    18.8180    20.3230 
  149.1250   -18.0380     2.0820    75.4280    22.8890    17.8920    20.3310    21.9210 
  149.2500   -17.9070     2.0580    73.6250    22.8110    17.9120    21.7910    23.3590 
  149.3750   -17.7800     2.0440    75.8720    22.8590    17.9450    23.0020    24.5220 
  149.5000   -17.7270     2.0460    77.4210    22.9770    19.2280    23.8100    25.3400 
  149.6250   -17.7330     2.0540    76.2500    23.2090    24.0910    24.0460    25.6420 
  149.7500   -17.7210     2.0500    76.4360    23.5380    30.3500    23.7850    25.4220 
  149.8750   -17.6580     2.0390    77.8160    23.7770    30.2490    23.1270    24.7550 
  150.0000   -17.5310     2.0370    76.0690    23.8060    23.2900    22.3080    23.9040 
  150.1250   -17.3800     2.0480    72.0560    24.1180    16.8090    21.6920    23.3030 
  150.2500   -17.2970     2.0630    72.8120    24.6970    14.9360    21.4860    23.1950 
  150.3750   -17.2720     2.0800    77.9980    25.2090    15.7600    21.7580    23.6100 
  150.5000   -17.2570     2.1050    82.0750    25.4710    16.9230    22.4430    24.3910 
  150.6250   -17.2390     2.1560    80.4220    25.3790    17.3800    23.3230    25.2050 
  150.7500   -17.1960     2.2170    77.7250    24.9010    18.1410    24.0450    25.7130 
  150.8750   -17.1490     2.2520    76.3740    24.1050    19.3940    24.4010    25.7640 
  151.0000   -17.1650     2.2330    76.1140    23.3650    20.2050    24.3420    25.4050 
  151.1250   -17.2390     2.1690    76.8960    22.9060    19.1700    23.9570    24.8290 
