~V
VERS. 2.00: Ver 2.00
~W
STRT.M 50.0000:
STOP.M 279.0000:
STEP.M 0.1250:
NULL. -999.2500:
UWI. F10075:
~C
DEPT.M :
GR.API :
RML.OHMM :
RI. :
RXO.OHMM :
CALI.CM :
DEN.GM/CC :
SP.MV :
~A
# ...
  218.7500    80.4070     7.8400     6.6070     7.7280    24.0930     2.3960    -3.9360 
  218.8750    76.7580     7.7000     6.3520     7.2460    24.4020     2.3810    -3.9730 
  219.0000    76.4970     7.5360     6.0960     7.0750    24.6860     2.3690    -4.0630 
  219.1250    79.6110     7.5200     5.9880     6.9640    24.7900     2.3600    -4.1470 
  219.2500    82.4440     7.8020     6.1210     7.0190    24.8290     2.3550    -4.1710 
  219.3750    84.5650     8.5030     6.5690     7.3260    24.8670     2.3550    -4.1190 
  219.5000    85.1400     9.6970     7.4010     8.9180    24.9170     2.3620    -4.0500 
  219.6250    81.0250    11.4630     8.7560    12.6800    24.9560     2.3750    -4.0350 
  219.7500    74.1450    13.6310    10.5760    16.2810    24.9870     2.3900    -4.0630 
  219.8750    68.4250    16.0720    12.7910    17.2440    24.9990     2.3990    -4.0610 
  220.0000    66.3740    18.5780    15.2100    18.6210    25.0010     2.3910    -4.0090 
  220.1250    67.9330    20.6960    17.4030    24.6450    25.0010     2.3600    -3.9930 
  220.2500    70.1610    22.0480    18.9490    29.0890    25.0010     2.3150    -4.0160 
  220.3750    70.8090    22.4370    19.6210    27.5160    24.9960     2.2720    -4.0500 
  220.5000    69.0820    21.8950    19.4060    23.6040    24.9800     2.2440    -4.0700 
  220.6250    66.5090    20.4900    18.3120    20.9280    24.9390     2.2400    -4.0780 
  220.7500    66.4760    18.6010    16.6800    18.8290    24.8910     2.2520    -4.0830 
  220.8750    69.9890    16.4550    14.7500    18.4990    24.8220     2.2730    -4.0930 
  221.0000    75.1260    14.3090    12.8050    18.1020    24.7420     2.2990    -4.1300 
  221.1250    77.8870    12.6450    11.2650    15.1000    24.6940     2.3260    -4.2040 
  221.2500    76.0290    11.8660    10.3960    11.4250    24.6780     2.3530    -4.3180 
  221.3750    72.1260    12.3620    10.4380     9.8910    24.6750     2.3760    -4.4680 
  221.5000    70.0350    14.4930    11.6630    11.3940    24.6550     2.3890    -4.6610 
  221.6250    70.2200    18.8930    14.7230    18.3280    24.5960     2.3870    -4.8960 
  221.7500    70.0780    25.1510    19.6120    31.2220    24.5180     2.3720    -5.1340 
  221.8750    67.4390    32.3620    25.8970    43.6940    24.4710     2.3470    -5.3620 
  222.0000    62.1050    38.7440    32.1520    49.0610    24.4380     2.3150    -5.5470 
  222.1250    58.1400    42.1270    36.2180    45.2070    24.4240     2.2830    -5.6730 
  222.2500    58.5460    43.2000    38.1390    41.8060    24.4240     2.2550    -5.7580 
  222.3750    62.3010    43.4700    38.9880    41.5580    24.4420     2.2340    -5.8390 
  222.5000    65.2460    44.1000    39.7990    43.9600    24.4960     2.2160    -5.9500 
  222.6250    65.5160    45.3660    41.0040    48.1520    24.5910     2.1980    -6.0190 
  222.7500    65.5390    46.5090    42.2010    51.0980    24.7220     2.1800    -6.0140 
  222.8750    65.4750    46.6600    42.7400    52.0300    24.8400     2.1630    -6.0080 
  223.0000    65.2150    45.1570    41.9960    50.8850    24.9210     2.1550    -6.0370 
  223.1250    64.0910    41.7370    39.5200    48.3810    24.9610     2.1620    -6.0200 
  223.2500    62.8020    37.4150    36.0190    44.0320    24.9860     2.1800    -5.9600 
  223.3750    63.7270    32.9560    32.1380    36.5500    24.9840     2.2040    -5.8590 
  223.5000    66.4290    28.8290    28.3470    28.5800    24.9580     2.2270    -5.6740 
  223.6250    66.1380    25.2110    24.8750    23.9030    24.9410     2.2430    -5.4410 
  223.7500    62.9410    21.9030    21.6360    22.0580    24.9220     2.2570    -5.2720 
  223.8750    62.3110    18.8140    18.5920    20.1940    24.8780     2.2740    -5.1420 
  224.0000    66.4690    15.9640    15.7930    16.7910    24.7920     2.2980    -5.0170 
  224.1250    69.5150    13.5510    13.4460    12.9660    24.7160     2.3280    -4.9530 
  224.2500    70.5580    11.7020    11.6430    10.7940    24.6620     2.3570    -4.9460 
  224.3750    71.7650    10.5760    10.4990     9.8440    24.6380     2.3770    -4.9700 
  224.5000    73.3460    10.3240    10.1140     9.8960    24.6060     2.3840    -5.0370 
  224.6250    74.4790    11.3030    10.7570    10.2100    24.5820     2.3720    -5.1980 
  224.7500    76.0250    13.5050    12.4460    11.5100    24.6740     2.3450    -5.4060 
  224.8750    76.2320    16.9460    15.2990    16.0080    24.8200     2.3110    -5.6390 
  225.0000    71.7570    21.3210    19.2250    25.4030    24.8960     2.2810    -5.8890 
  225.1250    65.2180    25.7220    23.5840    32.8850    24.8850     2.2670    -6.1330 
  225.2500    63.3200    28.9560    27.0830    34.4330    24.8500     2.2650    -6.3790 
  225.3750    65.4700    30.4810    28.9490    30.1140    24.7950     2.2680    -6.6060 
  225.5000    66.1080    30.7170    29.3600    23.8470    24.7150     2.2670    -6.7620 
  225.6250    63.3340    30.7670    29.2270    23.1680    24.6610     2.2630    -6.8020 
  225.7500    61.8280    31.4540    29.4400    26.1320    24.6190     2.2630    -6.7390 
  225.8750    63.1630    32.8210    30.1670    29.8720    24.5880     2.2720    -6.5840 
  226.0000    63.9630    34.4580    31.1690    32.6500    24.4950     2.2860    -6.3590 
  226.1250    62.3280    35.6400    31.9190    36.1220    24.2920     2.2870    -6.1060 
  226.2500    60.7110    35.9820    32.0740    37.8700    24.2310     2.2690    -5.8460 
  226.3750    60.8400    35.5260    31.6280    36.0160    24.4640     2.2370    -5.6060 
  226.5000    61.9920    34.6020    30.8310    33.5140    24.7670     2.2030    -5.4190 
  226.6250    63.7840    33.5750    30.0200    32.3390    24.8730     2.1850    -5.2680 
  226.7500    65.6470    32.6870    29.4190    32.8230    24.8680     2.1850    -5.1170 
  226.8750    65.8880    31.9970    29.0950    33.8280    24.8000     2.1950    -4.9710 
  227.0000    64.7310    31.4750    29.0080    33.8920    24.6390     2.2070    -4.8490 
  227.1250    64.6610    31.0300    29.0420    33.0220    24.4450     2.2120    -4.7380 
  227.2500    65.2210    30.4940    29.0000    32.0550    24.3790     2.2120    -4.6170 
  227.3750    64.4770    29.6970    28.7090    31.6870    24.4490     2.2110    -4.4910 
  227.5000    63.1240    28.4860    28.0020    31.7730    24.6000     2.2150    -4.3520 
  227.6250    64.9500    26.7050    26.6720    30.7070    24.8150     2.2260    -4.2070 
  227.7500    68.2490    24.5220    24.8410    28.4560    24.9190     2.2400    -4.1030 
  227.8750    69.3960    22.1430    22.6790    25.3530    24.9380     2.2520    -4.0400 
  228.0000    67.9790    19.8030    20.4090    21.6720    24.9270     2.2630    -3.9960 
  228.1250    67.7230    17.7270    18.2460    18.6510    24.8960     2.2760    -3.9560 
  228.2500    70.8720    15.9330    16.2820    16.2070    24.8270     2.2940    -3.9290 
  228.3750    75.5720    14.3980    14.5610    14.6940    24.7240     2.3180    -3.9170 
  228.5000    79.0940    13.1170    13.1310    13.9060    24.6160     2.3430    -3.8820 
  228.6250    79.9320    12.2300    12.1420    12.8240    24.4320     2.3600    -3.8350 
  228.7500    78.5810    11.8610    11.6630    11.4240    24.1870     2.3630    -3.7980 
  228.8750    77.6980    12.2040    11.8270    10.9920    23.9800     2.3500    -3.7410 
  229.0000    77.5720    13.4310    12.7720    11.9620    24.0510     2.3230    -3.6670 
  229.1250    75.7630    15.8150    14.8070    14.9810    24.3780     2.2890    -3.5700 
  229.2500    71.1050    19.0870    17.8080    19.8180    24.5960     2.2620    -3.4520 
  229.3750    64.8790    22.8490    21.5100    26.6700    24.6270     2.2500    -3.3400 
  229.5000    61.0530    26.4170    25.2630    33.0110    24.5200     2.2520    -3.2710 
  229.6250    61.2410    28.8250    27.9840    34.4620    24.4050     2.2600    -3.2610 
  229.7500    63.0890    29.9530    29.3420    32.8140    24.3950     2.2610    -3.3040 
  229.8750    65.2830    30.1510    29.5880    31.5280    24.6230     2.2520    -3.4190 
