~V
VERS. 2.00: Ver 2.00
~W
STRT.M 60.0000:
STOP.M 217.0000:
STEP.M 0.1250:
NULL. -999.2500:
UWI. F10010:
~C
DEPT.M :
DEN.GM/CC :
GR.API :
RML.OHMM :
RI. :
RXO.OHMM :
CALI.CM :
SP.MV :
~A
# ...
  105.0000     2.3090    88.6820    10.0760     9.0760     8.9190    23.6060   -28.5900 
  105.1250     2.2930    86.4220    10.3430     9.1790     9.0080    23.6420   -28.4580 
  105.2500     2.2800    84.9210    10.4500     9.1930     9.3540    23.6960   -28.3330 
  105.3750     2.2750    86.7810    10.5280     9.2010     9.7400    23.7320   -28.2190 
  105.5000     2.2760    92.5070    10.8830     9.4080     9.4890    23.7470   -28.1200 
  105.6250     2.2710    96.6940    12.1520    10.2170    10.1200    23.7080   -28.0450 
  105.7500     2.2510    92.4230    14.7900    11.9510    14.3040    23.6960   -28.0040 
  105.8750     2.2180    82.1170    19.2340    15.0760    25.2030    23.7520   -28.0070 
  106.0000     2.1820    73.2970    25.6810    20.0610    41.2670    23.8000   -28.0560 
  106.1250     2.1560    69.4410    33.9690    27.3670    48.9710    23.7970   -28.1360 
  106.2500     2.1420    66.1770    42.3660    35.6730    51.5630    23.7710   -28.2110 
  106.3750     2.1380    62.5590    48.8040    42.7670    52.6560    23.7540   -28.2590 
  106.5000     2.1370    60.7280    51.6190    46.4410    51.7950    23.7270   -28.2660 
  106.6250     2.1360    62.2280    50.2860    45.8140    50.9610    23.7010   -28.2270 
  106.7500     2.1330    64.8850    46.9560    43.0290    44.8400    23.7020   -28.1630 
  106.8750     2.1270    67.0500    43.1440    39.5550    36.0350    23.6860   -28.0960 
  107.0000     2.1210    67.8680    40.1070    36.5480    31.0190    23.5060   -28.0420 
  107.1250     2.1180    67.8200    39.1160    35.1110    31.1050    23.2280   -28.0130 
  107.2500     2.1200    68.5990    40.3840    35.5180    33.2540    22.9160   -28.0010 
  107.3750     2.1250    71.0220    44.0560    37.9910    37.2360    22.7020   -27.9980 
  107.5000     2.1280    73.0200    50.0050    42.6060    46.0610    22.5930   -28.0030 
  107.6250     2.1260    70.8840    57.7150    49.2180    61.0940    22.5650   -28.0210 
  107.7500     2.1190    67.0580    65.3590    56.2240    70.0210    22.5420   -28.0500 
  107.8750     2.1100    65.8110    71.1880    61.9550    69.3220    22.4780   -28.0790 
  108.0000     2.1030    66.8740    73.9160    65.0660    64.7360    22.3900   -28.0880 
  108.1250     2.1010    67.2890    73.0180    64.8760    59.0560    22.3450   -28.0560 
  108.2500     2.1030    67.8920    70.3130    62.8730    53.6780    22.2600   -27.9920 
  108.3750     2.1080    69.2190    67.2040    60.2760    50.3230    22.0660   -27.9200 
  108.5000     2.1140    69.5410    64.6280    58.0020    49.1400    21.7280   -27.8330 
  108.6250     2.1190    67.4750    63.1400    56.6210    48.5240    21.3190   -27.7500 
  108.7500     2.1190    65.9810    62.5570    56.0560    47.7420    21.1050   -27.6640 
  108.8750     2.1160    65.6430    62.6020    56.1150    47.7150    21.0260   -27.5720 
  109.0000     2.1100    64.3960    62.8590    56.4530    47.4760    20.9580   -27.4670 
  109.1250     2.1070    61.4640    62.8000    56.6370    45.3600    20.8090   -27.3420 
  109.2500     2.1090    60.3400    62.1700    56.3710    43.5920    20.6270   -27.2020 
  109.3750     2.1140    62.8410    61.0020    55.6260    43.5640    20.4380   -27.0580 
  109.5000     2.1220    67.1320    59.6270    54.6320    43.6800    20.2240   -26.7600 
  109.6250     2.1290    68.7040    58.6410    53.7990    41.9580    19.9850   -26.6920 
  109.7500     2.1340    68.1310    58.3980    53.5040    41.1380    19.8470   -26.6740 
  109.8750     2.1380    67.3100    58.9950    53.9470    43.5420    19.8560   -26.6550 
  110.0000     2.1420    67.3270    60.2700    55.0990    48.7240    20.0660   -26.6120 
  110.1250     2.1450    68.9010    61.8050    56.7320    53.7050    20.5960   -26.6390 
  110.2500     2.1470    69.5500    63.0330    58.2920    57.3920    21.2410   -26.7270 
  110.3750     2.1440    67.6950    63.6350    59.4130    60.2310    21.8320   -26.8340 
  110.5000     2.1370    63.1870    63.5080    59.9120    61.6920    22.2640   -26.9160 
  110.6250     2.1300    60.2220    62.7010    59.7000    61.3960    22.5540   -26.9610 
  110.7500     2.1250    60.7680    61.6020    59.1190    60.8230    22.7780   -26.9580 
  110.8750     2.1230    62.3760    60.4690    58.4220    59.7370    22.9100   -26.9500 
  111.0000     2.1240    62.2600    59.4840    57.7780    57.6230    22.9480   -27.0060 
  111.1250     2.1260    59.9710    58.6830    57.2730    55.5440    22.9170   -27.0560 
  111.2500     2.1270    58.3590    57.8010    56.7120    54.7780    22.9030   -27.0450 
  111.3750     2.1270    59.2890    56.5130    55.8110    55.7620    22.8850   -26.9980 
  111.5000     2.1280    64.0660    54.5730    54.3510    56.9700    22.8300   -26.9500 
  111.6250     2.1310    71.2930    51.9200    52.2110    53.5920    22.7170   -26.9070 
  111.7500     2.1370    76.2020    49.1200    49.8370    46.7950    22.6260   -26.8850 
  111.8750     2.1430    77.5730    46.8260    47.7980    41.2490    22.5250   -26.8820 
  112.0000     2.1500    76.6220    45.6470    46.6740    38.8480    22.3520   -26.8820 
  112.1250     2.1640    74.1730    46.2300    47.1720    39.9460    22.0350   -26.8460 
  112.2500     2.1920    70.8530    48.3260    49.2080    44.4240    21.6570   -26.8530 
  112.3750     2.2370    67.0130    51.5170    52.4840    52.1600    21.3460   -26.9340 
  112.5000     2.2920    63.6160    55.0560    56.3020    58.4710    21.1070   -27.0150 
  112.6250     2.3380    61.2850    57.9240    59.5710    56.3090    21.0940   -27.0600 
  112.7500     2.3600    58.9850    59.7390    61.6930    51.6320    21.2610   -27.1020 
  112.8750     2.3560    56.1120    60.7250    62.7120    49.3370    21.4580   -27.1450 
  113.0000     2.3340    54.0850    61.5320    63.1970    50.6130    21.5580   -27.1840 
  113.1250     2.3080    55.7210    63.0800    64.1130    55.4520    21.5260   -27.2630 
  113.2500     2.2920    59.0250    65.7840    66.0910    61.4820    21.3800   -27.3270 
  113.3750     2.2910    60.7500    69.8190    69.3790    67.5110    21.0580   -27.3400 
  113.5000     2.3050    60.9860    75.2620    74.0890    72.9790    20.6300   -27.3970 
  113.6250     2.3250    60.3660    82.3480    80.4050    75.0030    20.2470   -27.5200 
  113.7500     2.3320    59.3830    90.5900    87.7980    75.9540    19.8280   -27.6490 
  113.8750     2.3140    58.8150    99.3700    95.7680    83.9430    19.4990   -27.7560 
  114.0000     2.2720    60.4290   107.6480   103.4740   103.1060    19.3360   -27.8230 
  114.1250     2.2190    64.0480   113.7270   109.4200   116.7250    19.2910   -27.8440 
  114.2500     2.1780    65.8200   116.8150   112.7240   111.1290    19.1100   -27.8280 
  114.3750     2.1620    64.2230   116.3670   112.7400    98.1670    18.7720   -27.8120 
  114.5000     2.1800    61.2510   112.3590   109.3450    85.7680    18.4250   -27.7720 
  114.6250     2.2350    59.5460   105.3590   102.8990    77.6210    18.0390   -27.6700 
  114.7500     2.3010    57.6300    97.6810    95.5350    73.5480    17.4400   -27.5090 
  114.8750     2.3590    54.6720    91.1630    88.9670    68.9700    16.8700   -27.3300 
  115.0000     2.3980    52.2970    87.1610    84.5470    63.4380    16.5730   -27.1670 
  115.1250     2.4260    52.3410    85.9030    83.1050    61.5990    16.5030   -27.0520 
  115.2500     2.4590    54.1750    85.1770    83.1780    69.1680    16.5520   -27.0290 
  115.3750     2.5000    55.6210    84.5540    82.9680    90.8280    16.7900   -27.0700 
  115.5000     2.5360    55.2390    83.5150    80.7090   109.0950    17.2010   -27.1230 
  115.6250     2.5380    54.8410    76.7370    75.2960    87.2690    17.6110   -27.2170 
  115.7500     2.5030    56.1970    68.5360    68.3000    61.5410    18.2370   -27.4240 
  115.8750     2.4390    58.0930    60.9850    61.4460    50.7910    19.2330   -27.7190 
  116.0000     2.3660    59.0390    55.3770    56.0310    49.7020    20.4670   -28.0680 
  116.1250     2.3070    60.8020    52.3710    52.8310    49.8590    21.3010   -28.4820 
