~V
VERS. 2.00: Ver 2.00
~W
STRT.M 55.0000:
STOP.M 279.0000:
STEP.M 0.1250:
NULL. -999.2500:
UWI. F10072:
~C
DEPT.M :
GR.API :
RML.OHMM :
RI. :
RXO.OHMM :
CALI.CM :
DEN.GM/CC :
SP.MV :
~A
   55.0000    42.9550    13.9370     1.4070     2.7440    25.5890     1.9960   109.4190 
   55.1250    42.9620    13.9370     1.4100     2.6670    25.5920     2.0040   106.0090 
   55.2500    43.3540    13.9540     1.4270     2.3760    25.6120     2.0060   101.9000 
   55.3750    43.9890    13.9260     1.4470     2.3820    25.6320     2.0050    97.2020 
   55.5000    44.1790    13.6900     1.4580     2.5000    25.6410     2.0060    92.2180 
   55.6250    44.9410    13.1990     1.4460     2.5270    25.6420     2.0170    87.4130 
   55.7500    45.2980    12.6260     1.4180     2.4380    25.6420     2.0370    82.8260 
   55.8750    43.6220    12.0450     1.3800     2.4960    25.6420     2.0570    78.7120 
   56.0000    41.1620    11.3350     1.3310     2.8160    25.6420     2.0690    75.2260 
   56.1250    40.9930    10.0770     1.2340     3.5130    25.6420     2.0760    72.2950 
   56.2500    42.4400     8.0620     1.0310     4.8070    25.6380     2.0970    69.7100 
   56.3750    43.5290     5.4740     0.7260     6.6130    25.6220     2.1550    67.2970 
   56.5000    43.5000     3.0040     0.4190     7.8270    25.5940     2.2610    64.7390 
   56.6250    41.7250     1.4260     0.2210     5.9800    25.5670     2.4010    61.2880 
   56.7500    39.9720     0.6060     0.1150     2.9070    25.4830     2.5240    56.7490 
   56.8750    40.2730     0.3630     0.0830     1.7040    25.2260     2.5850    51.0170 
   57.0000    43.1230     0.6420     0.1290     1.8400    24.7250     2.5580    43.9660 
   57.1250    45.9530     1.5850     0.3290     3.2440    24.2790     2.4450    35.5130 
   57.2500    46.6910     3.0800     0.7790     5.4160    24.2990     2.3050    26.5100 
   57.3750    47.9330     4.9170     1.6170     6.6760    24.9330     2.1820    17.4510 
   57.5000    51.4280     6.6790     2.8870     6.7220    26.0630     2.1020     8.8460 
   57.6250    54.0030     7.7130     4.3490     6.6030    26.5490     2.0710     1.4860 
   57.7500    54.8750     7.9850     5.6040     6.8450    25.6150     2.0670    -4.5680 
   57.8750    57.4000     7.9190     6.5740     7.4760    23.9520     2.0720    -9.1670 
   58.0000    61.8620     7.9670     7.3340     8.6210    22.8410     2.0790   -12.2830 
   58.1250    63.9270     8.2860     7.8970     9.4450    22.4840     2.0880   -13.8290 
   58.2500    63.5650     8.6980     8.2770    10.3150    22.3240     2.1000   -14.5650 
   58.3750    63.3180     9.0520     8.4790    11.4760    22.1090     2.1160   -14.9040 
   58.5000    63.8110     9.2530     8.5300    11.0200    21.8900     2.1300   -15.1430 
   58.6250    64.3520     9.2760     8.4640    10.1740    21.7720     2.1370   -15.3960 
   58.7500    65.4680     9.2330     8.3470     9.5660    21.7380     2.1360   -15.6600 
   58.8750    67.6990     9.2030     8.2100     9.1940    21.8340     2.1310   -16.0540 
   59.0000    70.0550     9.2200     8.0730     9.0750    22.2040     2.1270   -16.4720 
   59.1250    71.8270     9.2520     7.9410     9.1570    22.7830     2.1300   -16.9090 
   59.2500    73.5960     9.2400     7.8050     9.4600    23.2200     2.1370   -17.3790 
   59.3750    76.2630     9.1770     7.6680     9.6900    23.3240     2.1470   -17.8640 
   59.5000    77.3570     9.1230     7.5690     9.6900    23.2570     2.1580   -18.3790 
   59.6250    74.4500     9.2280     7.6110     9.5790    23.1590     2.1710   -18.8510 
   59.7500    71.5080     9.5760     7.8430     9.4660    23.0770     2.1830   -19.2180 
   59.8750    71.3920    10.1770     8.2920     9.7260    23.0720     2.1920   -19.4850 
   60.0000    72.0620    10.9330     8.9230    10.0320    23.1950     2.1930   -19.8090 
   60.1250    69.4530    11.5940     9.5980    10.1410    23.4130     2.1820   -20.1410 
   60.2500    65.9570    11.9150    10.0700    10.1300    23.5710     2.1650   -20.4640 
   60.3750    64.8230    11.7640    10.1570    10.2820    23.6510     2.1480   -20.7860 
   60.5000    65.2770    11.1830     9.8270    10.5160    23.6640     2.1370   -21.1110 
   60.6250    63.6140    10.3840     9.2000    10.6800    23.6220     2.1290   -21.4960 
   60.7500    61.2120     9.6800     8.5500    10.6290    23.5750     2.1200   -21.9170 
   60.8750    60.4730     9.2250     8.0250    10.4620    23.5340     2.1090   -22.3640 
   61.0000    61.2160     9.0460     7.6900    10.3110    23.5010     2.0960   -22.7430 
   61.1250    61.1270     9.0800     7.5650    10.2670    23.4840     2.0870   -23.0080 
   61.2500    61.1910     9.1570     7.5680    10.2180    23.4770     2.0840   -23.2200 
   61.3750    62.2830     9.1910     7.6410    10.0180    23.4860     2.0840   -23.3960 
   61.5000    63.7900     9.1550     7.7260     9.9770    23.5040     2.0850   -23.5490 
   61.6250    63.5250     9.0660     7.7830    10.0310    23.5120     2.0880   -23.6040 
   61.7500    61.2810     8.9600     7.7990    10.2230    23.5180     2.0950   -23.5920 
   61.8750    59.0230     8.8390     7.7670    10.3100    23.5300     2.1110   -23.5200 
   62.0000    58.5220     8.6970     7.6910    10.3410    23.5620     2.1320   -23.3940 
   62.1250    59.1240     8.5460     7.5890    10.3160    23.6330     2.1460   -23.3070 
   62.2500    58.7720     8.4370     7.5020    10.3860    23.8030     2.1430   -23.2060 
   62.3750    58.1380     8.4270     7.4660    10.3840    24.0160     2.1250   -23.0450 
   62.5000    58.9440     8.5510     7.5160    10.1560    24.1430     2.1030   -22.7830 
   62.6250    59.6210     8.8030     7.6940    10.3270    23.8610     2.0930   -22.4190 
   62.7500    60.4950     9.0690     7.9650    10.3190    23.6330     2.0990   -21.9670 
   62.8750    62.1000     9.2270     8.2420    10.2180    23.5150     2.1140   -21.4100 
   63.0000    63.2970     9.1630     8.3920    10.0760    23.4970     2.1290   -20.7960 
   63.1250    62.3960     8.7760     8.2250     9.8600    23.5060     2.1410   -20.0370 
   63.2500    63.9100     8.1530     7.7400     9.4890    23.5140     2.1570   -19.1810 
   63.3750    71.8280     7.4030     7.0270     8.4660    23.5810     2.1810   -18.2400 
   63.5000    83.3470     6.6650     6.2590     6.6320    23.7840     2.2100   -17.3050 
   63.6250    91.2860     6.1200     5.6450     5.7830    23.9920     2.2330   -16.4810 
   63.7500    94.2860     5.8540     5.2740     5.2500    24.1380     2.2390   -15.8880 
   63.8750    92.9210     5.9100     5.1850     5.0970    24.2070     2.2290   -15.6030 
   64.0000    90.1350     6.2710     5.3700     5.8340    24.1140     2.2110   -15.6060 
   64.1250    87.6520     6.8780     5.8000     7.1510    23.7880     2.1960   -15.9320 
   64.2500    84.6200     7.5510     6.3360     7.8090    23.5590     2.1890   -16.4450 
   64.3750    79.0380     8.1570     6.8800     7.8320    23.5300     2.1890   -17.1500 
   64.5000    71.9830     8.5920     7.3350     8.4150    23.6360     2.1910   -17.9760 
   64.6250    66.8230     8.7590     7.5790     9.0050    23.8170     2.1840   -18.8640 
   64.7500    65.3180     8.7080     7.6070     9.3580    24.0190     2.1600   -19.6850 
   64.8750    66.6940     8.5090     7.4500     9.4100    24.2400     2.1120   -20.3540 
   65.0000    68.4830     8.2660     7.1880     9.0810    24.5240     2.0470   -20.8090 
   65.1250    68.9680     8.1170     6.9360     8.2810    24.4640     1.9900   -21.0240 
   65.2500    70.3580     8.1360     6.7860     7.6360    24.0390     1.9660   -21.0740 
   65.3750    74.5530     8.3400     6.7800     7.7400    23.6840     1.9850   -20.9990 
   65.5000    78.7280     8.6890     6.9220     8.2420    23.6700     2.0370   -20.8290 
   65.6250    78.0890     9.1000     7.1940     8.4570    23.8030     2.0970   -20.6060 
   65.7500    74.7140     9.4600     7.5050     8.4160    23.8250     2.1420   -20.4130 
   65.8750    72.4190     9.7030     7.7810     8.6850    23.6730     2.1620   -20.2450 
   66.0000    72.6460     9.8000     7.9660     9.1750    23.5810     2.1600   -20.1510 
   66.1250    73.0380     9.7630     8.0200     9.5090    23.6290     2.1420   -20.1480 
