~V
VERS. 2.00: Ver 2.00
~W
STRT.M 55.0000:
STOP.M 293.0000:
STEP.M 0.1250:
NULL. -999.2500:
UWI. F10038:
~C
DEPT.M :
SP.MV :
DEN.GM/CC :
GR.API :
RML.OHMM :
RI. :
RXO.OHMM :
CALI.CM :
~A
# ...
  223.7500    -6.1740     2.4570    77.8120     6.8460     6.2780     6.8280    24.8010 
  223.8750    -6.2730     2.4490    75.9770     6.7710     6.1960     6.7670    24.7850 
  224.0000    -6.4120     2.4430    73.8880     6.7300     6.1260     6.7880    24.7680 
  224.1250    -6.5760     2.4360    74.2490     6.7610     6.0980     6.9480    24.7610 
  224.2500    -6.7720     2.4290    76.7560     6.8780     6.1410     7.2220    24.7610 
  224.3750    -7.0040     2.4220    77.6020     7.1020     6.2690     7.5850    24.7670 
  224.5000    -7.2600     2.4160    76.6370     7.4410     6.4560     7.9260    24.7800 
  224.6250    -7.5360     2.4120    77.5570     7.8830     6.7200     8.3810    24.8020 
  224.7500    -7.8120     2.4080    79.3060     8.3390     7.0520     9.0160    24.8230 
  224.8750    -8.0570     2.4060    79.7020     8.7070     7.3690     9.7580    24.8420 
  225.0000    -8.2430     2.4060    78.5070     8.9030     7.5690    10.2890    24.8680 
  225.1250    -8.3650     2.4080    78.3490     8.8820     7.6170    10.4280    24.9090 
  225.2500    -8.4320     2.4100    80.3970     8.7840     7.6130    10.3020    24.9430 
  225.3750    -8.4350     2.4140    82.4060     8.7590     7.6330    10.0570    24.9480 
  225.5000    -8.3950     2.4230    83.5910     8.9110     7.7590    10.0590    24.9260 
  225.6250    -8.3070     2.4420    83.2770     9.2500     8.0150    10.6540    24.8830 
  225.7500    -8.2000     2.4640    81.5150     9.5940     8.2900    11.8240    24.8230 
  225.8750    -8.1070     2.4800    79.5620     9.7520     8.4470    12.9670    24.7670 
  226.0000    -8.0540     2.4810    78.7020     9.5810     8.3710    13.0480    24.7690 
  226.1250    -8.0460     2.4660    78.8590     9.0370     8.0090    11.9900    24.8910 
  226.2500    -8.0930     2.4460    78.2160     8.3760     7.5430    10.5370    25.0340 
  226.3750    -8.2050     2.4330    75.7250     7.9130     7.2090    10.0690    25.1130 
  226.5000    -8.3590     2.4340    73.5450     7.9610     7.3060    10.6500    25.0690 
  226.6250    -8.5470     2.4590    72.6080     9.2520     8.3880    12.7350    24.9860 
  226.7500    -8.7560     2.4990    70.0060    12.0520    10.7360    17.7560    24.9100 
  226.8750    -8.9650     2.5400    64.0240    16.6270    14.5380    26.4910    24.8280 
  227.0000    -9.1710     2.5620    57.0400    22.6690    19.5890    37.8630    24.7180 
  227.1250    -9.3750     2.5390    54.2660    28.5540    25.0100    49.2620    24.6630 
  227.2500    -9.5640     2.4830    54.9180    32.8070    29.3490    53.0060    24.6700 
  227.3750    -9.7310     2.4150    56.2520    34.3080    31.6100    48.3810    24.6830 
  227.5000    -9.8730     2.3540    56.1110    33.3110    31.6710    42.2320    24.6850 
  227.6250    -9.9730     2.3140    56.2330    31.2050    30.2390    39.1110    24.6850 
  227.7500   -10.0350     2.2920    59.1370    29.3230    28.5780    36.6000    24.6840 
  227.8750   -10.0590     2.2810    62.1240    27.9020    27.1380    33.9590    24.6760 
  228.0000   -10.0560     2.2770    60.8330    26.8130    25.9920    31.2910    24.6460 
  228.1250   -10.0210     2.2820    57.7140    25.8260    25.0420    28.9220    24.6130 
  228.2500    -9.9610     2.2970    57.9210    24.7270    24.0920    26.6400    24.5490 
  228.3750    -9.8880     2.3230    60.6990    23.3970    23.0040    24.7230    24.4310 
  228.5000    -9.8120     2.3550    62.8260    21.7740    21.6610    22.9610    24.2890 
  228.6250    -9.7360     2.3850    63.9180    19.8410    19.9580    20.7790    24.1390 
  228.7500    -9.6680     2.4040    65.1560    17.7670    18.0150    18.3090    23.9860 
  228.8750    -9.6200     2.4090    65.5040    15.7080    15.9740    15.7710    23.8300 
  229.0000    -9.5680     2.4030    65.9630    13.8170    14.0040    13.4830    23.6880 
  229.1250    -9.5160     2.3930    69.3580    12.2690    12.3080    11.5090    23.6470 
  229.2500    -9.4700     2.3880    74.3220    11.0800    10.9440    10.2900    23.6370 
  229.3750    -9.4060     2.3890    76.5010    10.2600     9.9410     9.4660    23.6170 
  229.5000    -9.3110     2.3950    74.0600     9.7890     9.2950     8.9060    23.5750 
  229.6250    -9.2110     2.4000    72.6020     9.6780     9.0310     8.9340    23.6360 
  229.7500    -9.1040     2.3990    72.9890     9.8470     9.0690     9.4790    23.8650 
  229.8750    -9.0160     2.3910    71.6000    10.2990     9.4110    10.4620    24.1370 
  230.0000    -8.9640     2.3820    66.9980    11.0710    10.0850    11.7690    24.3140 
  230.1250    -8.9450     2.3830    63.1070    12.2770    11.1920    13.7210    24.3280 
  230.2500    -8.9580     2.4020    61.5160    13.8650    12.6690    16.5500    24.2580 
  230.3750    -9.0160     2.4370    60.9420    15.7730    14.4550    20.3440    24.2500 
  230.5000    -9.1290     2.4750    59.9960    17.8810    16.4520    24.5620    24.5300 
  230.6250    -9.2860     2.4900    57.1720    20.0780    18.5770    27.9620    24.6660 
  230.7500    -9.4700     2.4720    54.9770    22.3560    20.8100    29.1810    24.7000 
  230.8750    -9.6640     2.4240    55.1530    24.8800    23.2670    30.4070    24.6910 
  231.0000    -9.8430     2.3640    55.9310    27.9030    26.1280    34.4250    24.7030 
  231.1250    -9.9780     2.3130    56.4390    31.7320    29.6380    41.5600    24.7190 
  231.2500   -10.0590     2.2770    57.4720    36.1420    33.6330    49.3610    24.7350 
  231.3750   -10.0810     2.2560    58.6930    40.6430    37.7450    54.0420    24.7700 
  231.5000   -10.0380     2.2420    58.1690    44.4190    41.3430    54.6020    24.7990 
  231.6250    -9.9330     2.2320    57.0150    46.1110    43.3100    54.5620    24.8370 
  231.7500    -9.7850     2.2280    57.8920    45.3240    43.1890    55.3880    24.8940 
  231.8750    -9.5860     2.2370    59.5260    42.1960    40.8900    54.4920    24.9310 
  232.0000    -9.3670     2.2660    60.5820    37.6240    36.9430    49.5790    24.9220 
  232.1250    -9.1560     2.3100    61.8960    33.0810    32.4450    40.6550    24.8730 
  232.2500    -8.9670     2.3500    64.2830    29.7050    28.6660    31.6610    24.7950 
  232.3750    -8.8140     2.3690    65.3430    27.9060    26.2500    27.2500    24.7070 
  232.5000    -8.6890     2.3610    62.8740    27.6750    25.4040    28.5440    24.6710 
  232.6250    -8.5860     2.3340    58.6450    28.8800    26.1790    33.2210    24.7110 
  232.7500    -8.4940     2.3130    55.7600    30.7840    27.9080    37.7290    24.7890 
  232.8750    -8.4070     2.3120    55.1100    32.8850    30.1190    40.2710    24.8450 
  233.0000    -8.3290     2.3340    55.1870    34.8400    32.4120    42.4140    24.8530 
  233.1250    -8.2590     2.3730    54.5800    36.6200    34.5900    44.6110    24.8150 
  233.2500    -8.1770     2.4120    53.9240    38.4330    36.7270    47.7570    24.7370 
  233.3750    -8.0710     2.4390    54.5100    40.1650    38.7880    51.5430    24.6350 
  233.5000    -7.9510     2.4470    54.7780    41.1740    40.3540    54.1860    24.5840 
  233.6250    -7.8290     2.4340    52.4140    39.9640    40.1990    55.2580    24.5870 
  233.7500    -7.7040     2.4100    50.7610    36.0140    37.6100    52.0580    24.6180 
  233.8750    -7.5600     2.3840    52.2410    29.7520    32.5060    44.9690    24.6470 
  234.0000    -7.3890     2.3640    56.5900    22.7410    25.8480    36.6760    24.6900 
  234.1250    -7.2080     2.3600    63.2750    16.9700    19.4310    27.3660    24.7430 
  234.2500    -7.0260     2.3730    69.4240    12.9410    14.4490    17.2930    24.8100 
  234.3750    -6.8360     2.3990    72.6910    10.4620    11.1150    10.6910    24.8230 
  234.5000    -6.6510     2.4280    73.6320     9.1510     9.1720     8.5770    24.7720 
  234.6250    -6.4620     2.4470    75.2960     8.7380     8.3570     8.5330    24.7210 
  234.7500    -6.2970     2.4520    74.8150     8.7650     8.1400     8.8930    24.7270 
  234.8750    -6.2010     2.4470    71.4190     8.9880     8.2560     9.2010    24.7810 
