~V
VERS. 2.00: Ver 2.00
~W
STRT.M 50.0000:
STOP.M 325.0000:
STEP.M 0.1250:
NULL. -999.2500:
UWI. F10039:
~C
DEPT.M :
GR.API :
RML.OHMM :
RI. :
RXO.OHMM :
CALI.CM :
DEN.GM/CC :
SP.MV :
~A
# ...
  275.0000    54.1440     8.1570     6.8310     7.6360    23.9790     2.4950   -16.3910 
  275.1250    53.7110     8.1990     6.9720     7.7550    23.9560     2.4890   -16.3890 
  275.2500    53.6600     8.2410     7.0580     7.7990    23.9530     2.4800   -16.3570 
  275.3750    53.5780     8.2300     7.0410     7.7750    23.9560     2.4620   -16.2930 
  275.5000    54.1930     8.1400     6.9000     7.8190    23.9270     2.4330   -16.2260 
  275.6250    56.7730     7.9810     6.6410     7.3880    23.8640     2.4020   -16.1780 
  275.7500    59.9980     7.8040     6.3410     6.7430    23.8020     2.3830   -16.1470 
  275.8750    62.7260     7.6380     6.0720     6.4040    23.7680     2.3820   -16.1530 
  276.0000    64.9500     7.4950     5.8960     6.5330    23.8000     2.3930   -16.1840 
  276.1250    64.8730     7.3960     5.8660     6.6610    23.9390     2.3990   -16.2050 
  276.2500    62.4510     7.3470     5.9380     6.5450    24.0420     2.3930   -16.2480 
  276.3750    58.5980     7.3450     6.0510     6.4280    24.0260     2.3810   -16.3090 
  276.5000    55.2630     7.3660     6.1310     6.5760    23.9790     2.3770   -16.3490 
  276.6250    55.5950     7.3710     6.1080     6.6930    23.9430     2.3910   -16.3510 
  276.7500    58.9630     7.3490     5.9920     6.6820    23.9730     2.4150   -16.3370 
  276.8750    64.4500     7.3040     5.8240     6.6350    24.0370     2.4350   -16.3140 
  277.0000    70.1280     7.2510     5.6700     6.7560    24.1140     2.4380   -16.3130 
  277.1250    74.0730     7.2260     5.6230     6.9530    24.1390     2.4200   -16.3790 
  277.2500    78.0210     7.2810     5.7260     6.9590    24.1380     2.3980   -16.4960 
  277.3750    82.7080     7.4720     5.9920     7.0060    24.0760     2.3820   -16.6640 
  277.5000    88.4190     7.8110     6.3820     7.4120    23.9210     2.3780   -16.8990 
  277.6250    94.3450     8.2290     6.7890     9.1770    23.7450     2.3840   -17.1830 
  277.7500    98.1220     8.5610     7.0690    11.5980    23.6550     2.3870   -17.4580 
  277.8750    97.3780     8.6820     7.1330    11.8700    23.6060     2.3840   -17.7150 
  278.0000    93.9340     8.5600     6.9790     9.0580    23.5920     2.3730   -17.9370 
  278.1250    91.3100     8.2710     6.7150     7.1450    23.6980     2.3630   -18.1050 
  278.2500    88.9850     8.0160     6.5360     6.6730    23.8030     2.3620   -18.2060 
  278.3750    87.0200     7.9210     6.5520     7.0510    23.8300     2.3730   -18.2290 
  278.5000    87.2960     8.0270     6.7820     7.7880    23.8080     2.3930   -18.1760 
  278.6250    87.8300     8.2590     7.1330     8.0850    23.8270     2.4160   -18.0600 
  278.7500    83.9380     8.4110     7.3940     7.7960    23.8560     2.4390   -17.9230 
  278.8750    76.3420     8.3460     7.4150     7.3180    23.8610     2.4590   -17.7720 
  279.0000    67.3420     8.0440     7.1440     6.2510    23.8390     2.4750   -17.6090 
  279.1250    57.8980     7.6140     6.6460     5.7140    23.8070     2.4840   -17.4360 
  279.2500    49.7860     7.2300     6.1280     5.5880    23.7440     2.4800   -17.2700 
  279.3750    44.6740     6.9600     5.7260     5.6210    23.6400     2.4640   -17.1310 
  279.5000    42.9490     6.8070     5.5140     5.5020    23.4880     2.4380   -17.0230 
  279.6250    43.9320     6.7610     5.5230     5.4590    23.4040     2.4120   -16.9680 
  279.7500    45.9640     6.7980     5.6660     5.6450    23.3490     2.3950   -16.9650 
  279.8750    48.9590     6.9140     5.8790     5.9470    23.2350     2.3890   -16.9990 
  280.0000    53.5770     7.0950     6.1070     6.1400    23.1010     2.3920   -17.0660 
  280.1250    58.2070     7.3130     6.3040     6.3220    23.3050     2.3990   -17.1380 
  280.2500    60.9750     7.5230     6.4420     6.8180    23.5150     2.4080   -17.2070 
  280.3750    61.7910     7.6950     6.5000     7.2060    23.6740     2.4180   -17.2710 
  280.5000    61.3140     7.8080     6.4720     6.9810    23.8100     2.4300   -17.3420 
  280.6250    59.7010     7.8590     6.3810     6.5400    23.8740     2.4430   -17.4210 
  280.7500    58.9740     7.9060     6.3100     6.6090    23.8900     2.4540   -17.5100 
  280.8750    60.0450     8.0170     6.3380     6.9790    23.8980     2.4600   -17.6260 
  281.0000    61.3610     8.2490     6.5300     7.5330    23.9050     2.4620   -17.7690 
  281.1250    61.5640     8.6500     6.9420     8.3920    23.8800     2.4610   -17.9620 
  281.2500    62.0690     9.1590     7.5020     9.5840    23.8090     2.4600   -18.1880 
  281.3750    63.2320     9.7080     8.1280    10.3000    23.7270     2.4620   -18.4230 
  281.5000    63.2840    10.2260     8.7300     9.9230    23.6770     2.4650   -18.6550 
  281.6250    60.9820    10.6470     9.2140     9.6530    23.6530     2.4690   -18.8780 
  281.7500    58.5790    10.9680     9.5600    10.2200    23.6650     2.4700   -19.0940 
  281.8750    58.0430    11.1900     9.7600    11.5290    23.6560     2.4640   -19.2970 
  282.0000    59.9400    11.3060     9.8120    12.5430    23.5970     2.4450   -19.4730 
  282.1250    62.9030    11.3010     9.7130    12.3020    23.5310     2.4160   -19.6010 
  282.2500    64.3910    11.2280     9.5380    11.6270    23.5090     2.3860   -19.7020 
  282.3750    66.3320    11.1440     9.3550    10.8960    23.4820     2.3660   -19.7850 
  282.5000    71.5760    11.0800     9.2210    10.2230    23.4580     2.3600   -19.8400 
  282.6250    79.3790    10.9980     9.1440    10.0830    23.4510     2.3710   -19.8310 
  282.7500    85.3050    10.7990     9.0480    10.5220    23.4410     2.3920   -19.7300 
  282.8750    89.4010    10.3990     8.8490    10.8010    23.4650     2.4160   -19.5200 
  283.0000    92.7520     9.7830     8.5040    10.0480    23.5650     2.4410   -19.2420 
  283.1250    91.9410     9.0240     8.0270     8.2240    23.6590     2.4590   -18.9380 
  283.2500    87.0320     8.2940     7.5270     7.1120    23.7150     2.4720   -18.6320 
  283.3750    80.2480     7.7080     7.0830     6.6810    23.7360     2.4790   -18.3250 
  283.5000    72.8390     7.3320     6.7460     6.5480    23.7030     2.4800   -18.0280 
  283.6250    64.7130     7.1930     6.5450     6.4430    23.6620     2.4740   -17.7900 
  283.7500    59.5980     7.2030     6.4430     6.3340    23.6940     2.4590   -17.6400 
  283.8750    59.5550     7.3050     6.4120     6.3990    23.8090     2.4360   -17.6240 
  284.0000    62.2840     7.4560     6.4320     6.7570    23.9190     2.4100   -17.7110 
  284.1250    63.1520     7.6270     6.5010     7.1370    23.9960     2.3900   -17.8910 
  284.2500    62.3890     7.7850     6.6220     7.4280    23.9510     2.3820   -18.1170 
  284.3750    62.2740     7.9150     6.8010     7.7070    23.9170     2.3870   -18.3750 
  284.5000    63.6880     8.0140     7.0320     7.9610    23.9230     2.4010   -18.6510 
  284.6250    64.6140     8.0830     7.2780     7.9420    23.9140     2.4190   -18.9030 
  284.7500    64.9540     8.1230     7.4860     7.8530    23.8260     2.4330   -19.1240 
  284.8750    66.6910     8.1170     7.6100     7.8000    23.6710     2.4400   -19.2820 
  285.0000    69.3550     8.0520     7.6210     7.7420    23.5620     2.4380   -19.3660 
  285.1250    69.7320     7.9220     7.4870     7.4710    23.5940     2.4270   -19.3580 
  285.2500    66.1090     7.7570     7.2420     7.3150    23.5970     2.4110   -19.2930 
  285.3750    60.0840     7.5790     6.9250     7.3510    23.5690     2.3980   -19.2000 
  285.5000    55.9100     7.4170     6.5950     7.0620    23.5650     2.3900   -19.1040 
  285.6250    56.1830     7.3120     6.3500     6.9230    23.6650     2.3900   -19.0460 
  285.7500    56.7640     7.2810     6.2450     6.6810    23.7950     2.3930   -19.0250 
  285.8750    55.4540     7.3240     6.2990     6.6820    23.9090     2.3990   -19.0350 
  286.0000    53.9310     7.4220     6.4870     6.9300    23.9610     2.4070   -19.1040 
  286.1250    54.8820     7.5560     6.7490     7.4910    23.9310     2.4130   -19.2460 
