~V
VERS. 2.00: Ver 2.00
~W
STRT.M 57.0000:
STOP.M 257.0000:
STEP.M 0.1250:
NULL. -999.2500:
UWI. F10004:
~C
DEPT.M :
GR.API :
RML.OHMM :
RI. :
RXO.OHMM :
CALI.CM :
DEN.GM/CC :
SP.MV :
~A
# ...
  248.2500    92.2140     7.6770     7.4110     8.1250    24.2240     2.3590   -13.3450 
  248.3750    92.2140     7.7180     7.4010     7.8080    24.1730     2.3550   -13.7930 
  248.5000    92.2140     7.7380     7.4000     7.6860    24.1630     2.3420   -14.1580 
  248.6250    92.2140     7.7360     7.4150     7.9740    24.2040     2.3220   -14.4970 
  248.7500    92.2140     7.7360     7.4390     8.3040    24.2460     2.3050   -14.7630 
  248.8750    92.2140     7.7560     7.4590     8.2640    24.2480     2.3010   -14.9290 
  249.0000    92.2140     7.8020     7.4680     7.8610    24.1900     2.3120   -15.0450 
  249.1250    92.2140     7.8680     7.4630     7.7390    24.1210     2.3280   -15.1660 
  249.2500    92.2140     7.9280     7.4530     7.9440    24.0760     2.3340   -15.2050 
  249.3750    92.2140     7.9600     7.4470     8.3910    24.0710     2.3250   -15.1980 
  249.5000    92.2140     7.9480     7.4480     8.8890    24.1390     2.3050   -15.1210 
  249.6250    92.2140     7.8870     7.4560     8.6890    24.2150     2.2860   -14.9410 
  249.7500    92.2140     7.8110     7.4630     8.2240    24.1930     2.2780   -14.7220 
  249.8750    92.2140     7.7540     7.4660     7.7060    24.0790     2.2830   -14.5350 
  250.0000    92.2140     7.7390     7.4670     7.4630    24.0280     2.2920   -14.3720 
  250.1250    92.2140     7.7640     7.4660     8.1230    24.1030     2.2970   -14.2220 
  250.2500    92.2140     7.7910     7.4640     9.4830    24.1960     2.2940   -14.1230 
  250.3750    92.2140     7.7980     7.4640    10.7920    24.2790     2.2830   -14.0290 
  250.5000    92.2140     7.7840     7.4720    11.2840    24.3560     2.2700   -13.9590 
  250.6250    92.2140     7.7700     7.4960    10.9630    24.3960     2.2580   -13.9310 
  250.7500    92.2140     7.7700     7.5300    10.8000    24.3950     2.2480   -13.9240 
  250.8750    92.2140     7.7870     7.5570    10.6800    24.3830     2.2430   -13.9300 
  251.0000    92.2140     7.8180     7.5630    10.5900    24.3770     2.2430   -13.9550 
  251.1250    92.2140     7.8570     7.5420    10.6800    24.3590     2.2490   -13.9820 
  251.2500    92.2140     7.8810     7.5100    10.6170    24.3230     2.2570   -13.9530 
  251.3750    92.2140     7.8680     7.4870    10.9130    24.2960     2.2640   -13.9290 
  251.5000    92.2140     7.8120     7.4780    11.2550    24.3030     2.2700   -13.9210 
  251.6250    92.2140     7.7460     7.4680    10.6630    24.2830     2.2760   -13.8800 
  251.7500    92.2140     7.7190     7.4400     9.5790    24.1980     2.2860   -13.8330 
  251.8750    92.2140     7.7490     7.3940     8.1970    24.0640     2.3010   -13.8000 
  252.0000    92.2140     7.8200     7.3510     7.3980    23.9500     2.3130   -13.7700 
  252.1250    92.2140     7.8880     7.3440     7.1740    23.6880     2.3150   -13.7250 
  252.2500    92.2140     7.9160     7.3790     6.8390    22.7030     2.2990   -13.7200 
  252.3750    92.2140     7.9020     7.4440     6.4810    20.5770     2.2650   -13.7430 
  252.5000    92.2140     7.8670     7.5150     6.2500    18.2610     2.2160   -13.7240 
  252.6250    92.2140     7.8420     7.5640     6.1910    16.5760     2.1600   -13.7290 
  252.7500    92.2140     7.8390     7.5870     6.1810    15.9820     2.1050   -13.7290 
  252.8750    92.2140     7.8440     7.5940     6.1830    15.8530     2.0570   -13.7020 
  253.0000    92.2140     7.8480     7.5950     6.1830    15.8440     2.0210   -13.6620 
  253.1250    92.2140     7.8480     7.5950     6.1840    15.8280     1.9990   -13.6510 
  253.2500    92.2140     7.8480     7.5950     6.1840    15.8050     1.9880   -13.6280 
  253.3750    92.2140     7.8480     7.5950     6.1850    15.7930     1.9830   -13.5820 
  253.5000    92.2140     7.8480     7.5950     6.1840    15.7910     1.9820   -13.5680 
  253.6250    92.2140     7.8480     7.5950     6.1830    15.7910     1.9820   -13.5560 
  253.7500    92.2140     7.8480     7.5950     6.1830    15.7900     1.9800   -13.5530 
  253.8750    92.2140     7.8480     7.5950     6.1830    15.7890     1.9780   -13.5480 
  254.0000    92.2140     7.8480     7.5950     6.1840    15.7880     1.9750   -13.5390 
  254.1250    92.2140     7.8480     7.5950     6.1840    15.7880     1.9730  -999.2500 
  254.2500    92.2140     7.8480     7.5950     6.1840    15.7880     1.9720  -999.2500 
  254.3750    92.2140     7.8480     7.5950     6.1840    15.7880     1.9710  -999.2500 
  254.5000    92.2140     7.8480     7.5950     6.1840    15.7880     1.9670  -999.2500 
  254.6250    92.2140     7.8480     7.5950     6.1830    15.7880     1.9620  -999.2500 
  254.7500    92.2140     7.8480     7.5950     6.1830    15.7880     1.9580  -999.2500 
  254.8750    92.2140     7.8480     7.5950     6.1830    15.7880     1.9560  -999.2500 
  255.0000    92.2140     7.8480     7.5950     6.1840    15.7880     1.9580  -999.2500 
  255.1250    92.2140     7.8480     7.5950     6.1840    15.7880     1.9630  -999.2500 
  255.2500    92.2140     7.8480     7.5950     6.1850    15.7880     1.9680  -999.2500 
  255.3750    92.2140     7.8480     7.5950     6.1850    15.7880     1.9680  -999.2500 
  255.5000    92.2140     7.8480     7.5950     6.1830    15.7880     1.9760  -999.2500 
  255.6250    92.2140     7.8480     7.5950     6.1820    15.7880     1.9890  -999.2500 
  255.7500    92.2140     7.8480     7.5950     6.1830    15.7880     1.9920  -999.2500 
  255.8750    92.2140     7.8480     7.5950     6.1830    15.7880  -999.2500  -999.2500 
  256.0000    92.2140     7.8480     7.5950     6.1820    15.7880  -999.2500  -999.2500 
  256.1250    92.2140     7.8480     7.5950     6.1810    15.7880  -999.2500  -999.2500 
  256.2500    92.2140     7.8480     7.5950     6.1820    15.7880  -999.2500  -999.2500 
  256.3750    92.2140     7.8480     7.5950     6.1820    15.7880  -999.2500  -999.2500 
  256.5000    92.2140     7.8480     7.5950     6.1810    15.7880  -999.2500  -999.2500 
  256.6250    92.2140     7.8480     7.5950     6.1820    15.7880  -999.2500  -999.2500 
  256.7500    92.2140     7.8480     7.5950     6.1830    15.7880  -999.2500  -999.2500 
  256.8750    92.2140     7.8480     7.5950     6.1830    15.7880  -999.2500  -999.2500 
  257.0000    92.2140     7.8480     7.5950     6.1840    15.7880  -999.2500  -999.2500 
