~V
VERS. 2.00: Ver 2.00
~W
STRT.M 50.0000:
STOP.M 293.0000:
STEP.M 0.1250:
NULL. -999.2500:
UWI. F10037:
~C
DEPT.M :
GR.API :
RML.OHMM :
RI. :
RXO.OHMM :
CALI.CM :
SP.MV :
DEN.GM/CC :
~A
# ...
  196.2500    59.7690    13.4000    11.0530    13.3400    24.5320   -28.1340     2.3420 
  196.3750    58.6450    13.2700    10.9560    13.0730    24.6110   -28.1220     2.3350 
  196.5000    60.4140    13.1430    10.8700    12.8280    24.6830   -28.1070     2.3270 
  196.6250    62.7100    13.0380    10.8100    12.6360    24.7460   -28.0900     2.3180 
  196.7500    63.9710    12.9640    10.7760    12.5210    24.8140   -28.0580     2.3080 
  196.8750    64.8620    12.9250    10.7690    12.4740    24.9000   -28.0070     2.3010 
  197.0000    66.1530    12.9200    10.7860    12.4780    24.9910   -27.9600     2.2990 
  197.1250    65.1100    12.9520    10.8300    12.4260    25.0200   -27.8880     2.3040 
  197.2500    62.2610    13.0040    10.8940    12.2930    24.9850   -27.8140     2.3150 
  197.3750    59.7950    13.0640    10.9680    12.1180    24.9090   -27.7570     2.3290 
  197.5000    58.9910    13.1140    11.0390    11.9220    24.8440   -27.6980     2.3430 
  197.6250    60.6250    13.1290    11.0870    11.7870    24.8670   -27.6310     2.3480 
  197.7500    63.4530    13.1070    11.1070    11.6880    24.9650   -27.5820     2.3450 
  197.8750    64.9590    13.0520    11.0980    11.7140    25.1130   -27.5510     2.3370 
  198.0000    64.8260    12.9760    11.0680    11.7450    25.2700   -27.4960     2.3270 
  198.1250    65.0900    12.8950    11.0310    11.8480    25.3480   -27.4540     2.3220 
  198.2500    67.4560    12.8200    11.0030    11.9690    25.3060   -27.4020     2.3210 
  198.3750    69.6460    12.7580    10.9920    12.0680    25.1690   -27.3180     2.3220 
  198.5000    68.2180    12.7130    11.0050    12.1330    24.9920   -27.2340     2.3220 
  198.6250    64.5100    12.6970    11.0450    12.1500    24.8030   -27.0900     2.3200 
  198.7500    63.0080    12.7160    11.1040    12.1680    24.5570   -26.9530     2.3170 
  198.8750    64.0150    12.7720    11.1750    12.1460    24.2650   -26.7610     2.3160 
  199.0000    65.5970    12.8590    11.2500    12.0980    23.9740   -26.5080     2.3190 
  199.1250    66.7880    12.9560    11.3120    12.0810    23.7660   -26.2710     2.3260 
  199.2500    67.0140    13.0110    11.3400    12.1730    23.6630   -25.9860     2.3340 
  199.3750    64.0560    12.9690    11.3030    12.3420    23.6070   -25.6640     2.3390 
  199.5000    60.0390    12.7650    11.1700    12.5020    23.5230   -25.3230     2.3370 
  199.6250    57.9970    12.2840    10.9060    12.5460    23.3680   -24.9600     2.3260 
  199.7500    58.5820    11.6820    10.5750    12.4760    23.1830   -24.5760     2.3050 
  199.8750    61.6690    11.1850    10.3240    12.3430    23.0300   -24.1960     2.2790 
  200.0000    65.2700    11.3750    10.4430    12.2030    22.9270   -23.8280     2.2590 
  200.1250    63.2800    12.9410    11.5490    12.5410    22.8760   -23.4830     2.2640 
  200.2500    55.3710    16.2390    13.8760    14.7920    22.8610   -23.1720     2.3050 
  200.3750    49.5190    20.9180    17.3530    20.6940    22.9100   -22.8840     2.3830 
  200.5000    50.3030    25.4840    21.3300    29.0460    23.0490   -22.6320     2.4790 
  200.6250    54.1530    28.3700    24.2660    37.6640    23.2900   -22.4180     2.5530 
  200.7500    57.5610    28.3780    24.8760    42.0910    23.5120   -22.2080     2.5740 
  200.8750    60.6820    25.3480    22.7970    33.7910    23.5870   -22.0110     2.5380 
  201.0000    62.4040    20.6750    18.9810    19.8170    23.5070   -21.8020     2.4670 
  201.1250    60.6550    16.4910    15.1580    14.0080    23.3810   -21.5350     2.3910 
  201.2500    56.8630    13.6690    12.3080    12.3430    23.2920   -21.2160     2.3320 
  201.3750    54.5130    12.1840    10.5260    12.0520    23.2380   -20.8330     2.2950 
  201.5000    55.1700    11.8320     9.7000    12.6400    23.2550   -20.3730     2.2830 
  201.6250    55.4260    13.1830    10.5310    16.4720    23.4060   -19.8040     2.3010 
  201.7500    53.8910    17.7200    14.6630    30.3470    23.6220   -19.1530     2.3450 
  201.8750    51.9420    27.3430    24.3600    68.0930    23.8290   -18.3820     2.4090 
  202.0000    51.6610    42.7980    40.7710   133.7770    23.9980   -17.5290     2.4770 
  202.1250    51.6460    61.6650    61.8890   221.7890    24.1770   -16.6200     2.5330 
  202.2500    52.1220    76.4910    79.5820   299.2580    24.4020   -15.6280     2.5710 
  202.3750    54.6560    79.2810    85.1620   307.3170    24.5950   -14.6180     2.5950 
  202.5000    56.1400    65.2690    73.2450   228.9520    24.6220   -13.5860     2.6080 
  202.6250    53.7420    41.6580    49.0770   124.7960    24.4370   -12.5270     2.6130 
  202.7500    50.6090    23.8890    28.4120    48.2630    24.1300   -11.4810     2.6090 
  202.8750    47.7710    13.8630    15.6550    15.1070    23.7550   -10.4710     2.5950 
  203.0000    45.2890     8.8500     9.0080     5.7460    23.4240    -9.5210     2.5750 
  203.1250    43.9220     6.7000     6.1660     4.3710    23.3870    -8.6610     2.5530 
  203.2500    44.5680     5.7440     4.8800     4.1110    23.5690    -7.8950     2.5280 
  203.3750    45.5210     5.3720     4.4430     4.1550    23.8180    -7.2020     2.4980 
  203.5000    46.0600     5.2610     4.4770     4.2390    24.0720    -6.6040     2.4620 
  203.6250    46.6080     5.5830     4.7520     4.3720    24.2160    -6.1360     2.4210 
  203.7500    46.4630     5.8530     5.0650     4.5750    24.1590    -5.7500     2.3810 
  203.8750    46.3610     6.0490     5.3420     4.7900    23.9010    -5.4690     2.3480 
  204.0000    47.3110     6.1980     5.5560     4.9610    23.5890    -5.2610     2.3300 
  204.1250    48.3950     6.3290     5.7030     5.0950    23.3770    -5.0980     2.3330 
  204.2500    49.2730     6.4370     5.8050     5.2440    23.3410    -4.9710     2.3500 
  204.3750    51.1820     6.5140     5.8740     5.4390    23.5310    -4.9090     2.3720 
  204.5000    53.0510     6.5900     5.9180     5.6560    23.9400    -4.8640     2.3880 
  204.6250    50.6800     6.6430     5.9420     5.8570    24.4800    -4.8490     2.3900 
  204.7500    45.9330     6.6810     5.9540     6.0290    24.9150    -4.8920     2.3890 
  204.8750    43.5210     6.7160     5.9600     6.1700    25.1820    -4.9160     2.3940 
  205.0000    42.8410     6.7210     5.9610     6.2760    25.3220    -4.9740     2.4120 
  205.1250    43.0140     6.7050     5.9560     6.3660    25.2360    -5.0350     2.4420 
  205.2500    45.0790     6.6590     5.9410     6.4570    25.1830    -5.0780     2.4660 
  205.3750    47.7460     6.5850     5.9110     6.4800    25.3680    -5.1300     2.4710 
  205.5000    47.0140     6.4940     5.8620     6.3980    25.7770    -5.1390     2.4560 
  205.6250    43.0100     6.3740     5.7910     6.2540    26.2680    -5.1360     2.4280 
  205.7500    42.3850     6.2530     5.7040     6.0540    26.6010    -5.1120     2.4060 
  205.8750    45.1230     6.1360     5.6040     5.8990    26.5680    -5.0640     2.3960 
  206.0000    46.1710     6.0370     5.4970     5.7730    26.2300    -4.9990     2.3990 
  206.1250    43.8190     5.9680     5.3920     5.6410    25.9170    -4.9410     2.4100 
  206.2500    41.1920     5.9380     5.2980     5.5000    25.7210    -4.8920     2.4210 
  206.3750    40.6920     5.9330     5.2210     5.3990    25.5740    -4.8480     2.4300 
  206.5000    40.6000     5.9340     5.1610     5.3550    25.3260    -4.8400     2.4350 
  206.6250    39.1380     5.9560     5.1220     5.3540    24.9370    -4.8420     2.4340 
  206.7500    39.0750     5.9430     5.1010     5.3030    24.6010    -4.8580     2.4270 
  206.8750    39.3810     5.9550     5.0980     5.1860    24.4310    -4.8980     2.4160 
  207.0000    37.1620     5.9940     5.1140     5.1120    24.3790    -4.9500     2.3990 
  207.1250    32.6200     6.0610     5.1500     5.1360    24.5010    -4.9960     2.3770 
  207.2500    30.6280     6.1360     5.1940     5.2220    24.8900    -5.0410     2.3530 
  207.3750    31.7760     6.2010     5.2390     5.3340    25.5670    -5.0830     2.3340 
