~V
VERS. 2.00: Ver 2.00
~W
STRT.M 60.0000:
STOP.M 217.0000:
STEP.M 0.1250:
NULL. -999.2500:
UWI. F10010:
~C
DEPT.M :
DEN.GM/CC :
GR.API :
RML.OHMM :
RI. :
RXO.OHMM :
CALI.CM :
SP.MV :
~A
# ...
  150.0000     2.3820    71.1980     6.5880     6.1180     5.8080    22.4140   -34.1090 
  150.1250     2.3780    76.5470     6.5880     6.0900     6.1480    22.8510   -34.3320 
  150.2500     2.3720    79.4190     6.5230     6.0130     6.3910    23.3210   -34.5480 
  150.3750     2.3730    78.6400     6.4200     5.9000     6.4240    23.6700   -34.7370 
  150.5000     2.3830    77.7370     6.3020     5.7580     6.2350    23.8340   -34.9380 
  150.6250     2.3970    78.4340     6.1930     5.6070     6.0020    23.8890   -35.1820 
  150.7500     2.4070    78.0890     6.1230     5.4940     5.8800    23.9310   -35.4070 
  150.8750     2.4120    76.1870     6.1380     5.4690     5.9930    23.9660   -35.6050 
  151.0000     2.4120    74.7870     6.2800     5.5580     6.4490    23.9840   -35.8460 
  151.1250     2.4090    76.3410     6.5950     5.7900     7.1050    24.0080   -36.1130 
  151.2500     2.4070    79.1490     7.0390     6.1200     7.5890    24.0520   -36.3430 
  151.3750     2.4060    81.4130     7.5520     6.4910     7.8640    24.0970   -36.5820 
  151.5000     2.4100    81.8150     8.0300     6.8400     8.3120    24.1190   -36.8400 
  151.6250     2.4180    82.5570     8.3190     7.0760     8.8470    24.1100   -37.0150 
  151.7500     2.4210    84.8100     8.3750     7.1740     8.8350    24.1180   -37.1260 
  151.8750     2.4140    85.6680     8.2340     7.1480     8.2720    24.1690   -37.2330 
  152.0000     2.3970    83.3410     8.0120     7.0530     7.6730    24.2680   -37.3020 
  152.1250     2.3780    79.9190     7.9210     7.0210     7.5310    24.4350   -37.2760 
  152.2500     2.3690    78.5440     8.1190     7.1660     7.9290    24.5980   -37.1980 
  152.3750     2.3780    79.7190     8.6850     7.5680     9.2040    24.6270   -37.0970 
  152.5000     2.4020    81.1330     9.5870     8.2450    11.1320    24.4940   -36.9660 
  152.6250     2.4330    78.6180    10.6490     9.1110    13.1730    24.2500   -36.8080 
  152.7500     2.4540    74.3490    11.5320     9.9330    15.1360    24.0160   -36.6720 
  152.8750     2.4580    73.7430    11.9800    10.4990    15.8210    23.8400   -36.5450 
  153.0000     2.4430    78.5150    11.9120    10.6910    14.0570    23.8590   -36.3970 
  153.1250     2.4150    82.2090    11.5000    10.5510    11.3620    24.0270   -36.2410 
  153.2500     2.3840    81.4430    11.1710    10.3620    10.2710    24.1990   -36.1120 
  153.3750     2.3560    78.8480    11.1670    10.3200    10.6980    24.3190   -35.9970 
  153.5000     2.3330    77.9770    11.5540    10.5290    11.5430    24.3980   -35.8700 
  153.6250     2.3170    80.0540    12.2300    10.9970    12.9840    24.4410   -35.7530 
  153.7500     2.3080    81.2590    12.8670    11.5030    14.8320    24.3670   -35.6530 
  153.8750     2.3020    80.0520    13.1930    11.8250    15.3620    24.0470   -35.5400 
  154.0000     2.2990    78.3600    13.0570    11.7990    13.4670    23.4140   -35.3990 
  154.1250     2.2960    79.5300    12.4550    11.3680    11.3280    22.6690   -35.2750 
  154.2500     2.2950    82.4380    11.6870    10.7610    10.5980    22.2700   -35.1850 
  154.3750     2.3020    85.0120    11.0270    10.1920    10.7100    22.1810   -35.0950 
  154.5000     2.3180    86.4250    10.7480     9.8930    10.6270    22.2900   -34.9650 
  154.6250     2.3370    84.6900    11.2040    10.1400    10.8490    22.5010   -34.8410 
  154.7500     2.3480    80.9570    12.4540    10.9960    13.2050    22.9230   -34.7350 
  154.8750     2.3420    76.9770    14.5760    12.5860    18.7770    23.5070   -34.6020 
  155.0000     2.3210    72.5060    17.5550    14.9880    26.2650    23.9740   -34.4630 
  155.1250     2.2920    67.1310    21.1990    18.2260    29.6260    24.1570   -34.3510 
  155.2500     2.2640    63.9950    25.4050    21.6550    28.9550    24.2090   -34.2460 
  155.3750     2.2420    65.2310    28.5620    24.3410    28.8640    24.1830   -34.1260 
  155.5000     2.2280    67.2300    29.0040    25.2730    30.4700    24.0760   -34.0280 
  155.6250     2.2260    66.7680    26.9280    23.8400    30.1320    23.9480   -33.9500 
  155.7500     2.2350    66.6830    23.8340    21.3480    23.7840    23.8960   -33.8690 
  155.8750     2.2600    68.4030    21.0560    18.9420    16.2150    23.8410   -33.8010 
  156.0000     2.3040    68.5110    19.5420    17.3860    12.4640    23.8070   -33.7460 
  156.1250     2.3650    65.4000    20.0590    17.3050    15.4530    23.7270   -33.6770 
  156.2500     2.4220    62.2030    22.3250    18.6210    28.0670    23.5180   -33.6170 
  156.3750     2.4560    60.4650    25.9080    21.2200    52.6000    23.3130   -33.5670 
  156.5000     2.4570    61.1440    29.8090    24.5590    59.1590    23.2260   -33.4950 
  156.6250     2.4280    63.9360    32.1090    27.1900    37.1660    23.2430   -33.4240 
  156.7500     2.3930    65.0500    31.9120    27.9010    24.8040    23.2430   -33.3320 
  156.8750     2.3630    64.3390    29.7330    26.7250    20.3780    23.2310   -33.2180 
  157.0000     2.3370    64.8780    27.0390    24.7760    19.9650    23.2360   -33.1330 
  157.1250     2.3030    65.6320    25.4190    23.4300    21.6510    23.4580   -33.0900 
  157.2500     2.2630    62.8580    25.3740    23.2620    23.4820    23.9750   -33.0040 
  157.3750     2.2370    59.5770    26.9570    24.4120    24.9560    24.5470   -32.8820 
  157.5000     2.2490    58.1600    29.9190    26.7770    28.4520    24.7410   -32.8020 
  157.6250     2.3120    55.0590    33.5840    30.0010    38.7410    24.4020   -32.7240 
  157.7500     2.3910    50.6410    36.5070    32.9030    49.1030    23.8910   -32.6100 
  157.8750     2.4490    49.6320    37.4700    34.3290    46.0480    23.4850   -32.5180 
  158.0000     2.4660    51.9690    36.0840    33.7080    34.3350    23.3150   -32.4410 
  158.1250     2.4420    53.8600    33.0950    31.4010    27.9060    23.3940   -32.3130 
  158.2500     2.4090    55.4030    30.1610    28.8730    26.2330    23.5260   -32.1720 
  158.3750     2.3790    57.9680    28.0360    26.8720    26.4580    23.6050   -32.0860 
  158.5000     2.3560    60.8120    26.8770    25.6530    26.9550    23.6090   -32.0190 
  158.6250     2.3360    61.4380    26.5330    25.2040    27.1650    23.6500   -31.9390 
  158.7500     2.3210    60.0040    26.5220    25.1290    27.0390    23.6830   -31.9300 
  158.8750     2.3100    57.6790    26.6500    25.2530    26.8430    23.6790   -31.9340 
  159.0000     2.3030    57.0260    26.8990    25.5250    26.6720    23.6710   -31.9140 
  159.1250     2.2930    60.8610    27.3860    26.0020    27.7300    23.6720   -31.9500 
  159.2500     2.2820    65.3560    28.1140    26.7110    30.3470    23.6290   -32.0530 
  159.3750     2.2750    66.0640    29.0030    27.6090    33.7660    23.5680   -32.1520 
  159.5000     2.2730    63.0170    29.8790    28.5530    35.7530    23.5180   -32.2300 
  159.6250     2.2700    60.9850    30.4420    29.2660    34.0640    23.4960   -32.3870 
  159.7500     2.2600    62.6680    30.5380    29.5330    31.6860    23.5240   -32.5500 
  159.8750     2.2420    65.4510    30.1530    29.3070    30.9320    23.6050   -32.7030 
  160.0000     2.2240    66.4180    29.4410    28.7010    31.2720    23.5690   -32.8940 
  160.1250     2.2140    65.3260    28.6670    27.9490    30.0730    23.4330   -33.1100 
  160.2500     2.2100    64.0210    28.0700    27.3200    27.8390    23.3350   -33.2870 
  160.3750     2.2110    63.6330    27.7340    26.8980    27.2370    23.2560   -33.4180 
  160.5000     2.2170    63.4010    27.6290    26.6920    29.0760    23.0600   -33.5520 
  160.6250     2.2350    62.4120    27.9850    26.6840    31.3400    22.5970   -33.6260 
  160.7500     2.2630    61.0270    29.0240    26.7630    31.3450    22.1280   -33.6270 
  160.8750     2.2940    60.8340    29.1830    26.9150    29.6900    21.7520   -33.6290 
  161.0000     2.3150    63.6040    29.4840    27.1720    28.4900    21.5640   -33.6050 
  161.1250     2.3150    67.7980    30.0270    27.6180    29.0510    21.5240   -33.5040 
