~V
VERS. 2.00: Ver 2.00
~W
STRT.M 62.0000:
STOP.M 254.0000:
STEP.M 0.1250:
NULL. -999.2500:
UWI. F10030:
~C
DEPT.M :
DEN.GM/CC :
GR.API :
RML.OHMM :
RI. :
RXO.OHMM :
CALI.CM :
SP.MV :
~A
# ...
  140.7500     2.1450    63.0850    25.7810    23.3630    22.4680    23.2970   -19.5960 
  140.8750     2.1470    60.6860    26.1120    23.5160    23.0410    23.2150   -19.5040 
  141.0000     2.1480    60.2020    26.5950    23.9170    23.5690    23.1620   -19.4430 
  141.1250     2.1480    63.1870    26.7430    24.1760    23.7410    23.1400   -19.3870 
  141.2500     2.1490    66.6810    26.1040    23.8490    22.9980    23.1210   -19.3860 
  141.3750     2.1560    69.7020    24.4570    22.6860    23.1790    23.1230   -19.4020 
  141.5000     2.1730    72.2050    21.9700    20.7570    20.9450    23.1830   -19.4380 
  141.6250     2.2010    73.3520    19.1900    18.4470    15.0510    23.2610   -19.5200 
  141.7500     2.2320    72.2730    16.8110    16.3430    12.0950    23.2800   -19.5750 
  141.8750     2.2560    69.6640    15.1830    14.7620    11.3660    23.2320   -19.6300 
  142.0000     2.2670    68.6620    14.4010    13.8370    11.5250    23.1890   -19.7000 
  142.1250     2.2620    68.5520    14.4320    13.6250    12.2600    23.2310   -19.7630 
  142.2500     2.2490    66.3370    14.8570    13.8390    13.3770    23.3490   -19.8130 
  142.3750     2.2350    63.7270    15.3670    14.2410    14.2600    23.4920   -19.8450 
  142.5000     2.2200    62.9500    15.7260    14.6020    15.9780    23.6240   -19.8410 
  142.6250     2.2060    63.2160    15.8740    14.8020    16.8210    23.7040   -19.7800 
  142.7500     2.1930    62.7350    16.1110    15.0080    16.9180    23.7300   -19.6940 
  142.8750     2.1830    62.4320    16.7990    15.4820    17.1300    23.7210   -19.5720 
  143.0000     2.1880    62.5190    18.1770    16.4410    17.7860    23.6990   -19.4080 
  143.1250     2.2220    62.0550    20.1350    17.8950    18.5550    23.6760   -19.1860 
  143.2500     2.2870    63.5110    21.8150    19.2260    23.2610    23.6370   -18.9500 
  143.3750     2.3710    69.7870    22.2640    19.6350    35.2320    23.5690   -18.7180 
  143.5000     2.4500    79.0530    20.8790    18.5410    38.3970    23.4840   -18.4920 
  143.6250     2.4880    84.4770    17.7830    15.9830    21.1160    23.4300   -18.2600 
  143.7500     2.4810    85.4000    14.3530    13.1140    12.7540    23.4150   -18.0470 
  143.8750     2.4420    85.3150    11.4820    10.6730     9.4600    23.4210   -17.8750 
  144.0000     2.3930    87.2570     9.5740     8.9850     8.3090    23.4340   -17.7110 
  144.1250     2.3580    90.2700     8.7140     8.1270     7.9730    23.4450   -17.5530 
  144.2500     2.3440    92.1510     8.4470     7.7610     7.8500    23.4440   -17.4120 
  144.3750     2.3470    93.1190     8.4950     7.6780     7.8380    23.4240   -17.2400 
  144.5000     2.3570    93.5350     8.6540     7.7280     7.6580    23.3820   -17.1070 
  144.6250     2.3570    93.2420     8.8070     7.8540     7.7350    23.3530   -17.0310 
  144.7500     2.3370    92.7510     8.9050     8.0270     7.9350    23.4070   -16.9550 
  144.8750     2.2990    91.6580     8.9270     8.2100     7.9610    23.5490   -16.8830 
  145.0000     2.2560    89.9870     8.8560     8.3310     7.8080    23.6570   -16.8020 
  145.1250     2.2300    89.1590     8.6740     8.2880     7.6090    23.5440   -16.7930 
  145.2500     2.2270    91.9890     8.4160     8.0970     7.5350    23.2930   -16.7900 
  145.3750     2.2370    97.6220     8.1220     7.8250     7.5210    23.0570   -16.7920 
  145.5000     2.2470   100.3540     7.8440     7.5660     7.4400    22.9620   -16.8090 
  145.6250     2.2490    97.7340     7.6580     7.4070     7.2650    23.0660   -16.8130 
  145.7500     2.2480    94.9400     7.6040     7.3530     7.2610    23.2580   -16.8300 
  145.8750     2.2540    93.8650     7.7050     7.3990     7.3700    23.4520   -16.8520 
  146.0000     2.2700    92.9060     7.9580     7.5400     7.3730    23.5900   -16.8640 
  146.1250     2.2890    92.6680     8.3200     7.7680     7.4480    23.6110   -16.8790 
  146.2500     2.3020    93.7070     8.6760     8.0020     7.8280    23.5170   -16.8790 
  146.3750     2.3040    93.8080     8.9260     8.1380     8.1080    23.3490   -16.8840 
  146.5000     2.3000    92.3630     8.9950     8.0800     8.2390    23.2130   -16.8580 
  146.6250     2.2950    93.7940     8.8260     7.7650     8.2320    23.1730   -16.8000 
  146.7500     2.2930    98.3480     8.5180     7.3220     8.2650    23.1850   -16.7700 
  146.8750     2.2920   100.9150     8.2070     6.9140     8.2870    23.2130   -16.7250 
  147.0000     2.2910    99.6180     8.0990     6.7280     8.1260    23.2450   -16.6870 
  147.1250     2.2910    96.2920     8.5540     7.0200     8.1200    23.2570   -16.6400 
  147.2500     2.3000    90.9530     9.7520     7.8740     8.5940    23.2640   -16.5840 
  147.3750     2.3240    83.0450    11.8450     9.4070     9.5800    23.2940   -16.5590 
  147.5000     2.3620    75.2140    14.8360    11.6980    11.3950    23.3170   -16.5470 
  147.6250     2.3990    71.8680    18.5400    14.8050    15.0020    23.2570   -16.5330 
  147.7500     2.4100    71.7560    22.2620    18.2690    24.8970    23.1200   -16.5140 
  147.8750     2.3830    71.1970    25.4020    21.5680    35.1290    22.9800   -16.5080 
  148.0000     2.3240    68.8630    27.5860    24.2110    35.6280    22.9580   -16.5350 
  148.1250     2.2530    66.5820    28.7480    25.8770    31.6940    23.1510   -16.5760 
  148.2500     2.1950    66.9410    29.4280    26.9190    30.8560    23.4130   -16.6240 
  148.3750     2.1590    68.4430    29.9000    27.5920    33.3780    23.5750   -16.6800 
  148.5000     2.1420    68.8470    30.1880    27.9890    35.4280    23.5290   -16.7370 
  148.6250     2.1400    68.1990    30.0440    27.9470    35.4970    23.2690   -16.7990 
  148.7500     2.1440    69.3700    29.4200    27.4360    33.7850    22.9880   -16.8530 
  148.8750     2.1520    71.1630    28.4810    26.5810    31.3300    22.7990   -16.8880 
  149.0000     2.1630    72.0270    27.6260    25.7200    28.2100    22.7300   -16.8770 
  149.1250     2.1710    71.6240    27.5080    25.4230    26.4180    22.7240   -16.8420 
  149.2500     2.1750    71.5340    28.4850    26.0300    27.1960    22.7090   -16.7890 
  149.3750     2.1740    71.0560    30.8090    27.7840    27.9830    22.6710   -16.6760 
  149.5000     2.1690    68.5690    34.5440    30.7900    28.6290    22.6240   -16.5660 
  149.6250     2.1600    66.0300    39.5660    35.0580    33.3170    22.5710   -16.4820 
  149.7500     2.1520    65.7050    44.9270    39.8370    43.2090    22.4990   -16.3470 
  149.8750     2.1430    66.1840    49.7250    44.3590    52.0450    22.4050   -16.2060 
  150.0000     2.1340    66.8080    53.2490    47.9300    53.0730    22.3230   -16.0780 
  150.1250     2.1220    68.7170    55.1810    50.1130    51.0030    22.3310   -15.9560 
  150.2500     2.1110    71.0370    56.3600    51.4970    52.8230    22.4110   -15.8160 
  150.3750     2.1050    70.8740    57.4920    52.6610    53.1150    22.4810   -15.6710 
  150.5000     2.1110    68.5190    59.0080    54.0260    49.7020    22.4520   -15.4860 
  150.6250     2.1330    66.4010    60.9510    55.7220    47.8890    22.1730   -15.2390 
  150.7500     2.1620    64.7640    62.9290    57.5140    46.3620    21.6230   -14.9890 
  150.8750     2.1830    63.3460    64.6410    59.1960    47.4860    20.8560   -14.7250 
  151.0000     2.1850    62.2970    65.9320    60.6360    47.9610    19.9710   -14.4550 
  151.1250     2.1670    61.9230    66.7820    61.7680    45.5380    19.0120   -14.1270 
  151.2500     2.1400    62.3780    67.4520    62.7380    41.1100    18.0410   -13.8050 
  151.3750     2.1160    63.7340    68.1250    63.6890    38.2430    17.1550   -13.5150 
  151.5000     2.0970    64.2970    68.8660    64.7020    37.5360    16.4620   -13.2470 
  151.6250     2.0860    63.0080    69.5790    65.7270    38.8000    16.0290   -13.0550 
  151.7500     2.0820    62.2690    70.1640    66.6640    41.7500    15.7410   -12.8990 
  151.8750     2.0830    62.3260    70.6840    67.5180    43.9100    15.5160   -12.8120 
