~V
VERS. 2.00: Ver 2.00
~W
STRT.M 50.0000:
STOP.M 280.0000:
STEP.M 0.1250:
NULL. -999.2500:
UWI. F10023:
~C
DEPT.M :
SP.MV :
DEN.GM/CC :
GR.API :
CALI.CM :
RXO.OHMM :
RI. :
RML.OHMM :
~A
# ...
  151.2500   -17.3360     2.1150    78.4700    22.6400    18.3550    23.5100    24.2990 
  151.3750   -17.4290     2.0910    80.0810    22.4420    17.6700    23.1630    23.9530 
  151.5000   -17.4460     2.0870    80.6730    22.4290    17.5210    23.0110    23.8540 
  151.6250   -17.3790     2.0880    79.7360    22.6260    17.8840    23.1020    23.9980 
  151.7500   -17.3330     2.0900    79.4590    22.6700    18.7040    23.3330    24.1890 
  151.8750   -17.3330     2.0950    80.4230    22.7150    19.3270    23.6010    24.4090 
  152.0000   -17.3790     2.1010    79.9150    22.7900    19.4210    23.8630    24.6790 
  152.1250   -17.4480     2.1080    78.2670    22.8550    19.2510    24.2030    25.0290 
  152.2500   -17.4550     2.1150    78.3980    22.8560    19.4010    24.7100    25.5520 
  152.3750   -17.4080     2.1190    80.1900    23.0670    20.0840    25.3970    26.2590 
  152.5000   -17.3790     2.1160    80.1320    23.3590    20.9220    26.1570    27.0420 
  152.6250   -17.3820     2.1070    77.0440    23.4930    21.2470    26.6900    27.5910 
  152.7500   -17.4550     2.1000    74.4670    23.4700    20.8520    26.6870    27.5870 
  152.8750   -17.5740     2.0950    72.9520    23.3420    19.5880    25.9530    26.8320 
  153.0000   -17.6470     2.0900    72.1800    23.1510    17.7170    24.5430    25.3800 
  153.1250   -17.6640     2.0840    75.5420    22.9690    15.8290    22.7420    23.5240 
  153.2500   -17.6440     2.0770    83.2420    22.8200    14.2360    21.0620    21.7940 
  153.3750   -17.5880     2.0670    91.1900    22.7450    12.8670    19.8560    20.5520 
  153.5000   -17.5070     2.0550    93.0970    22.6660    12.1310    19.3600    20.0410 
  153.6250   -17.4380     2.0520    88.3550    22.5810    12.6360    19.8410    20.5360 
  153.7500   -17.3120     2.0560    84.4560    22.5020    14.3400    21.1790    21.9140 
  153.8750   -17.1300     2.0620    83.3780    22.4180    16.9440    23.2410    24.0380 
  154.0000   -16.9400     2.0650    83.0080    22.3740    19.3410    25.6560    26.5260 
  154.1250   -16.7460     2.0670    80.3600    22.2730    19.5660    27.6500    28.5800 
  154.2500   -16.6440     2.0740    75.8780    21.9670    17.5150    28.6380    29.5970 
  154.3750   -16.6510     2.0830    71.3410    21.1890    14.7560    28.5410    29.4970 
  154.5000   -16.7440     2.0880    68.0250    20.0100    12.8100    27.8030    28.7370 
  154.6250   -16.8620     2.0920    67.6060    19.0430    12.0650    27.1830    28.0990 
  154.7500   -16.9060     2.1030    70.9700    18.6120    12.1600    27.1850    28.1000 
  154.8750   -16.9050     2.1160    75.9050    18.6620    13.3520    27.9470    28.8860 
  155.0000   -16.9340     2.1230    77.3190    19.1660    16.6930    29.3700    30.3510 
  155.1250   -16.9990     2.1140    74.5620    20.1970    24.1460    31.0740    32.1070 
  155.2500   -17.0460     2.0960    72.8380    21.3490    29.7440    32.3970    33.4690 
  155.3750   -17.0660     2.0790    71.7050    22.1850    28.5830    32.9180    34.0050 
  155.5000   -17.0370     2.0680    70.0020    22.5750    23.3510    32.5870    33.6650 
  155.6250   -16.9670     2.0720    70.5820    22.5420    20.5960    31.6570    32.7070 
  155.7500   -16.9460     2.0840    72.8440    22.3190    19.8390    30.6440    31.6640 
  155.8750   -16.9880     2.0930    72.3870    22.1070    19.6590    29.8110    30.8050 
  156.0000   -17.0740     2.0950    69.1230    22.0410    20.1020    29.2440    30.2210 
  156.1250   -17.2070     2.0930    68.4970    22.2770    21.6210    28.8980    29.8650 
  156.2500   -17.3000     2.0920    70.2600    22.7420    23.4360    28.6020    29.5600 
  156.3750   -17.3560     2.0910    71.7470    23.3260    24.7200    28.2400    29.1870 
  156.5000   -17.4090     2.0890    73.1320    23.8260    24.8840    27.7220    28.6540 
  156.6250   -17.4900     2.0880    74.8800    24.0330    23.6490    27.0150    27.9250 
  156.7500   -17.6410     2.0890    74.9840    24.0850    21.8260    26.2440    27.1320 
  156.8750   -17.8240     2.0890    72.3400    24.0770    20.6310    25.5330    26.3990 
  157.0000   -17.9710     2.0890    69.3290    24.0430    21.0940    24.9940    25.8440 
  157.1250   -18.0620     2.0880    71.3400    23.9890    21.7470    24.7700    25.6140 
  157.2500   -18.1600     2.0880    76.8760    23.9980    21.5150    24.8460    25.6910 
  157.3750   -18.2760     2.0860    78.6510    24.0620    20.9090    25.1610    26.0160 
  157.5000   -18.4160     2.0810    74.9060    24.1220    21.1110    25.6010    26.4690 
  157.6250   -18.6130     2.0740    71.9740    24.1220    22.1560    25.8910    26.7680 
  157.7500   -18.8340     2.0720    73.4450    24.1020    22.2530    25.6070    26.4760 
  157.8750   -19.0370     2.0780    75.6610    24.0920    20.7530    24.3930    25.2250 
  158.0000   -19.1780     2.0930    76.0940    24.0890    18.5630    22.2890    23.0580 
  158.1250   -19.2520     2.1250    76.1580    24.0660    16.5790    19.8360    20.5310 
  158.2500   -19.2970     2.1680    79.0860    24.0180    14.6430    17.7540    18.3870 
  158.3750   -19.3110     2.2000    85.3260    23.9830    13.2700    16.4160    17.0080 
  158.5000   -19.3130     2.2000    92.7710    24.0000    13.8230    15.9820    16.5610 
  158.6250   -19.2330     2.1640    94.7060    24.0400    16.0660    16.5630    17.1600 
  158.7500   -19.0560     2.1260    91.4330    24.0780    18.3910    17.7960    18.4300 
  158.8750   -18.8250     2.1010    87.9930    24.1100    19.5930    19.3190    19.9990 
  159.0000   -18.5810     2.0920    87.0890    24.1450    19.9090    20.6520    21.3720 
  159.1250   -18.4040     2.0920    86.1460    24.2050    19.3240    21.2910    22.0300 
  159.2500   -18.3060     2.1030    83.2650    24.3080    17.7120    21.3900    22.1320 
  159.3750   -18.2450     2.1270    79.6250    24.3820    15.5600    21.2850    22.0230 
  159.5000   -18.1720     2.1580    78.1010    24.3330    14.1530    21.2490    21.9860 
  159.6250   -18.0790     2.1740    81.1230    24.1610    15.0740    21.4060    22.1480 
  159.7500   -17.9310     2.1690    86.6220    24.0900    17.4950    21.6840    22.4340 
  159.8750   -17.7740     2.1530    88.2000    24.2860    18.9740    21.9900    22.7500 
  160.0000   -17.6840     2.1320    82.4970    24.6850    18.3340    22.2530    23.0200 
  160.1250   -17.6290     2.1140    75.4330    24.6820    17.8220    22.4830    23.2570 
  160.2500   -17.5740     2.1080    74.3230    24.2370    18.5000    22.7440    23.5260 
  160.3750   -17.5330     2.1130    76.5430    23.7620    19.6580    23.0340    23.8250 
  160.5000   -17.4950     2.1190    75.6030    23.5570    20.0770    23.3060    24.1050 
  160.6250   -17.4760     2.1170    71.9420    23.5880    19.7140    23.5520    24.3590 
  160.7500   -17.5440     2.1150    71.6090    23.6120    19.3070    23.8330    24.6480 
  160.8750   -17.7070     2.1160    73.6740    23.4550    19.0480    24.1650    24.9900 
  161.0000   -17.9280     2.1140    74.7300    23.2620    19.1000    24.4330    25.2660 
  161.1250   -18.1580     2.1090    73.5440    23.1950    20.0760    24.1510    24.9760 
  161.2500   -18.3520     2.1160    74.0600    23.2590    21.1520    22.8750    23.6610 
  161.3750   -18.5230     2.1400    77.2470    23.3780    20.6890    20.5570    21.2740 
  161.5000   -18.6840     2.1700    81.2000    23.4670    18.1350    17.7470    18.3790 
  161.6250   -18.8640     2.1900    85.8100    23.4440    14.6410    15.3130    15.8720 
  161.7500   -19.0500     2.1870    89.9750    23.3010    12.1740    13.6890    14.2000 
  161.8750   -19.1630     2.1580    93.1350    23.0760    11.8090    13.0300    13.5210 
  162.0000   -19.1780     2.1130    93.3410    22.9180    13.5130    13.3650    13.8660 
  162.1250   -19.1200     2.0770    89.0190    22.9730    15.1470    14.7820    15.3250 
  162.2500   -19.0410     2.0640    85.4400    23.0530    15.7570    16.9160    17.5230 
  162.3750   -18.9940     2.0650    82.8660    23.0560    16.2810    19.3380    20.0180 
