~V
VERS. 2.00: Ver 2.00
~W
STRT.M 50.0000:
STOP.M 313.0000:
STEP.M 0.1250:
NULL. -999.2500:
UWI. F10034:
~C
DEPT.M :
GR.API :
RML.OHMM :
RI. :
RXO.OHMM :
CALI.CM :
DEN.GM/CC :
SP.MV :
~A
# ...
  151.2500    56.2810     7.9250     7.1460     8.1130    23.0340     2.2300   -17.4520 
  151.3750    54.4810     7.6440     6.9860     7.7420    23.0930     2.2250   -16.9880 
  151.5000    55.3570     7.1350     6.5750     7.2070    23.1530     2.2280   -16.3260 
  151.6250    57.8070     6.4460     5.9580     6.4490    23.1910     2.2470   -15.5130 
  151.7500    61.6980     5.7260     5.2880     5.6000    23.2630     2.2790   -14.6460 
  151.8750    68.2860     5.0920     4.6770     4.9080    23.4050     2.3200   -13.8280 
  152.0000    75.5420     4.6410     4.2110     4.5450    23.5860     2.3630   -13.1480 
  152.1250    77.7160     4.4710     3.9720     4.4570    23.7300     2.3990   -12.7180 
  152.2500    74.8130     4.5400     3.9380     4.6860    23.7890     2.4220   -12.5930 
  152.3750    73.4820     4.8060     4.0850     5.2020    23.7520     2.4230   -12.8030 
  152.5000    75.3740     5.2090     4.3790     5.9760    23.6010     2.4010   -13.3810 
  152.6250    76.0490     5.6970     4.7860     6.8720    23.3480     2.3600   -14.3860 
  152.7500    73.5680     6.2020     5.2370     7.5370    23.1720     2.3160   -15.6430 
  152.8750    70.4540     6.6890     5.6930     7.7730    23.1090     2.2790   -17.0250 
  153.0000    68.4690     7.1310     6.1170     8.0710    23.1560     2.2550   -18.4430 
  153.1250    65.2120     7.4900     6.4660     8.6100    23.2030     2.2440   -19.8120 
  153.2500    61.4210     7.7560     6.7290     9.0840    23.1610     2.2370   -21.0800 
  153.3750    58.9840     7.9210     6.8980     9.2820    23.0230     2.2310   -22.1840 
  153.5000    58.1270     7.9910     6.9800     9.1780    22.8580     2.2250   -23.0650 
  153.6250    58.5090     7.9850     6.9870     9.0200    22.7890     2.2200   -23.6510 
  153.7500    57.5090     7.9540     6.9600     8.9790    22.8480     2.2180   -24.0080 
  153.8750    54.6860     7.9320     6.9250     9.0510    22.9830     2.2210   -24.1830 
  154.0000    52.4520     7.9360     6.8980     9.1770    23.1160     2.2270   -24.1710 
  154.1250    54.3960     7.9610     6.8890     9.2600    23.2050     2.2330   -23.9550 
  154.2500    58.8160     7.9900     6.8940     9.3110    23.2160     2.2370   -23.5860 
  154.3750    60.6410     8.0200     6.9170     9.3250    23.1630     2.2380   -23.1070 
  154.5000    58.4860     8.0600     6.9680     9.3050    23.0930     2.2340   -22.5370 
  154.6250    55.7490     8.1240     7.0600     9.2750    23.0890     2.2250   -21.8600 
  154.7500    54.8340     8.1910     7.1670     9.2830    23.1330     2.2160   -21.0820 
  154.8750    55.4040     8.2050     7.2410     9.2770    23.1680     2.2110   -20.1900 
  155.0000    57.1550     8.0950     7.2180     9.2050    23.1800     2.2130   -19.2000 
  155.1250    58.6820     7.7890     7.0190     8.9240    23.1940     2.2280   -18.1170 
  155.2500    60.9340     7.3530     6.6800     8.3970    23.2510     2.2520   -16.9390 
  155.3750    65.9800     6.8840     6.2690     7.5780    23.3740     2.2800   -15.7200 
  155.5000    73.0120     6.4870     5.8760     6.6170    23.5330     2.3040   -14.5500 
  155.6250    75.9830     6.2520     5.5830     5.9250    23.6300     2.3160   -13.5150 
  155.7500    73.1590     6.1340     5.3850     5.8580    23.6040     2.3190   -12.6220 
  155.8750    69.5420     6.0550     5.2440     6.1490    23.4890     2.3190   -11.8810 
  156.0000    70.0260     5.9170     5.1020     6.3520    23.4110     2.3220   -11.2810 
  156.1250    72.7550     5.6200     4.8960     6.1570    23.4120     2.3320   -10.8570 
  156.2500    72.4340     5.1950     4.6290     5.7310    23.4590     2.3430   -10.6160 
  156.3750    70.4140     4.7530     4.3530     5.4860    23.5030     2.3510   -10.5220 
  156.5000    71.9820     4.5060     4.1830     5.4400    23.5210     2.3510   -10.5370 
  156.6250    76.9070     4.8130     4.3510     5.7910    23.5220     2.3470   -10.6140 
  156.7500    77.5050     5.7570     4.9680     6.9250    23.5280     2.3540   -10.7300 
  156.8750    73.4470     7.2450     6.0420     9.7970    23.5520     2.3820   -10.9110 
  157.0000    69.5460     8.9350     7.3990    14.4230    23.6280     2.4330   -11.1860 
  157.1250    67.5880    10.1760     8.5920    19.7130    23.7540     2.4910   -11.5720 
  157.2500    64.5850    10.5190     9.1550    23.4530    23.8470     2.5250   -12.0750 
  157.3750    60.7430     9.8750     8.8710    21.5740    23.7770     2.5160   -12.6920 
  157.5000    58.8300     8.5860     7.9120    13.6750    23.5710     2.4680   -13.3730 
  157.6250    59.9950     7.2940     6.7740     8.1960    23.3930     2.4020   -14.0870 
  157.7500    62.3350     6.4340     5.8930     7.1540    23.3030     2.3490   -14.8080 
  157.8750    63.5910     6.0710     5.3800     7.2090    23.2360     2.3190   -15.5010 
  158.0000    62.5450     6.0900     5.2020     7.3850    23.1950     2.3090   -16.1700 
  158.1250    61.0230     6.3350     5.2900     7.3960    23.1920     2.3110   -16.8150 
  158.2500    61.5190     6.6270     5.4990     7.4030    23.2050     2.3130   -17.4340 
  158.3750    63.5660     6.9160     5.7660     7.6430    23.1920     2.3110   -18.0060 
  158.5000    65.2340     7.1940     6.0590     8.0930    23.1450     2.3020   -18.5150 
  158.6250    65.7740     7.4580     6.3560     8.6770    23.1210     2.2880   -18.9940 
  158.7500    65.1840     7.6900     6.6250     9.1910    23.1260     2.2710   -19.4490 
  158.8750    62.4130     7.8600     6.8390     9.6810    23.1450     2.2550   -19.8590 
  159.0000    57.3470     7.9480     6.9730     9.8360    23.1470     2.2440   -20.2010 
  159.1250    54.7010     7.9350     7.0060     9.7280    23.1410     2.2400   -20.4520 
  159.2500    55.6410     7.8630     6.9720     9.5570    23.1840     2.2430   -20.5890 
  159.3750    58.3440     7.7780     6.9060     9.3490    23.2290     2.2510   -20.6220 
  159.5000    60.3830     7.7260     6.8490     9.0440    23.2480     2.2590   -20.5630 
  159.6250    61.7430     7.7380     6.8250     8.6900    23.2480     2.2630   -20.3780 
  159.7500    61.4540     7.7590     6.8040     8.3840    23.2470     2.2590   -20.0870 
  159.8750    59.1840     7.7020     6.7280     8.2850    23.2610     2.2500   -19.6860 
  160.0000    56.9170     7.4830     6.5310     8.2800    23.3080     2.2390   -19.1600 
  160.1250    58.4540     7.0480     6.1600     7.9650    23.4020     2.2350   -18.4600 
  160.2500    63.1250     6.5010     5.6810     7.2220    23.4990     2.2430   -17.6380 
  160.3750    67.9650     5.9650     5.1810     6.2730    23.6600     2.2620   -16.7660 
  160.5000    71.7260     5.5570     4.7580     5.4240    23.8790     2.2870   -15.9640 
  160.6250    75.3280     5.3890     4.5230     5.1710    24.0170     2.3090   -15.3870 
  160.7500    77.6130     5.4400     4.4810     5.2620    24.0410     2.3190   -15.1130 
  160.8750    76.6020     5.6860     4.6280     5.5270    23.9580     2.3180   -15.1910 
  161.0000    73.2010     6.0880     4.9320     5.9410    23.7550     2.3070   -15.6420 
  161.1250    71.6950     6.6090     5.3600     6.5970    23.4570     2.2910   -16.5100 
  161.2500    71.1900     7.1600     5.8320     7.3690    23.2830     2.2760   -17.6480 
  161.3750    69.5860     7.6680     6.2960     8.1270    23.2690     2.2620   -18.9310 
  161.5000    66.2930     8.0720     6.7080     8.7510    23.3320     2.2520   -20.2210 
  161.6250    61.6630     8.3160     7.0190     9.1340    23.3380     2.2440   -21.3400 
  161.7500    58.5560     8.4460     7.2320     9.4130    23.2940     2.2380   -22.1870 
  161.8750    58.2770     8.5080     7.3580     9.5820    23.2440     2.2340   -22.7320 
  162.0000    58.5680     8.5410     7.4090     9.5940    23.1930     2.2310   -22.9630 
  162.1250    58.0280     8.5400     7.3790     9.2340    23.1270     2.2290   -22.8580 
  162.2500    58.9740     8.4620     7.2620     8.4960    23.0910     2.2280   -22.5370 
  162.3750    63.0020     8.2620     7.0430     7.8730    23.0790     2.2280   -22.0180 
