~V
VERS. 2.00: Ver 2.00
~W
STRT.M 50.0000:
STOP.M 265.0000:
STEP.M 0.1250:
NULL. -999.2500:
UWI. F10025:
~C
DEPT.M :
SP.MV :
DEN.GM/CC :
GR.API :
CALI.CM :
RXO.OHMM :
RI. :
RML.OHMM :
~A
# ...
  162.5000    -8.9890     2.2540    97.7750    24.2510    10.7250     8.4470     9.2740 
  162.6250    -9.0850     2.3180    91.9620    24.2810    14.4110    10.1680    11.3000 
  162.7500    -9.2060     2.3770    90.3340    24.2930    18.1330    12.1560    13.4470 
  162.8750    -9.3440     2.3930    94.0410    24.2820    17.9650    13.5430    14.6940 
  163.0000    -9.5260     2.3540    95.7410    24.2250    14.5140    13.6350    14.4690 
  163.1250    -9.6080     2.2870    92.2100    24.0980    10.9530    12.5010    13.0190 
  163.2500    -9.6330     2.2340    88.6080    23.9540     9.2440    10.8160    11.1670 
  163.3750    -9.6200     2.2060    89.3400    23.7700     8.7560     9.3170     9.7330 
  163.5000    -9.5500     2.2010    91.8320    23.6030     8.5810     8.3080     8.9440 
  163.6250    -9.5230     2.2100    94.3220    23.7500     8.4830     7.8710     8.8210 
  163.7500    -9.4190     2.2140    96.8660    24.0580     8.7530     8.0320     9.3460 
  163.8750    -9.2510     2.2020    98.8690    24.3270     9.7050     8.9120    10.6150 
  164.0000    -8.9830     2.1740    98.4390    24.4530    11.2570    10.4050    12.4820 
  164.1250    -8.6730     2.1460    96.1480    24.4520    13.1650    12.4230    14.8100 
  164.2500    -8.3850     2.1320    93.4400    24.4210    14.9790    14.7230    17.2770 
  164.3750    -8.0650     2.1330    90.4700    24.3600    16.1040    16.7980    19.2720 
  164.5000    -7.7810     2.1390    86.8260    24.2790    16.3840    18.2490    20.4770 
  164.6250    -7.4400     2.1410    81.9260    24.1410    16.2150    19.0070    20.9590 
  164.7500    -7.0860     2.1380    79.1050    23.9740    15.8710    19.2750    21.0420 
  164.8750    -6.7690     2.1340    81.8060    23.8480    15.4370    19.3180    21.0440 
  165.0000    -6.5310     2.1290    84.8260    23.8000    15.0840    19.3290    21.0870 
  165.1250    -6.3200     2.1270    83.6640    23.7840    14.9490    19.3130    21.0950 
  165.2500    -6.0860     2.1310    80.0110    23.7440    14.9630    19.2130    20.9540 
  165.3750    -5.9060     2.1380    79.8730    23.6890    14.9310    18.9780    20.6170 
  165.5000    -5.6590     2.1370    82.5090    23.6590    14.7000    18.7120    20.2690 
  165.6250    -5.3990     2.1260    84.6470    23.6490    14.2410    18.5770    20.1530 
  165.7500    -5.1220     2.1160    84.0860    23.6230    13.6760    18.7590    20.5090 
  165.8750    -4.8080     2.1140    81.1530    23.5560    13.3840    19.4940    21.5480 
  166.0000    -4.4200     2.1120    78.9530    23.4600    13.8160    20.6870    23.0170 
  166.1250    -4.0370     2.1020    77.7050    23.3010    15.0760    22.0900    24.5250 
  166.2500    -3.7000     2.0910    76.3080    23.1220    16.5940    23.2810    25.5830 
  166.3750    -3.3730     2.0880    74.5550    22.9830    17.3900    23.6900    25.6470 
  166.5000    -3.1210     2.0920    73.8380    22.9850    17.3440    23.2270    24.7990 
  166.6250    -2.8940     2.1030    75.5220    23.2090    17.0060    22.0360    23.2940 
  166.7500    -2.7550     2.1200    78.2280    23.5160    16.9940    20.4950    21.5510 
  166.8750    -2.6530     2.1430    78.4120    23.7580    16.5170    19.0920    20.0670 
  167.0000    -2.6450     2.1630    75.7980    23.8980    14.8850    18.1260    19.1200 
  167.1250    -2.6560     2.1670    74.0070    24.0240    12.6950    17.7720    18.8950 
  167.2500    -2.6600     2.1590    76.3200    24.1190    12.1500    18.1510    19.5050 
  167.3750    -2.6560     2.1430    79.4680    24.1260    14.0640    19.4290    21.1010 
  167.5000    -2.6090     2.1210    78.9290    24.0090    16.5500    21.3630    23.3840 
  167.6250    -2.5780     2.0990    74.4270    23.8980    18.4990    23.6510    25.9840 
  167.7500    -2.5440     2.0880    69.2120    23.9210    19.5630    25.7570    28.2600 
  167.8750    -2.5250     2.0850    67.3790    24.0130    19.7700    26.8720    29.2790 
  168.0000    -2.5170     2.0810    68.3720    24.1070    19.3060    26.9110    29.0560 
  168.1250    -2.5570     2.0760    68.8270    24.1850    18.2760    26.1780    28.0460 
  168.2500    -2.6760     2.0820    67.5930    24.2170    16.8000    25.1200    26.8020 
  168.3750    -2.7950     2.1010    67.3220    24.2230    15.7700    24.1370    25.7800 
  168.5000    -2.9320     2.1200    69.1880    24.2330    15.8840    23.4440    25.1360 
  168.6250    -3.1160     2.1220    70.9820    24.2900    16.8830    23.0800    24.8450 
  168.7500    -3.2860     2.1120    70.2510    24.3840    17.5900    22.9410    24.7480 
  168.8750    -3.4640     2.1030    67.9290    24.4310    17.2880    22.8390    24.6350 
  169.0000    -3.5910     2.1040    67.9630    24.3830    16.8920    22.6420    24.3810 
  169.1250    -3.6960     2.1070    71.6330    24.2010    16.5310    22.3670    23.9910 
  169.2500    -3.7400     2.1030    76.1500    23.9460    16.1560    22.0980    23.5320 
  169.3750    -3.7750     2.0990    76.6620    23.6590    16.3100    21.8740    23.0520 
  169.5000    -3.8100     2.1050    75.7920    23.3410    16.6660    21.5960    22.5220 
  169.6250    -3.7780     2.1200    76.7180    23.0810    16.3750    21.1620    21.8980 
  169.7500    -3.7710     2.1330    80.4430    22.9960    15.4670    20.5620    21.2070 
  169.8750    -3.7490     2.1400    82.5820    23.0720    14.3970    19.9270    20.5850 
  170.0000    -3.7610     2.1430    81.9360    23.2510    13.6030    19.4680    20.2100 
  170.1250    -3.7490     2.1390    79.6630    23.5080    13.6510    19.3430    20.2420 
  170.2500    -3.7030     2.1270    76.1110    23.6880    14.4400    19.6310    20.7530 
  170.3750    -3.6760     2.1090    71.4650    23.8090    14.7830    20.3260    21.6900 
  170.5000    -3.6330     2.0940    68.6030    23.9380    14.7160    21.1480    22.6810 
  170.6250    -3.6620     2.0880    69.8530    24.1200    14.7020    21.8390    23.4070 
  170.7500    -3.6760     2.0900    73.9360    24.2640    15.0430    22.2180    23.7000 
  170.8750    -3.6990     2.0960    75.7450    24.3340    15.5700    22.2630    23.6190 
  171.0000    -3.7130     2.1020    75.2130    24.3130    15.7570    22.1910    23.4680 
  171.1250    -3.7390     2.1020    73.7360    24.2140    15.6650    22.1190    23.3750 
  171.2500    -3.7890     2.1030    71.2560    24.1210    15.7160    22.0730    23.3390 
  171.3750    -3.8160     2.1110    69.3280    24.0950    16.1620    22.0160    23.2850 
  171.5000    -3.9320     2.1200    70.0280    24.1210    16.5340    21.9120    23.1680 
  171.6250    -4.0340     2.1170    72.7710    24.1810    16.4100    21.7960    23.0470 
  171.7500    -4.1060     2.1080    75.0200    24.2080    15.9370    21.7870    23.0920 
  171.8750    -4.1960     2.1130    75.7630    24.1950    15.7440    22.1170    23.5710 
  172.0000    -4.2920     2.1440    75.8560    24.1130    16.2490    22.8630    24.5200 
  172.1250    -4.4930     2.1910    72.6810    23.9250    17.7910    24.0100    25.8480 
  172.2500    -4.7560     2.2200    66.1550    23.6390    20.4390    25.3060    27.1700 
  172.3750    -5.0270     2.2170    62.2340    23.4320    22.2330    25.9730    27.5010 
  172.5000    -5.2250     2.1930    64.4000    23.5010    21.2920    25.4200    26.3280 
  172.6250    -5.4790     2.1790    70.4350    23.7910    18.8680    23.6960    23.9150 
  172.7500    -5.7870     2.1910    75.9290    23.9880    16.8990    21.4390    21.1340 
  172.8750    -6.0990     2.2260    78.1480    23.9960    15.3390    19.4400    18.9490 
  173.0000    -6.4210     2.2650    77.7950    23.8150    14.7470    18.0580    17.6560 
  173.1250    -6.5960     2.2730    75.8190    23.5180    15.8190    17.3230    17.1830 
  173.2500    -6.7050     2.2360    73.5340    23.2830    17.0050    17.0650    17.2300 
  173.3750    -6.7900     2.1690    73.5930    23.2990    15.7790    17.0250    17.4090 
  173.5000    -6.8540     2.1120    75.7880    23.4380    13.7080    16.9640    17.4470 
  173.6250    -6.8020     2.1010    78.6130    23.5390    12.4370    16.8450    17.3440 
