~V
VERS. 2.00: Ver 2.00
~W
STRT.M 55.0000:
STOP.M 293.0000:
STEP.M 0.1250:
NULL. -999.2500:
UWI. F10038:
~C
DEPT.M :
SP.MV :
DEN.GM/CC :
GR.API :
RML.OHMM :
RI. :
RXO.OHMM :
CALI.CM :
~A
# ...
  280.0000    -5.2230     2.3030    32.5800     4.0990     3.5950     4.2650    23.9040 
  280.1250    -5.2670     2.3000    33.6430     4.1750     3.6780     4.6150    23.8900 
  280.2500    -5.2990     2.2980    34.6440     4.2580     3.7670     4.9190    23.8600 
  280.3750    -5.3080     2.2960    35.3520     4.3420     3.8560     4.9630    23.8490 
  280.5000    -5.3270     2.2930    35.3650     4.4140     3.9400     4.6160    23.8980 
  280.6250    -5.3250     2.2890    34.3810     4.4520     3.9990     4.3910    24.0410 
  280.7500    -5.3510     2.2850    33.1220     4.4480     4.0200     4.1880    24.1470 
  280.8750    -5.3770     2.2830    32.4560     4.4010     3.9960     4.0910    24.2590 
  281.0000    -5.3880     2.2790    33.0490     4.3200     3.9300     4.0820    24.4050 
  281.1250    -5.3980     2.2700    34.5330     4.2200     3.8340     4.0760    24.4790 
  281.2500    -5.4300     2.2530    35.9650     4.1270     3.7350     4.0830    24.5610 
  281.3750    -5.4760     2.2350    36.8870     4.0610     3.6560     4.1460    24.6990 
  281.5000    -5.5220     2.2230    36.2940     4.0420     3.6180     4.2890    24.8490 
  281.6250    -5.5750     2.2280    33.8400     4.0880     3.6370     4.4180    24.9100 
  281.7500    -5.6040     2.2470    32.1310     4.1860     3.7060     4.4770    24.9300 
  281.8750    -5.6750     2.2730    32.7980     4.3190     3.8120     4.5850    24.9170 
  282.0000    -5.7910     2.2960    33.0970     4.4610     3.9380     4.8500    24.8570 
  282.1250    -5.9330     2.3100    33.0970     4.5790     4.0560     5.1000    24.7980 
  282.2500    -6.0380     2.3170    33.0970     4.6520     4.1450     5.2210    24.7770 
  282.3750    -6.0880     2.3190    33.0970     4.6710     4.1900     5.1600    24.7330 
  282.5000    -6.1020     2.3180    33.0970     4.6410     4.1880     4.9790    24.6490 
  282.6250    -6.1130     2.3180    33.0970     4.5790     4.1460     4.6970    24.6130 
  282.7500    -6.1330     2.3240    33.0970     4.5170     4.0920     4.4660    24.6780 
  282.8750    -6.1340     2.3370    33.0970     4.4690     4.0400     4.3010    24.7190 
  283.0000    -6.1020     2.3530    33.0970     4.4320     3.9970     4.2540    24.6750 
  283.1250    -6.0400     2.3680    33.0970     4.3880     3.9560     4.3030    24.5790 
  283.2500    -5.9860     2.3760    33.0970     4.3240     3.9070     4.3230    24.4790 
  283.3750    -5.9690     2.3760    33.0970     4.2440     3.8490     4.1660    24.4410 
  283.5000    -5.9500     2.3690    33.0970     4.1690     3.7920     3.9480    24.4560 
  283.6250    -5.9140     2.3610    33.0970     4.1340     3.7540     3.8480    24.5380 
  283.7500    -5.8950     2.3520    33.0970     4.1440     3.7450     3.9410    24.5820 
  283.8750    -5.8790     2.3440    33.0970     4.1900     3.7650     4.1560    24.6060 
  284.0000    -5.8580     2.3320    33.0970     4.2470     3.8030     4.3520    24.6340 
  284.1250    -5.8630     2.3140    33.0970     4.2840     3.8390     4.4240    24.6870 
  284.2500    -5.8830     2.2940    33.0970     4.2890     3.8570     4.3570    24.7500 
  284.3750    -5.8930     2.2770    33.0970     4.2610     3.8500     4.3020    24.8710 
  284.5000    -5.9250     2.2660    33.0970     4.2130     3.8230     4.2590    25.1700 
  284.6250    -6.0020     2.2670    33.0970     4.1640     3.7880     4.2440    25.5420 
  284.7500    -6.0230     2.2780    33.0970     4.1260     3.7560     4.2440    25.7790 
  284.8750    -6.0030     2.2960    33.0970     4.1020     3.7310     4.1460    25.5920 
  285.0000    -6.0110     2.3170    33.0970     4.0890     3.7140     3.9590    25.1890 
  285.1250    -6.0200     2.3320    33.0970     4.0810     3.7050     3.8930    24.8020 
  285.2500    -6.0540     2.3320    33.0970     4.0740     3.6990     3.8990    24.7060 
  285.3750    -6.1370     2.3050    33.0970     4.0690     3.7000     3.9550    24.7480 
  285.5000    -6.2310     2.2440    33.0970     4.0740     3.7120     4.0160    24.7120 
  285.6250    -6.2820     2.1510    33.0970     4.1050     3.7470     4.1140    24.4520 
  285.7500    -6.3560     2.0560    33.0970     4.1670     3.8050     4.3400    24.0560 
  285.8750    -6.3970     1.9830    33.0970     4.2560     3.8820     4.7620    23.6160 
  286.0000    -6.3890     1.9450    33.0970     4.3520     3.9640     5.4500    23.2510 
  286.1250    -6.3310     1.9420    33.0970     4.4220     4.0320     6.3490    22.9350 
  286.2500    -6.2280     1.9500    33.0970     4.4540     4.0750     7.1280    22.4940 
  286.3750    -6.0510     1.9510    33.0970     4.4510     4.0940     7.3340    21.7350 
  286.5000    -5.8100     1.9370    33.0970     4.4290     4.0960     6.5100    20.6930 
  286.6250    -5.5140     1.9160    33.0970     4.4010     4.0930     5.4390    19.4610 
  286.7500    -5.1990     1.9010    33.0970     4.3720     4.0920     5.0800    18.6020 
  286.8750    -4.9120     1.8980    33.0970     4.3340     4.0930     5.1120    18.1710 
  287.0000    -4.6380     1.9070    33.0970     4.2870     4.0920     5.2840    18.0270 
  287.1250    -4.3650     1.9220    33.0970     4.2580     4.0880     5.3990    18.1360 
  287.2500    -4.1190     1.9370    33.0970     4.2600     4.0840     5.4770    18.2030 
  287.3750    -3.9190     1.9460    33.0970     4.2750     4.0810     5.5520    17.9350 
  287.5000    -3.7470     1.9460    33.0970     4.2780     4.0810     5.5770    17.3570 
  287.6250    -3.6450     1.9360    33.0970     4.2630     4.0830     5.6300    16.8710 
  287.7500    -3.5910     1.9230    33.0970     4.2560     4.0860     5.6110    16.7030 
  287.8750    -3.5190     1.9140    33.0970     4.2600     4.0870     5.5710    16.7780 
  288.0000    -3.4360     1.9110    33.0970     4.2620     4.0870     5.5360    16.8340 
  288.1250    -3.3750     1.9170    33.0970     4.2620     4.0870     5.4740    16.7360 
  288.2500    -3.3170     1.9240    33.0970     4.2620     4.0870     5.4290    16.5510 
  288.3750    -3.2630     1.9230    33.0970     4.2620     4.0870     5.4780    16.3960 
  288.5000    -3.2220     1.9090    33.0970     4.2620     4.0870     5.5830    16.3280 
  288.6250    -3.2300     1.8810    33.0970     4.2620     4.0870     5.6640    16.3180 
  288.7500    -3.2370     1.8490    33.0970     4.2620     4.0870     5.6100    16.3150 
  288.8750    -3.2630     1.8210    33.0970     4.2620     4.0870     5.4970    16.3040 
  289.0000    -3.3440     1.8030    33.0970     4.2620     4.0870     5.4790    16.2810 
  289.1250    -3.4110     1.7980    33.0970     4.2620     4.0870     5.5160    16.2970 
  289.2500    -3.4420     1.7970    33.0970     4.2620     4.0870     5.5300    16.4030 
  289.3750    -3.5000     1.7980    33.0970     4.2620     4.0870     5.4990    16.6170 
  289.5000    -3.5940     1.7980    33.0970     4.2620     4.0870     5.4640    16.9920 
  289.6250    -3.6310     1.7960    33.0970     4.2620     4.0870     5.3630    17.5380 
  289.7500    -3.6340  -999.2500    33.0970     4.2620     4.0870     5.2250    18.0020 
  289.8750    -3.6420  -999.2500    33.0970     4.2620     4.0870     5.1110    18.1260 
  290.0000    -3.6250  -999.2500    33.0970     4.2620     4.0870     5.0830    17.9350 
  290.1250    -3.6280  -999.2500    33.0970     4.2620     4.0870     5.1170    17.6250 
  290.2500    -3.6310  -999.2500    33.0970     4.2620     4.0870     5.1100    17.4790 
  290.3750    -3.6020  -999.2500    33.0970     4.2620     4.0870     5.1020    17.4740 
  290.5000    -3.5760  -999.2500    33.0970     4.2620     4.0870     5.0880    17.5080 
  290.6250    -3.5950  -999.2500    33.0970     4.2620     4.0870     5.0940    17.5240 
  290.7500    -3.5790  -999.2500    33.0970     4.2620     4.0870     5.0380    17.4190 
  290.8750    -3.5460  -999.2500    33.0970     4.2620     4.0870     4.9580    17.1750 
  291.0000    -3.5090  -999.2500    33.0970     4.2620     4.0870     4.9390    16.7080 
  291.1250    -3.4880  -999.2500    33.0970     4.2620     4.0870     4.9450    16.0020 
