~V
VERS. 2.00: Ver 2.00
~W
STRT.M 50.0000:
STOP.M 212.0000:
STEP.M 0.1250:
NULL. -999.2500:
UWI. F10013:
~C
DEPT.M :
GR.API :
RML.OHMM :
RI. :
RXO.OHMM :
CALI.CM :
DEN.GM/CC :
SP.MV :
~A
# ...
  140.0000    62.0770    15.9090    14.8690    17.5190    23.3470     2.4500   -21.4030 
  140.1250    63.8200    15.8850    14.7680    17.5310    23.3220     2.4470   -21.5120 
  140.2500    68.5910    16.7720    15.3270    17.6320    23.2480     2.4470   -21.6090 
  140.3750    73.2390    18.5770    16.6570    18.1150    23.1420     2.4490   -21.6780 
  140.5000    74.3880    21.2710    18.7820    21.1420    23.0090     2.4570   -21.7230 
  140.6250    72.5990    24.4960    21.5440    27.1350    22.9150     2.4730   -21.7270 
  140.7500    72.2750    27.2970    24.1880    36.0650    22.9270     2.4910   -21.6970 
  140.8750    75.3650    28.7980    25.9080    45.6510    23.0660     2.5000   -21.6630 
  141.0000    78.1090    28.5370    26.1390    46.7010    23.2070     2.4950   -21.6340 
  141.1250    74.8620    26.6760    24.8030    36.2420    23.2830     2.4760   -21.6030 
  141.2500    69.0700    24.4260    22.8910    29.6480    23.2930     2.4540   -21.5410 
  141.3750    65.8220    22.5570    21.0920    26.4240    23.2670     2.4390   -21.4600 
  141.5000    65.9620    21.4370    19.8000    23.9420    23.2070     2.4330   -21.3860 
  141.6250    67.4950    21.1320    19.1760    23.4100    23.1740     2.4320   -21.3350 
  141.7500    68.1510    21.2190    18.9450    25.8320    23.1730     2.4290   -21.3110 
  141.8750    68.3570    21.3820    18.8530    26.5780    23.1990     2.4240   -21.2870 
  142.0000    67.7460    21.3700    18.6680    24.3740    23.2160     2.4210   -21.2240 
  142.1250    65.7950    20.9930    18.2070    22.7720    23.2480     2.4270   -21.1130 
  142.2500    62.6130    20.3090    17.5150    22.6490    23.3330     2.4410   -21.0080 
  142.3750    59.9480    19.4150    16.6790    22.8800    23.3880     2.4560   -20.9310 
  142.5000    60.6260    18.4460    15.8050    21.9460    23.4110     2.4660   -20.9030 
  142.6250    63.5770    17.5610    15.0010    19.1700    23.4090     2.4670   -20.9140 
  142.7500    63.2810    16.8630    14.3370    17.8630    23.4130     2.4630   -20.9160 
  142.8750    60.3130    16.4270    13.8780    18.1480    23.4130     2.4570   -20.9000 
  143.0000    59.3030    16.2960    13.6750    18.8050    23.4130     2.4520   -20.9050 
  143.1250    61.6330    16.4890    13.7710    18.3660    23.4110     2.4500   -20.9640 
  143.2500    62.9060    16.8000    14.0080    18.2110    23.4020     2.4530   -21.0770 
  143.3750    62.2280    16.9630    14.1670    19.1450    23.3880     2.4560   -21.2320 
  143.5000    61.9120    16.6750    13.9740    20.0470    23.3880     2.4570   -21.4020 
  143.6250    61.5170    15.6370    13.1380    19.7990    23.3650     2.4520   -21.6030 
  143.7500    58.4960    14.0640    11.8170    17.9560    23.3050     2.4420   -21.8490 
  143.8750    53.8910    12.2850    10.3310    15.1710    23.2050     2.4280   -22.1550 
  144.0000    50.1200    10.6860     9.1010    10.8250    23.0800     2.4100   -22.5030 
  144.1250    47.9390     9.6380     8.6090     8.7500    22.9920     2.3910   -22.8820 
  144.2500    46.3240     9.1190     8.5440     8.1720    22.9160     2.3780   -23.2700 
  144.3750    44.5130     9.0120     8.6220     8.3780    22.7980     2.3740   -23.6720 
  144.5000    42.7220     9.1290     8.6830     8.5720    22.6360     2.3780   -24.0920 
  144.6250    42.3920     9.2690     8.7150     8.5950    22.5900     2.3830   -24.5360 
  144.7500    45.0500     9.3250     8.7410     8.5890    22.6660     2.3840   -25.0000 
  144.8750    49.9360     9.3230     8.7780     8.5480    22.6800     2.3840   -25.4870 
  145.0000    55.1480     9.3530     8.8370     8.3880    22.5450     2.3850   -26.0240 
  145.1250    62.7610     9.5300     8.9070     8.2410    22.3860     2.3910   -26.6150 
  145.2500    73.4850     9.8540     8.9610     8.4190    22.3850     2.3970   -27.2550 
  145.3750    83.4320    10.2720     9.0090     9.1710    22.5770     2.3990   -27.9400 
  145.5000    89.2620    10.7090     9.1900    10.5210    22.8890     2.3910   -28.6380 
  145.6250    92.0780    11.1150     9.6520    11.7980    23.1490     2.3750   -29.2940 
  145.7500    93.9690    11.5500    10.2570    12.0830    23.2710     2.3580   -29.8790 
  145.8750    94.0430    12.1450    10.7540    12.2500    23.3220     2.3430   -30.3860 
  146.0000    91.8180    13.0360    11.2910    12.7550    23.3310     2.3360   -30.7770 
  146.1250    86.7880    14.3330    12.0910    14.6210    23.2840     2.3400   -31.0170 
  146.2500    82.7220    15.8540    13.0960    18.2960    23.1890     2.3520   -31.1080 
  146.3750    82.8030    17.3240    14.1450    22.7510    23.1410     2.3670   -31.0340 
  146.5000    86.6710    18.4240    15.0080    26.5120    23.2210     2.3800   -30.8400 
  146.6250    88.0100    18.8930    15.4510    24.7840    23.3960     2.3820   -30.5820 
  146.7500    84.9910    19.0440    15.6050    23.2090    23.4960     2.3780   -30.3050 
  146.8750    80.7730    19.3770    15.7680    23.8100    23.5150     2.3730   -30.0140 
  147.0000    77.8970    20.4870    16.3540    26.1860    23.4990     2.3700   -29.7560 
  147.1250    77.7370    23.1770    18.0060    26.0590    23.5170     2.3640   -29.5690 
  147.2500    79.1240    27.5410    20.9940    31.0910    23.5460     2.3510   -29.4370 
  147.3750    79.1670    33.4760    25.4850    44.3630    23.5100     2.3340   -29.3600 
  147.5000    75.0640    40.3850    31.2760    63.2940    23.3830     2.3180   -29.2950 
  147.6250    71.2920    47.0370    37.6120    76.2940    23.1920     2.3140   -29.2100 
  147.7500    73.3910    52.4090    43.3480    75.9940    23.0690     2.3180   -29.0920 
  147.8750    78.0240    56.3530    47.9550    74.3140    23.0260     2.3190   -28.9230 
  148.0000    79.2800    59.3340    51.4640    74.4690    23.0320     2.3090   -28.6750 
  148.1250    77.8660    61.2190    53.6100    78.6120    23.1180     2.2860   -28.3050 
  148.2500    79.1880    60.7040    53.5020    83.1650    23.1780     2.2600   -27.8400 
  148.3750    81.7890    56.0130    49.7230    84.8650    23.1840     2.2420   -27.2930 
  148.5000    82.3580    46.8680    41.9690    84.2210    23.1670     2.2370   -26.7000 
  148.6250    80.9760    35.4200    31.9340    72.4950    23.1470     2.2470   -26.0730 
  148.7500    77.9940    25.2120    22.7460    43.8910    23.0970     2.2660   -25.4340 
  148.8750    73.0520    17.7150    15.7650    20.3790    23.0030     2.2890   -24.8280 
  149.0000    66.7010    13.0060    11.2460    11.3950    22.8980     2.3110   -24.2610 
  149.1250    61.5670    10.7210     9.1750     9.6850    22.8060     2.3300   -23.7470 
  149.2500    58.1380     9.7360     8.6760     9.6230    22.7410     2.3440   -23.2920 
  149.3750    54.6040     9.5120     8.7760     9.0040    22.6870     2.3540   -22.9050 
  149.5000    50.5200     9.6340     9.0030     8.5350    22.6600     2.3610   -22.5910 
  149.6250    47.2830     9.7940     9.2600     8.4070    22.6870     2.3660   -22.3370 
  149.7500    45.8070     9.8380     9.3830     8.3910    22.7130     2.3700   -22.1280 
  149.8750    44.9650     9.7530     9.2940     8.3600    22.7170     2.3710   -21.9380 
  150.0000    42.9980     9.5680     9.0070     8.2270    22.6980     2.3690   -21.7630 
  150.1250    41.1170     9.3210     8.6240     8.0210    22.6790     2.3610   -21.6010 
  150.2500    40.5560     9.0630     8.2830     7.8580    22.7130     2.3520   -21.4470 
  150.3750    40.3400     8.8260     8.0410     7.6450    22.7600     2.3420   -21.2980 
  150.5000    39.8600     8.6310     7.8860     7.4340    22.7820     2.3350   -21.1550 
  150.6250    40.4620     8.4910     7.7740     7.3690    22.7820     2.3310   -21.0380 
  150.7500    42.9470     8.3990     7.6910     7.3310    22.7820     2.3290   -20.9400 
  150.8750    46.2500     8.3560     7.6610     7.2690    22.7820     2.3270   -20.8730 
  151.0000    49.0890     8.3640     7.6960     7.2150    22.7820     2.3250   -20.8400 
  151.1250    52.5520     8.4400     7.7810     7.3380    22.7870     2.3280   -20.8620 
