~V
VERS. 2.00: Ver 2.00
~W
STRT.M 51.0000:
STOP.M 313.0000:
STEP.M 0.1250:
NULL. -999.2500:
UWI. F10047:
~C
DEPT.M :
SP.MV :
GR.API :
RML.OHMM :
RI. :
RXO.OHMM :
CALI.CM :
DEN.GM/CC :
~A
# ...
  197.2500    -7.1410    64.9090    22.8250    22.7210    18.9340    19.6230     2.3530 
  197.3750    -7.0910    64.5830    21.7610    21.6690    17.4990    19.6710     2.3720 
  197.5000    -7.0200    60.6500    20.8710    20.7500    17.0370    19.7220     2.3930 
  197.6250    -6.9350    56.6100    20.4540    20.2450    17.6830    19.7430     2.4120 
  197.7500    -6.8310    55.1220    20.5370    20.1980    18.4720    19.7470     2.4220 
  197.8750    -6.7350    55.0030    21.1400    20.6280    18.8630    19.7470     2.4250 
  198.0000    -6.7070    56.0300    22.2460    21.5250    20.5550    19.7550     2.4270 
  198.1250    -6.7360    59.1580    23.7630    22.8290    23.5900    19.8410     2.4380 
  198.2500    -6.7820    61.2990    25.2800    24.1950    27.2190    20.0630     2.4610 
  198.3750    -6.8850    59.8670    26.3520    25.2350    31.5090    20.4400     2.4920 
  198.5000    -7.0530    55.5250    26.5690    25.5660    32.6540    20.9790     2.5190 
  198.6250    -7.2530    54.8840    25.6330    24.8530    27.9610    21.6820     2.5310 
  198.7500    -7.4210    59.8700    24.0240    23.4640    23.1450    22.2280     2.5230 
  198.8750    -7.4630    68.1130    22.2270    21.8090    20.7880    22.5540     2.4970 
  199.0000    -7.3890    75.8660    20.6230    20.2460    21.1820    22.7050     2.4600 
  199.1250    -7.2990    78.2190    19.4590    19.0330    21.1960    22.8060     2.4290 
  199.2500    -7.1880    76.3080    18.6800    18.1730    19.4560    22.9660     2.4160 
  199.3750    -7.0110    73.4460    18.2400    17.6510    17.6290    23.1900     2.4240 
  199.5000    -6.8060    73.5560    18.1110    17.4450    17.0470    23.4320     2.4440 
  199.6250    -6.6040    76.1890    18.3490    17.5980    17.5110    23.5600     2.4620 
  199.7500    -6.4570    76.1830    18.8600    18.0200    18.8030    23.6010     2.4670 
  199.8750    -6.4260    74.3650    19.4790    18.5870    19.8700    23.5560     2.4640 
  200.0000    -6.4490    73.9360    19.9270    19.0670    21.2360    23.3360     2.4610 
  200.1250    -6.4640    73.2340    19.8250    19.1130    19.9610    22.8200     2.4680 
  200.2500    -6.5150    70.4420    19.1840    18.6740    17.6410    22.3670     2.4840 
  200.3750    -6.6610    67.6100    18.2270    17.8970    15.2260    22.1770     2.5040 
  200.5000    -6.8390    67.8610    17.3030    17.0600    13.2440    22.1460     2.5200 
  200.6250    -6.9520    68.3750    16.7850    16.4720    12.6050    22.1460     2.5290 
  200.7500    -6.9990    65.6110    16.6800    16.1990    12.9810    22.1460     2.5310 
  200.8750    -7.0120    64.2570    16.8370    16.1650    13.8950    22.1460     2.5280 
  201.0000    -7.0310    67.1400    17.0080    16.2000    14.8320    22.1620     2.5250 
  201.1250    -7.0000    70.2320    16.9180    16.0810    15.2550    22.2580     2.5270 
  201.2500    -6.8910    69.2160    16.5500    15.7460    14.8590    22.5260     2.5330 
  201.3750    -6.6960    66.1800    16.0490    15.2840    13.8800    23.0030     2.5420 
  201.5000    -6.5210    64.5560    15.6490    14.8740    13.3730    23.5820     2.5500 
  201.6250    -6.4770    63.2970    15.6400    14.7650    13.4430    23.9630     2.5520 
  201.7500    -6.4660    60.6280    16.1020    15.0490    14.0030    24.0840     2.5500 
  201.8750    -6.3850    57.6110    17.0420    15.7610    14.9850    24.0760     2.5470 
  202.0000    -6.2460    55.8900    18.3530    16.8410    16.5420    24.0140     2.5470 
  202.1250    -6.2240    56.0270    19.8050    18.1270    17.7510    23.9630     2.5530 
  202.2500    -6.2840    54.5610    21.0540    19.3050    19.2910    23.8830     2.5600 
  202.3750    -6.3370    50.9360    21.8030    20.0910    21.7660    23.7630     2.5640 
  202.5000    -6.3170    48.5660    21.8430    20.2590    21.3200    23.6700     2.5610 
  202.6250    -6.2200    49.2360    21.1230    19.7010    19.9240    23.5880     2.5560 
  202.7500    -6.1390    49.1060    20.0940    18.7960    18.5070    23.5050     2.5550 
  202.8750    -6.1530    48.0900    19.1300    17.8710    17.2200    23.4200     2.5620 
  203.0000    -6.2460    49.4930    18.5060    17.1860    16.0390    23.3650     2.5720 
  203.1250    -6.2890    54.3900    18.3710    16.9110    15.6200    23.3270     2.5750 
  203.2500    -6.2790    57.8730    18.4890    16.9000    15.9150    23.3110     2.5680 
  203.3750    -6.3060    57.6900    18.5870    16.9500    16.1890    23.3070     2.5520 
  203.5000    -6.4110    56.0580    18.4420    16.8650    16.1130    23.3070     2.5360 
  203.6250    -6.5290    58.3390    17.9590    16.5300    15.8130    23.3070     2.5240 
  203.7500    -6.5980    64.1840    17.3710    16.0900    15.7080    23.3070     2.5180 
  203.8750    -6.5880    67.5270    16.9470    15.7410    14.9960    23.3190     2.5190 
  204.0000    -6.5430    65.7350    16.9190    15.6650    14.3540    23.4050     2.5220 
  204.1250    -6.4780    62.9750    17.4320    16.0040    14.7920    23.6490     2.5270 
  204.2500    -6.4000    62.0130    18.2320    16.6060    16.3480    23.9360     2.5320 
  204.3750    -6.2930    62.0880    19.0140    17.2510    18.3800    24.0840     2.5360 
  204.5000    -6.1580    61.8930    19.4460    17.6620    19.6920    24.1180     2.5410 
  204.6250    -6.0630    62.7750    19.2290    17.5470    18.9850    24.1180     2.5460 
  204.7500    -6.0100    64.7080    18.5520    17.0150    18.0540    24.1180     2.5480 
  204.8750    -5.9600    66.7940    17.6960    16.2820    16.6730    24.1180     2.5460 
  205.0000    -5.9000    68.7930    16.9560    15.5940    15.4500    24.1180     2.5390 
  205.1250    -5.8660    69.1710    16.5780    15.1690    15.1490    24.1180     2.5310 
  205.2500    -5.8700    67.4350    16.5300    15.0190    14.9200    24.1180     2.5250 
  205.3750    -5.8780    64.8040    16.7280    15.0980    15.3090    24.1180     2.5170 
  205.5000    -5.8230    63.0950    17.0770    15.3440    15.6130    24.1180     2.5040 
  205.6250    -5.6910    63.0420    17.5400    15.7280    15.9130    24.1120     2.4840 
  205.7500    -5.5790    63.4370    18.0980    16.2110    15.4720    24.0640     2.4660 
  205.8750    -5.5400    64.4900    18.7440    16.7750    15.1630    23.9330     2.4570 
  206.0000    -5.5540    65.8700    19.4120    17.3680    15.7800    23.7220     2.4620 
  206.1250    -5.5830    66.4360    19.9010    17.8340    16.8110    23.4480     2.4790 
  206.2500    -5.5760    66.5920    20.0240    18.0100    16.0170    23.1740     2.4980 
  206.3750    -5.5650    68.4500    19.6950    17.8040    14.4570    23.0060     2.5110 
  206.5000    -5.6420    70.9350    18.9830    17.2470    13.1790    22.9480     2.5180 
  206.6250    -5.8120    72.4050    18.0840    16.4810    11.9880    22.9400     2.5150 
  206.7500    -5.9490    73.9580    17.2560    15.7330    11.1770    22.9400     2.5030 
  206.8750    -6.0170    74.7620    16.6290    15.1290    10.7010    22.9400     2.4840 
  207.0000    -6.0430    71.3710    16.2520    14.7380    10.7420    22.9400     2.4610 
  207.1250    -6.0840    66.5550    16.1310    14.5940    11.4920    22.9360     2.4440 
  207.2500    -6.1420    67.1370    16.1310    14.5960    12.1090    22.8990     2.4360 
  207.3750    -6.1540    70.0650    16.1440    14.6490    12.6870    22.7630     2.4390 
  207.5000    -6.1090    69.3830    16.0900    14.6720    13.6580    22.5220     2.4470 
  207.6250    -6.0450    66.0650    15.9540    14.6280    13.5620    22.2150     2.4550 
  207.7500    -6.0100    65.1030    15.8280    14.5690    12.5720    22.1090     2.4630 
  207.8750    -5.9780    65.9660    15.8040    14.5590    11.9250    22.1800     2.4740 
  208.0000    -5.9440    66.6600    15.9180    14.6320    12.1420    22.3870     2.4890 
  208.1250    -5.9200    67.1610    16.0560    14.7300    13.1090    22.6450     2.5040 
  208.2500    -5.9330    67.5570    16.0020    14.7020    13.2920    23.0000     2.5130 
  208.3750    -5.9860    67.5000    15.6310    14.4400    12.9330    23.4580     2.5110 
