~V
VERS. 2.00: Ver 2.00
~W
STRT.M 57.0000:
STOP.M 208.0000:
STEP.M 0.1250:
NULL. -999.2500:
UWI. F10012:
~C
DEPT.M :
DEN.GM/CC :
SP.MV :
GR.API :
CALI.CM :
RXO.OHMM :
RI. :
RML.OHMM :
~A
# ...
  169.5000     2.2230   -25.9920    73.5040    24.2970    94.4230    58.7480    60.5150 
  169.6250     2.2200   -26.1990    72.1000    24.2960    90.9920    64.3360    67.6740 
  169.7500     2.2180   -26.3460    71.9520    24.2950    86.1390    66.7360    71.9640 
  169.8750     2.2270   -26.3870    74.4320    24.2960    83.0230    66.1160    73.2120 
  170.0000     2.2400   -26.3640    77.3690    24.2970    82.5770    63.5530    72.1280 
  170.1250     2.2470   -26.3120    79.7410    24.2970    77.9260    60.1580    69.6020 
  170.2500     2.2430   -26.2700    83.6150    24.2980    69.9200    56.9510    66.7870 
  170.3750     2.2340   -26.1900    87.5510    24.2960    60.9310    54.2710    64.1840 
  170.5000     2.2320   -25.9800    87.2570    24.2940    54.3440    51.6670    61.5210 
  170.6250     2.2450   -25.6410    83.2970    24.2950    54.2340    47.6550    57.2700 
  170.7500     2.2670   -25.3490    80.2770    24.2960    64.1940    41.7740    50.7760 
  170.8750     2.2790   -25.1290    83.5190    24.2950    69.7040    35.0000    42.9120 
  171.0000     2.2730   -24.9370    90.0280    24.2950    56.5920    29.0760    35.6140 
  171.1250     2.2510   -24.7750    94.1710    24.2970    33.5710    25.7920    31.1230 
  171.2500     2.2290   -24.7450    91.0180    24.2970    23.2640    25.3470    30.0390 
  171.3750     2.2180   -24.8420    80.6240    24.2960    30.2100    28.1320    33.2980 
  171.5000     2.2140   -25.0590    71.6100    24.2960    52.3500    35.0140    42.5790 
  171.6250     2.2120   -25.3760    67.4640    24.2970    84.0290    48.9370    61.7840 
  171.7500     2.2060   -25.7570    66.0970    24.2960   110.5060    71.0490    90.1770 
  171.8750     2.1950   -26.1610    65.3210    24.2960   132.3040   100.6050   123.8960 
  172.0000     2.1820   -26.5590    66.4740    24.2970   157.3250   131.4590   155.6620 
  172.1250     2.1710   -26.9240    69.1120    24.2960   187.6060   153.3380   177.5860 
  172.2500     2.1630   -27.2330    69.5580    24.2950   213.3940   164.0630   188.6700 
  172.3750     2.1610   -27.4610    67.1540    24.2960   233.7960   164.1850   188.8070 
  172.5000     2.1700   -27.6330    66.2490    24.2940   248.5050   156.0930   179.7910 
  172.6250     2.1990   -27.8210    67.1550    24.2940   233.2850   144.7680   165.8720 
  172.7500     2.2510   -27.9040    67.8240    24.2940   192.7470   136.0580   153.8560 
  172.8750     2.3180   -27.9240    67.3160    24.2930   154.4250   132.7310   148.0360 
  173.0000     2.3780   -27.9140    65.6460    24.2930   152.4880   136.1330   150.9270 
  173.1250     2.4080   -27.9170    64.1060    24.2890   213.2640   148.0650   164.6430 
  173.2500     2.3950   -27.7920    63.5720    24.2460   289.0860   166.1920   185.0850 
  173.3750     2.3440   -27.6210    62.7400    24.1640   326.2960   183.9220   205.1130 
  173.5000     2.2840   -27.4380    62.0960    24.1280   310.3920   184.3830   212.1430 
  173.6250     2.2380   -27.1860    64.8790    24.2290   292.9290   147.6420   188.3180 
  173.7500     2.2210   -26.9160    71.8950    24.3610   278.3800    98.6450   141.6710 
  173.8750     2.2350   -26.5870    78.9810    24.3770   235.7150    59.9790    91.2940 
  174.0000     2.2600   -26.2060    84.3020    24.3380   158.2550    36.0010    52.8870 
  174.1250     2.2780   -25.7650    89.7430    24.3020    87.5740    23.5370    31.6550 
  174.2500     2.2850   -25.3820    95.6090    24.2830    44.9340    16.4920    20.2570 
  174.3750     2.2840   -25.0180    98.1090    24.2600    24.4470    12.6480    14.4310 
  174.5000     2.2770   -24.6750    96.6860    24.2380    16.2010    10.7680    11.5830 
  174.6250     2.2640   -24.3310    94.1200    24.2390    14.8430    10.2910    10.5990 
  174.7500     2.2490   -24.0310    91.7430    24.2590    15.2380    10.5400    10.5960 
  174.8750     2.2440   -23.7490    88.4180    24.2810    17.0040    11.2150    11.1950 
  175.0000     2.2520   -23.5340    85.5410    24.3480    19.9020    12.1340    11.9310 
  175.1250     2.2680   -23.4260    85.4190    24.3960    22.4090    12.9610    12.4200 
  175.2500     2.2780   -23.3110    87.2380    24.3800    22.8850    13.4120    12.5270 
  175.3750     2.2700   -23.2060    90.3820    24.3000    20.7030    13.3720    12.2480 
  175.5000     2.2570   -23.0890    95.9810    24.2750    16.3120    12.8740    11.6820 
  175.6250     2.2480   -23.0020   100.4500    24.3610    11.8750    12.0310    10.9700 
  175.7500     2.2410   -22.8900   100.1970    24.5350     8.9430    11.0860    10.2740 
  175.8750     2.2270   -22.7880    97.7600    24.6270     7.8060    10.1720     9.6680 
  176.0000     2.2100   -22.7470    96.4610    24.5920     7.4160     9.3720     9.1820 
  176.1250     2.2010   -22.7320    95.7880    24.5100     7.2960     8.7450     8.8390 
  176.2500     2.2060   -22.7380    94.6360    24.4490     7.3840     8.2620     8.6090 
  176.3750     2.2210   -22.8080    95.8070    24.4040     7.5880     7.9090     8.4750 
  176.5000     2.2380   -22.9120    98.3170    24.3560     7.7150     7.6720     8.4180 
  176.6250     2.2500   -23.0560    99.5390    24.3980     7.7140     7.5720     8.4300 
  176.7500     2.2560   -23.3080   100.2860    24.6320     7.8760     7.5830     8.4880 
  176.8750     2.2600   -23.6970   100.2070    25.0130     8.5580     7.6780     8.5800 
  177.0000     2.2580   -24.1860    98.7760    25.1510    10.0400     7.8160     8.6880 
  177.1250     2.2440   -24.7020    98.0240    25.1220    11.8250     7.9440     8.7920 
  177.2500     2.2290   -25.3210    98.8510    25.0880    12.6670     8.0380     8.8820 
  177.3750     2.2310   -26.0090   100.6540    25.0600    12.1930     8.0980     8.9610 
  177.5000     2.2420   -26.8220   100.7810    24.8810    11.1780     8.1430     9.0370 
  177.6250     2.2450   -27.6920    99.7250    24.4900    10.8800     8.1830     9.1040 
  177.7500     2.2330   -28.5570    99.2570    24.2050    10.9480     8.2140     9.1420 
  177.8750     2.2180   -29.3390   100.6210    24.1640    10.7060     8.2280     9.1370 
  178.0000     2.2150   -29.9330   101.5380    24.2020    10.0780     8.2150     9.0920 
  178.1250     2.2210   -30.3200    99.9370    24.1660     9.3810     8.1620     9.0350 
  178.2500     2.2290   -30.5490    96.5700    24.1330     8.8190     8.0800     9.0010 
  178.3750     2.2320   -30.5720    95.8930    24.1050     8.3870     7.9890     8.9990 
  178.5000     2.2340   -30.3900    98.4810    24.0810     8.2120     7.9170     9.0260 
  178.6250     2.2360   -30.1140   101.3520    24.0730     8.4080     7.9090     9.0880 
  178.7500     2.2350   -29.8080   101.0030    24.0880     8.8510     7.9760     9.1980 
  178.8750     2.2270   -29.5510    98.3820    24.0780     9.4280     8.1120     9.3700 
  179.0000     2.2210   -29.4200    99.8470    24.0700     9.7780     8.2910     9.6000 
  179.1250     2.2300   -29.4860   105.4850    24.0010     9.7950     8.4850     9.8570 
  179.2500     2.2490   -29.6430   110.1550    23.7760     9.8120     8.6720    10.0790 
  179.3750     2.2650   -29.9460   111.1040    23.3280    10.2350     8.8460    10.2220 
  179.5000     2.2730   -30.3410   109.6450    23.0160    11.2990     8.9980    10.2850 
  179.6250     2.2760   -30.7990   106.3100    22.8160    13.1810     9.1090    10.2990 
  179.7500     2.2790   -31.2320   102.4120    22.6460    15.3080     9.1820    10.3260 
  179.8750     2.2870   -31.5870   101.4420    22.6820    16.7100     9.2390    10.4080 
  180.0000     2.2980   -31.8180   103.1860    23.0070    16.7860     9.3250    10.5700 
  180.1250     2.3040   -31.8690   104.6570    23.4740    15.3120     9.4980    10.8140 
  180.2500     2.3010   -31.8570   105.1370    23.8880    13.4940     9.7400    11.0750 
  180.3750     2.2950   -31.7400   104.6520    24.0340    12.0600    10.0040    11.3060 
  180.5000     2.2970   -31.5490   103.4590    24.0700    11.6530    10.2280    11.4780 
  180.6250     2.3030   -31.3520   101.4790    24.0700    12.5610    10.3680    11.5880 
