~V
VERS. 2.00: Ver 2.00
~W
STRT.M 50.0000:
STOP.M 255.0000:
STEP.M 0.1250:
NULL. -999.2500:
UWI. F10005:
~C
DEPT.M :
SP.MV :
GR.API :
RML.OHMM :
RI. :
RXO.OHMM :
CALI.CM :
DEN.GM/CC :
~A
# ...
  173.7500    -9.4830    67.3750    21.3490    20.0950    20.7610    23.7720     2.3860 
  173.8750    -9.7700    65.5830    20.8770    19.6240    21.5060    23.8000     2.3880 
  174.0000   -10.0410    59.5110    20.3210    19.0600    22.1580    23.7940     2.4050 
  174.1250   -10.2760    56.3010    19.3630    18.1840    20.1090    23.7620     2.4300 
  174.2500   -10.4910    58.6640    18.0590    17.0210    17.0030    23.7290     2.4530 
  174.3750   -10.5910    61.4120    16.7250    15.7950    14.7570    23.7080     2.4650 
  174.5000   -10.6180    60.5830    15.7750    14.8270    13.6810    23.6930     2.4590 
  174.6250   -10.6110    59.6580    15.5830    14.4490    12.9730    23.6600     2.4390 
  174.7500   -10.5320    60.0830    15.9630    14.5950    12.7480    23.5980     2.4180 
  174.8750   -10.4210    60.1750    16.5930    15.0680    14.0600    23.5210     2.4050 
  175.0000   -10.3430    59.5500    17.0520    15.5290    16.9510    23.4680     2.4050 
  175.1250   -10.2800    60.6840    16.9450    15.5780    19.6420    23.4970     2.4150 
  175.2500   -10.1590    62.5430    16.4140    15.2220    18.8350    23.6160     2.4280 
  175.3750   -10.0790    62.5550    15.7390    14.6600    16.2090    23.7760     2.4400 
  175.5000    -9.9800    60.5760    15.1650    14.1160    15.4820    23.9040     2.4460 
  175.6250    -9.8090    59.0740    14.8000    13.7350    15.0520    23.9340     2.4410 
  175.7500    -9.6620    58.7460    14.5530    13.4770    14.2260    23.8860     2.4280 
  175.8750    -9.5890    58.7700    14.3600    13.2700    13.3130    23.7900     2.4130 
  176.0000    -9.4750    58.5300    14.1810    13.0470    13.1460    23.6800     2.4010 
  176.1250    -9.3350    57.2030    14.0480    12.8020    12.5310    23.5780     2.3950 
  176.2500    -9.2170    56.0070    13.9960    12.6010    11.6990    23.4850     2.3920 
  176.3750    -9.0570    56.6240    14.0410    12.5150    11.2390    23.4050     2.3910 
  176.5000    -8.9480    58.5560    14.1860    12.5910    11.4910    23.3690     2.3900 
  176.6250    -8.9080    59.0240    14.4480    12.8640    11.8880    23.4370     2.3930 
  176.7500    -8.9060    58.4570    14.7690    13.2220    12.6880    23.6170     2.4000 
  176.8750    -8.9010    57.7750    15.0550    13.5250    13.3390    23.8580     2.4070 
  177.0000    -8.8930    56.5600    15.2120    13.6450    13.5610    24.0730     2.4130 
  177.1250    -8.8840    54.8040    15.1790    13.5140    13.3180    24.1040     2.4120 
  177.2500    -8.8620    53.7280    15.0510    13.2690    13.1600    23.9310     2.4090 
  177.3750    -8.8780    53.7880    14.9680    13.0620    12.8220    23.5250     2.4060 
  177.5000    -8.9040    54.4720    15.0700    13.0170    12.5660    22.8560     2.4080 
  177.6250    -8.9300    55.4920    15.4750    13.2310    12.8360    22.0690     2.4140 
  177.7500    -8.8840    56.2380    16.0860    13.6470    13.5660    21.1890     2.4180 
  177.8750    -8.8430    56.8140    16.7740    14.1930    13.6380    20.3180     2.4180 
  178.0000    -8.8100    58.5880    17.3870    14.7470    13.0230    19.5660     2.4120 
  178.1250    -8.7390    62.6760    17.7550    15.1370    12.3210    19.0920     2.4060 
  178.2500    -8.6620    65.1810    17.8480    15.2900    11.9250    18.8600     2.4050 
  178.3750    -8.5310    62.8780    17.6870    15.2160    11.6300    18.7910     2.4110 
  178.5000    -8.3820    57.0870    17.3670    15.0000    11.5040    18.7830     2.4220 
  178.6250    -8.1260    52.8020    17.0660    14.7720    11.6740    18.7840     2.4310 
  178.7500    -7.8220    53.4880    16.9180    14.6130    11.6760    18.7850     2.4360 
  178.8750    -7.4630    57.5790    16.9500    14.5260    11.3510    18.7840     2.4360 
  179.0000    -7.1790    59.9980    17.0940    14.4850    11.2300    18.7840     2.4330 
  179.1250    -6.9920    58.3350    17.2090    14.4580    11.2440    18.7820     2.4300 
  179.2500    -6.8490    56.4320    17.2120    14.3990    11.2870    18.7790     2.4280 
  179.3750    -6.7310    55.7750    17.1260    14.2920    11.3180    18.7780     2.4280 
  179.5000    -6.5800    54.5240    17.0290    14.1670    11.6180    18.7810     2.4300 
  179.6250    -6.4850    51.7350    16.9850    14.0870    12.0240    18.7950     2.4330 
  179.7500    -6.4950    50.8390    16.9870    14.0840    11.8340    18.8240     2.4360 
  179.8750    -6.5290    53.5320    17.0190    14.1520    11.8310    18.8680     2.4400 
  180.0000    -6.5360    58.7720    17.0420    14.2430    12.3190    18.9210     2.4440 
  180.1250    -6.5280    62.8880    16.9430    14.2590    12.2440    18.9880     2.4490 
  180.2500    -6.5060    62.8690    16.6850    14.1550    12.2080    19.0670     2.4550 
  180.3750    -6.4720    60.4840    16.3140    13.9670    12.3880    19.1590     2.4580 
  180.5000    -6.4700    58.8400    15.9310    13.7770    12.6150    19.2690     2.4520 
  180.6250    -6.4730    58.0250    15.6630    13.6650    12.5740    19.4400     2.4290 
  180.7500    -6.4210    56.9040    15.5640    13.6470    12.4400    19.6890     2.3950 
  180.8750    -6.3270    55.9140    15.6100    13.6970    12.4690    20.0020     2.3590 
  181.0000    -6.2010    56.1230    15.6890    13.7480    12.1450    20.4140     2.3350 
  181.1250    -6.0240    57.2400    15.6560    13.7170    11.5020    20.9940     2.3380 
  181.2500    -5.8110    58.1630    15.4320    13.5610    10.9370    21.7450     2.3590 
  181.3750    -5.6310    58.6270    14.9260    13.2050    10.7550    22.6070     2.3840 
  181.5000    -5.4700    58.5590    14.1200    12.6020    10.5140    23.5380     2.4000 
  181.6250    -5.4350    60.4970    13.1780    11.8370    10.8520    24.2750     2.3950 
  181.7500    -5.4350    66.6900    12.4130    11.1580    10.6990    24.6920     2.3740 
  181.8750    -5.5210    74.6390    12.0100    10.7220     9.4130    24.6810     2.3460 
  182.0000    -5.6520    78.8490    12.0070    10.5690     8.9850    24.6320     2.3200 
  182.1250    -5.8480    76.2340    12.2390    10.5990    10.6840    24.5680     2.3050 
  182.2500    -6.0770    72.4350    12.3050    10.5430    13.1990    24.5040     2.3000 
  182.3750    -6.3150    71.2650    11.9950    10.2530    13.5260    24.4120     2.3010 
  182.5000    -6.5310    73.4210    11.3900     9.7900    10.7070    24.2950     2.3060 
  182.6250    -6.6890    77.6870    10.8860     9.4210     8.8800    24.2090     2.3110 
  182.7500    -6.8740    80.0270    10.8060     9.3540     9.0260    24.2080     2.3150 
  182.8750    -7.0350    78.6730    11.2070     9.6530    10.6730    24.3070     2.3170 
  183.0000    -7.1400    74.4880    11.8730    10.2100    11.9840    24.4620     2.3150 
  183.1250    -7.2090    70.7310    12.3110    10.6760    12.8680    24.5730     2.3050 
  183.2500    -7.2940    69.4360    12.2200    10.7240    11.5130    24.6000     2.2920 
  183.3750    -7.4040    70.7010    11.6370    10.3150    10.0650    24.5800     2.2790 
  183.5000    -7.5080    73.5300    10.8300     9.6490     8.8950    24.5430     2.2700 
  183.6250    -7.5770    75.0520    10.1200     9.0030     8.0530    24.4920     2.2660 
  183.7500    -7.5800    74.7150     9.6080     8.5020     8.0380    24.4440     2.2660 
  183.8750    -7.5580    73.2700     9.2450     8.1340     8.3200    24.4140     2.2690 
  184.0000    -7.5140    73.0710     8.9550     7.8490     8.2930    24.3980     2.2750 
  184.1250    -7.4590    74.1250     8.7710     7.6670     7.8990    24.3560     2.2850 
  184.2500    -7.3680    74.2780     8.8250     7.6690     7.5850    24.2640     2.2960 
  184.3750    -7.1990    72.5980     9.2850     7.9700     7.6170    24.1160     2.3050 
  184.5000    -7.0250    70.2600    10.2350     8.6470     8.4870    23.9450     2.3040 
  184.6250    -6.8090    69.3750    11.5840     9.6960    10.7150    23.8340     2.2920 
  184.7500    -6.6510    69.0440    12.8090    10.7610    13.7570    23.7980     2.2770 
  184.8750    -6.4980    68.2990    13.3880    11.4010    15.6020    23.8170     2.2660 
