~V
VERS. 2.00: Ver 2.00
~W
STRT.M 50.0000:
STOP.M 250.0000:
STEP.M 0.1250:
NULL. -999.2500:
UWI. F10033:
~C
DEPT.M :
SP.MV :
GR.API :
RML.OHMM :
RI. :
RXO.OHMM :
CALI.CM :
DEN.GM/CC :
~A
# ...
  207.5000   -26.5390    61.5520    98.0480   100.6780   104.3320    25.0000     2.2550 
  207.6250   -26.7070    61.9460    94.7920    96.8930    95.1040    24.9760     2.2780 
  207.7500   -26.8560    60.4600    94.6100    95.8760    85.8560    25.0070     2.2850 
  207.8750   -26.9590    58.0540    98.6660    98.8430    83.2490    25.0130     2.2770 
  208.0000   -27.0060    56.3440   107.9280   106.8110    90.5760    25.0260     2.2600 
  208.1250   -26.9490    56.5990   123.9690   121.3400   113.9670    25.1280     2.2400 
  208.2500   -26.8920    57.1960   145.2170   140.7990   156.3340    25.3270     2.2160 
  208.3750   -26.8560    56.0340   169.1200   162.5960   192.1690    25.5420     2.1880 
  208.5000   -26.8390    53.1260   190.9720   182.3360   216.4600    25.6200     2.1570 
  208.6250   -26.8020    52.5960   203.9440   193.9980   218.3340    25.4380     2.1360 
  208.7500   -26.7340    53.8800   208.1430   197.7210   207.4990    25.2540     2.1310 
  208.8750   -26.6370    54.8100   207.4890   196.8320   194.5890    25.2460     2.1380 
  209.0000   -26.6170    55.2350   207.2650   196.0680   185.1420    25.2630     2.1510 
  209.1250   -26.6160    55.7710   212.2360   200.0410   177.1040    25.2440     2.1610 
  209.2500   -26.4420    55.2910   222.2660   209.0070   185.8410    25.2620     2.1660 
  209.3750   -26.2020    52.7270   234.0110   220.3070   210.9600    25.2620     2.1710 
  209.5000   -26.0060    50.2110   239.9290   227.6040   225.6500    25.1590     2.1790 
  209.6250   -25.7010    50.4050   227.8610   220.1180   205.2170    24.8770     2.1900 
  209.7500   -25.3290    51.6850   199.5050   197.3950   169.4560    24.5850     2.2020 
  209.8750   -24.9980    52.6660   163.8370   165.6400   129.5820    24.4010     2.2100 
  210.0000   -24.5730    52.9370   130.9020   133.9480    92.6570    24.3330     2.2140 
  210.1250   -24.0770    53.0100   107.8500   110.3620    67.5400    24.3520     2.2180 
  210.2500   -23.7010    52.8160    94.0740    95.7270    59.9830    24.3710     2.2270 
  210.3750   -23.2920    52.3440    88.6050    89.4400    60.1770    24.3450     2.2410 
  210.5000   -22.8180    52.2550    90.2570    90.3710    64.3100    24.3880     2.2560 
  210.6250   -22.4880    53.6040    97.7710    97.3880    77.6460    24.6210     2.2660 
  210.7500   -22.2520    54.4800   106.0310   105.5830   110.1720    24.8350     2.2720 
  210.8750   -21.9990    53.3930   109.3770   109.5820   159.6380    24.8970     2.2750 
  211.0000   -21.8180    51.6120   103.6550   105.2000   187.7210    24.7900     2.2790 
  211.1250   -21.7710    52.4310    89.6380    92.3570   163.3630    24.5580     2.2880 
  211.2500   -21.7040    55.3870    74.8570    77.8870   130.9790    24.3540     2.3030 
  211.3750   -21.6840    57.9810    63.6630    66.2210   106.0570    24.2210     2.3280 
  211.5000   -21.7070    58.8800    57.7620    59.4070    95.7790    24.1520     2.3590 
  211.6250   -21.7270    58.5400    57.8370    58.3850   102.1150    24.1730     2.3830 
  211.7500   -21.7490    56.8830    61.8980    61.3810    96.6000    24.1880     2.3860 
  211.8750   -21.8250    53.9470    68.3390    66.9720    86.1450    24.1430     2.3670 
  212.0000   -21.9680    51.5660    74.9290    73.1010    95.5270    24.0830     2.3390 
  212.1250   -22.0720    52.5490    78.7570    76.9830   102.7120    24.1210     2.3250 
  212.2500   -22.1520    55.3760    79.3670    77.9310    92.4160    24.2180     2.3340 
  212.3750   -22.2430    57.8200    77.9060    76.8300    64.8230    24.2220     2.3570 
  212.5000   -22.3290    60.3730    75.9930    75.0880    44.9480    24.1530     2.3800 
  212.6250   -22.3150    62.2850    74.4140    73.4460    49.2440    24.2040     2.3950 
  212.7500   -22.2900    62.6290    72.5420    71.4710    62.0380    24.4340     2.4090 
  212.8750   -22.2530    63.5120    69.4870    68.4340    80.8760    24.7520     2.4320 
  213.0000   -22.1070    66.1870    64.8550    64.0090    82.5060    24.8750     2.4680 
  213.1250   -21.9220    66.6540    59.1840    58.6240    81.4330    24.7510     2.5090 
  213.2500   -21.7600    64.4370    53.9960    53.5840    65.1050    24.5340     2.5450 
  213.3750   -21.6310    64.5490    50.2450    49.7530    52.1600    24.3350     2.5700 
  213.5000   -21.5300    68.0710    48.1550    47.4070    44.5300    24.1730     2.5820 
  213.6250   -21.4340    69.5560    47.3490    46.3330    41.1000    24.0590     2.5760 
  213.7500   -21.2710    67.8860    46.8170    45.6540    42.1440    23.9980     2.5510 
  213.8750   -21.1170    67.0830    46.0230    44.8630    45.1000    24.0820     2.5100 
  214.0000   -20.9850    68.7210    44.8230    43.7760    44.6810    24.2750     2.4620 
  214.1250   -20.8100    68.3550    43.4950    42.5700    37.2660    24.4420     2.4240 
  214.2500   -20.6270    66.7200    42.4680    41.5980    34.2670    24.4730     2.4020 
  214.3750   -20.4520    67.1590    41.9320    41.0310    34.3060    24.3810     2.3970 
  214.5000   -20.2960    69.9790    41.8920    40.8920    35.8750    24.2180     2.4040 
  214.6250   -20.1370    71.8020    42.3130    41.1650    30.4990    24.0370     2.4150 
  214.7500   -19.9990    70.4230    42.9530    41.6470    27.0910    23.9690     2.4310 
  214.8750   -19.8200    69.0970    43.5890    42.1330    27.5960    24.0110     2.4520 
  215.0000   -19.6240    68.5160    43.9840    42.3820    30.6190    24.0720     2.4810 
  215.1250   -19.4620    68.5680    43.8170    42.0820    35.0240    24.2000     2.5160 
  215.2500   -19.3610    69.1980    43.0040    41.1660    40.5290    24.4440     2.5440 
  215.3750   -19.2510    69.3380    41.5290    39.6300    40.1500    24.7740     2.5570 
  215.5000   -19.1190    68.2560    39.5510    37.6250    37.6500    24.9690     2.5500 
  215.6250   -19.0370    64.8040    37.4610    35.5120    34.9900    24.9670     2.5240 
  215.7500   -18.9830    62.9490    35.8100    33.7820    32.6000    24.9740     2.4930 
  215.8750   -19.0040    64.2510    35.0560    32.8270    29.0410    25.0770     2.4650 
  216.0000   -19.0580    66.8930    35.5570    32.9450    26.3020    25.1800     2.4510 
  216.1250   -19.1060    68.9880    37.7970    34.5720    27.9230    25.2200     2.4600 
  216.2500   -19.1500    69.0560    41.5210    37.5540    31.6700    25.2620     2.4910 
  216.3750   -19.1590    66.5110    46.3190    41.6350    38.2310    25.2900     2.5340 
  216.5000   -19.1250    61.0600    51.2000    46.0210    47.8250    25.2850     2.5780 
  216.6250   -19.1380    56.1910    54.0810    48.9010    52.6380    25.2290     2.6070 
  216.7500   -19.1860    53.4650    53.7390    49.0310    61.5190    25.2000     2.6110 
  216.8750   -19.2790    51.7410    50.2480    46.2980    68.6070    25.1720     2.5870 
  217.0000   -19.4360    53.6890    45.0190    41.8130    57.7290    25.1420     2.5380 
  217.1250   -19.6300    61.2640    40.0470    37.2640    35.8470    25.1120     2.4760 
  217.2500   -19.8940    68.0670    36.4510    33.7500    29.3510    25.0940     2.4230 
  217.3750   -20.3080    69.3120    34.4540    31.5500    30.6370    24.9650     2.3920 
  217.5000   -20.7960    68.3970    33.8700    30.5830    33.5600    24.7160     2.3810 
  217.6250   -21.2130    69.6670    34.3760    30.6850    32.6800    24.5090     2.3790 
  217.7500   -21.6240    69.1240    35.2300    31.2580    32.0660    24.3710     2.3700 
  217.8750   -21.9600    67.1120    35.9670    31.8980    32.8250    24.2990     2.3500 
  218.0000   -22.1520    66.8430    36.3050    32.3130    33.3500    24.2300     2.3300 
  218.1250   -22.1490    69.6940    36.1870    32.3800    34.5840    24.2630     2.3260 
  218.2500   -21.8990    72.0590    36.0390    32.3770    34.4900    24.4860     2.3460 
  218.3750   -21.3740    71.7860    36.3590    32.6700    35.8090    24.7360     2.3840 
  218.5000   -20.6960    70.4320    37.5520    33.5960    37.1440    24.8740     2.4310 
  218.6250   -20.0080    68.3600    39.7370    35.3240    35.0980    24.9810     2.4730 
