~V
VERS. 2.00: Ver 2.00
~W
STRT.M 50.0000:
STOP.M 286.0000:
STEP.M 0.1250:
NULL. -999.2500:
UWI. F10036:
~C
DEPT.M :
GR.API :
RML.OHMM :
RI. :
RXO.OHMM :
CALI.CM :
DEN.GM/CC :
SP.MV :
~A
# ...
  151.2500    57.6310    27.7040    26.7840    24.6600    24.3070     2.1610    -2.5910 
  151.3750    57.3070    28.0420    27.1120    24.9170    24.2880     2.1630    -2.2650 
  151.5000    59.0160    28.2570    27.2790    25.7690    24.2810     2.1660    -2.0520 
  151.6250    61.4090    28.1590    27.2180    26.5330    24.2800     2.1670    -1.9370 
  151.7500    61.2350    27.7460    26.9660    26.2140    24.2760     2.1660    -1.9130 
  151.8750    59.1070    27.0950    26.5600    25.3780    24.2600     2.1610    -2.0060 
  152.0000    57.3810    26.3320    26.0430    24.2890    24.2320     2.1510    -2.2140 
  152.1250    57.1350    25.5360    25.4160    23.7090    24.2070     2.1390    -2.5460 
  152.2500    57.4620    24.6960    24.6720    22.8260    24.1640     2.1310    -3.0200 
  152.3750    59.3590    23.7920    23.8030    21.6720    24.0940     2.1310    -3.6200 
  152.5000    62.1110    22.8350    22.8350    20.9070    23.9940     2.1420    -4.3130 
  152.6250    62.8640    21.8390    21.8060    19.8180    23.8610     2.1590    -5.1020 
  152.7500    61.4780    20.7530    20.7080    17.5370    23.7380     2.1780    -5.9080 
  152.8750    60.9230    19.4460    19.4370    15.8750    23.6940     2.1970    -6.6920 
  153.0000    62.2240    17.8300    17.8990    16.4690    23.6980     2.2140    -7.4150 
  153.1250    64.1150    15.9830    16.1400    16.5130    23.7170     2.2300    -8.0470 
  153.2500    66.5180    14.2630    14.4630    15.1550    23.7390     2.2430    -8.5810 
  153.3750    70.6670    12.9820    13.1360    12.9920    23.7490     2.2500    -9.0100 
  153.5000    74.9940    12.3340    12.3450    11.0230    23.7240     2.2490    -9.3170 
  153.6250    76.1550    12.4530    12.2730    11.6960    23.6550     2.2370    -9.4650 
  153.7500    73.2320    13.1070    12.7920    13.0530    23.6190     2.2200    -9.5140 
  153.8750    69.2440    14.1090    13.7840    14.1910    23.6490     2.2040    -9.4680 
  154.0000    67.8370    15.2160    15.0150    16.2140    23.6810     2.1920    -9.3870 
  154.1250    68.9490    16.1170    16.1130    16.6010    23.6810     2.1840    -9.3040 
  154.2500    69.7080    16.6790    16.8500    16.7640    23.6670     2.1780    -9.2130 
  154.3750    68.6870    16.9080    17.2030    17.6590    23.6390     2.1730    -9.1350 
  154.5000    67.7550    16.8780    17.2650    17.6300    23.6030     2.1680    -9.1080 
  154.6250    67.4820    16.6420    17.0840    16.2880    23.5260     2.1690    -9.1650 
  154.7500    67.1820    16.2490    16.7180    15.3360    23.3480     2.1740    -9.2590 
  154.8750    67.6600    15.6940    16.1790    14.1400    23.0920     2.1820    -9.3970 
  155.0000    68.4910    15.0150    15.5140    12.8360    22.9850     2.1880    -9.5670 
  155.1250    67.7180    14.3250    14.8300    11.8570    23.2230     2.1900    -9.7290 
  155.2500    66.2410    13.7740    14.2420    11.1990    23.5050     2.1890    -9.8940 
  155.3750    66.9600    13.4570    13.8250    10.8100    23.5660     2.1880   -10.0640 
  155.5000    69.1110    13.4110    13.6270    10.7100    23.4260     2.1870   -10.2160 
  155.6250    68.1390    13.6640    13.7020    10.7780    23.3820     2.1860   -10.2970 
  155.7500    66.4030    14.1230    13.9860    11.1200    23.5560     2.1830   -10.3290 
  155.8750    65.8690    14.7210    14.4270    11.7630    23.7270     2.1800   -10.3350 
  156.0000    65.5240    15.3840    14.9710    12.1520    23.8110     2.1760   -10.2970 
  156.1250    65.2950    16.0320    15.5810    12.3330    23.8290     2.1720   -10.2250 
  156.2500    67.3170    16.6500    16.2210    12.5860    23.8590     2.1680   -10.1120 
  156.3750    69.1250    17.2530    16.8740    13.2220    23.9290     2.1590    -9.9510 
  156.5000    67.9750    17.8830    17.5090    14.1090    23.9940     2.1460    -9.7640 
  156.6250    65.7570    18.5670    18.0680    14.9280    23.9440     2.1330    -9.6110 
  156.7500    65.9500    19.2610    18.5340    15.4460    23.7600     2.1270    -9.4910 
  156.8750    67.2570    19.9290    18.9230    15.7810    23.6170     2.1330    -9.3970 
  157.0000    66.2560    20.5600    19.2810    16.0280    23.5820     2.1520    -9.2530 
  157.1250    62.5150    21.1540    19.6580    16.3010    23.7010     2.1770    -9.1130 
  157.2500    59.9030    21.6860    20.0510    16.6380    23.9420     2.1970    -9.0010 
  157.3750    61.0400    22.0990    20.4130    17.1310    24.1590     2.2030    -8.9070 
  157.5000    64.8490    22.3700    20.6890    17.9600    24.2220     2.1930    -8.7840 
  157.6250    67.7370    22.5470    20.8630    18.4590    24.1690     2.1750    -8.6630 
  157.7500    68.1510    22.7650    21.0190    18.2270    24.1130     2.1600    -8.5080 
  157.8750    66.2970    23.0990    21.2320    17.2700    24.0930     2.1570    -8.3360 
  158.0000    63.9420    23.5450    21.5490    16.6850    24.0570     2.1660    -8.1750 
  158.1250    62.9800    24.0360    21.9690    17.2770    23.9640     2.1830    -7.9680 
  158.2500    63.5370    24.4770    22.3970    18.6750    23.9330     2.1970    -7.7140 
  158.3750    64.3680    24.8100    22.7380    19.8770    24.0160     2.2040    -7.4690 
  158.5000    63.9510    24.9900    22.9170    20.4240    24.0940     2.2050    -7.2470 
  158.6250    62.4270    24.9730    22.8900    20.2220    24.1150     2.2050    -6.9800 
  158.7500    61.9020    24.8550    22.7440    19.8490    24.0770     2.2040    -6.7140 
  158.8750    62.1010    24.7470    22.5720    19.5150    24.0130     2.2010    -6.4380 
  159.0000    61.8490    24.7430    22.4510    19.4620    23.9950     2.1920    -6.2150 
  159.1250    61.3580    24.8770    22.4060    19.4750    24.0450     2.1740    -6.0250 
  159.2500    61.5420    25.0310    22.3770    19.9290    24.0720     2.1550    -5.8760 
  159.3750    61.9430    25.0900    22.3240    20.3710    23.9630     2.1420    -5.7050 
  159.5000    62.8790    24.9800    22.2440    20.2520    23.7080     2.1400    -5.5370 
  159.6250    64.3500    24.7170    22.1700    19.9570    23.4290     2.1540    -5.4080 
  159.7500    64.9960    24.4670    22.1340    19.5650    23.2200     2.1740    -5.2870 
  159.8750    64.3330    24.3650    22.1550    18.8020    23.1210     2.1910    -5.2060 
  160.0000    63.2660    24.4750    22.2390    18.2040    23.1500     2.1990    -5.1250 
  160.1250    61.4430    24.7460    22.4050    18.1330    23.3220     2.1930    -5.0800 
  160.2500    59.7820    25.0100    22.6540    18.7050    23.5300     2.1810    -5.0320 
  160.3750    60.9910    25.1930    22.9850    19.6380    23.6320     2.1700    -5.0150 
  160.5000    64.9510    25.2810    23.3570    20.4110    23.5440     2.1630    -4.9970 
  160.6250    65.8900    25.2330    23.6290    20.3510    23.3510     2.1620    -5.0110 
  160.7500    63.8830    25.0110    23.6720    19.5350    23.2590     2.1640    -5.0440 
  160.8750    63.1950    24.5840    23.4520    19.1900    23.3660     2.1690    -5.0860 
  161.0000    64.5610    24.0550    23.0810    19.5440    23.7020     2.1810    -5.1540 
  161.1250    64.5490    23.6230    22.7270    19.2690    24.0290     2.2080    -5.2930 
  161.2500    64.3020    23.1690    22.2900    18.4670    24.2100     2.2530    -5.5160 
  161.3750    66.0760    22.2360    21.3270    19.1700    24.3000     2.3120    -5.7740 
  161.5000    68.9170    20.2960    19.3430    20.7420    24.3310     2.3720    -6.0590 
  161.6250    71.3400    17.1340    16.2170    22.2100    24.3330     2.4150    -6.3470 
  161.7500    75.3260    13.6040    12.8570    19.1270    24.3500     2.4360    -6.6440 
  161.8750    80.3600    10.4780     9.9690    10.8470    24.3800     2.4390    -6.9280 
  162.0000    83.2610     8.2240     7.8850     6.4370    24.3440     2.4330    -7.1780 
  162.1250    82.9000     7.0660     6.7170     5.4460    24.2640     2.4260    -7.3440 
  162.2500    83.2130     6.6460     6.1650     5.8630    24.2070     2.4200    -7.4360 
  162.3750    85.9350     6.7080     6.0620     6.1490    24.1990     2.4160    -7.4830 
