~V
VERS. 2.00: Ver 2.00
~W
STRT.M 55.0000:
STOP.M 314.0000:
STEP.M 0.1250:
NULL. -999.2500:
UWI. F10048:
~C
DEPT.M :
DEN.GM/CC :
GR.API :
RML.OHMM :
RI. :
RXO.OHMM :
CALI.CM :
SP.MV :
~A
# ...
  190.0000     2.5710    53.0130    20.3810    18.2770    19.3460    22.9110    -5.7590 
  190.1250     2.5760    56.3610    20.9440    18.8840    19.5090    22.8680    -5.6930 
  190.2500     2.5730    61.7960    21.2910    19.3160    19.4640    22.7770    -5.6460 
  190.3750     2.5690    66.9250    21.3820    19.5040    19.5910    22.7150    -5.6130 
  190.5000     2.5680    68.5290    21.2490    19.4540    19.9570    22.7700    -5.5700 
  190.6250     2.5740    67.3210    20.9300    19.1970    20.0840    23.0160    -5.5040 
  190.7500     2.5800    66.0010    20.5080    18.8250    19.6120    23.3690    -5.4690 
  190.8750     2.5840    64.9170    20.0090    18.3770    19.2750    23.7030    -5.5070 
  191.0000     2.5830    65.2470    19.4490    17.8710    19.0960    23.9180    -5.6250 
  191.1250     2.5760    65.5240    18.8490    17.3170    18.4920    23.9700    -5.7330 
  191.2500     2.5650    63.1780    18.2540    16.7510    17.8560    23.9350    -5.8230 
  191.3750     2.5510    60.7690    17.7020    16.2080    17.3850    23.8480    -5.9540 
  191.5000     2.5360    62.6660    17.2220    15.7270    17.0340    23.7020    -6.1620 
  191.6250     2.5220    66.9770    16.8540    15.3670    16.1530    23.4790    -6.4000 
  191.7500     2.5140    66.9920    16.6020    15.1430    15.2970    23.1860    -6.5950 
  191.8750     2.5140    64.2430    16.4850    15.0700    14.6040    22.8690    -6.7400 
  192.0000     2.5230    63.4840    16.5240    15.1460    14.2460    22.6060    -6.8640 
  192.1250     2.5360    65.0930    16.7320    15.3590    14.4520    22.4970    -7.0010 
  192.2500     2.5470    64.6220    17.0210    15.6240    14.7990    22.4990    -7.1200 
  192.3750     2.5510    62.8480    17.2950    15.8610    15.2340    22.5550    -7.1930 
  192.5000     2.5470    63.4270    17.4610    16.0000    15.4540    22.6220    -7.2420 
  192.6250     2.5410    65.6530    17.4440    15.9770    15.2490    22.6580    -7.2330 
  192.7500     2.5420    64.5800    17.2980    15.8330    14.9850    22.6540    -7.1660 
  192.8750     2.5530    62.1460    17.0890    15.6230    14.9950    22.6210    -7.0210 
  193.0000     2.5730    63.6050    16.8920    15.4160    15.4210    22.5920    -6.7970 
  193.1250     2.5920    67.5380    16.7960    15.2950    16.1650    22.5990    -6.5570 
  193.2500     2.6040    68.1350    16.8560    15.3070    16.6530    22.6320    -6.3330 
  193.3750     2.6050    66.0350    17.1310    15.4960    16.6480    22.6810    -6.0720 
  193.5000     2.5970    65.1810    17.6490    15.8830    16.3980    22.7270    -5.7410 
  193.6250     2.5850    65.2690    18.3720    16.4510    16.1640    22.7370    -5.4230 
  193.7500     2.5750    65.1690    19.0750    17.0370    16.3980    22.7000    -5.1790 
  193.8750     2.5720    65.7940    19.5130    17.4550    16.8380    22.6500    -5.0310 
  194.0000     2.5750    66.4290    19.4730    17.5220    16.9320    22.6090    -4.9410 
  194.1250     2.5830    66.3860    18.8150    17.0780    16.0190    22.5700    -4.8270 
  194.2500     2.5940    66.3700    17.8300    16.3220    14.4860    22.5210    -4.6850 
  194.3750     2.6030    67.0080    16.8570    15.5190    13.0740    22.4680    -4.5800 
  194.5000     2.6100    66.6350    16.2340    14.9520    12.5240    22.4210    -4.5510 
  194.6250     2.6130    63.3830    16.2580    14.8970    13.0650    22.3830    -4.5190 
  194.7500     2.6130    60.1730    16.7780    15.2850    14.3140    22.3730    -4.4380 
  194.8750     2.6130    57.7310    17.5430    15.9500    15.9280    22.4240    -4.3340 
  195.0000     2.6140    54.7000    18.2200    16.6270    17.4100    22.5720    -4.2390 
  195.1250     2.6150    51.9740    18.4360    16.9700    17.8540    22.8590    -4.1450 
  195.2500     2.6160    52.2870    18.1810    16.8880    17.7540    23.2400    -4.0930 
  195.3750     2.6140    56.2490    17.6170    16.4740    17.4390    23.6270    -4.0820 
  195.5000     2.6080    60.5380    17.0110    15.9530    16.9080    23.8990    -4.0810 
  195.6250     2.5980    61.9630    16.6500    15.5890    16.2060    23.9470    -4.1480 
  195.7500     2.5880    60.3260    16.5790    15.4630    16.0380    23.8830    -4.2390 
  195.8750     2.5790    57.4340    16.7100    15.5260    16.8540    23.7710    -4.3260 
  196.0000     2.5730    57.0660    16.8800    15.6540    17.8980    23.6720    -4.4160 
  196.1250     2.5720    60.3690    16.9080    15.6950    18.1630    23.6210    -4.5440 
  196.2500     2.5740    62.8910    16.7500    15.5960    17.4880    23.6130    -4.6330 
  196.3750     2.5770    62.5850    16.4440    15.3740    16.5960    23.6370    -4.6210 
  196.5000     2.5810    60.2510    16.0690    15.0820    16.0700    23.6850    -4.5140 
  196.6250     2.5830    57.9420    15.7080    14.7760    15.8650    23.7230    -4.4030 
  196.7500     2.5810    56.7630    15.3840    14.4810    15.5730    23.7110    -4.3340 
  196.8750     2.5750    57.4170    15.0840    14.1920    15.0140    23.6380    -4.2380 
  197.0000     2.5680    59.0840    14.8000    13.9140    14.1770    23.5230    -4.0810 
  197.1250     2.5600    58.2060    14.5700    13.6910    13.8390    23.3950    -3.9110 
  197.2500     2.5540    56.6180    14.4550    13.5800    13.5760    23.2850    -3.8000 
  197.3750     2.5510    57.4360    14.5110    13.6250    13.2910    23.2130    -3.7940 
  197.5000     2.5500    60.5820    14.7360    13.8240    12.9640    23.1690    -3.8610 
  197.6250     2.5510    63.7650    15.0540    14.1200    12.7420    23.1270    -3.8760 
  197.7500     2.5500    66.0760    15.3090    14.3830    12.8830    23.0760    -3.8330 
  197.8750     2.5480    67.3200    15.3960    14.5180    13.3250    23.0340    -3.8360 
  198.0000     2.5440    65.8720    15.2760    14.4780    13.6910    23.0220    -3.9040 
  198.1250     2.5420    61.0790    14.9620    14.2550    13.4940    23.0310    -3.9570 
  198.2500     2.5430    57.7060    14.5720    13.9400    13.0540    23.0390    -3.9520 
  198.3750     2.5450    58.5060    14.1760    13.5890    12.6830    23.0440    -3.8970 
  198.5000     2.5460    61.2680    13.8190    13.2400    12.3890    23.0600    -3.8430 
  198.6250     2.5400    60.8370    13.5480    12.9220    12.2740    23.1190    -3.7660 
  198.7500     2.5300    58.4200    13.3920    12.6690    12.1600    23.2220    -3.6900 
  198.8750     2.5210    57.6630    13.4010    12.5400    11.9800    23.3380    -3.6140 
  199.0000     2.5160    59.7350    13.6380    12.6150    11.9210    23.4020    -3.5430 
  199.1250     2.5190    61.6720    14.1820    13.0030    12.7040    23.4070    -3.4980 
  199.2500     2.5280    61.7010    14.9470    13.6450    14.0100    23.4130    -3.4550 
  199.3750     2.5430    61.0010    15.8270    14.4490    15.6890    23.4590    -3.4210 
  199.5000     2.5610    61.3470    16.6900    15.2810    17.3520    23.5400    -3.3970 
  199.6250     2.5800    62.9970    17.4060    15.9900    18.7560    23.6400    -3.4730 
  199.7500     2.5930    64.4890    17.9710    16.5360    19.5750    23.7340    -3.6170 
  199.8750     2.5990    64.9950    18.4260    16.9420    19.5970    23.8160    -3.7460 
  200.0000     2.5980    65.6820    18.8190    17.2640    19.7270    23.8740    -3.8430 
  200.1250     2.5940    67.2760    19.1460    17.5260    19.7120    23.8670    -3.9690 
  200.2500     2.5910    67.8150    19.3670    17.7140    19.4180    23.7920    -4.1750 
  200.3750     2.5910    65.8130    19.4370    17.7880    18.7150    23.6680    -4.4320 
  200.5000     2.5910    63.2420    19.3490    17.7310    18.3630    23.5380    -4.6730 
  200.6250     2.5890    63.8110    19.1400    17.5660    18.2070    23.4190    -4.8280 
  200.7500     2.5850    67.1740    18.9390    17.3960    17.6790    23.2900    -4.9320 
  200.8750     2.5820    69.7710    18.8550    17.3100    17.3950    23.1520    -5.0590 
  201.0000     2.5800    69.7030    18.9590    17.3630    17.5580    22.9910    -5.2340 
  201.1250     2.5780    67.7060    19.2610    17.5680    17.5970    22.8310    -5.3610 
