~V
VERS. 2.00: Ver 2.00
~W
STRT.M 64.0000:
STOP.M 260.0000:
STEP.M 0.1250:
NULL. -999.2500:
UWI. F10016:
~C
DEPT.M :
GR.API :
RML.OHMM :
RI. :
RXO.OHMM :
CALI.CM :
DEN.GM/CC :
SP.MV :
~A
# ...
  109.0000    78.2210    11.1650     9.8980    11.9520    24.5290     2.1310   -19.8400 
  109.1250    75.5520    11.1140     9.7240    12.2110    24.4960     2.1420   -19.7700 
  109.2500    76.3930    11.3080     9.7880    12.4480    24.5230     2.1510   -19.5680 
  109.3750    80.6840    11.5410     9.9570    12.3370    24.5480     2.1550   -19.2200 
  109.5000    84.9520    11.6330    10.0770    11.3970    24.5160     2.1560   -18.7960 
  109.6250    86.5170    11.4360     9.9860    10.4440    24.4580     2.1620   -18.3280 
  109.7500    87.3570    10.9830     9.6730     9.6400    24.3320     2.1760   -17.8640 
  109.8750    89.6280    10.3260     9.1930     9.0210    24.1100     2.1980   -17.4450 
  110.0000    95.8570     9.5510     8.6370     8.4020    23.9830     2.2250   -17.0430 
  110.1250   103.8220     8.7850     8.0990     7.7930    23.9970     2.2500   -16.6770 
  110.2500   108.7650     8.1690     7.6370     7.1500    24.0250     2.2700   -16.3750 
  110.3750   109.9010     7.8090     7.3080     6.9380    24.0230     2.2800   -16.1510 
  110.5000   108.7470     7.7610     7.1730     7.1610    23.9950     2.2800   -15.9940 
  110.6250   103.4020     8.0550     7.3050     7.6880    23.9650     2.2740   -15.8720 
  110.7500    96.8530     8.5470     7.6120     8.4660    23.9880     2.2650   -15.7620 
  110.8750    94.8950     9.1030     7.9840     8.7460    23.9840     2.2530   -15.6660 
  111.0000    96.8990     9.5720     8.3050     8.6470    23.9350     2.2350   -15.5610 
  111.1250    96.4020     9.7530     8.4610     8.9110    23.9230     2.2190   -15.4660 
  111.2500    95.0150     9.5810     8.4270     9.1290    23.9850     2.2140   -15.3870 
  111.3750    96.5600     9.0790     8.1900     8.5010    24.0610     2.2290   -15.2620 
  111.5000    99.6580     8.4210     7.8010     7.5430    24.0740     2.2610   -15.1280 
  111.6250   100.5750     7.9930     7.4520     7.3540    23.9940     2.3000   -15.0470 
  111.7500    98.2380     8.1070     7.3970     7.8340    23.9280     2.3320   -14.9630 
  111.8750    92.4030     8.9120     7.8220    10.4160    23.8730     2.3510   -14.9340 
  112.0000    84.4080    10.3380     8.7820    16.2830    23.9070     2.3500   -14.9330 
  112.1250    77.8770    12.0490    10.1430    23.3080    24.0630     2.3270   -14.9540 
  112.2500    74.2200    13.4600    11.4470    20.1270    24.3020     2.2900   -15.0150 
  112.3750    72.1190    14.2300    12.3680    16.2290    24.5130     2.2480   -15.1220 
  112.5000    70.8310    14.3810    12.8290    14.3600    24.5930     2.2070   -15.2690 
  112.6250    69.7670    14.3350    13.0440    16.4060    24.5880     2.1740   -15.4010 
  112.7500    67.8520    14.6670    13.4220    17.8590    24.6840     2.1620   -15.5590 
  112.8750    65.3690    15.6700    14.2170    20.2480    24.7690     2.1830   -15.7110 
  113.0000    63.0460    17.3620    15.5440    26.7870    24.7020     2.2380   -15.8430 
  113.1250    61.2540    19.4560    17.3410    37.7720    24.5130     2.3040   -15.9490 
  113.2500    59.4650    21.3130    19.1260    35.0810    24.4520     2.3380   -16.0620 
  113.3750    59.2380    22.4260    20.3930    29.6080    24.4980     2.3220   -16.1530 
  113.5000    61.7180    22.5410    20.7740    29.3200    24.5850     2.2650   -16.2270 
  113.6250    63.8180    21.6770    20.1630    27.3430    24.5940     2.2010   -16.3050 
  113.7500    63.2910    20.4460    19.1340    23.5380    24.6540     2.1580   -16.3530 
  113.8750    61.0100    19.2660    18.1180    21.9740    24.6860     2.1390   -16.3860 
  114.0000    58.2050    18.3870    17.3680    21.8260    24.6550     2.1310   -16.4350 
  114.1250    57.6610    17.9050    16.9690    22.2340    24.6320     2.1260   -16.4430 
  114.2500    61.1020    17.6530    16.7820    22.3010    24.6140     2.1250   -16.4260 
  114.3750    68.4170    17.5280    16.7290    21.7050    24.5720     2.1340   -16.3960 
  114.5000    75.7660    17.4960    16.7850    20.5020    24.5090     2.1540   -16.3440 
  114.6250    77.7380    17.6230    17.0050    19.9840    24.5210     2.1760   -16.3150 
  114.7500    74.8610    17.9020    17.3760    19.6950    24.6520     2.1890   -16.2800 
  114.8750    70.7390    18.1940    17.7750    19.9110    24.7030     2.1890   -16.1760 
  115.0000    68.5800    18.1950    17.9260    20.1400    24.7450     2.1820   -16.0570 
  115.1250    70.1820    17.4100    17.3510    19.1480    24.7230     2.1790   -15.9520 
  115.2500    74.7400    15.8270    15.9940    16.3090    24.6280     2.1920   -15.7920 
  115.3750    82.3050    13.6850    14.0380    12.2170    24.4690     2.2200   -15.6360 
  115.5000    91.8780    11.4180    11.8610     8.3790    24.3720     2.2580   -15.4720 
  115.6250   100.5440     9.5030     9.8940     7.4890    24.2930     2.2950   -15.2920 
  115.7500   105.3370     8.0620     8.3170     7.3550    24.2000     2.3270   -15.0900 
  115.8750   105.6640     7.0730     7.1750     7.2470    24.0960     2.3500   -14.8750 
  116.0000   104.1940     6.4900     6.4740     7.0470    24.0300     2.3690   -14.6420 
  116.1250   103.1020     6.4040     6.2770     7.0240    24.0690     2.3870   -14.3470 
  116.2500    99.4710     6.8180     6.4970     8.0310    24.1090     2.4040   -14.0350 
  116.3750    92.8560     7.7590     7.1300    11.5010    24.1600     2.4120   -13.6810 
  116.5000    86.7430     9.1470     8.1830    19.1910    24.2150     2.4010   -13.2990 
  116.6250    83.8460    10.7620     9.6660    19.2020    24.2340     2.3650   -12.9010 
  116.7500    81.4370    12.2700    11.3480    17.2010    24.1960     2.3230   -12.5370 
  116.8750    77.1280    13.5380    13.0140    16.5470    24.1300     2.2950   -12.2500 
  117.0000    72.3690    14.6480    14.5200    18.6550    24.1060     2.2900   -11.9810 
  117.1250    68.6210    15.8870    15.8770    22.0150    24.1490     2.2960   -11.8200 
  117.2500    65.1790    17.4340    17.2550    25.6470    24.1610     2.2860   -11.7250 
  117.3750    60.8240    19.2040    18.6940    24.9590    24.1900     2.2450   -11.6950 
  117.5000    57.8070    20.8130    19.9930    23.9270    24.4320     2.1810   -11.7190 
  117.6250    60.4830    21.4420    20.5070    23.7670    24.5990     2.1190   -11.7600 
  117.7500    66.9620    20.6920    19.8210    23.5010    24.7230     2.0850   -11.8440 
  117.8750    73.5570    18.5630    17.8780    20.8880    24.7790     2.0940   -11.9150 
  118.0000    78.2630    15.5700    15.1240    16.1990    24.6890     2.1440   -12.0250 
  118.1250    81.3690    12.6360    12.3930    12.2390    24.4910     2.2130   -12.1420 
  118.2500    82.3930    10.5590    10.3690    10.5930    24.3830     2.2680   -12.2570 
  118.3750    81.4070     9.8110     9.3860    11.1380    24.3700     2.2850   -12.3890 
  118.5000    78.7650    10.7160     9.6490    14.8430    24.3630     2.2680   -12.5380 
  118.6250    73.5070    13.7400    11.5930    21.5560    24.4200     2.2490   -12.7070 
  118.7500    68.0890    18.2190    14.9740    25.9090    24.5320     2.2660   -12.9040 
  118.8750    64.9670    22.9110    19.1130    34.7710    24.5690     2.3260   -13.1330 
  119.0000    64.9490    25.7740    22.4070    57.7970    24.4610     2.4050   -13.3370 
  119.1250    67.6610    24.5140    22.4710    48.4440    24.2490     2.4580   -13.5390 
  119.2500    74.1880    20.4070    19.6930    24.3420    24.1430     2.4610   -13.7500 
  119.3750    84.2850    15.5820    15.6950    11.2360    24.1280     2.4220   -13.9240 
  119.5000    91.6400    11.7600    12.0780     8.0860    24.0670     2.3640   -14.0460 
  119.6250    91.5260     9.7540     9.7680     8.8920    23.8680     2.3120   -14.1280 
  119.7500    89.4000     8.9480     8.5160     9.3630    23.7270     2.2800   -14.1470 
  119.8750    88.4670     8.8020     8.0260     9.3600    23.7920     2.2700   -14.0870 
  120.0000    87.9480     8.8370     7.9590     9.0040    23.9570     2.2810   -14.0090 
  120.1250    88.4980     8.7610     8.0020     7.7410    24.0230     2.3010   -13.9100 
