~V
VERS. 2.00: Ver 2.00
~W
STRT.M 50.0000:
STOP.M 266.0000:
STEP.M 0.1250:
NULL. -999.2500:
UWI. F10057:
~C
DEPT.M :
GR.API :
RML.OHMM :
RI. :
RXO.OHMM :
CALI.CM :
DEN.GM/CC :
SP.MV :
~A
# ...
  196.2500    66.6120    40.0830    42.2380    41.2950    24.5050     2.2080    -8.8650 
  196.3750    68.1610    36.7500    38.5690    38.8130    24.4490     2.2220    -8.8810 
  196.5000    68.8920    34.8210    36.2050    37.8910    24.3470     2.2530    -8.9500 
  196.6250    69.6900    35.2270    35.9340    37.4720    24.2380     2.2930    -9.0710 
  196.7500    70.3400    38.4040    38.1490    37.0240    24.2090     2.3230    -9.2070 
  196.8750    69.4770    45.0740    43.6110    38.6500    24.2900     2.3280    -9.3520 
  197.0000    67.3600    55.7610    53.0300    47.7810    24.4340     2.3080    -9.5180 
  197.1250    64.0180    70.7100    66.9590    79.3140    24.5420     2.2740    -9.7100 
  197.2500    60.1140    87.0450    82.6020   133.8310    24.6020     2.2420    -9.8900 
  197.3750    58.4640   101.0630    96.1710   149.0170    24.6380     2.2210   -10.0480 
  197.5000    59.1940   109.3360   104.1560   113.2990    24.6540     2.2120   -10.1650 
  197.6250    60.2710   110.4310   104.9700   100.6460    24.6280     2.2180   -10.2610 
  197.7500    59.9030   108.2440   102.3010   103.6930    24.6060     2.2340   -10.3670 
  197.8750    58.2740   105.6000    98.9430   107.9260    24.6500     2.2520   -10.4630 
  198.0000    56.1310   104.2280    96.7490   108.9730    24.7490     2.2580   -10.5190 
  198.1250    55.2920   105.3300    97.0100   108.5350    24.8170     2.2380   -10.5330 
  198.2500    56.6380   108.8940    99.7210   106.6640    24.8350     2.1990   -10.5190 
  198.3750    57.5330   114.9260   104.9220   107.1160    24.8180     2.1610   -10.4780 
  198.5000    57.2970   122.7840   112.1860   116.3760    24.7550     2.1430   -10.4220 
  198.6250    57.3990   129.8410   119.5440   143.4640    24.5890     2.1530   -10.3520 
  198.7500    57.5540   131.8670   123.1970   168.9540    24.4030     2.1760   -10.2570 
  198.8750    57.6100   125.7700   119.9530   161.5570    24.3160     2.1970   -10.1530 
  199.0000    59.2820   111.9060   109.2570   141.6880    24.3390     2.2090   -10.0500 
  199.1250    62.4970    94.2490    93.7240   120.1790    24.3620     2.2180    -9.9400 
  199.2500    63.7730    78.2650    78.6560    92.3770    24.3320     2.2330    -9.8520 
  199.3750    62.3070    66.2300    66.7260    72.2680    24.2660     2.2570    -9.8000 
  199.5000    60.8060    58.5180    58.7520    62.1510    24.1940     2.2800    -9.7630 
  199.6250    60.7050    55.0430    54.8590    56.2700    24.1690     2.2890    -9.7680 
  199.7500    61.1760    54.4590    53.8180    52.2570    24.2130     2.2810    -9.8180 
  199.8750    61.9400    56.2860    55.2400    52.5540    24.2900     2.2620    -9.8910 
  200.0000    63.0250    60.0550    58.7440    56.5920    24.3340     2.2420    -9.9950 
  200.1250    63.6390    65.4800    64.0620    59.1150    24.3370     2.2300   -10.1590 
  200.2500    62.2760    71.7680    70.3070    65.4010    24.3580     2.2240   -10.3580 
  200.3750    59.7740    78.2270    76.6860    80.7500    24.4040     2.2210   -10.5810 
  200.5000    58.2390    83.9860    82.2340    98.5020    24.4270     2.2200   -10.8320 
  200.6250    59.2460    88.1570    85.9660   101.0940    24.4150     2.2230   -11.1020 
  200.7500    61.3740    91.1510    88.3190    94.5510    24.4300     2.2310   -11.4180 
  200.8750    62.9920    93.7700    90.0470    87.4000    24.4750     2.2410   -11.7700 
  201.0000    62.5980    96.7760    91.8720    82.6430    24.4500     2.2480   -12.1500 
  201.1250    60.3350   100.0790    93.7780    86.0150    24.2960     2.2460   -12.5360 
  201.2500    58.3750   102.1360    94.6030   100.8460    24.1630     2.2380   -12.9280 
  201.3750    58.1600   101.2850    93.0190   119.0390    24.1460     2.2270   -13.3110 
  201.5000    59.5120    97.1960    88.7370   120.8020    24.2110     2.2200   -13.6760 
  201.6250    61.2700    91.7890    83.1940    99.7740    24.2580     2.2200   -14.0150 
  201.7500    62.2610    88.3890    79.1420    78.5860    24.2890     2.2260   -14.3020 
  201.8750    62.4000    89.2180    78.5700    66.6680    24.3320     2.2340   -14.5200 
  202.0000    62.8960    95.7040    82.9510    68.5370    24.3570     2.2420   -14.6590 
  202.1250    63.1190   107.4920    94.0200    93.9770    24.3460     2.2470   -14.7000 
  202.2500    60.3480   120.2180   110.1600   140.6950    24.3420     2.2480   -14.6530 
  202.3750    55.6860   141.4950   128.9540   179.6250    24.3790     2.2450   -14.5230 
  202.5000    51.9850   161.5140   146.4120   194.2650    24.4280     2.2400   -14.2990 
  202.6250    52.0210   173.7950   157.0330   207.3930    24.4340     2.2350   -13.9640 
  202.7500    53.7580   177.4420   160.2530   206.8600    24.4090     2.2330   -13.5240 
  202.8750    56.3940   174.7660   157.9190   189.8620    24.3970     2.2360   -12.9980 
  203.0000    58.7420   169.2470   152.9190   171.2880    24.4100     2.2400   -12.3770 
  203.1250    59.3790   163.5900   147.6580   154.4530    24.4370     2.2420   -11.6490 
  203.2500    60.4990   159.1140   143.5120   142.1760    24.4680     2.2400   -10.8510 
  203.3750    61.8270   156.1160   140.8810   139.0940    24.4790     2.2350   -10.0160 
  203.5000    61.4900   154.4240   139.7000   141.6480    24.4350     2.2300    -9.1600 
  203.6250    59.0840   153.6310   139.7260   138.9240    24.3450     2.2310    -8.2650 
  203.7500    56.7510   152.6950   139.9500   134.1820    24.2830     2.2340    -7.3870 
  203.8750    56.3190   150.5570   139.3520   132.3050    24.2840     2.2380    -6.5510 
  204.0000    56.2160   146.3090   137.0130   132.2950    24.3410     2.2400    -5.7980 
  204.1250    56.7780   139.2210   132.1090   129.5950    24.3970     2.2420    -5.1710 
  204.2500    59.2480   130.2090   125.2470   120.6880    24.4230     2.2450    -4.6440 
  204.3750    61.7630   120.3400   117.1990   112.6980    24.4340     2.2500    -4.1960 
  204.5000    61.9520   110.8390   109.0410   109.5150    24.4580     2.2550    -3.8260 
  204.6250    59.6360   102.9680   102.0380   105.8920    24.4990     2.2600    -3.5580 
  204.7500    57.7790    97.2940    96.9050    97.9520    24.5210     2.2630    -3.3410 
  204.8750    56.5790    94.7360    94.5380    90.5770    24.4830     2.2660    -3.1520 
  205.0000    54.7450    96.4040    96.0120    89.6230    24.3930     2.2690    -2.9840 
  205.1250    53.8250   103.5110   102.6130    93.3670    24.3350     2.2770    -2.8000 
  205.2500    54.6180   112.3890   111.1940    96.0560    24.3430     2.2950    -2.5880 
  205.3750    55.4260   114.9060   114.6510   101.2050    24.2960     2.3330    -2.3480 
  205.5000    55.4910   101.1490   103.5330   128.3640    24.0930     2.4020    -2.0870 
  205.6250    55.9500    71.5300    75.8490   169.4980    23.8420     2.4980    -1.8030 
  205.7500    57.3230    45.9210    47.7430    84.8380    23.7190     2.5890    -1.5010 
  205.8750    58.6270    28.2650    27.7180    25.9200    23.7210     2.6450    -1.2040 
  206.0000    59.8530    16.4610    16.1790     9.9950    23.7390     2.6490    -0.9090 
  206.1250    62.5930    11.2780    10.8980     6.7120    23.7350     2.6050    -0.6530 
  206.2500    64.6020     8.9920     8.3860     6.3390    23.7500     2.5470    -0.4430 
  206.3750    63.4730     8.2710     7.4440     6.5530    23.7730     2.4980    -0.2820 
  206.5000    60.4450     8.3820     7.4570     6.6480    23.7590     2.4690    -0.1650 
  206.6250    58.6740     8.8250     8.0140     6.8380    23.6610     2.4570    -0.1210 
  206.7500    57.6440     9.1120     8.5580     7.0660    23.5440     2.4530    -0.1620 
  206.8750    55.7910     9.0220     8.7520     7.2540    23.4790     2.4480    -0.2900 
  207.0000    55.4970     8.5570     8.4950     7.0330    23.4540     2.4370    -0.4830 
  207.1250    60.4590     7.9040     7.9290     6.1930    23.3730     2.4170    -0.7440 
  207.2500    69.1390     7.3550     7.3970     5.3300    23.2090     2.3890    -1.0410 
  207.3750    79.4180     7.0790     7.0940     4.8610    23.0890     2.3620    -1.3710 
