~V
VERS. 2.00: Ver 2.00
~W
STRT.M 50.0000:
STOP.M 313.0000:
STEP.M 0.1250:
NULL. -999.2500:
UWI. F10034:
~C
DEPT.M :
GR.API :
RML.OHMM :
RI. :
RXO.OHMM :
CALI.CM :
DEN.GM/CC :
SP.MV :
~A
# ...
   83.7500    54.3680     8.5030     6.8740     9.8480    23.0570     2.1330   -20.9970 
   83.8750    55.4400     8.5260     6.9090     9.9940    23.2230     2.1180   -20.6640 
   84.0000    55.5450     8.6360     6.9860    10.1560    23.1690     2.1170   -20.1680 
   84.1250    55.8670     8.7840     7.0840    10.2700    23.0240     2.1310   -19.4670 
   84.2500    56.2980     8.8980     7.1650    10.2870    22.9600     2.1500   -18.5790 
   84.3750    56.2000     8.9230     7.1950    10.1370    22.9470     2.1700   -17.5170 
   84.5000    56.0730     8.8280     7.1460     9.7790    22.9470     2.1850   -16.2820 
   84.6250    56.3180     8.5940     6.9900     9.2850    22.9470     2.1960   -14.9070 
   84.7500    56.0460     8.2640     6.7490     8.7230    22.9430     2.2060   -13.4290 
   84.8750    56.7570     7.8660     6.4470     8.1650    22.9130     2.2150   -11.8960 
   85.0000    59.7760     7.4360     6.1180     7.7440    22.8340     2.2260   -10.3750 
   85.1250    63.6210     7.0280     5.8100     7.5960    22.7370     2.2370    -8.9020 
   85.2500    67.8900     6.7060     5.5620     7.3930    22.7530     2.2480    -7.5070 
   85.3750    72.0580     6.5230     5.4030     7.1690    22.9020     2.2550    -6.2180 
   85.5000    74.1770     6.5020     5.3510     7.2470    23.0950     2.2570    -5.0790 
   85.6250    74.2400     6.6310     5.4120     7.2950    23.1970     2.2530    -4.1330 
   85.7500    75.6870     6.8110     5.5340     7.3760    23.1990     2.2470    -3.3650 
   85.8750    77.1150     6.9790     5.6850     7.2350    23.1410     2.2400    -2.7610 
   86.0000    75.4500     7.1260     5.8520     7.2450    23.0970     2.2350    -2.2730 
   86.1250    73.5050     7.3100     6.0600     7.2370    23.0830     2.2370    -1.8720 
   86.2500    75.3190     7.5840     6.3220     7.2290    23.0770     2.2540    -1.5290 
   86.3750    77.7580     7.9300     6.6220     7.5370    23.0420     2.2910    -1.2360 
   86.5000    76.1420     8.2420     6.8930     8.2570    22.9640     2.3480    -0.9440 
   86.6250    72.0580     8.3230     7.0040     9.0590    22.9170     2.4050    -0.6070 
   86.7500    71.0570     8.1090     6.9060     9.2690    22.9820     2.4330    -0.2640 
   86.8750    74.6210     7.6510     6.6120     8.4300    23.1010     2.4220     0.0560 
   87.0000    79.6300     7.1050     6.2130     6.8730    23.1930     2.3810     0.3360 
   87.1250    80.9670     6.6660     5.8340     6.2060    23.2100     2.3340     0.5860 
   87.2500    79.1630     6.3840     5.5460     5.9890    23.1870     2.3040     0.8420 
   87.3750    77.0000     6.2040     5.3430     5.9300    23.1620     2.2940     1.1210 
   87.5000    77.6780     6.0330     5.1850     5.8380    23.1650     2.3000     1.4090 
   87.6250    82.3090     5.8120     5.0350     5.7110    23.2280     2.3180     1.6620 
   87.7500    87.5810     5.6120     4.9050     5.5620    23.3590     2.3410     1.8930 
   87.8750    89.7090     5.5530     4.8530     5.5120    23.5120     2.3610     2.0980 
   88.0000    87.9870     5.7210     4.9370     5.7420    23.6340     2.3720     2.2310 
   88.1250    84.1440     6.0990     5.1880     6.6620    23.6780     2.3650     2.2370 
   88.2500    80.5580     6.5330     5.5220     8.0280    23.6530     2.3440     2.1150 
   88.3750    77.3340     6.8720     5.8470     9.4870    23.5850     2.3140     1.9010 
   88.5000    73.7430     7.1160     6.0910    10.4020    23.5320     2.2840     1.6260 
   88.6250    70.7660     7.2990     6.2490     9.2660    23.4900     2.2600     1.3170 
   88.7500    71.1720     7.7250     6.4400     7.7510    23.4150     2.2470     0.9990 
   88.8750    74.9250     8.4830     6.7740     7.4720    23.3240     2.2480     0.6770 
   89.0000    78.4340     9.3020     7.2820     8.4490    23.2590     2.2690     0.3790 
   89.1250    77.1840    10.1190     7.8630    10.1430    23.2520     2.3120     0.1690 
   89.2500    73.1540    10.6390     8.2860    11.8200    23.2450     2.3580     0.0240 
   89.3750    69.9890    10.6200     8.3610    12.6540    23.1680     2.3880    -0.1120 
   89.5000    68.8150    10.0080     8.0080    11.3610    23.0300     2.3850    -0.2760 
   89.6250    70.6040     8.9460     7.2810     9.0060    22.9230     2.3520    -0.5070 
   89.7500    72.5420     7.8280     6.4640     7.6990    22.8850     2.3130    -0.7650 
   89.8750    72.8100     6.9330     5.7610     7.2690    22.8830     2.2870    -1.0000 
   90.0000    72.0830     6.5040     5.3440     6.8720    22.9040     2.2830    -1.2170 
   90.1250    72.9220     6.8650     5.4340     6.6170    22.9710     2.3060    -1.4970 
   90.2500    76.6140     7.9570     6.0150     7.5000    23.0660     2.3450    -1.8470 
   90.3750    79.0100     9.6010     7.0120    10.5140    23.1550     2.3890    -2.2880 
   90.5000    75.2600    11.3880     8.2120    14.9870    23.2060     2.4160    -2.8060 
   90.6250    65.8210    12.5980     9.1950    19.6710    23.2240     2.4080    -3.3650 
   90.7500    58.7850    12.8050     9.6090    21.9580    23.2470     2.3690    -3.9140 
   90.8750    56.7870    11.9840     9.3400    17.5400    23.3050     2.3170    -4.4090 
   91.0000    57.5830    10.5570     8.5830    10.7550    23.4460     2.2700    -4.7910 
   91.1250    59.4540     9.2070     7.7490     8.5120    23.5960     2.2410    -4.9850 
   91.2500    62.7280     8.3500     7.1600     7.8360    23.7320     2.2290    -5.0050 
   91.3750    66.4160     8.0380     6.8950     7.6260    23.7570     2.2280    -4.8790 
   91.5000    69.4900     8.1240     6.8980     7.5490    23.6020     2.2350    -4.6760 
   91.6250    71.7900     8.3750     7.0500     7.8140    23.4110     2.2450    -4.4220 
   91.7500    72.6420     8.5410     7.1810     8.0570    23.3250     2.2530    -4.1490 
   91.8750    71.0390     8.5140     7.2040     8.1160    23.3200     2.2560    -3.8720 
   92.0000    67.5940     8.2760     7.0880     8.1610    23.3030     2.2530    -3.5670 
   92.1250    65.9290     7.8930     6.8530     7.7200    23.2240     2.2480    -3.2490 
   92.2500    68.5260     7.5320     6.6040     7.0940    23.0540     2.2450    -2.9820 
   92.3750    74.5610     7.3100     6.4120     6.6290    22.8050     2.2460    -2.7660 
   92.5000    80.4730     7.2780     6.3190     6.5440    22.5880     2.2520    -2.5620 
   92.6250    80.8570     7.4180     6.3250     6.7380    22.6250     2.2630    -2.3210 
   92.7500    77.8060     7.5930     6.3600     6.8910    22.8700     2.2770    -2.0620 
   92.8750    75.3420     7.6910     6.3660     6.8610    23.1630     2.2910    -1.8810 
   93.0000    75.1740     7.6440     6.3020     6.7980    23.3520     2.3020    -1.8740 
   93.1250    76.4390     7.4450     6.1610     6.6990    23.4620     2.3090    -2.0570 
   93.2500    79.4790     7.2090     6.0000     6.5360    23.5570     2.3130    -2.3690 
   93.3750    84.0610     7.0320     5.8720     6.4530    23.5910     2.3130    -2.8040 
   93.5000    85.6860     6.9900     5.8190     6.5690    23.5100     2.3080    -3.3700 
   93.6250    80.0860     7.1550     5.8840     6.9290    23.2940     2.3000    -4.1610 
   93.7500    74.3000     7.4930     6.0580     7.4200    23.0830     2.2900    -5.1380 
   93.8750    72.2270     7.9640     6.3280     8.1090    22.9490     2.2810    -6.2430 
   94.0000    71.8950     8.4960     6.6640     9.0570    22.8910     2.2730    -7.4370 
   94.1250    69.9210     8.9790     7.0140    10.1810    22.9240     2.2610    -8.7390 
   94.2500    66.9590     9.3470     7.3230    11.1420    23.0170     2.2440   -10.0620 
   94.3750    64.2380     9.6050     7.5790    11.2780    23.1030     2.2220   -11.2850 
   94.5000    61.2300     9.8450     7.8200    10.2330    23.2910     2.2010   -12.3460 
   94.6250    57.6270    10.2510     8.1500     9.4860    23.4110     2.1960   -13.1500 
   94.7500    55.0530    10.8880     8.6190     9.2070    23.4650     2.2180   -13.7440 
   94.8750    53.8690    11.6760     9.1960     9.2260    23.4390     2.2690   -14.1640 
