~V
VERS. 2.00: Ver 2.00
~W
STRT.M 60.0000:
STOP.M 245.0000:
STEP.M 0.1250:
NULL. -999.2500:
UWI. F10050:
~C
DEPT.M :
SP.MV :
GR.API :
RML.OHMM :
RI. :
RXO.OHMM :
CALI.CM :
DEN.GM/CC :
~A
# ...
   71.2500   -23.6000    84.6040     6.6090     5.5710     7.0500    21.9540     2.2820 
   71.3750   -23.5570    75.6540     6.4650     5.4070     6.4550    22.3140     2.2770 
   71.5000   -23.5480    73.7620     6.2590     5.2520     5.8430    22.6880     2.2730 
   71.6250   -23.5650    81.5230     6.1040     5.1480     5.4250    23.0900     2.2670 
   71.7500   -23.6550    88.4990     6.0900     5.1250     5.2960    23.4680     2.2590 
   71.8750   -23.7220    89.2670     6.2220     5.1880     5.6600    23.6970     2.2500 
   72.0000   -23.7550    84.1180     6.4020     5.2990     6.3950    23.7750     2.2450 
   72.1250   -23.7730    80.4960     6.4380     5.3750     7.0110    23.7800     2.2520 
   72.2500   -23.7580    80.9800     6.2690     5.3480     6.8680    23.7800     2.2710 
   72.3750   -23.7200    85.2740     5.9720     5.2050     6.3220    23.7780     2.2930 
   72.5000   -23.6750    92.6280     5.6880     4.9850     5.8320    23.7670     2.3110 
   72.6250   -23.5990    99.0550     5.5460     4.7600     5.5850    23.7410     2.3170 
   72.7500   -23.4920    98.8990     5.5230     4.5790     5.5050    23.7160     2.3160 
   72.8750   -23.4400    92.7990     5.5490     4.4500     5.4800    23.7120     2.3180 
   73.0000   -23.4790    87.5220     5.5680     4.3610     5.4700    23.7430     2.3250 
   73.1250   -23.6380    88.5870     5.5860     4.3100     5.4780    23.8210     2.3280 
   73.2500   -23.8570    90.7530     5.6780     4.3030     5.4230    23.9020     2.3190 
   73.3750   -24.1320    88.0520     5.9010     4.3690     5.4780    23.9450     2.2960 
   73.5000   -24.1920    82.7900     6.2730     4.5410     5.8120    23.9560     2.2630 
   73.6250   -24.5670    79.3320     6.7910     4.8530     6.2600    23.9560     2.2300 
   73.7500   -24.9670    77.5200     7.3450     5.2500     6.6490    23.9560     2.2040 
   73.8750   -25.3340    74.3170     7.7820     5.6420     7.1370    23.9560     2.1880 
   74.0000   -25.6800    68.5070     7.9310     5.9040     7.4070    23.9560     2.1860 
   74.1250   -25.9400    63.3860     7.6700     5.9170     7.4200    23.9560     2.2020 
   74.2500   -26.1100    62.9940     7.2280     5.7670     7.3360    23.9560     2.2260 
   74.3750   -26.2120    66.8770     6.8770     5.5830     6.9890    23.9560     2.2480 
   74.5000   -26.2600    71.5950     6.8320     5.5020     6.5220    23.9560     2.2590 
   74.6250   -26.2370    74.0730     7.2150     5.6330     6.8330    23.9560     2.2470 
   74.7500   -26.1590    73.5020     7.8110     5.9090     8.0510    23.9560     2.2200 
   74.8750   -26.0030    68.5380     8.3220     6.1850     8.3530    23.9560     2.1880 
   75.0000   -25.7520    62.7500     8.3970     6.2530     7.6400    23.9560     2.1650 
   75.1250   -25.4730    63.7580     7.7390     5.9030     6.9200    23.9450     2.1710 
   75.2500   -25.1540    68.5550     6.6930     5.2710     6.3340    23.8800     2.2100 
   75.3750   -24.8300    72.8050     5.6680     4.5790     5.5480    23.7150     2.2700 
   75.5000   -24.5430    78.1680     4.9690     4.0350     4.7780    23.4910     2.3210 
   75.6250   -24.2780    87.3500     4.8220     3.8140     4.6610    23.3170     2.3210 
   75.7500   -24.0760    94.0190     5.1550     3.9060     5.2260    23.2540     2.2820 
   75.8750   -23.9620    90.6170     5.8790     4.2880     5.9940    23.2650     2.2260 
   76.0000   -23.8780    77.6050     6.8020     4.8700     6.6570    23.3650     2.1740 
   76.1250   -23.8010    65.6290     7.5040     5.4330     6.6970    23.5920     2.1520 
   76.2500   -23.7150    63.6020     7.6080     5.7020     6.4990    23.8140     2.1620 
   76.3750   -23.6160    70.7750     7.0630     5.5560     6.0530    23.9270     2.1970 
   76.5000   -23.4560    80.7600     6.1890     5.0850     5.3850    23.9520     2.2430 
   76.6250   -23.2940    88.1180     5.4500     4.5230     4.8700    23.9190     2.2850 
   76.7500   -23.1410    92.2110     5.0310     4.0700     4.6580    23.8430     2.3140 
   76.8750   -23.0160    93.7600     4.9260     3.7890     4.7310    23.7510     2.3300 
   77.0000   -22.9910    94.2610     5.0530     3.6860     5.0060    23.7010     2.3370 
   77.1250   -23.0810    95.3790     5.3030     3.7590     5.3120    23.6920     2.3440 
   77.2500   -23.2750    95.2500     5.5800     3.9430     5.4100    23.6880     2.3520 
   77.3750   -23.5370    92.4510     5.8850     4.2180     5.3810    23.6730     2.3530 
   77.5000   -23.8820    87.2780     6.2640     4.5720     5.5850    23.6400     2.3370 
   77.6250   -24.1980    82.8600     6.7850     5.0030     6.4050    23.6370     2.3030 
   77.7500   -24.4580    78.3910     7.3880     5.4560     7.2220    23.6580     2.2600 
   77.8750   -24.6780    74.1110     7.9520     5.8660     7.5670    23.7020     2.2180 
   78.0000   -24.7850    70.3810     8.3240     6.1660     7.5170    23.7800     2.1850 
   78.1250   -24.7880    65.9110     8.3460     6.2680     7.3510    23.9200     2.1650 
   78.2500   -24.7540    59.1740     8.0820     6.1880     7.2580    24.0110     2.1610 
   78.3750   -24.6470    55.0470     7.6240     5.9510     7.2950    24.0420     2.1750 
   78.5000   -24.4670    57.9760     7.0860     5.6020     7.1480    24.0460     2.2050 
   78.6250   -24.3090    64.6830     6.5890     5.2010     6.4740    24.0350     2.2430 
   78.7500   -24.1550    70.5890     6.2150     4.8320     5.7930    24.0000     2.2760 
   78.8750   -24.0330    76.9130     6.0110     4.5580     5.6760    23.9310     2.2960 
   79.0000   -23.9840    81.7780     5.9840     4.4110     5.7090    23.8270     2.2990 
   79.1250   -23.9840    80.8860     6.1190     4.4080     5.7870    23.7360     2.2840 
   79.2500   -24.0140    78.0870     6.3370     4.5030     6.0070    23.6990     2.2580 
   79.3750   -24.0720    76.0500     6.6250     4.6870     6.3720    23.6920     2.2280 
   79.5000   -24.1480    73.6640     7.0390     4.9930     6.8000    23.6920     2.2050 
   79.6250   -24.1820    68.8580     7.7800     5.5680     7.4270    23.6920     2.2120 
   79.7500   -24.1810    65.2640     8.9640     6.4970     8.8220    23.6920     2.2650 
   79.8750   -24.1580    64.8940    10.6220     7.8110    12.0200    23.6920     2.3700 
   80.0000   -24.1480    66.3560    12.5010     9.3580    18.5700    23.6920     2.5020 
   80.1250   -24.1150    66.4340    13.6660    10.5790    26.9150    23.6850     2.5760 
   80.2500   -24.0590    63.2220    13.3520    10.8990    28.9090    23.6520     2.5530 
   80.3750   -24.0620    61.2150    11.7080    10.2040    19.6700    23.5730     2.4680 
   80.5000   -24.0680    64.1130     9.6830     8.9280    10.9610    23.4870     2.3630 
   80.6250   -24.0780    68.7410     8.2580     7.7060     7.8310    23.4030     2.2750 
   80.7500   -24.1380    70.4210     7.5540     6.8380     7.4050    23.3630     2.2230 
   80.8750   -24.1880    68.9700     7.3740     6.3260     7.6520    23.3430     2.2070 
   81.0000   -24.1590    66.5190     7.4220     6.0590     7.6780    23.3140     2.2180 
   81.1250   -24.1080    66.0080     7.3800     5.8820     7.3690    23.2370     2.2360 
   81.2500   -24.0850    67.1230     7.1200     5.6560     6.5120    23.1520     2.2490 
   81.3750   -24.0300    68.5640     6.7020     5.3590     5.4860    23.0920     2.2510 
   81.5000   -24.0050    69.9130     6.2760     5.0430     5.2070    23.0530     2.2490 
   81.6250   -24.0140    71.4070     6.0230     4.8140     5.5540    23.0190     2.2550 
   81.7500   -24.0390    73.0460     6.0290     4.7580     5.6110    22.9880     2.2850 
   81.8750   -24.1410    73.1560     6.3600     4.9540     5.5550    22.9500     2.3430 
   82.0000   -24.3470    71.5960     7.0850     5.4680     5.7150    22.9250     2.4180 
   82.1250   -24.6230    69.5950     8.3400     6.3860     6.5010    22.9160     2.4670 
   82.2500   -24.9450    69.5350     9.9850     7.5740     8.8690    22.9130     2.4580 
   82.3750   -25.2890    71.3250    11.6880     8.7970    12.3590    22.9100     2.3990 
