~V
VERS. 2.00: Ver 2.00
~W
STRT.M 55.0000:
STOP.M 279.0000:
STEP.M 0.1250:
NULL. -999.2500:
UWI. F10072:
~C
DEPT.M :
GR.API :
RML.OHMM :
RI. :
RXO.OHMM :
CALI.CM :
DEN.GM/CC :
SP.MV :
~A
# ...
  235.0000    68.6340    38.9130    34.3250    34.4340    25.1190     2.2170    -5.2260 
  235.1250    66.8660    40.4240    35.2360    35.5080    25.0700     2.2140    -5.2110 
  235.2500    67.7970    42.7970    36.8030    39.4090    25.0330     2.2080    -5.3880 
  235.3750    69.4530    45.9230    38.9990    42.8550    25.0150     2.2000    -5.6190 
  235.5000    68.0940    49.5440    41.7100    43.7310    25.0290     2.1910    -5.8440 
  235.6250    65.3300    53.2650    44.7470    45.1120    25.0530     2.1830    -6.1600 
  235.7500    65.2590    56.6520    47.7490    48.8210    25.0370     2.1770    -6.5260 
  235.8750    65.1760    59.4310    50.3960    55.5260    25.0200     2.1760    -7.0430 
  236.0000    61.5230    61.4610    52.3190    62.7920    25.0420     2.1780    -7.7370 
  236.1250    57.5670    62.7820    53.1420    62.5400    25.0690     2.1800    -8.4270 
  236.2500    57.6870    64.1020    53.3750    58.7000    25.0740     2.1750    -9.0470 
  236.3750    60.8320    66.4010    53.8830    56.0580    25.0610     2.1610    -9.6910 
  236.5000    63.9090    70.7040    55.7310    56.2290    25.0400     2.1540   -10.4770 
  236.6250    64.5560    77.7660    60.2140    59.9580    24.9840     2.1900   -11.3390 
  236.7500    62.1360    86.1350    66.9790    66.5060    24.8250     2.2810   -12.1080 
  236.8750    58.0280    93.7390    74.7720    87.8420    24.5440     2.4100   -12.7110 
  237.0000    56.4330    98.3020    81.2750   124.8540    24.2840     2.5350   -13.2090 
  237.1250    59.5890    97.8950    83.5310   159.3550    24.1740     2.6020   -13.7010 
  237.2500    62.1710    94.2580    82.0530   127.4310    24.1610     2.6120   -14.1360 
  237.3750    60.7610    89.3100    78.6000    85.4230    24.1300     2.5930   -14.4140 
  237.5000    58.3930    84.0740    74.9750    67.0870    24.1460     2.5800   -14.5250 
  237.6250    60.5200    77.5130    71.2780    62.4430    24.1500     2.5820   -14.5400 
  237.7500    65.3890    68.0560    65.1380    80.5080    24.2760     2.5720   -14.4880 
  237.8750    68.2020    55.2210    54.4100    84.4550    24.3580     2.5270   -14.3250 
  238.0000    68.1890    40.5650    40.2080    60.3560    24.3110     2.4460   -13.9810 
  238.1250    69.3970    27.5270    27.0780    41.2220    23.8640     2.3600   -13.4540 
  238.2500    72.1930    18.1300    17.5700    24.9540    22.9450     2.3030   -12.8670 
  238.3750    72.4030    12.4470    11.5870    11.5070    22.0750     2.2890   -12.3100 
  238.5000    68.4090     9.0570     8.1810     6.5110    21.7790     2.3080   -11.7930 
  238.6250    62.6310     8.0860     6.5670     5.5630    21.8550     2.3380   -11.2490 
  238.7500    57.4160     7.4110     5.7910     5.5850    21.9370     2.3560   -10.7280 
  238.8750    54.2590     7.0910     5.4770     5.6360    21.9450     2.3570   -10.2430 
  239.0000    52.7880     6.8870     5.3580     5.4430    21.9340     2.3460    -9.7650 
  239.1250    53.8940     6.7490     5.3100     4.9390    22.0460     2.3290    -9.2970 
  239.2500    59.3170     6.7250     5.3550     4.5310    22.2460     2.3120    -8.8990 
  239.3750    69.5470     6.8810     5.5690     4.4730    22.4730     2.2940    -8.5670 
  239.5000    80.0060     7.2310     5.9970     5.1690    22.9280     2.2710    -8.2540 
  239.6250    82.1600     7.7230     6.6450     6.8290    24.0220     2.2440    -7.9490 
  239.7500    80.1910     8.2060     7.3390     7.8890    25.3500     2.2190    -7.6970 
  239.8750    80.5830     8.5670     7.8720     7.8240    26.3350     2.2050    -7.5510 
  240.0000    85.8820     8.7450     8.0720     7.3360    26.7520     2.2040    -7.4890 
  240.1250    93.4590     8.7340     7.9040     6.9780    26.6850     2.2100    -7.5380 
  240.2500    99.7200     8.6540     7.6340     6.9130    26.5170     2.2180    -7.6430 
  240.3750   103.9840     8.5970     7.4360     7.0020    26.3890     2.2270    -7.7490 
  240.5000   105.3900     8.6130     7.3770     7.0220    26.3260     2.2370    -7.8920 
  240.6250   102.1270     8.7100     7.4440     7.1410    26.2630     2.2490    -8.0090 
  240.7500    97.1830     8.8590     7.5630     7.2010    26.1810     2.2580    -8.0970 
  240.8750    94.8320     9.0500     7.6920     7.2590    26.0800     2.2620    -8.1640 
  241.0000    97.2400     9.2760     7.7900     7.2010    25.9680     2.2600    -8.2070 
  241.1250    99.7050     9.5130     7.8050     7.2170    25.9120     2.2570    -8.2090 
  241.2500    97.9920     9.7030     7.7300     7.1760    25.9110     2.2540    -8.0800 
  241.3750    95.7240     9.7900     7.5670     7.0610    25.9240     2.2510    -7.8650 
  241.5000    95.9820     9.7650     7.3470     6.8440    25.7860     2.2490    -7.5290 
  241.6250    97.9220     9.6670     7.1230     7.2260    25.5400     2.2540    -7.1000 
  241.7500    99.4300     9.5920     6.9650     8.2230    25.2650     2.2680    -6.5930 
  241.8750    99.3960     9.6350     6.9690     9.0010    24.9690     2.2900    -6.0660 
  242.0000    97.0310     9.9490     7.2400     9.6260    24.7240     2.3130    -5.6020 
  242.1250    92.1050    10.9010     7.9410    10.0590    24.5950     2.3310    -5.2250 
  242.2500    88.1010    12.7540     9.1360    10.9830    24.5210     2.3440    -4.9780 
  242.3750    84.6310    15.8340    11.0140    13.2780    24.4270     2.3590    -4.8920 
  242.5000    79.4330    20.4110    13.8660    16.7530    24.3130     2.3770    -4.9310 
  242.6250    73.8150    26.9120    18.3570    22.6040    24.2370     2.3850    -5.1830 
  242.7500    70.5450    34.9710    24.6360    33.2460    24.2280     2.3720    -5.5890 
  242.8750    69.6740    44.2540    32.7050    39.7630    24.2620     2.3350    -6.0960 
  243.0000    67.8980    54.2320    42.0480    49.0390    24.3370     2.2840    -6.6560 
  243.1250    63.5710    64.1970    51.6750    62.3480    24.3680     2.2420    -7.2250 
  243.2500    60.9860    73.5840    60.5670    83.9920    24.3470     2.2170    -7.7470 
  243.3750    60.4120    82.1770    68.2480   107.8460    24.3150     2.2070    -8.2290 
  243.5000    60.1600    90.0000    74.7560   112.5000    24.3240     2.2030    -8.6440 
  243.6250    60.9630    97.1370    80.4890    97.2860    24.3260     2.1970    -9.0250 
  243.7500    63.4760   103.8290    86.0860    95.8000    24.2990     2.1900    -9.3590 
  243.8750    64.4360   110.0050    91.7320    99.2650    24.2710     2.1860    -9.6530 
  244.0000    63.2220   115.3820    97.1790   106.4640    24.3030     2.1870    -9.8930 
  244.1250    61.7020   119.3170   101.5360   120.8590    24.3730     2.1930   -10.1140 
  244.2500    59.3660   121.7480   104.3770   139.5800    24.3690     2.1990   -10.4030 
  244.3750    57.0070   122.6730   105.7250   148.7560    24.3340     2.2020   -10.6510 
  244.5000    57.2720   122.1970   106.0290   110.2690    24.4020     2.1980   -10.9530 
  244.6250    60.4640   120.2150   105.6240    95.3780    24.4750     2.1880   -11.2420 
  244.7500    60.5060   117.0510   104.5600    93.9240    24.4170     2.1780   -11.5580 
  244.8750    56.9030   112.9620   102.5700   108.8510    24.1650     2.1720   -11.9030 
  245.0000    54.7430   108.4010    99.5920   128.7050    23.8580     2.1730   -12.3430 
  245.1250    56.6150   103.9470    96.0170   143.8610    23.5820     2.1810   -12.7730 
  245.2500    59.5090    99.9710    92.6790   127.4480    23.3290     2.1920   -13.1720 
  245.3750    60.9110    96.6280    90.1120   107.7830    23.1450     2.2020   -13.5920 
  245.5000    60.7280    93.9720    88.5330   110.6820    23.0180     2.2050   -13.9810 
  245.6250    60.0670    91.9600    87.6890   118.4800    22.9970     2.2000   -14.3050 
  245.7500    59.2320    89.9890    86.6080   117.0560    23.1580     2.1880   -14.5550 
  245.8750    59.1170    87.3390    84.5060   106.6910    23.3310     2.1740   -14.7150 
  246.0000    59.6960    83.3010    80.9210   106.7090    23.4270     2.1660   -14.7530 
  246.1250    61.6300    77.2020    75.4880   103.7290    23.4490     2.1690   -14.7480 
