~V
VERS. 2.00: Ver 2.00
~W
STRT.M 50.0000:
STOP.M 307.0000:
STEP.M 0.1250:
NULL. -999.2500:
UWI. F10044:
~C
DEPT.M :
GR.API :
RML.OHMM :
RI. :
RXO.OHMM :
CALI.CM :
DEN.GM/CC :
SP.MV :
~A
# ...
  263.7500    77.7590    14.7010    13.0130    17.1540    23.4680     2.4410    -7.4460 
  263.8750    78.2550    14.8880    13.3440    16.8030    23.4720     2.4230    -7.4800 
  264.0000    81.5020    14.9290    13.4980    16.5250    23.4650     2.4060    -7.4890 
  264.1250    82.3480    14.9730    13.5790    16.3500    23.4500     2.3910    -7.5130 
  264.2500    81.2240    15.0870    13.6610    16.0230    23.4380     2.3760    -7.5440 
  264.3750    78.9530    15.2290    13.7270    15.6800    23.4470     2.3580    -7.5790 
  264.5000    77.5350    15.2820    13.7030    15.5620    23.5080     2.3400    -7.6290 
  264.6250    79.4890    15.0600    13.4460    15.5300    23.6390     2.3230    -7.7320 
  264.7500    80.6990    14.5220    12.9230    15.0100    23.7960     2.3130    -7.8890 
  264.8750    76.6530    13.7040    12.1620    14.0390    23.9190     2.3130    -8.0780 
  265.0000    70.1550    12.7000    11.2750    12.9340    23.9660     2.3280    -8.3010 
  265.1250    70.2180    11.8120    10.4820    11.9420    23.9330     2.3600    -8.5710 
  265.2500    74.5270    11.3570    10.0070    11.2620    23.8520     2.4050    -8.9050 
  265.3750    76.7290    11.7550    10.0590    11.2830    23.7420     2.4520    -9.2850 
  265.5000    74.5840    13.2960    10.8700    13.2670    23.6400     2.4860    -9.6920 
  265.6250    70.2430    16.8890    12.9870    17.8230    23.5640     2.4870   -10.1410 
  265.7500    66.8200    22.4110    16.6370    25.2080    23.5260     2.4600   -10.6320 
  265.8750    65.4350    29.4660    22.0120    35.0420    23.5260     2.4260   -11.1600 
  266.0000    65.8870    37.4560    28.8550    43.9510    23.5270     2.4060   -11.6520 
  266.1250    65.3980    45.0740    36.0960    54.9250    23.5120     2.4200   -12.0820 
  266.2500    62.0890    50.4670    41.9280    68.2870    23.4870     2.4500   -12.4970 
  266.3750    56.4610    52.4650    44.9880    79.8040    23.4610     2.4730   -12.9170 
  266.5000    52.6440    51.1690    44.9420    83.7760    23.4270     2.4670   -13.2630 
  266.6250    54.5370    48.1970    42.7670    73.0270    23.3910     2.4210   -13.4630 
  266.7500    59.6300    46.3630    40.8820    50.8200    23.3640     2.3630   -13.6050 
  266.8750    63.0040    47.5910    41.0390    41.3630    23.3840     2.3190   -13.7370 
  267.0000    60.9150    53.2730    44.6840    47.0140    23.4740     2.3100   -13.8310 
  267.1250    54.7790    65.3340    53.8950    61.2470    23.6030     2.3520   -13.8550 
  267.2500    50.2630    82.9740    68.4020    79.7500    23.7180     2.4290   -13.8550 
  267.3750    48.9750   104.7640    87.2750   103.6950    23.8030     2.5210   -13.8550 
  267.5000    49.2440   127.3910   107.8310   131.7640    23.8540     2.6030   -13.8670 
  267.6250    49.4380   144.5100   124.7500   162.1980    23.8880     2.6430   -13.9110 
  267.7500    48.7400   151.7960   133.9330   186.8210    23.9230     2.6390   -13.9890 
  267.8750    47.5850   147.7320   133.5370   191.0240    23.9380     2.5960   -14.0900 
  268.0000    47.5580   134.7920   124.7520   185.8180    23.8970     2.5250   -14.2150 
  268.1250    50.1950   118.6230   111.3350   179.1910    23.7890     2.4390   -14.3520 
  268.2500    52.0020   104.8540    98.6560   160.2370    23.6440     2.3600   -14.4870 
  268.3750    51.9530    94.8550    88.7760   124.9790    23.5060     2.3000   -14.6070 
  268.5000    51.0690    87.6670    81.5400    95.1450    23.4160     2.2650   -14.6850 
  268.6250    50.2180    81.3190    75.4900    83.9600    23.3810     2.2560   -14.6700 
  268.7500    50.8270    74.1610    68.9620    80.4620    23.4220     2.2600   -14.5690 
  268.8750    53.3680    65.9550    61.5650    72.5600    23.5530     2.2700   -14.4230 
  269.0000    56.0850    57.2310    53.7470    59.6710    23.7410     2.2820   -14.2640 
  269.1250    57.3420    49.3930    46.6500    47.8370    23.8960     2.2920   -14.0550 
  269.2500    59.2550    43.4360    41.1410    41.9270    23.9550     2.3000   -13.7790 
  269.3750    61.7250    40.3170    37.7640    40.0520    23.9570     2.3050   -13.4610 
  269.5000    63.6890    40.3800    36.9020    38.8490    23.9510     2.3070   -13.2020 
  269.6250    65.2710    45.1860    39.4450    39.9750    23.9540     2.3150   -13.0260 
  269.7500    65.2440    53.4570    45.0840    49.0450    23.9610     2.3430   -12.8230 
  269.8750    61.1140    63.2560    53.3240    68.0220    23.9600     2.3960   -12.5560 
  270.0000    53.6070    72.7610    62.7400    93.7970    23.9420     2.4710   -12.2990 
  270.1250    48.1770    79.4820    70.4950   120.6960    23.8810     2.5430   -12.0860 
  270.2500    47.2680    81.6920    74.3740   133.6970    23.7810     2.5820   -11.8710 
  270.3750    50.8080    79.4480    73.7500   124.7220    23.6640     2.5720   -11.6200 
  270.5000    56.7170    74.6290    69.8720   101.8710    23.5500     2.5220   -11.3590 
  270.6250    59.6050    69.5580    64.7810    79.8340    23.4490     2.4650   -11.1240 
  270.7500    58.5220    64.7710    59.5630    65.6280    23.3890     2.4360   -10.8980 
  270.8750    56.3890    59.2210    53.6790    59.6980    23.3890     2.4410   -10.6630 
  271.0000    56.5810    51.8980    46.4700    58.1400    23.4030     2.4760   -10.4250 
  271.1250    59.4760    42.8760    38.1770    55.8130    23.4220     2.5210   -10.2420 
  271.2500    62.0820    34.1700    30.4680    45.9620    23.4660     2.5590   -10.1010 
  271.3750    64.6170    27.4930    24.6090    29.8740    23.5190     2.5870   -10.0020 
  271.5000    67.3470    23.8000    21.1680    22.4910    23.5640     2.6060    -9.9360 
  271.6250    66.9010    23.7440    20.6220    27.3950    23.5860     2.6160    -9.9180 
  271.7500    62.2680    26.4480    22.5050    36.2060    23.5700     2.6090    -9.9760 
  271.8750    57.6100    31.3610    26.6900    45.1520    23.5220     2.5780   -10.1030 
  272.0000    57.8470    37.6810    32.7590    49.5250    23.4650     2.5250   -10.2540 
  272.1250    60.1880    44.1990    39.7770    50.5400    23.3880     2.4640   -10.4660 
  272.2500    60.0580    49.5900    46.0940    54.2580    23.2890     2.4110   -10.7420 
  272.3750    59.9330    53.0320    50.5110    58.2310    23.1630     2.3730   -11.0230 
  272.5000    62.1890    54.2060    52.4300    60.4360    23.0300     2.3520   -11.2550 
  272.6250    62.0230    52.9300    51.5540    54.5920    22.9340     2.3420   -11.4230 
  272.7500    58.5180    49.9860    48.7750    47.6960    22.8680     2.3360   -11.5970 
  272.8750    56.0420    45.8780    44.6750    41.2920    22.8210     2.3300   -11.7750 
  273.0000    57.2980    41.2190    39.9510    34.8970    22.7850     2.3250   -11.9080 
  273.1250    60.8670    36.7460    35.3940    29.7960    22.7390     2.3230   -11.9200 
  273.2500    63.3000    32.9550    31.5050    25.7300    22.6900     2.3250   -11.9050 
  273.3750    63.9790    30.0910    28.4990    23.0440    22.6610     2.3280   -11.9310 
  273.5000    62.8510    28.3220    26.4850    23.0450    22.6630     2.3290   -11.9450 
  273.6250    60.6100    28.1770    25.8260    25.2960    22.7150     2.3240   -11.9310 
  273.7500    58.9710    30.0030    26.7200    28.8250    22.8390     2.3130   -11.9350 
  273.8750    57.0900    34.5700    29.8150    36.2590    23.0570     2.2970   -11.9770 
  274.0000    55.1510    42.6630    35.9620    51.4640    23.3610     2.2770   -12.0420 
  274.1250    53.0450    55.2070    46.4660    73.5770    23.6680     2.2580   -12.1380 
  274.2500    49.7730    70.5880    60.3060    95.3410    23.8740     2.2440   -12.2620 
  274.3750    47.2970    86.6100    75.6790   106.1520    23.9440     2.2350   -12.4080 
  274.5000    47.4580   100.2850    89.6600   105.3950    23.9310     2.2310   -12.5610 
  274.6250    50.0300   107.7870    98.1380   103.6290    23.9010     2.2350   -12.7110 
  274.7500    51.0340   109.1560   100.5640   102.6520    23.8940     2.2490   -12.8420 
  274.8750    49.8780   105.8020    98.0910   101.1990    23.9230     2.2730   -12.9640 
