~V
VERS. 2.00: Ver 2.00
~W
STRT.M 50.0000:
STOP.M 286.0000:
STEP.M 0.1250:
NULL. -999.2500:
UWI. F10036:
~C
DEPT.M :
GR.API :
RML.OHMM :
RI. :
RXO.OHMM :
CALI.CM :
DEN.GM/CC :
SP.MV :
~A
# ...
  230.0000    59.9110    17.6910    17.2270    23.2610    24.4800     2.5720   -12.5530 
  230.1250    63.5920    14.6590    14.5410    29.6470    24.3470     2.5130   -12.5600 
  230.2500    64.6010    11.3080    11.4270    21.6810    24.0210     2.4390   -12.3900 
  230.3750    60.4140     8.5730     8.8170    11.2880    23.6340     2.3770   -12.0690 
  230.5000    54.8720     6.7380     7.0060     7.4270    23.3540     2.3460   -11.5670 
  230.6250    52.4160     5.7940     6.0190     7.2190    23.3020     2.3500   -10.9200 
  230.7500    53.0390     5.4430     5.5830     7.5590    23.4290     2.3680   -10.1840 
  230.8750    56.6880     5.5990     5.6020     7.3230    23.5160     2.3860    -9.5350 
  231.0000    63.0940     6.1650     5.9900     7.1470    23.5260     2.3950    -9.0910 
  231.1250    71.0600     7.0030     6.6700     7.8140    23.4990     2.3890    -8.8810 
  231.2500    79.0060     7.8600     7.4560     8.5310    23.4830     2.3750    -8.8160 
  231.3750    85.2720     8.5620     8.2100     8.2250    23.5020     2.3590    -8.8290 
  231.5000    88.8340     9.0040     8.7990     7.9970    23.5240     2.3480    -8.9000 
  231.6250    91.7270     9.1410     9.0960     8.2870    23.5250     2.3410    -9.0070 
  231.7500    95.7650     9.1100     9.1650     8.9290    23.5250     2.3290    -9.1660 
  231.8750    98.1520     9.0300     9.0910     9.6800    23.5310     2.3050    -9.3820 
  232.0000    95.8750     8.9980     8.9690    10.2880    23.5220     2.2690    -9.5610 
  232.1250    94.1830     9.0970     8.8930    10.2940    23.4830     2.2330    -9.8040 
  232.2500    95.7400     9.3610     8.9390    10.0260    23.4450     2.2140    -9.9990 
  232.3750    95.0020     9.8450     9.1800     9.6800    23.4610     2.2230   -10.1410 
  232.5000    88.9770    10.5920     9.6740    10.0770    23.5620     2.2600   -10.2160 
  232.6250    82.9320    11.6470    10.4960    12.2390    23.7450     2.3170   -10.2330 
  232.7500    81.3140    12.9920    11.6280    15.6400    24.0030     2.3780   -10.2190 
  232.8750    80.3510    14.7430    13.1500    19.1420    24.2070     2.4340   -10.1220 
  233.0000    77.3100    17.1300    15.2230    22.7250    24.3020     2.4830   -10.0590 
  233.1250    73.3410    20.6760    18.2880    23.2220    24.3220     2.5290    -9.9130 
  233.2500    69.4030    25.4620    22.5030    27.6300    24.2890     2.5740    -9.7980 
  233.3750    64.4560    31.1560    27.7160    41.7130    24.2320     2.6170    -9.7360 
  233.5000    60.1040    36.5040    32.9040    67.6780    24.1920     2.6470    -9.7230 
  233.6250    59.9640    38.7830    35.5840    77.6670    24.1800     2.6420    -9.7620 
  233.7500    62.1710    37.1990    34.7690    66.6230    24.1700     2.6000    -9.8450 
  233.8750    64.2100    32.9670    31.3400    46.6610    24.1260     2.5260    -9.9930 
  234.0000    66.0250    28.4290    27.2960    30.5610    24.0120     2.4370   -10.1700 
  234.1250    67.5060    25.8710    24.6180    24.5280    23.8500     2.3530   -10.4120 
  234.2500    69.5340    25.8500    23.9070    24.9780    23.7340     2.2850   -10.7060 
  234.3750    72.1770    28.6710    25.5510    26.2960    23.7510     2.2390   -11.0310 
  234.5000    73.3280    34.7120    30.1390    33.4210    23.8870     2.2180   -11.3930 
  234.6250    68.9310    46.4700    39.2100    48.9100    24.1010     2.2280   -11.8080 
  234.7500    62.6860    65.5300    52.6710    72.9530    24.2470     2.2530   -12.2800 
  234.8750    58.3890    84.9660    69.7800   104.9290    24.2940     2.2760   -12.7920 
  235.0000    56.1550   105.3090    88.0450   141.9370    24.2290     2.2810   -13.3010 
  235.1250    56.0530   120.1670   102.3570   147.6540    24.1710     2.2610   -13.9330 
  235.2500    57.2470   125.4660   109.2980   133.5190    24.1110     2.2310   -14.5910 
  235.3750    57.1990   121.2860   108.2390   127.6010    24.0150     2.2070   -15.2580 
  235.5000    56.1340   111.2880   101.3500   122.8580    23.8190     2.1960   -15.8750 
  235.6250    59.2610   100.0880    92.1220   115.4230    23.6960     2.1990   -16.4200 
  235.7500    64.8900    90.9270    83.9760    96.4230    23.6450     2.2040   -16.9010 
  235.8750    66.8410    84.9990    78.3860    76.9020    23.6440     2.2070   -17.3000 
  236.0000    63.5450    82.8120    76.0580    72.4130    23.6420     2.2050   -17.6900 
  236.1250    59.0010    85.1550    77.8530    87.0430    23.6490     2.1980   -17.9320 
  236.2500    57.5240    91.1960    83.1050   101.5970    23.6800     2.1900   -18.0700 
  236.3750    58.4700   100.4950    91.4730   108.6620    23.7540     2.1840   -18.1680 
  236.5000    59.1560   112.2370   102.2690   110.6710    23.8790     2.1800   -18.2700 
  236.6250    58.3640   124.8290   114.1380   125.7490    23.9950     2.1770   -18.4150 
  236.7500    56.7250   135.6610   124.7090   146.5960    24.0630     2.1760   -18.5310 
  236.8750    55.6540   142.5160   131.9450   162.0400    24.0370     2.1780   -18.7290 
  237.0000    54.7130   144.1320   134.5600   167.6990    23.9690     2.1860   -18.9370 
  237.1250    54.3330   140.5460   132.2210   156.0110    24.0420     2.1980   -19.2250 
  237.2500    56.1730   135.1610   127.7560   135.4650    24.2820     2.2090   -19.5830 
  237.3750    59.1200   130.5830   123.5430   114.3900    24.4560     2.2170   -19.9890 
  237.5000    60.9500   128.4690   121.3220   109.2810    24.5310     2.2200   -20.3800 
  237.6250    59.2440   129.4840   121.9810   125.0970    24.5510     2.2210   -20.7310 
  237.7500    56.8930   132.1080   124.2910   134.6530    24.5390     2.2230   -21.0560 
  237.8750    56.2380   134.8070   126.9410   140.8520    24.5070     2.2250   -21.3500 
  238.0000    56.3030   136.0170   128.5580   148.7960    24.4660     2.2230   -21.5630 
  238.1250    55.6670   134.2800   127.7820   148.3170    24.4760     2.2140   -21.6840 
  238.2500    55.2640   130.2220   124.9550   135.1310    24.5640     2.2040   -21.7000 
  238.3750    56.4120   124.8090   120.8070   127.3870    24.6550     2.1970   -21.6240 
  238.5000    58.7450   119.1860   116.2920   123.8410    24.6930     2.1980   -21.5570 
  238.6250    61.5740   114.9060   112.7760   119.5670    24.6940     2.2080   -21.3860 
  238.7500    62.5990   112.9820   111.3520   111.8000    24.6960     2.2190   -21.2440 
  238.8750    59.9730   113.8380   112.5870   105.1740    24.6860     2.2270   -21.0200 
  239.0000    54.6820   116.8470   116.0200   105.6490    24.6560     2.2280   -20.7750 
  239.1250    51.8760   119.6250   119.5120   114.8910    24.5960     2.2180   -20.5210 
  239.2500    52.2620   118.8230   119.8840   133.0080    24.5520     2.2000   -20.2240 
  239.3750    53.2330   112.3970   115.0060   137.8140    24.4820     2.1790   -19.9140 
  239.5000    55.1370   100.9250   104.9560   105.2990    24.3440     2.1610   -19.5050 
  239.6250    59.4770    87.4930    92.1310    74.4630    24.2600     2.1560   -19.1850 
  239.7500    63.3900    75.7310    80.2550    59.2230    24.2890     2.1640   -18.7950 
  239.8750    63.6630    67.2070    71.1950    53.8150    24.3770     2.1810   -18.4520 
  240.0000    61.9480    62.4330    65.7340    50.4260    24.3830     2.2020   -18.1940 
  240.1250    62.8230    61.9690    64.5960    50.1980    24.2930     2.2200   -17.9320 
  240.2500    64.9050    64.9880    67.0040    46.0660    24.1250     2.2300   -17.7860 
  240.3750    65.4050    71.2710    72.7450    41.5820    23.9120     2.2300   -17.6780 
  240.5000    63.5240    80.4240    81.4090    42.7580    23.7150     2.2230   -17.6780 
  240.6250    60.1240    91.8100    92.2850    53.1360    23.6160     2.2130   -17.7030 
  240.7500    57.0130   103.7090   103.5570    60.4250    23.5710     2.2070   -17.8200 
  240.8750    54.5980   115.0770   114.0820    61.2440    23.5010     2.2030   -17.9680 
  241.0000    53.5620   125.7420   123.5610    63.0480    23.3910     2.2010   -18.1650 
  241.1250    53.5160   136.9260   132.9370    73.8580    23.3230     2.1980   -18.3610 
