~V
VERS. 2.00: Ver 2.00
~W
STRT.M 55.0000:
STOP.M 293.0000:
STEP.M 0.1250:
NULL. -999.2500:
UWI. F10038:
~C
DEPT.M :
SP.MV :
DEN.GM/CC :
GR.API :
RML.OHMM :
RI. :
RXO.OHMM :
CALI.CM :
~A
# ...
  178.7500    -7.1100     2.3070    83.0450     7.6230     6.2590     8.3790    24.9700 
  178.8750    -7.2020     2.3060    81.3770     8.3160     6.7970     9.0840    24.9290 
  179.0000    -7.3460     2.2980    78.0870     9.6690     7.8400    10.5050    24.7730 
  179.1250    -7.5530     2.2790    72.9870    11.8310     9.4500    13.0120    24.5850 
  179.2500    -7.8090     2.2540    69.4350    14.2610    11.3000    15.9030    24.3560 
  179.3750    -8.1020     2.2310    67.0830    16.2580    12.9960    17.9540    24.1210 
  179.5000    -8.4200     2.2170    64.7550    17.2870    14.1110    17.9410    23.9410 
  179.6250    -8.7170     2.2220    64.9560    17.0770    14.2690    15.7300    23.7790 
  179.7500    -9.0150     2.2390    67.7760    16.2020    13.7800    13.4460    23.5940 
  179.8750    -9.2900     2.2590    70.9810    15.2300    13.0390    11.7820    23.4320 
  180.0000    -9.5310     2.2720    72.7210    14.5680    12.4190    11.4440    23.3240 
  180.1250    -9.7610     2.2700    72.4910    14.4880    12.2240    12.0910    23.2410 
  180.2500    -9.9550     2.2600    71.3070    14.9490    12.4790    12.8850    23.1990 
  180.3750   -10.1210     2.2480    69.0070    15.9270    13.1810    13.7210    23.2040 
  180.5000   -10.2510     2.2370    66.9610    17.3420    14.2770    14.8790    23.2560 
  180.6250   -10.3560     2.2290    65.1070    19.0500    15.6790    16.4970    23.2940 
  180.7500   -10.4460     2.2210    63.2380    20.7370    17.1450    18.4300    23.3170 
  180.8750   -10.5230     2.2130    62.1480    22.1520    18.4710    19.4980    23.3490 
  181.0000   -10.6110     2.2060    61.5550    23.1150    19.4860    19.9100    23.4740 
  181.1250   -10.7030     2.2030    62.5880    23.5220    20.0450    19.9390    23.7190 
  181.2500   -10.7910     2.2070    64.1400    23.6160    20.2840    19.7300    23.9420 
  181.3750   -10.8570     2.2180    64.7940    23.6230    20.3670    19.1710    24.0640 
  181.5000   -10.9040     2.2340    64.7170    23.7490    20.4790    18.5530    24.0940 
  181.6250   -10.9350     2.2500    64.7000    24.1510    20.7980    18.4120    24.0370 
  181.7500   -10.9190     2.2600    64.7880    24.7850    21.3410    18.8330    23.9060 
  181.8750   -10.8680     2.2620    63.1920    25.5620    22.0620    20.0080    23.7280 
  182.0000   -10.7820     2.2570    59.7980    26.3360    22.8540    21.9380    23.5630 
  182.1250   -10.6680     2.2450    57.1170    26.8710    23.5200    24.1450    23.4820 
  182.2500   -10.5620     2.2320    56.5790    27.0190    23.8930    25.5490    23.5060 
  182.3750   -10.4980     2.2220    58.0740    26.6920    23.8550    26.0240    23.6050 
  182.5000   -10.4950     2.2170    60.3930    25.8990    23.3730    25.1970    23.7910 
  182.6250   -10.5750     2.2180    61.8190    24.7370    22.4830    22.1350    24.0950 
  182.7500   -10.7150     2.2210    62.6140    23.4890    21.4300    18.6390    24.3960 
  182.8750   -10.8920     2.2240    62.5920    22.3500    20.3970    15.8090    24.5810 
  183.0000   -11.0450     2.2230    61.9240    21.4570    19.5300    14.6130    24.6270 
  183.1250   -11.1410     2.2180    62.4000    20.9240    18.9610    15.7140    24.5460 
  183.2500   -11.2160     2.2110    64.2880    20.6800    18.6650    16.9190    24.4140 
  183.3750   -11.2580     2.2070    65.6000    20.6690    18.6100    17.2480    24.3320 
  183.5000   -11.2650     2.2060    64.8710    20.8120    18.7390    17.1580    24.3050 
  183.6250   -11.1850     2.2070    62.2730    21.0150    18.9790    17.3930    24.2960 
  183.7500   -11.0510     2.2090    60.6550    21.1710    19.2240    17.7460    24.2790 
  183.8750   -10.8800     2.2080    59.8800    21.2290    19.4200    18.0270    24.2400 
  184.0000   -10.7090     2.2020    59.2220    21.2070    19.5590    18.0840    24.1560 
  184.1250   -10.5440     2.1910    59.2390    21.2200    19.7050    17.7690    23.9910 
  184.2500   -10.3610     2.1880    60.2170    21.4020    19.9560    17.3270    23.7440 
  184.3750   -10.1920     2.2050    61.4510    21.8020    20.3660    17.3070    23.3920 
  184.5000   -10.0500     2.2470    60.3220    22.3360    20.8960    18.4580    22.9700 
  184.6250    -9.9400     2.3050    57.3580    22.7410    21.3610    20.9320    22.6170 
  184.7500    -9.8520     2.3540    55.8430    22.7650    21.5460    23.7910    22.5200 
  184.8750    -9.7770     2.3730    56.4840    22.2850    21.3110    25.7540    22.6330 
  185.0000    -9.7270     2.3610    57.3310    21.3480    20.6340    24.3270    22.8180 
  185.1250    -9.7300     2.3370    56.3690    20.1210    19.5880    19.9750    22.9210 
  185.2500    -9.7940     2.3190    56.2720    18.8610    18.4170    17.9450    22.9160 
  185.3750    -9.8990     2.3130    58.0220    17.6920    17.2740    17.1070    22.8480 
  185.5000   -10.0260     2.3130    60.8650    16.6830    16.2670    16.4240    22.8150 
  185.6250   -10.1980     2.3120    62.8040    15.9330    15.5150    15.5940    22.8920 
  185.7500   -10.3950     2.3060    62.6360    15.4730    15.0390    15.1480    23.0600 
  185.8750   -10.6150     2.2940    61.4760    15.3320    14.8620    15.0900    23.2420 
  186.0000   -10.8380     2.2770    61.5790    15.4760    14.9600    15.1340    23.2570 
  186.1250   -10.9990     2.2600    63.7830    15.7540    15.2290    15.0030    23.0780 
  186.2500   -11.0790     2.2470    65.5700    15.8720    15.4130    14.7020    22.8880 
  186.3750   -11.0850     2.2390    66.8550    15.5810    15.2760    14.3000    22.8340 
  186.5000   -11.0510     2.2370    68.7180    14.7580    14.6600    13.7730    22.9030 
  186.6250   -10.9950     2.2420    70.5440    13.4670    13.5350    13.0370    23.0990 
  186.7500   -10.9290     2.2510    69.0870    12.1240    12.2420    12.0190    23.4330 
  186.8750   -10.8770     2.2610    66.5760    11.0540    11.0920    10.8960    23.8470 
  187.0000   -10.8260     2.2720    67.9740    10.4780    10.3380    10.1780    24.1740 
  187.1250   -10.7680     2.2790    72.5760    10.5930    10.2270    10.6150    24.2520 
  187.2500   -10.7250     2.2820    74.4930    11.2940    10.7040    11.7350    24.1370 
  187.3750   -10.6960     2.2840    70.4720    12.5060    11.7260    13.1540    23.9560 
  187.5000   -10.6610     2.2850    64.2920    14.1080    13.1990    14.6710    23.7910 
  187.6250   -10.5780     2.2950    62.2680    15.9480    15.0130    16.2010    23.7810 
  187.7500   -10.4500     2.3180    63.1950    17.7990    16.9270    18.1770    23.9320 
  187.8750   -10.2400     2.3570    64.5200    19.5100    18.7650    20.7250    24.2060 
  188.0000    -9.9530     2.4050    63.6930    20.9470    20.3450    23.4170    24.4960 
  188.1250    -9.6510     2.4450    61.9240    21.8930    21.4070    25.6490    24.6860 
  188.2500    -9.3210     2.4610    60.8370    22.3120    21.8990    26.2950    24.6740 
  188.3750    -8.9690     2.4460    59.6850    22.2170    21.8280    24.4820    24.5270 
  188.5000    -8.6040     2.4080    57.4440    21.7540    21.3230    21.3090    24.3030 
  188.6250    -8.2640     2.3680    54.3810    21.1790    20.6150    19.3510    24.1280 
  188.7500    -7.9940     2.3490    53.7430    20.7600    19.9990    18.8220    24.0050 
  188.8750    -7.8020     2.3590    56.5430    20.6250    19.6410    19.0810    23.9360 
  189.0000    -7.6830     2.3940    59.7360    20.8440    19.6530    20.1500    23.9140 
  189.1250    -7.6000     2.4420    61.2690    21.5460    20.2010    22.1160    23.9670 
  189.2500    -7.5300     2.4820    61.2920    22.6950    21.2510    24.3070    24.1910 
  189.3750    -7.4780     2.5090    60.6130    24.2060    22.7280    26.0030    24.5100 
  189.5000    -7.4380     2.5240    59.9280    25.8190    24.3920    27.2510    24.7150 
  189.6250    -7.4080     2.5360    59.3060    26.9550    25.7130    29.9140    24.7620 
  189.7500    -7.3770     2.5510    58.4150    27.1590    26.2250    33.3730    24.7210 
  189.8750    -7.3560     2.5690    57.5960    26.2480    25.6840    36.0830    24.6690 
