~V
VERS. 2.00: Ver 2.00
~W
STRT.M 60.0000:
STOP.M 262.0000:
STEP.M 0.1250:
NULL. -999.2500:
UWI. F10018:
~C
DEPT.M :
GR.API :
RML.OHMM :
RI. :
RXO.OHMM :
CALI.CM :
DEN.GM/CC :
SP.MV :
~A
# ...
  240.0000    23.3960     4.4730     4.3090     4.2900    24.2760     2.2400    -3.8260 
  240.1250    21.9530     4.6870     4.4470     4.3580    24.2770     2.2830    -3.8830 
  240.2500    18.9330     5.3330     4.9210     4.6720    24.3000     2.3430    -3.9350 
  240.3750    15.5110     6.3890     5.7480     6.1510    24.3190     2.4050    -3.9390 
  240.5000    13.3230     7.6180     6.7840    10.8830    24.3430     2.4570    -3.8950 
  240.6250    13.1180     8.3960     7.5180    21.4970    24.3360     2.4830    -3.8620 
  240.7500    13.5590     8.2720     7.4780    24.2740    24.3340     2.4850    -3.8510 
  240.8750    14.4340     7.3190     6.6750    15.1850    24.3380     2.4690    -3.8430 
  241.0000    16.6630     6.0570     5.5530     7.0210    24.3160     2.4430    -3.7910 
  241.1250    19.7260     5.0770     4.6090     4.6580    24.2900     2.4120    -3.6740 
  241.2500    21.2750     4.5340     3.9930     4.0580    24.2890     2.3760    -3.5440 
  241.3750    21.4110     4.3730     3.6930     4.0890    24.3160     2.3340    -3.4630 
  241.5000    21.6710     4.4550     3.6300     4.1650    24.3340     2.2900    -3.4260 
  241.6250    22.2270     4.6190     3.7080     4.1740    24.2980     2.2590    -3.4340 
  241.7500    22.1730     4.7440     3.8080     4.1280    24.2460     2.2510    -3.4580 
  241.8750    21.4580     4.8040     3.8870     4.0270    24.1770     2.2600    -3.5220 
  242.0000    20.2290     4.8180     3.9370     3.9910    24.0600     2.2730    -3.6630 
  242.1250    19.5400     4.8100     3.9630     4.0450    23.9850     2.2690    -3.8450 
  242.2500    20.2510     4.7960     3.9760     4.1400    23.9880     2.2480    -3.9920 
  242.3750    21.5520     4.7810     3.9780     4.2060    24.0690     2.2230    -4.0980 
  242.5000    21.9750     4.7690     3.9700     4.2760    24.1750     2.2080    -4.1970 
  242.6250    21.9110     4.7680     3.9500     4.2590    24.2230     2.2180    -4.2870 
  242.7500    21.9310     4.7800     3.9240     4.1640    24.1960     2.2450    -4.3970 
  242.8750    21.0460     4.8000     3.8940     4.0950    24.1010     2.2820    -4.4920 
  243.0000    19.4080     4.8130     3.8580     4.0650    24.0530     2.3210    -4.5030 
  243.1250    18.5220     4.7980     3.8080     4.0670    24.0630     2.3510    -4.4510 
  243.2500    18.6990     4.7440     3.7400     4.0710    24.0470     2.3630    -4.4240 
  243.3750    19.1860     4.6540     3.6540     4.0460    23.9870     2.3420    -4.4270 
  243.5000    19.6570     4.5580     3.5650     4.0230    24.0300     2.2890    -4.4590 
  243.6250    20.3290     4.5360     3.5350     4.0470    24.1100     2.2270    -4.4980 
  243.7500    20.9520     4.6540     3.6100     4.0500    24.1330     2.2000    -4.5230 
  243.8750    20.9540     4.9420     3.8190     4.1980    24.1310     2.2350    -4.5660 
  244.0000    20.8860     5.3660     4.1470     4.7200    24.2110     2.3240    -4.6710 
  244.1250    21.0320     5.8010     4.5210     5.9150    24.3010     2.4210    -4.8190 
  244.2500    21.6530     6.0780     4.8090     6.8120    24.2820     2.4790    -4.9140 
  244.3750    23.6470     6.1130     4.9240     6.3510    24.2750     2.4830    -4.9570 
  244.5000    27.2590     5.9360     4.8610     5.5690    24.2990     2.4470    -4.9830 
  244.6250    31.0320     5.6640     4.6820     5.1310    24.3350     2.4040    -5.0400 
  244.7500    33.1420     5.4340     4.4970     5.1600    24.3700     2.3780    -5.1210 
  244.8750    32.4340     5.2950     4.3590     5.1000    24.4390     2.3740    -5.1620 
  245.0000    29.2070     5.2490     4.2800     4.8660    24.4690     2.3870    -5.1410 
  245.1250    25.5700     5.2680     4.2460     4.7240    24.4640     2.4030    -5.1290 
  245.2500    24.1740     5.2970     4.2200     4.6940    24.4740     2.4070    -5.1910 
  245.3750    24.2250     5.2980     4.1810     4.7160    24.4470     2.3870    -5.3040 
  245.5000    23.7280     5.2340     4.1090     4.7340    24.3950     2.3410    -5.4080 
  245.6250    23.4710     5.0640     3.9820     4.7560    24.4030     2.2800    -5.4430 
  245.7500    23.7360     4.8310     3.8210     4.7120    24.4940     2.2290    -5.4480 
  245.8750    23.6270     4.6220     3.6800     4.6040    24.5650     2.2030    -5.5050 
  246.0000    23.3570     4.5760     3.6490     4.5110    24.4980     2.2080    -5.6550 
  246.1250    24.8390     4.9130     3.8880     4.6660    24.4380     2.2460    -5.8530 
  246.2500    27.4520     5.6900     4.4570     5.4660    24.3820     2.3130    -6.0360 
  246.3750    29.6570     6.8870     5.3840     7.6020    24.3290     2.4060    -6.1560 
  246.5000    30.2340     8.2840     6.5570    11.4890    24.2750     2.5170    -6.2190 
  246.6250    30.9580     9.2680     7.5410    15.8450    24.2490     2.6130    -6.2650 
  246.7500    33.0150     9.3450     7.8550    15.6820    24.2450     2.6600    -6.3230 
  246.8750    35.7320     8.5410     7.4080    11.3740    24.2520     2.6430    -6.3510 
  247.0000    38.0830     7.3520     6.5310     7.4230    24.2680     2.5730    -6.3030 
  247.1250    40.0580     6.3630     5.6710     5.9130    24.3190     2.4860    -6.2070 
  247.2500    40.4070     5.7590     5.0440     5.7320    24.3610     2.4170    -6.1000 
  247.3750    37.3800     5.4970     4.6710     5.8900    24.3460     2.3760    -6.0310 
  247.5000    32.3350     5.4510     4.5010     6.0430    24.3010     2.3580    -6.0160 
  247.6250    29.5540     5.4930     4.4740     5.9260    24.3180     2.3530    -6.0430 
  247.7500    29.0360     5.5440     4.5100     5.5210    24.3760     2.3520    -6.1030 
  247.8750    29.8180     5.6150     4.5950     5.1460    24.3910     2.3540    -6.2440 
  248.0000    32.6180     5.7360     4.7290     5.0500    24.3640     2.3570    -6.4410 
  248.1250    36.7500     5.9070     4.9040     5.2360    24.3090     2.3620    -6.6300 
  248.2500    39.6730     6.0560     5.0660     5.4140    24.3590     2.3660    -6.8150 
  248.3750    40.1180     6.1120     5.1590     5.6630    24.5540     2.3700    -7.0020 
  248.5000    37.9540     6.0310     5.1430     5.6790    24.6510     2.3740    -7.1830 
  248.6250    33.8330     5.8160     5.0040     5.5530    24.4730     2.3750    -7.3630 
  248.7500    29.4140     5.5620     4.8080     5.2160    24.4450     2.3730    -7.4820 
  248.8750    25.8650     5.3400     4.6130     4.8610    24.5200     2.3680    -7.4710 
  249.0000    23.1180     5.1960     4.4590     4.6520    24.5330     2.3660    -7.3960 
  249.1250    20.9900     5.1530     4.3770     4.5900    24.4540     2.3700    -7.3560 
  249.2500    19.8030     5.1690     4.3480     4.6150    24.3820     2.3760    -7.3630 
  249.3750    19.4020     5.2080     4.3480     4.6300    24.3310     2.3800    -7.3750 
  249.5000    19.3190     5.2350     4.3520     4.6190    24.2990     2.3770    -7.3510 
  249.6250    19.0450     5.2160     4.3300     4.5990    24.3090     2.3730    -7.2880 
  249.7500    19.0400     5.1500     4.2760     4.6360    24.3170     2.3720    -7.2270 
  249.8750    19.3160     5.0450     4.1950     4.6820    24.3480     2.3750    -7.2080 
  250.0000    19.2950     4.9240     4.1050     4.6130    24.4310     2.3730    -7.2370 
  250.1250    19.3500     4.8480     4.0480     4.5230    24.5430     2.3540    -7.2630 
  250.2500    21.1440     4.8820     4.0770     4.4710    24.5790     2.3230    -7.2690 
  250.3750    24.6010     5.0760     4.2320     4.4320    24.5630     2.2910    -7.2940 
  250.5000    28.1530     5.4350     4.5240     4.4220    24.5770     2.2790    -7.3710 
  250.6250    32.5540     5.8850     4.9090     4.6830    24.5480     2.3000    -7.4680 
  250.7500    37.6770     6.2410     5.2430     5.2080    24.4640     2.3400    -7.5540 
  250.8750    41.8140     6.3450     5.3900     5.9670    24.3860     2.3790    -7.5870 
  251.0000    43.6540     6.1370     5.2800     6.4090    24.3250     2.3950    -7.5340 
  251.1250    43.5300     5.6920     4.9440     5.6420    24.2870     2.3750    -7.4600 
