~V
VERS. 2.00: Ver 2.00
~W
STRT.M 50.0000:
STOP.M 265.0000:
STEP.M 0.1250:
NULL. -999.2500:
UWI. F10025:
~C
DEPT.M :
SP.MV :
DEN.GM/CC :
GR.API :
CALI.CM :
RXO.OHMM :
RI. :
RML.OHMM :
~A
# ...
  241.2500   -11.1880     2.1440    66.1690    24.4430   126.9010   118.6610   134.5070 
  241.3750   -11.0570     2.1570    66.7860    24.4720   115.9180   117.8540   134.1220 
  241.5000   -10.9900     2.1580    66.8880    24.5010   132.1290   116.4590   133.7420 
  241.6250   -10.9440     2.1570    66.2740    24.5240   161.6250   112.6120   131.1850 
  241.7500   -10.8950     2.1790    64.1690    24.4130   165.6920   105.7740   125.3570 
  241.8750   -10.8690     2.2400    63.4570    24.0280   133.1490    96.7010   116.4170 
  242.0000   -10.9720     2.3220    65.9690    23.4130   104.4770    87.5260   106.5400 
  242.1250   -11.1350     2.3780    69.7530    23.0700   115.8640    79.5540    97.3150 
  242.2500   -11.4320     2.3870    72.0310    23.0220   148.5010    73.4390    89.8040 
  242.3750   -11.7980     2.3530    72.9760    23.2060   141.4020    69.7550    84.9930 
  242.5000   -12.1000     2.2970    73.3070    23.5780   102.7430    68.1790    82.8170 
  242.6250   -12.3840     2.2390    72.9030    23.7170    73.3230    68.6460    83.3290 
  242.7500   -12.6550     2.1950    72.6800    23.6350    71.2220    71.0320    86.3530 
  242.8750   -12.9540     2.1690    73.4140    23.6460    83.5250    75.2780    91.7030 
  243.0000   -13.2220     2.1570    74.1250    23.8040    97.9040    80.2750    97.9570 
  243.1250   -13.4530     2.1560    73.6820    23.9930   108.2880    84.5230   103.4060 
  243.2500   -13.5700     2.1630    72.9810    24.1050   111.2180    86.2700   106.1020 
  243.3750   -13.6600     2.1740    73.8380    24.1690   106.4990    84.2270   104.3590 
  243.5000   -13.7960     2.1830    74.6700    24.1920    99.9600    80.1960    99.8250 
  243.6250   -13.9530     2.1840    73.5880    24.1940    93.5930    76.1990    94.7080 
  243.7500   -14.0640     2.1800    72.4740    24.1940    84.1720    73.9840    91.3070 
  243.8750   -14.1800     2.1720    73.3040    24.2020    77.6490    75.2920    92.1020 
  244.0000   -14.2840     2.1620    73.1290    24.2210    84.7240    80.2460    97.4740 
  244.1250   -14.3310     2.1540    69.6780    24.2630   110.2090    88.8800   107.4400 
  244.2500   -14.4330     2.1450    65.2650    24.3450   141.8880   100.5320   121.0610 
  244.3750   -14.5580     2.1350    64.3180    24.4490   149.3820   113.3620   136.1070 
  244.5000   -14.6440     2.1270    66.3980    24.4420   134.5660   124.3230   149.1730 
  244.6250   -14.6530     2.1270    69.2900    24.2620   115.3930   131.2910   157.8640 
  244.7500   -14.6740     2.1310    70.0790    24.1250    97.9700   133.5760   161.1350 
  244.8750   -14.5680     2.1340    69.3080    23.8360    73.0110   131.3560   158.7690 
  245.0000   -14.3390     2.1310    69.3460    23.1240    46.2190   126.4460   152.8990 
  245.1250   -14.0640     2.1180    68.3050    22.0390    26.2710   119.6760   144.6740 
  245.2500   -13.6770     2.1060    65.3140    21.1110    15.7960   111.9880   135.3980 
  245.3750   -13.1750     2.1020    64.3150    20.3450    12.3720   104.6800   126.8450 
  245.5000   -12.6610     2.1050    67.1030    19.3440    11.2100    98.6850   120.1970 
  245.6250   -12.1960     2.1150    69.2390    18.1820    10.8460    94.6730   116.2890 
  245.7500   -11.7680     2.1360    67.5930    17.2070    10.6180    93.4180   116.1470 
  245.8750   -11.4900     2.1780    64.6970    16.4660    10.6540    96.5330   121.9490 
  246.0000   -11.2710     2.2510    62.8510    16.0460    11.3290   103.9670   133.3850 
  246.1250   -10.9930     2.3480    62.1880    15.9420    13.4640   114.7980   148.7090 
  246.2500   -10.7670     2.4380    62.1080    16.0950    19.6240   124.9630   162.5910 
  246.3750   -10.6470     2.4900    62.0580    16.4460    35.7220   124.5910   164.3850 
  246.5000   -10.5140     2.4770    62.0700    17.1020    56.7430   111.6450   151.4520 
  246.6250   -10.2780     2.3990    62.6250    18.1780    68.6910    92.4160   128.5080 
  246.7500   -10.0320     2.3060    64.7640    19.5790    64.5720    74.6460   104.0050 
  246.8750    -9.7320     2.2310    68.4170    20.9300    53.2480    62.9300    85.7460 
  247.0000    -9.4340     2.1800    71.1980    21.8540    47.7060    56.5610    75.1750 
  247.1250    -9.2240     2.1480    72.1740    22.4190    48.7900    54.9650    71.8950 
  247.2500    -9.0320     2.1290    72.9380    22.7860    53.4070    57.7370    74.9570 
  247.3750    -8.8760     2.1240    75.3680    22.9650    64.9480    65.4090    84.4760 
  247.5000    -8.8000     2.1260    77.2110    23.0190    88.7920    77.0440    98.6230 
  247.6250    -8.8660     2.1290    76.7510    23.0370   120.6470    91.7690   115.8510 
  247.7500    -8.9980     2.1320    74.5820    23.0970   146.4820   107.8370   133.9380 
  247.8750    -9.1130     2.1340    72.4770    23.2470   157.9720   122.6430   150.2700 
  248.0000    -9.2760     2.1370    70.8590    23.4430   161.6240   135.2710   164.6370 
  248.1250    -9.5060     2.1490    69.7950    23.5290   160.4670   147.3760   179.3520 
  248.2500    -9.7640     2.1860    68.8260    23.5500   161.6580   162.2960   197.9820 
  248.3750    -9.9800     2.2620    67.0060    23.5500   184.7840   183.0600   222.4010 
  248.5000   -10.1720     2.3760    64.5690    23.5500   240.8960   202.8680   244.4460 
  248.6250   -10.2820     2.4930    62.1970    23.5380   314.2650   205.1530   249.9590 
  248.7500   -10.2700     2.5600    60.5470    23.5100   328.2760   176.3010   227.5890 
  248.8750   -10.2760     2.5640    60.1400    23.4820   234.1060   128.1430   179.5640 
  249.0000   -10.2580     2.5330    61.5280    23.4720   132.8430    87.4010   128.6250 
  249.1250   -10.1180     2.5010    65.2060    23.4910    73.7920    59.9400    87.4160 
  249.2500    -9.9040     2.4780    70.5440    23.5360    43.3920    43.1600    59.6420 
  249.3750    -9.5990     2.4700    73.9840    23.5840    29.3970    34.1870    44.7730 
  249.5000    -9.2640     2.4820    74.0130    23.6080    23.4700    29.4640    37.2400 
  249.6250    -8.9710     2.5100    73.6420    23.6000    22.8450    28.0550    34.9040 
  249.7500    -8.6810     2.5460    76.1360    23.5510    25.9080    29.6970    37.0780 
  249.8750    -8.2950     2.5830    80.1990    23.4680    32.9780    34.9760    44.3850 
  250.0000    -7.8850     2.6110    82.3370    23.4510    45.8020    42.0980    53.9440 
  250.1250    -7.5570     2.6160    81.5810    23.4450    71.5710    45.4060    59.3760 
  250.2500    -7.2320     2.6100    81.4100    23.4370    93.6510    38.3050    53.3650 
  250.3750    -6.9030     2.6000    73.6630    23.4500    81.6910    25.4070    37.5030 
  250.5000    -6.5800     2.5710    54.3380    23.4880    46.2690    15.7490    23.0760 
  250.6250    -6.2870     2.4960    41.7350    23.5710    19.6050     9.9930    13.6090 
  250.7500    -6.0370     2.3910    51.5150    23.6140     8.9010     6.8240     8.3890 
  250.8750    -5.8690     2.2930    71.8180    23.6540     4.8210     5.3760     5.9360 
  251.0000    -5.7200     2.2370    80.1900    23.7040     3.9120     4.7110     4.7320 
  251.1250    -5.5470     2.2290    78.8280    23.6960     3.8260     4.2640     4.5790 
  251.2500    -5.4510     2.2350    80.0800    23.6550     4.0270     4.2680     4.7620 
  251.3750    -5.4510     2.2410    80.5610    23.6580     4.1630     4.5120     5.1130 
  251.5000    -5.4750     2.2490    79.7400    23.7530     4.1900     4.7470     5.4270 
  251.6250    -5.4590     2.2600    78.6650    23.9110     4.1740     4.8630     5.5830 
  251.7500    -5.4790     2.2670    77.9180    24.0060     4.1350     4.8350     5.5280 
  251.8750    -5.5300     2.2680    77.9070    24.0290     4.0590     4.6900     5.2940 
  252.0000    -5.5910     2.2650    78.8690    23.9820     3.9560     4.5070     4.9960 
  252.1250    -5.6490     2.2570    79.4360    23.8320     3.9050     4.3270     4.6910 
  252.2500    -5.7260     2.2450    79.4530    23.6400     3.9170     4.1720     4.4420 
  252.3750    -5.7970     2.2290    79.4530    23.5150     3.9840     4.0430     4.3170 
