~V
VERS. 2.00: Ver 2.00
~W
STRT.M 50.0000:
STOP.M 307.0000:
STEP.M 0.1250:
NULL. -999.2500:
UWI. F10044:
~C
DEPT.M :
GR.API :
RML.OHMM :
RI. :
RXO.OHMM :
CALI.CM :
DEN.GM/CC :
SP.MV :
~A
# ...
  151.2500    70.2900     6.0280     5.8180     6.7850    23.3900     2.3330    -6.0850 
  151.3750    71.4960     5.9500     5.7780     6.7700    23.6850     2.3670    -5.7310 
  151.5000    74.6690     5.8760     5.7070     6.9790    23.9220     2.3860    -5.3410 
  151.6250    77.8580     5.7670     5.5860     7.6990    24.0240     2.3850    -4.9420 
  151.7500    78.0270     5.5960     5.4140     7.8990    24.0410     2.3720    -4.5870 
  151.8750    77.1230     5.3690     5.2060     6.9910    24.0610     2.3600    -4.2770 
  152.0000    77.0510     5.1270     4.9920     6.0110    24.1210     2.3540    -4.0340 
  152.1250    76.6940     4.9370     4.8200     5.5140    24.1940     2.3560    -3.9320 
  152.2500    75.9310     4.8350     4.7100     5.4050    24.2390     2.3570    -3.9310 
  152.3750    76.3140     4.8360     4.6750     5.4680    24.2430     2.3540    -3.9570 
  152.5000    79.2840     4.9370     4.7150     5.6380    24.2070     2.3430    -3.9860 
  152.6250    81.2680     5.1290     4.8350     5.7210    24.1140     2.3280    -4.0760 
  152.7500    80.5990     5.3580     5.0000     5.7270    23.9700     2.3140    -4.2330 
  152.8750    79.5170     5.5670     5.1750     5.8830    23.7930     2.3050    -4.3850 
  153.0000    79.1830     5.6900     5.3080     6.1100    23.6410     2.3030    -4.4680 
  153.1250    77.4450     5.6520     5.3320     6.2020    23.5760     2.3110    -4.4920 
  153.2500    75.1420     5.4810     5.2400     6.0910    23.5940     2.3250    -4.5380 
  153.3750    75.8450     5.2310     5.0550     5.6920    23.6740     2.3400    -4.6070 
  153.5000    79.2700     4.9800     4.8290     5.3350    23.7940     2.3520    -4.6200 
  153.6250    81.4450     4.8140     4.6320     5.1690    23.9050     2.3570    -4.5440 
  153.7500    82.8890     4.7590     4.5040     5.1360    23.9470     2.3560    -4.4460 
  153.8750    85.1190     4.8090     4.4560     5.2210    23.8810     2.3520    -4.4080 
  154.0000    86.9090     4.9260     4.4710     5.3480    23.7340     2.3460    -4.4310 
  154.1250    84.6800     5.0360     4.5180     5.5070    23.5760     2.3360    -4.4690 
  154.2500    79.7510     5.0680     4.5500     5.6060    23.4580     2.3230    -4.5070 
  154.3750    75.9880     5.0040     4.5500     5.7570    23.3890     2.3070    -4.5730 
  154.5000    75.7270     4.9160     4.5450     5.9870    23.3550     2.2940    -4.7000 
  154.6250    76.7370     5.0190     4.6590     6.2690    23.3520     2.3000    -4.8050 
  154.7500    76.4460     5.4820     5.0170     6.7080    23.3780     2.3300    -4.8640 
  154.8750    75.3660     6.3580     5.6880     7.9180    23.4230     2.3820    -4.9240 
  155.0000    74.0510     7.5160     6.6160    10.0890    23.4670     2.4440    -5.0410 
  155.1250    69.3890     8.5740     7.5480    13.2700    23.4870     2.4870    -5.1940 
  155.2500    63.3090     9.1090     8.1170    15.8930    23.4740     2.4910    -5.3410 
  155.3750    62.1740     8.8870     8.0720    15.5730    23.4220     2.4590    -5.4780 
  155.5000    67.6460     7.9710     7.3980    11.8440    23.3530     2.4080    -5.6460 
  155.6250    74.0630     6.7380     6.3660     8.0550    23.2960     2.3640    -5.8590 
  155.7500    75.7720     5.7060     5.4320     6.3310    23.2680     2.3370    -6.0520 
  155.8750    75.4110     5.0970     4.7970     5.6180    23.2620     2.3250    -6.1710 
  156.0000    77.6770     4.9220     4.4980     5.4350    23.2670     2.3190    -6.2440 
  156.1250    79.5730     5.1000     4.5150     5.6740    23.2600     2.3130    -6.3490 
  156.2500    78.0530     5.4220     4.7130     6.0930    23.2170     2.3040    -6.4760 
  156.3750    74.9600     5.7900     5.0330     6.4220    23.1200     2.2960    -6.5660 
  156.5000    73.7720     6.1690     5.4490     6.5770    22.9750     2.2940    -6.5800 
  156.6250    74.1190     6.5900     5.9740     6.9570    22.8510     2.3080    -6.5800 
  156.7500    71.1700     7.0720     6.5820     7.8810    22.8190     2.3380    -6.6160 
  156.8750    66.0600     7.5870     7.2200     9.3690    22.9490     2.3780    -6.6250 
  157.0000    64.1570     8.0600     7.7970    10.9210    23.2310     2.4180    -6.5310 
  157.1250    68.5910     8.3340     8.1500    11.9960    23.5410     2.4440    -6.3450 
  157.2500    72.0190     8.3330     8.2030    12.0720    23.7560     2.4510    -6.1580 
  157.3750    70.6900     8.0400     7.9380    10.9920    23.8500     2.4410    -5.9950 
  157.5000    67.5400     7.5210     7.4270    10.1250    23.8520     2.4210    -5.8230 
  157.6250    67.6130     6.9040     6.8020     9.4990    23.8010     2.3950    -5.6370 
  157.7500    70.1350     6.3470     6.2320     8.6000    23.7370     2.3680    -5.4960 
  157.8750    74.4630     5.9420     5.8020     7.1260    23.6700     2.3430    -5.4610 
  158.0000    79.2150     5.7280     5.5470     6.2430    23.5860     2.3240    -5.5360 
  158.1250    80.7260     5.7120     5.4660     6.1070    23.4560     2.3130    -5.6560 
  158.2500    79.2520     5.7990     5.4770     6.1730    23.2920     2.3100    -5.7710 
  158.3750    76.2610     5.9130     5.5320     6.2300    23.1260     2.3140    -5.9130 
  158.5000    73.7900     5.9800     5.5870     6.2190    23.0160     2.3240    -6.1030 
  158.6250    74.3910     5.9480     5.6150     6.0250    23.0000     2.3330    -6.3050 
  158.7500    76.8290     5.8700     5.6290     5.8150    23.0370     2.3360    -6.4940 
  158.8750    79.3980     5.8190     5.6570     5.7870    23.1070     2.3280    -6.7200 
  159.0000    78.6240     5.8580     5.7270     5.9070    23.2000     2.3120    -6.9950 
  159.1250    74.4560     6.0250     5.8590     6.0360    23.2790     2.2910    -7.3270 
  159.2500    70.2270     6.2540     6.0220     6.2540    23.3090     2.2740    -7.6690 
  159.3750    67.3890     6.4670     6.1740     6.5450    23.2920     2.2640    -7.9880 
  159.5000    65.1020     6.5900     6.2620     6.7710    23.2570     2.2620    -8.3310 
  159.6250    64.1680     6.5670     6.2340     6.7890    23.2310     2.2700    -8.7370 
  159.7500    66.8010     6.4430     6.1150     6.6250    23.2290     2.2820    -9.1310 
  159.8750    72.1080     6.2820     5.9470     6.3130    23.2600     2.2930    -9.4700 
  160.0000    76.4790     6.1590     5.7910     6.0500    23.3080     2.2970    -9.8140 
  160.1250    78.9410     6.1610     5.7200     6.0220    23.3020     2.2890   -10.2710 
  160.2500    80.4800     6.2960     5.7550     6.2660    23.2040     2.2760   -10.8520 
  160.3750    79.8940     6.5470     5.9000     6.6110    23.0510     2.2630   -11.5070 
  160.5000    75.9530     6.8780     6.1450     6.9470    22.9210     2.2520   -12.1580 
  160.6250    70.1300     7.2400     6.4710     7.2830    22.8880     2.2410   -12.8430 
  160.7500    64.3310     7.5830     6.8250     7.6750    22.9240     2.2270   -13.5960 
  160.8750    58.5450     7.8780     7.1660     8.1080    22.9730     2.2110   -14.3290 
  161.0000    54.0020     8.0990     7.4520     8.5040    23.0020     2.1970   -14.9230 
  161.1250    54.2280     8.2120     7.6360     8.6880    22.9860     2.1910   -15.3000 
  161.2500    57.1540     8.2290     7.7220     8.7490    22.9620     2.1940   -15.5240 
  161.3750    57.7790     8.1710     7.7290     8.7470    22.9690     2.2020   -15.6390 
  161.5000    54.6550     8.0650     7.6860     8.7280    23.0170     2.2110   -15.6370 
  161.6250    51.9200     7.9400     7.6240     8.6900    23.0650     2.2150   -15.4460 
  161.7500    51.4670     7.8140     7.5680     8.6900    23.0580     2.2150   -15.1430 
  161.8750    51.7820     7.6960     7.5290     8.7120    22.9550     2.2100   -14.8070 
  162.0000    52.4550     7.6000     7.5200     8.6960    22.7990     2.2020   -14.4780 
  162.1250    54.3840     7.5650     7.5620     8.6960    22.6900     2.1930   -14.0980 
  162.2500    56.7560     7.6060     7.6550     8.7190    22.7000     2.1870   -13.6350 
  162.3750    58.4770     7.7100     7.7830     8.7420    22.8470     2.1840   -13.1180 
