~V
VERS. 2.00: Ver 2.00
~W
STRT.M 64.0000:
STOP.M 220.0000:
STEP.M 0.1250:
NULL. -999.2500:
UWI. F10051:
~C
DEPT.M :
SP.MV :
GR.API :
RML.OHMM :
RI. :
RXO.OHMM :
CALI.CM :
DEN.GM/CC :
~A
# ...
  154.0000   -12.2380    71.9820    14.0130    12.2130    10.4480    24.0720     2.6220 
  154.1250   -11.9310    66.6960    12.3070    10.7300     8.6110    24.1200     2.5680 
  154.2500   -11.6090    60.6050    10.7890     9.3830     7.7240    24.1440     2.5080 
  154.3750   -11.3100    57.1730     9.5870     8.3100     7.1830    24.1410     2.4580 
  154.5000   -11.0720    55.2770     8.6530     7.5410     6.4160    24.1270     2.4290 
  154.6250   -10.8790    51.9790     8.0070     7.0590     5.8760    24.0880     2.4300 
  154.7500   -10.7540    48.8370     7.5780     6.7290     5.6440    23.9730     2.4560 
  154.8750   -10.6160    48.2370     7.3840     6.4730     5.6930    23.7990     2.4950 
  155.0000   -10.4430    49.2820     7.1760     6.2430     5.7740    23.5830     2.5300 
  155.1250   -10.2680    48.1410     6.9590     6.0330     5.7490    23.3350     2.5380 
  155.2500   -10.1010    45.5140     6.7930     5.8720     5.6590    23.2000     2.5190 
  155.3750    -9.9490    46.5010     6.7370     5.7960     5.6620    23.2130     2.4860 
  155.5000    -9.8140    51.5510     6.8170     5.8240     5.8160    23.3090     2.4550 
  155.6250    -9.7140    53.8810     6.9980     5.9350     5.9690    23.3800     2.4400 
  155.7500    -9.6070    51.0830     7.1670     6.0460     6.0250    23.4040     2.4370 
  155.8750    -9.5320    47.5040     7.2420     6.0890     5.9660    23.4020     2.4380 
  156.0000    -9.4970    47.1060     7.1800     6.0240     5.7680    23.3660     2.4350 
  156.1250    -9.4800    48.6000     6.9890     5.8540     5.5680    23.3250     2.4260 
  156.2500    -9.4790    49.1030     6.7450     5.6610     5.4540    23.4140     2.4170 
  156.3750    -9.4770    49.4050     6.5070     5.5090     5.5760    23.6920     2.4110 
  156.5000    -9.4730    50.7850     6.2970     5.4460     5.8450    23.9880     2.4130 
  156.6250    -9.4670    52.0300     6.1810     5.5040     6.0840    24.1000     2.4240 
  156.7500    -9.4630    51.5480     6.2110     5.6380     6.2650    24.0800     2.4370 
  156.8750    -9.4470    49.5360     6.3540     5.7990     6.3970    23.8900     2.4460 
  157.0000    -9.4050    47.8420     6.4750     5.9230     6.5110    23.7250     2.4490 
  157.1250    -9.3700    47.3090     6.4740     5.9430     6.5320    23.6070     2.4470 
  157.2500    -9.3630    46.5690     6.3380     5.8530     6.3360    23.4510     2.4460 
  157.3750    -9.3780    44.9670     6.0590     5.6800     5.8840    23.2540     2.4470 
  157.5000    -9.4050    43.2480     5.8220     5.4780     5.5170    23.0810     2.4500 
  157.6250    -9.4650    41.4450     5.6940     5.3200     5.4190    22.9070     2.4540 
  157.7500    -9.5670    38.9230     5.6820     5.2420     5.4520    22.7100     2.4550 
  157.8750    -9.7290    36.5510     5.7690     5.2450     5.5090    22.6060     2.4550 
  158.0000    -9.9550    36.3890     5.9100     5.3010     5.5780    22.6400     2.4560 
  158.1250   -10.2290    39.0080     6.0460     5.3710     5.5850    22.6040     2.4590 
  158.2500   -10.5530    42.2330     6.1430     5.4230     5.5350    22.5250     2.4640 
  158.3750   -10.9130    44.4990     6.1980     5.4480     5.4520    22.5180     2.4680 
  158.5000   -11.2790    45.0640     6.2190     5.4510     5.3640    22.5470     2.4710 
  158.6250   -11.6870    44.6890     6.2210     5.4440     5.3610    22.5380     2.4740 
  158.7500   -12.1460    44.5430     6.2330     5.4480     5.4440    22.4850     2.4790 
  158.8750   -12.6460    45.4030     6.2950     5.4890     5.6260    22.4620     2.4850 
  159.0000   -13.2200    48.2340     6.4590     5.6020     5.8830    22.5430     2.4920 
  159.1250   -13.9100    52.9030     6.7990     5.8380     6.2690    22.5960     2.4980 
  159.2500   -14.7060    57.3120     7.2900     6.1840     6.8090    22.6020     2.5030 
  159.3750   -15.6040    62.3110     7.8720     6.6050     7.5060    22.8300     2.5040 
  159.5000   -16.6080    69.7160     8.4300     7.0240     8.1910    23.4550     2.4960 
  159.6250   -17.6250    79.2630     8.7940     7.3210     8.5180    24.0200     2.4730 
  159.7500   -18.5610    85.5820     8.9040     7.4380     8.2670    24.2000     2.4370 
  159.8750   -19.3860    85.7650     8.7780     7.3730     7.7220    24.2210     2.3960 
  160.0000   -20.1110    82.8680     8.5110     7.1840     7.2300    24.3480     2.3610 
  160.1250   -20.6540    82.2410     8.2440     6.9680     6.8220    24.7870     2.3470 
  160.2500   -21.0390    84.3650     8.0850     6.8170     6.6090    25.1710     2.3520 
  160.3750   -21.2950    87.2880     8.0750     6.7740     6.8790    25.1920     2.3670 
  160.5000   -21.4290    90.1000     8.2150     6.8530     7.6100    24.6810     2.3830 
  160.6250   -21.5160    90.7260     8.4890     7.0490     8.4500    24.3050     2.3960 
  160.7500   -21.5910    87.6560     8.8150     7.3030     9.3230    24.1270     2.4080 
  160.8750   -21.6890    83.4340     9.1300     7.5610    10.3540    24.0780     2.4200 
  161.0000   -21.7470    81.7450     9.3670     7.7710    11.2670    24.0770     2.4300 
  161.1250   -21.7470    85.3250     9.4490     7.8670    11.6690    24.1390     2.4290 
  161.2500   -21.6280    91.2000     9.3710     7.8400    11.5070    24.2000     2.4190 
  161.3750   -21.3390    93.5010     9.1410     7.6850    11.3380    24.2230     2.4060 
  161.5000   -20.8980    88.4840     8.7810     7.4170    11.1490    24.2010     2.3930 
  161.6250   -20.2240    80.9560     8.3230     7.0540    10.9800    24.2560     2.3870 
  161.7500   -19.3600    75.5790     7.8360     6.6530    10.6800    24.3560     2.3870 
  161.8750   -18.3230    69.9850     7.3740     6.2570    10.1960    24.4530     2.3950 
  162.0000   -17.1940    63.3310     6.9860     5.9070     9.4060    24.5170     2.4140 
  162.1250   -16.1010    58.1620     6.7270     5.6460     8.4250    24.3330     2.4430 
  162.2500   -15.1430    54.8690     6.5780     5.4700     8.1120    23.8600     2.4700 
  162.3750   -14.3450    51.1120     6.5080     5.3620     8.1080    23.3770     2.4830 
  162.5000   -13.7270    46.8870     6.4720     5.2970     8.2500    23.1270     2.4730 
  162.6250   -13.3330    44.6530     6.4290     5.2480     8.4430    23.0430     2.4420 
  162.7500   -13.1590    43.5700     6.3720     5.2030     8.5470    23.1320     2.4080 
  162.8750   -13.1500    43.3140     6.3210     5.1700     8.4830    23.5020     2.3880 
  163.0000   -13.2810    44.0370     6.3100     5.1680     8.2540    24.1480     2.3870 
  163.1250   -13.4810    46.4050     6.3810     5.2240     7.8330    24.2490     2.4030 
  163.2500   -13.6990    48.6670     6.5180     5.3300     7.2070    23.9740     2.4200 
  163.3750   -13.9540    49.0860     6.6870     5.4680     6.7870    23.7960     2.4320 
  163.5000   -14.2520    48.0870     6.8360     5.5990     6.7660    23.8090     2.4370 
  163.6250   -14.5660    46.7080     6.8940     5.6700     6.8370    23.9670     2.4410 
  163.7500   -14.8470    46.0470     6.8470     5.6630     6.8340    24.0880     2.4460 
  163.8750   -15.0820    46.4500     6.7110     5.5780     6.6510    24.1450     2.4480 
  164.0000   -15.1980    47.3880     6.5290     5.4440     6.5170    24.1410     2.4430 
  164.1250   -15.1550    46.9020     6.3600     5.3000     6.4990    23.9860     2.4260 
  164.2500   -15.0330    45.5500     6.2440     5.1840     6.4160    23.8410     2.4000 
  164.3750   -14.8190    45.3580     6.1860     5.1090     6.0780    23.8770     2.3690 
  164.5000   -14.5140    46.2250     6.1720     5.0730     5.6630    23.8730     2.3390 
  164.6250   -14.1250    48.1110     6.1750     5.0630     5.5510    23.5900     2.3200 
  164.7500   -13.7450    51.0080     6.1640     5.0560     5.4840    23.2430     2.3180 
  164.8750   -13.4150    54.4720     6.1230     5.0400     5.4370    23.0390     2.3360 
  165.0000   -13.1960    55.8440     6.0480     5.0130     5.3270    22.9530     2.3690 
  165.1250   -13.0680    56.9030     5.9500     4.9820     5.2680    22.8980     2.4090 
