~V
VERS. 2.00: Ver 2.00
~W
STRT.M 56.0000:
STOP.M 268.0000:
STEP.M 0.1250:
NULL. -999.2500:
UWI. F10027:
~C
DEPT.M :
GR.API :
RML.OHMM :
RI. :
RXO.OHMM :
CALI.CM :
DEN.GM/CC :
SP.MV :
~A
# ...
  168.5000    65.0220    18.4940    17.3790    17.0030    23.6480     2.5290   -10.0590 
  168.6250    63.1960    18.2960    17.0740    15.0970    23.4870     2.5220   -10.2420 
  168.7500    63.2710    18.2560    16.9130    15.4500    23.4900     2.5130   -10.4340 
  168.8750    62.8780    18.2970    16.8470    16.6680    23.5460     2.5000   -10.5620 
  169.0000    61.4560    18.3200    16.8140    16.6620    23.5640     2.4810   -10.6750 
  169.1250    60.6050    18.2060    16.7310    15.2560    23.4920     2.4640   -10.8140 
  169.2500    59.3290    17.9370    16.5630    14.4020    23.4010     2.4540   -10.9040 
  169.3750    57.9440    17.5830    16.3400    14.2840    23.3100     2.4510   -10.9440 
  169.5000    58.4470    17.3090    16.1650    14.1610    23.2430     2.4510   -10.9680 
  169.6250    60.8500    17.3880    16.2230    14.3890    23.2390     2.4510   -10.9620 
  169.7500    61.1310    17.9060    16.5910    14.4220    23.3190     2.4500   -10.9190 
  169.8750    57.9570    18.8180    17.2640    15.4860    23.4190     2.4500   -10.8540 
  170.0000    54.2420    19.8960    18.1010    17.6180    23.5220     2.4530   -10.7910 
  170.1250    53.0120    20.6600    18.7450    20.9960    23.7140     2.4590   -10.7070 
  170.2500    53.8830    20.7500    18.8620    23.5970    23.9530     2.4660   -10.5800 
  170.3750    56.2160    20.0660    18.3140    23.1470    24.1310     2.4710   -10.4350 
  170.5000    59.4930    18.8030    17.2220    21.8510    24.1750     2.4720   -10.3030 
  170.6250    62.0580    17.3650    15.8960    17.8380    24.1550     2.4690   -10.1610 
  170.7500    62.0030    16.1600    14.7080    14.7630    24.2110     2.4650   -10.0100 
  170.8750    60.3040    15.3670    13.8360    13.7470    24.2880     2.4630    -9.9040 
  171.0000    58.1960    15.0180    13.3510    13.9390    24.2970     2.4640    -9.8330 
  171.1250    55.9290    15.1000    13.2870    13.5610    24.2680     2.4660    -9.7380 
  171.2500    54.6970    15.4190    13.4970    13.2290    24.2060     2.4650    -9.6440 
  171.3750    56.2890    15.8350    13.8710    13.8780    24.1190     2.4600    -9.5990 
  171.5000    59.5590    16.1940    14.2810    16.5450    24.0680     2.4540    -9.5820 
  171.6250    60.1610    16.3290    14.5710    17.2070    24.0600     2.4510    -9.5340 
  171.7500    57.8720    16.2290    14.6660    16.0930    24.0570     2.4520    -9.5210 
  171.8750    56.6590    15.9580    14.5610    14.6950    24.0540     2.4560    -9.5140 
  172.0000    59.1930    15.6460    14.3280    14.3870    24.0010     2.4600    -9.4600 
  172.1250    62.4260    15.4680    14.1050    14.2240    23.8680     2.4620    -9.4330 
  172.2500    61.9040    15.4930    14.0180    14.1120    23.7450     2.4590    -9.4510 
  172.3750    58.3130    15.6940    14.1010    14.7070    23.7080     2.4520    -9.4510 
  172.5000    55.6060    15.9550    14.2870    15.3440    23.7930     2.4390    -9.4420 
  172.6250    56.3960    16.0680    14.3910    15.9650    23.9510     2.4210    -9.4850 
  172.7500    58.7940    15.9120    14.2560    15.9760    24.0320     2.4010    -9.4910 
  172.8750    62.3730    15.4850    13.8470    15.5190    24.0170     2.3870    -9.4740 
  173.0000    65.5460    14.9230    13.2760    14.4740    23.9330     2.3810    -9.5030 
  173.1250    65.3670    14.5190    12.8120    12.6380    23.8480     2.3900    -9.5440 
  173.2500    62.6660    14.5080    12.6920    12.1610    23.7700     2.4050    -9.5580 
  173.3750    61.1490    15.0060    13.0380    13.4280    23.6850     2.4220    -9.5630 
  173.5000    62.7980    15.9620    13.8450    15.1230    23.5620     2.4360    -9.5760 
  173.6250    63.4590    17.1320    14.9620    16.8070    23.4860     2.4460    -9.5760 
  173.7500    61.9400    18.0770    16.0010    18.7750    23.4660     2.4540    -9.5890 
  173.8750    60.0240    18.4980    16.6580    19.9300    23.4740     2.4620    -9.6280 
  174.0000    58.1910    18.3170    16.7850    19.3540    23.4600     2.4680    -9.6800 
  174.1250    56.5770    17.7050    16.4370    17.4810    23.4150     2.4710    -9.7150 
  174.2500    56.8100    17.0880    15.9770    15.6730    23.3660     2.4730    -9.7530 
  174.3750    59.4810    16.6970    15.6320    14.3140    23.2780     2.4730    -9.8370 
  174.5000    60.7180    16.5980    15.5010    13.7710    23.1480     2.4740    -9.9300 
  174.6250    59.0210    16.7210    15.5670    14.1550    23.0130     2.4690   -10.0130 
  174.7500    57.3020    16.8730    15.6790    14.7730    22.9150     2.4550   -10.1440 
  174.8750    55.2690    16.9690    15.7550    15.0540    22.8750     2.4290   -10.3350 
  175.0000    52.2660    17.0060    15.7810    15.0490    22.9360     2.3970   -10.5410 
  175.1250    50.8470    17.0470    15.8060    14.9410    23.1410     2.3700   -10.7970 
  175.2500    51.3000    17.1230    15.8670    15.3360    23.3320     2.3600   -11.1660 
  175.3750    51.0380    17.1940    15.9290    16.4370    23.4680     2.3670   -11.6000 
  175.5000    49.3570    17.1800    15.9270    18.2890    23.5910     2.3870   -12.0730 
  175.6250    50.0730    17.0760    15.8440    18.7630    23.7320     2.4090   -12.6800 
  175.7500    53.4460    17.1120    15.8540    18.6180    23.8120     2.4230   -13.3790 
  175.8750    57.4960    17.6620    16.2420    18.0090    23.8020     2.4220   -14.0910 
  176.0000    61.5410    19.1590    17.3630    17.2870    23.7470     2.4060   -14.8130 
  176.1250    65.3230    22.1910    19.7920    20.0180    23.7090     2.3750   -15.5840 
  176.2500    68.3890    26.5230    23.5430    30.2880    23.6920     2.3350   -16.3270 
  176.3750    71.3820    31.5660    28.3430    48.9180    23.6440     2.2940   -16.9920 
  176.5000    73.9650    36.1990    33.3050    64.2650    23.5900     2.2570   -17.5960 
  176.6250    73.9370    38.6560    36.6520    61.5250    23.5650     2.2340   -18.1060 
  176.7500    73.8850    38.4750    37.4500    57.2540    23.5530     2.2250   -18.5090 
  176.8750    76.6900    36.0090    35.7420    52.6290    23.5330     2.2260   -18.8060 
  177.0000    80.7080    32.2970    32.4570    51.0910    23.5160     2.2340   -19.0490 
  177.1250    81.1340    28.6600    28.9310    49.4590    23.5100     2.2440   -19.2430 
  177.2500    79.5400    26.0580    26.2270    42.2860    23.5090     2.2580   -19.3850 
  177.3750    78.8770    25.0230    24.8760    33.7910    23.5090     2.2760   -19.5630 
  177.5000    78.9960    25.8910    25.2230    28.2100    23.5030     2.2940   -19.8120 
  177.6250    77.4220    29.1720    27.8820    28.8910    23.5180     2.3050   -20.0470 
  177.7500    74.6640    34.3250    32.5810    40.5550    23.6320     2.3000   -20.2480 
  177.8750    72.8570    40.6680    38.8730    62.8300    23.9050     2.2810   -20.4910 
  178.0000    72.1190    47.0030    45.6680    82.2570    24.2850     2.2530   -20.7520 
  178.1250    70.4070    51.5900    51.1290    79.2850    24.4510     2.2280   -20.9150 
  178.2500    68.0160    54.0210    54.4280    71.4680    24.4970     2.2110   -21.0630 
  178.3750    66.8070    54.8370    55.8310    65.8610    24.4860     2.2020   -21.1650 
  178.5000    67.0700    55.1030    56.2970    67.2610    24.4370     2.1990   -21.1490 
  178.6250    67.8310    55.8050    56.8490    70.7920    24.2520     2.1960   -21.0950 
  178.7500    68.9030    57.1370    57.8820    73.4250    23.8850     2.1950   -21.0750 
  178.8750    69.1760    58.9000    59.3140    75.7530    23.3940     2.1950   -21.0100 
  179.0000    66.9920    60.7870    60.9200    79.0860    23.0460     2.1990   -20.8680 
  179.1250    64.0420    62.4990    62.4650    81.8290    22.9500     2.2060   -20.7630 
  179.2500    63.3320    63.9150    63.8360    82.2030    22.9680     2.2140   -20.6480 
  179.3750    63.7030    64.9790    64.9880    84.6540    23.0830     2.2220   -20.5020 
  179.5000    63.1900    65.6480    65.8740    87.2680    23.3850     2.2320   -20.3610 
  179.6250    62.4020    65.8200    66.3650    87.3000    23.9050     2.2480   -20.2440 
