~V
VERS. 2.00: Ver 2.00
~W
STRT.M 55.0000:
STOP.M 293.0000:
STEP.M 0.1250:
NULL. -999.2500:
UWI. F10038:
~C
DEPT.M :
SP.MV :
DEN.GM/CC :
GR.API :
RML.OHMM :
RI. :
RXO.OHMM :
CALI.CM :
~A
# ...
  145.0000    -7.8230     2.2890    87.8390     5.8920     5.1560     6.4350    24.2670 
  145.1250    -7.9380     2.2930    86.2060     6.0260     5.1080     6.5430    24.0940 
  145.2500    -8.2020     2.3030    87.4300     6.2700     5.2080     6.5980    23.9250 
  145.3750    -8.6170     2.3120    87.9630     6.5190     5.3520     6.5780    23.8330 
  145.5000    -9.1480     2.3160    85.1680     6.7000     5.4720     6.7500    23.8400 
  145.6250    -9.7470     2.3170    83.4910     6.7550     5.5250     7.1170    23.7710 
  145.7500   -10.2800     2.3180    86.1040     6.6880     5.5150     7.4720    23.6430 
  145.8750   -10.7900     2.3210    89.3990     6.5180     5.4500     7.5100    23.5690 
  146.0000   -11.3450     2.3260    88.4030     6.3130     5.3590     7.1160    23.6510 
  146.1250   -11.9980     2.3340    84.0310     6.2200     5.3230     6.9570    23.6850 
  146.2500   -12.7490     2.3460    81.8060     6.3430     5.4190     7.1340    23.6530 
  146.3750   -13.5500     2.3550    80.6450     6.7330     5.6970     7.5720    23.6110 
  146.5000   -14.4330     2.3540    77.3280     7.3570     6.1510     8.3120    23.6140 
  146.6250   -15.4500     2.3350    71.5150     8.0970     6.7210     9.5910    23.6530 
  146.7500   -16.5480     2.3010    67.7960     8.7470     7.2620    10.9250    23.6920 
  146.8750   -17.6740     2.2630    67.8540     9.1650     7.6660    11.4210    23.7470 
  147.0000   -18.7970     2.2290    68.7510     9.3090     7.8750    10.9720    23.8400 
  147.1250   -19.8560     2.2090    65.2300     9.2400     7.8900    10.6540    23.9300 
  147.2500   -20.7960     2.1980    59.4630     9.1370     7.8270    10.5520    23.9790 
  147.3750   -21.5720     2.1890    56.4680     9.0880     7.7640    10.4380    23.9780 
  147.5000   -22.1670     2.1780    56.4550     9.1170     7.7440    10.3010    23.9440 
  147.6250   -22.5270     2.1640    57.6430     9.1960     7.7710    10.2220    23.9330 
  147.7500   -22.6820     2.1530    58.2070     9.2720     7.8140    10.1930    24.0080 
  147.8750   -22.6870     2.1480    57.8760     9.3150     7.8530    10.1850    24.1130 
  148.0000   -22.5570     2.1500    56.9440     9.3050     7.8750    10.1460    24.1860 
  148.1250   -22.3010     2.1580    55.3050     9.2220     7.8630    10.0740    24.2070 
  148.2500   -21.9840     2.1700    54.5860     9.0940     7.8190     9.9850    24.2140 
  148.3750   -21.6250     2.1850    54.7440     8.9560     7.7540     9.8470    24.2430 
  148.5000   -21.2150     2.2020    55.9620     8.8460     7.6910     9.6490    24.2730 
  148.6250   -20.7920     2.2170    58.9150     8.7940     7.6610     9.5030    24.2680 
  148.7500   -20.3880     2.2260    61.5340     8.7910     7.6840     9.5440    24.2540 
  148.8750   -19.9650     2.2270    64.1410     8.8340     7.7720     9.8880    24.3090 
  149.0000   -19.5120     2.2190    67.4590     8.9340     7.9320    10.4790    24.4010 
  149.1250   -19.0220     2.2060    69.5330     9.1130     8.1700    10.7710    24.4500 
  149.2500   -18.4680     2.1900    66.7070     9.3400     8.4440    10.7400    24.4100 
  149.3750   -17.8320     2.1750    59.9850     9.5420     8.6910    10.6100    24.3180 
  149.5000   -17.0890     2.1620    56.0640     9.6010     8.8100    10.5490    24.2200 
  149.6250   -16.1730     2.1580    59.0500     9.3420     8.6410    10.3610    24.1400 
  149.7500   -15.1330     2.1700    64.3430     8.7610     8.1590     9.8990    24.0870 
  149.8750   -14.0100     2.2040    70.5480     7.9180     7.3990     9.0190    24.0720 
  150.0000   -12.8530     2.2580    79.5250     6.9390     6.4690     7.6970    24.1190 
  150.1250   -11.7930     2.3190    89.4140     5.9840     5.5240     6.2860    24.3150 
  150.2500   -10.9340     2.3690    93.9560     5.1630     4.6910     5.3300    24.6170 
  150.3750   -10.3130     2.3990    92.9200     4.5400     4.0440     4.9550    24.8240 
  150.5000    -9.9600     2.4130    90.8360     4.1830     3.6520     4.8690    24.8910 
  150.6250    -9.9850     2.4240    90.5620     4.2620     3.6660     5.1320    24.8910 
  150.7500   -10.3420     2.4450    89.5070     4.8290     4.1210     6.3020    24.8870 
  150.8750   -11.0470     2.4680    85.3160     5.9220     5.0380     8.8690    24.8750 
  151.0000   -12.0840     2.4760    77.4530     7.4380     6.3300    12.3700    24.8500 
  151.1250   -13.3250     2.4430    67.5000     9.0290     7.7420    15.9890    24.7900 
  151.2500   -14.5530     2.3790    58.8180    10.1560     8.8680    17.5680    24.6950 
  151.3750   -15.6620     2.3050    54.3720    10.4680     9.4310    14.9420    24.6160 
  151.5000   -16.5890     2.2420    54.1410    10.0450     9.4010    11.5540    24.6170 
  151.6250   -17.2250     2.2090    54.6360     9.3980     9.0200    10.5080    24.6560 
  151.7500   -17.5960     2.1970    53.5570     8.9910     8.6850    10.4320    24.6320 
  151.8750   -17.6460     2.1980    53.0390     8.8910     8.5250    10.5340    24.5540 
  152.0000   -17.3210     2.2030    54.0100     8.9860     8.5080    10.5450    24.4470 
  152.1250   -16.5810     2.2130    55.4430     9.0650     8.4800    10.3020    24.3900 
  152.2500   -15.5660     2.2330    56.4900     8.9610     8.3040     9.7940    24.3610 
  152.3750   -14.4280     2.2650    58.8180     8.6360     7.9430     9.0530    24.3560 
  152.5000   -13.2560     2.3010    64.1010     8.1590     7.4480     8.1910    24.3860 
  152.6250   -12.1420     2.3280    72.2480     7.6650     6.9190     7.5140    24.4660 
  152.7500   -11.1350     2.3390    79.3920     7.2640     6.4540     7.1260    24.6170 
  152.8750   -10.3020     2.3390    82.6570     6.9820     6.0850     7.1430    24.7820 
  153.0000    -9.7160     2.3360    82.0750     6.7920     5.8070     7.2610    24.8790 
  153.1250    -9.4550     2.3430    81.4660     6.6560     5.6060     7.1980    24.9110 
  153.2500    -9.4940     2.3550    83.0750     6.5530     5.4560     7.0880    24.9090 
  153.3750    -9.7790     2.3620    84.6990     6.5120     5.3720     6.9870    24.8690 
  153.5000   -10.2840     2.3570    83.6490     6.5900     5.3910     7.0250    24.7790 
  153.6250   -10.9690     2.3360    80.7820     6.8780     5.5900     7.4110    24.6580 
  153.7500   -11.7150     2.3100    79.6910     7.3660     5.9690     8.2370    24.5260 
  153.8750   -12.4660     2.2870    78.5980     8.0200     6.5160     9.3380    24.3850 
  154.0000   -13.1650     2.2720    73.9020     8.7760     7.1870    10.5310    24.2740 
  154.1250   -13.7450     2.2700    66.7830     9.5580     7.9260    11.6730    24.2070 
  154.2500   -14.1750     2.2820    63.7650    10.3020     8.6530    12.8480    24.1480 
  154.3750   -14.4310     2.3100    67.2250    10.9660     9.3120    14.7350    24.0920 
  154.5000   -14.5020     2.3500    71.0170    11.4920     9.8460    17.2240    24.0530 
  154.6250   -14.3430     2.3850    69.1160    11.7390    10.1460    19.7020    24.0440 
  154.7500   -14.0290     2.3960    64.2220    11.6450    10.1700    20.9290    24.0500 
  154.8750   -13.5820     2.3770    61.4600    11.1800     9.8790    18.5740    24.0600 
  155.0000   -12.9820     2.3410    61.1450    10.4100     9.2980    13.4920    24.0550 
  155.1250   -12.2220     2.3100    59.9910     9.4910     8.5150    10.8430    24.0400 
  155.2500   -11.3680     2.2950    61.9430     8.6420     7.7200     9.3970    24.0120 
  155.3750   -10.4950     2.2940    69.1550     7.9880     7.0400     8.4550    23.9430 
  155.5000    -9.6430     2.3010    78.2910     7.6020     6.5640     7.8580    23.8080 
  155.6250    -8.8440     2.3140    82.6250     7.5380     6.3690     7.8490    23.5560 
  155.7500    -8.0900     2.3340    82.2520     7.6850     6.3870     7.9950    23.4380 
  155.8750    -7.3680     2.3630    80.9560     7.9260     6.5380     8.3420    23.5370 
  156.0000    -6.7260     2.3940    80.7410     8.1130     6.7060     8.9580    23.8630 
  156.1250    -6.2410     2.4110    82.4850     8.0560     6.7410     9.5450    24.2900 
