~V
VERS. 2.00: Ver 2.00
~W
STRT.M 50.0000:
STOP.M 265.0000:
STEP.M 0.1250:
NULL. -999.2500:
UWI. F10025:
~C
DEPT.M :
SP.MV :
DEN.GM/CC :
GR.API :
CALI.CM :
RXO.OHMM :
RI. :
RML.OHMM :
~A
# ...
  106.2500   -13.1460     2.1060    93.7940    24.2230     7.1700     6.5290     9.0100 
  106.3750   -13.5080     2.1220    92.4400    24.1430     7.4400     6.7320     8.8500 
  106.5000   -13.7650     2.1350    91.5270    23.9580     7.6720     6.7510     8.5130 
  106.6250   -13.9650     2.1260    92.5740    23.6060     7.6410     6.6040     8.1080 
  106.7500   -14.0520     2.1100    95.5510    23.2920     7.1830     6.3900     7.7710 
  106.8750   -14.0610     2.1090    96.5290    23.1370     6.5810     6.2550     7.6490 
  107.0000   -13.9610     2.1250    96.3330    23.1110     6.3080     6.2520     7.7370 
  107.1250   -13.8100     2.1530    95.5370    23.1930     6.6520     6.3560     7.9560 
  107.2500   -13.6070     2.1770    94.0030    23.4100     7.5490     6.4910     8.1570 
  107.3750   -13.3630     2.1830    93.3890    23.6580     8.0940     6.5130     8.1510 
  107.5000   -13.1190     2.1640    95.4780    23.6060     7.5800     6.3360     7.9190 
  107.6250   -12.8230     2.1420   100.3850    23.2740     6.4850     5.9490     7.5050 
  107.7500   -12.5700     2.1520   104.7810    23.1380     5.6990     5.4220     6.9790 
  107.8750   -12.3170     2.1920   106.9980    23.3100     5.5080     4.9280     6.4620 
  108.0000   -12.1180     2.2350   108.6910    23.6530     5.4440     4.6470     6.1540 
  108.1250   -11.9750     2.2590   110.2190    23.9970     5.3920     4.7040     6.2380 
  108.2500   -11.8770     2.2750   112.8980    24.1070     5.9470     5.1590     6.8320 
  108.3750   -11.8760     2.2880   113.7820    23.9960     9.0400     6.0190     7.9460 
  108.5000   -11.9230     2.3030   107.8920    23.6580    14.2600     6.9640     9.0860 
  108.6250   -12.1110     2.3370    96.7300    23.2050    16.4000     7.5470     9.5990 
  108.7500   -12.3140     2.3830    87.5040    23.0010    13.5690     7.4220     9.1040 
  108.8750   -12.5440     2.4080    86.5620    22.9900     9.9150     6.6640     7.9510 
  109.0000   -12.8200     2.3850    91.5980    23.0470     6.9200     5.8290     6.9300 
  109.1250   -13.2190     2.3280    99.4520    23.1880     5.7630     5.2070     6.3110 
  109.2500   -13.7530     2.2910   105.1550    23.4710     5.5530     4.9140     6.1160 
  109.3750   -14.4060     2.2850   102.3310    23.8100     5.6520     5.0200     6.2940 
  109.5000   -15.2350     2.2900    95.7450    24.0360     5.9710     5.4220     6.6730 
  109.6250   -16.1750     2.2680    90.3880    24.0780     6.6840     6.0540     7.2020 
  109.7500   -17.2330     2.2190    87.0360    23.9490     7.8000     6.8330     7.8840 
  109.8750   -18.3330     2.1640    83.5580    23.6610     8.9540     7.6390     8.7230 
  110.0000   -19.3160     2.1260    79.0360    23.4230     9.8840     8.3180     9.5590 
  110.1250   -20.2050     2.1090    74.9370    23.3950    10.4520     8.7630    10.2220 
  110.2500   -20.9390     2.0990    72.4230    23.4900    10.6230     8.9320    10.5660 
  110.3750   -21.5310     2.0920    71.1700    23.5540    10.4740     8.8170    10.4760 
  110.5000   -21.9090     2.0910    70.4490    23.4590    10.1790     8.5440    10.1580 
  110.6250   -22.0640     2.0930    70.8570    23.2390     9.7270     8.1990     9.8080 
  110.7500   -22.1250     2.0960    73.0430    23.0810     9.1940     7.8560     9.5800 
  110.8750   -22.0900     2.0970    74.5610    23.1030     8.7020     7.5780     9.5410 
  111.0000   -22.0860     2.0970    76.0880    23.2000     8.4350     7.3780     9.5900 
  111.1250   -22.0600     2.0930    79.3660    23.3010     8.3800     7.2640     9.6260 
  111.2500   -22.0190     2.0860    81.0150    23.4420     8.5700     7.2540     9.6090 
  111.3750   -21.9130     2.0840    78.2820    23.5860     9.0910     7.4230     9.6430 
  111.5000   -21.7630     2.0960    75.9850    23.6600     9.7710     7.8210     9.9210 
  111.6250   -21.6730     2.1270    77.4150    23.6770    10.4720     8.4890    10.5970 
  111.7500   -21.5250     2.1730    79.0420    23.7340    11.1080     9.3860    11.6870 
  111.8750   -21.4220     2.2320    76.2680    23.8910    11.8230    10.2950    12.8900 
  112.0000   -21.3110     2.3020    73.7940    24.0940    13.0000    10.8560    13.5630 
  112.1250   -21.2330     2.3550    74.8450    24.1820    14.5590    10.8260    13.2650 
  112.2500   -21.2260     2.3490    76.7720    24.1600    13.9180    10.2180    12.0850 
  112.3750   -21.3280     2.2810    78.1380    24.0850    11.6140     9.2850    10.5840 
  112.5000   -21.5550     2.1870    80.1630    23.9510     9.8010     8.3970     9.3950 
  112.6250   -21.8080     2.1270    82.2780    23.7170     9.7610     7.7060     8.7310 
  112.7500   -22.1250     2.1080    81.9510    23.4850     9.8990     7.2790     8.5440 
  112.8750   -22.3830     2.1040    79.2810    23.3140     9.8660     7.1820     8.7190 
  113.0000   -22.6230     2.0940    76.9550    23.1920     9.8870     7.3510     9.0490 
  113.1250   -22.7780     2.0860    76.1910    23.2100    10.1980     7.7290     9.4580 
  113.2500   -22.7780     2.1000    76.0880    23.3040    10.5810     8.2010     9.8820 
  113.3750   -22.6040     2.1370    73.1020    23.4220    10.7080     8.5680    10.1380 
  113.5000   -22.2320     2.1740    68.4020    23.5000    10.4070     8.6700    10.0700 
  113.6250   -21.6660     2.1730    65.6880    23.5100    10.4930     8.4480     9.6420 
  113.7500   -20.8780     2.1360    67.3170    23.4330    10.2350     7.9720     8.9970 
  113.8750   -19.9520     2.0890    71.2570    23.2110     7.9020     7.3710     8.3560 
  114.0000   -18.8650     2.0600    74.5860    23.0340     7.5430     6.7730     7.8040 
  114.1250   -17.5610     2.0710    78.2550    22.8510     7.9560     6.2230     7.3190 
  114.2500   -16.2690     2.1160    83.4530    22.6640     8.1870     5.7270     6.8840 
  114.3750   -15.0330     2.1780    91.8830    22.4760     7.2430     5.2970     6.5380 
  114.5000   -13.9180     2.2290   100.5390    22.3930     5.9970     4.9390     6.3000 
  114.6250   -12.9650     2.2510   105.8740    22.4090     5.1680     4.6790     6.1790 
  114.7500   -12.2010     2.2570   106.3330    22.4220     4.8880     4.5390     6.1820 
  114.8750   -11.5830     2.2580   102.7230    22.5850     4.9100     4.5450     6.3370 
  115.0000   -11.0880     2.2540    98.8280    23.0650     5.0730     4.6600     6.5850 
  115.1250   -10.8600     2.2490    96.8250    23.7090     5.2130     4.8480     6.8180 
  115.2500   -10.7610     2.2470    96.1720    24.0910     5.4150     5.0620     6.9050 
  115.3750   -10.7440     2.2440    95.2990    24.2240     5.6840     5.2440     6.7470 
  115.5000   -10.7520     2.2330    95.3520    24.2450     5.8590     5.3510     6.4670 
  115.6250   -10.7500     2.2200    96.9130    24.2400     5.8970     5.3650     6.2020 
  115.7500   -10.8250     2.2220    97.9770    24.2130     6.1080     5.2950     6.0380 
  115.8750   -10.9590     2.2370    97.3210    24.1560     6.1430     5.1720     5.9770 
  116.0000   -11.1670     2.2490    98.3070    24.1150     6.0280     5.0550     5.9660 
  116.1250   -11.4280     2.2460   100.9000    24.0780     5.8010     4.9950     6.0050 
  116.2500   -11.7220     2.2380   101.1710    24.0050     5.6110     5.0330     6.1390 
  116.3750   -11.9980     2.2350    97.9770    23.8860     5.6310     5.2030     6.4260 
  116.5000   -12.3500     2.2290    94.4850    23.7760     5.9180     5.4570     6.8060 
  116.6250   -12.8280     2.2000    92.0940    23.6550     6.5830     5.7480     7.1900 
  116.7500   -13.2070     2.1590    91.4970    23.5530     7.4910     6.0340     7.5120 
  116.8750   -13.5690     2.1310    90.3640    23.4830     8.1420     6.3080     7.8020 
  117.0000   -13.9240     2.1330    87.4890    23.4860     8.3050     6.6280     8.1690 
  117.1250   -14.2060     2.1530    83.9890    23.6300     8.2860     7.0820     8.7090 
  117.2500   -14.4580     2.1690    81.7530    23.8340     8.6090     7.7420     9.4890 
  117.3750   -14.7190     2.1760    80.1040    23.8880     9.1810     8.6510    10.5210 
