~V
VERS. 2.00: Ver 2.00
~W
STRT.M 51.0000:
STOP.M 262.0000:
STEP.M 0.1250:
NULL. -999.2500:
UWI. F10019:
~C
DEPT.M :
DEN.GM/CC :
SP.MV :
GR.API :
CALI.CM :
RXO.OHMM :
RI. :
RML.OHMM :
~A
# ...
  253.5000     2.2430    -6.6160    28.7130    23.5140     5.0750     3.4580     4.9120 
  253.6250     2.2720    -6.7440    28.7130    23.4120     5.0700     3.4540     4.9250 
  253.7500     2.2910    -6.8400    28.7130    23.5360     4.8800     3.4450     4.9290 
  253.8750     2.2980    -6.8930    28.7130    23.7180     4.6140     3.4340     4.9270 
  254.0000     2.2930    -6.8950    28.7130    23.7820     4.3380     3.4230     4.9230 
  254.1250     2.2840    -6.9510    28.7130    23.7990     4.1900     3.4130     4.9180 
  254.2500     2.2690    -6.9850    28.7130    23.7940     4.0860     3.4050     4.9050 
  254.3750     2.2460    -6.9660    28.7130    23.7550     4.0110     3.4000     4.8850 
  254.5000     2.2270    -6.9210    28.7130    23.6340     3.9520     3.4010     4.8680 
  254.6250     2.2210    -6.8900    28.7130    23.4560     3.9060     3.4060     4.8650 
  254.7500     2.2250    -6.8640    28.7130    23.2830     3.8850     3.4150     4.8800 
  254.8750     2.2280    -6.8500    28.7130    23.1510     3.8780     3.4270     4.9070 
  255.0000     2.2270    -6.8280    28.7130    23.0810     3.8540     3.4390     4.9310 
  255.1250     2.2240    -6.7830    28.7130    22.9440     3.8260     3.4490     4.9450 
  255.2500     2.2210    -6.7890    28.7130    22.6290     3.8050     3.4540     4.9480 
  255.3750     2.2160    -6.8380    28.7130    22.1820     3.7440     3.4530     4.9480 
  255.5000     2.2140    -6.8930    28.7130    21.8330     3.5970     3.4480     4.9470 
  255.6250     2.2150    -6.8690    28.7130    21.5420     3.4860     3.4440     4.9470 
  255.7500     2.2090    -6.8350    28.7130    21.0790     3.4720     3.4440     4.9470 
  255.8750     2.1910    -6.8320    28.7130    20.3490     3.5240     3.4470     4.9470 
  256.0000     2.1610    -6.8790    28.7130    19.6620     3.5430     3.4520     4.9480 
  256.1250     2.1330    -6.8990    28.7130    19.3000     3.4890     3.4530     4.9470 
  256.2500     2.1130    -6.8600    28.7130    19.1130     3.4020     3.4470     4.9460 
  256.3750     2.0990    -6.8140    28.7130    18.9350     3.3430     3.4350     4.9460 
  256.5000     2.0920    -6.7360    28.7130    18.4820     3.3900     3.4220     4.9500 
  256.6250     2.0880    -6.7160    28.7130    17.7630     3.5710     3.4140     4.9560 
  256.7500     2.0850    -6.7650    28.7130    16.9940     3.8430     3.4130     4.9630 
  256.8750     2.0830    -6.7890    28.7130    16.4100     4.0700     3.4160     4.9680 
  257.0000     2.0770    -6.7330    28.7130    16.0520     4.2250     3.4190     4.9690 
  257.1250     2.0670    -6.6830    28.7130    15.7220     4.3310     3.4190     4.9690 
  257.2500     2.0550    -6.6780    28.7130    15.3250     4.3840     3.4190     4.9690 
  257.3750     2.0480    -6.6800    28.7130    14.7430     4.3580     3.4190     4.9690 
  257.5000     2.0500    -6.6660    28.7130    13.9650     4.2900     3.4190     4.9690 
  257.6250     2.0600    -6.6550    28.7130    13.0170     4.2690     3.4190     4.9690 
  257.7500     2.0730    -6.6450    28.7130    12.0050     4.2730     3.4190     4.9690 
  257.8750     2.0800    -6.7040    28.7130    11.0240     4.2820     3.4190     4.9690 
  258.0000     2.0790    -6.8340    28.7130    10.4550     4.2900     3.4190     4.9690 
  258.1250     2.0750    -6.9050    28.7130    10.2610     4.2910     3.4190     4.9690 
  258.2500     2.0720    -6.8950    28.7130    10.2350     4.2910     3.4190     4.9690 
  258.3750     2.0680    -6.8690    28.7130    10.2400     4.2910     3.4190     4.9690 
  258.5000     2.0640    -6.9370    28.7130    10.2450     4.2920     3.4190     4.9690 
  258.6250     2.0640    -7.0240    28.7130    10.2480     4.2920     3.4190     4.9690 
  258.7500     2.0710    -7.0520    28.7130    10.2490     4.2920     3.4190     4.9690 
  258.8750     2.0810    -7.0520    28.7130    10.2490     4.2920     3.4190     4.9690 
  259.0000     2.0850  -999.2500    28.7130    10.2490     4.2920     3.4190     4.9690 
  259.1250     2.0810  -999.2500    28.7130    10.2490     4.2930     3.4190     4.9690 
  259.2500     2.0740  -999.2500    28.7130    10.2490     4.2940     3.4190     4.9690 
  259.3750     2.0730  -999.2500    28.7130    10.2490     4.2930     3.4190     4.9690 
  259.5000     2.0800  -999.2500    28.7130    10.2490     4.2910     3.4190     4.9690 
  259.6250     2.0910  -999.2500    28.7130    10.2490     4.2910     3.4190     4.9690 
  259.7500     2.1040  -999.2500    28.7130    10.2490     4.2910     3.4190     4.9690 
  259.8750     2.0570  -999.2500    28.7130    10.2480     4.2910     3.4190     4.9690 
  260.0000     1.8820  -999.2500    28.7130    10.2480     4.2900     3.4190     4.9690 
  260.1250     1.6730  -999.2500    28.7130    10.2480     4.2900     3.4190     4.9690 
  260.2500     1.5470  -999.2500    28.7130    10.2470     4.2910     3.4190     4.9690 
  260.3750     1.5360  -999.2500    28.7130    10.2470     4.2910     3.4190     4.9690 
  260.5000  -999.2500  -999.2500    28.7130    10.2470     4.2910     3.4190     4.9690 
  260.6250  -999.2500  -999.2500    28.7130    10.2470     4.2910     3.4190     4.9690 
  260.7500  -999.2500  -999.2500    28.7130    10.2470     4.2910     3.4190     4.9690 
  260.8750  -999.2500  -999.2500    28.7130    10.2460     4.2910     3.4190     4.9690 
  261.0000  -999.2500  -999.2500    28.7130    10.2430     4.2910     3.4190     4.9690 
  261.1250  -999.2500  -999.2500    28.7130    10.2380     4.2920     3.4190     4.9690 
  261.2500  -999.2500  -999.2500    28.7130    10.2340     4.2920     3.4190     4.9690 
  261.3750  -999.2500  -999.2500    28.7130    10.2300     4.2930     3.4190     4.9690 
  261.5000  -999.2500  -999.2500    28.7130    10.2190     4.2930     3.4190     4.9690 
  261.6250  -999.2500  -999.2500    28.7130    10.2010     4.2930     3.4190     4.9690 
  261.7500  -999.2500  -999.2500    28.7130    10.1930     4.2920     3.4190     4.9690 
  261.8750  -999.2500  -999.2500    28.7130    10.1930     4.2910     3.4190     4.9690 
  262.0000  -999.2500  -999.2500  -999.2500  -999.2500  -999.2500  -999.2500  -999.2500 
