~V
VERS. 2.00: Ver 2.00
~W
STRT.M 59.0000:
STOP.M 275.0000:
STEP.M 0.1250:
NULL. -999.2500:
UWI. F10021:
~C
DEPT.M :
GR.API :
RML.OHMM :
RI. :
RXO.OHMM :
CALI.CM :
DEN.GM/CC :
SP.MV :
~A
# ...
  104.0000    56.3990    13.5830    12.1420    16.5110    21.2940     2.4920   -12.1960 
  104.1250    53.7090    13.8270    12.7200    13.0910    20.9330     2.4520   -12.6240 
  104.2500    52.4370    13.2530    12.5210    10.4920    21.0110     2.3860   -13.0250 
  104.3750    51.1890    12.3550    11.8990    10.0990    21.5120     2.3130   -13.3770 
  104.5000    49.9280    11.6170    11.2720    10.4840    22.2630     2.2520   -13.7110 
  104.6250    50.8610    11.3380    10.9360    10.8780    22.9640     2.2160   -13.9740 
  104.7500    53.2960    11.3800    10.8550    11.1230    23.3960     2.1990   -14.1970 
  104.8750    54.4780    11.5650    10.9250    11.2840    23.4700     2.1930   -14.3770 
  105.0000    53.1260    11.7400    11.0310    11.1540    23.1560     2.1920   -14.5020 
  105.1250    52.1360    11.8200    11.0920    10.7460    22.6500     2.1920   -14.5500 
  105.2500    52.8950    11.8330    11.1010    10.4320    22.2940     2.1940   -14.5540 
  105.3750    54.3420    11.8280    11.0790    10.2980    22.2930     2.2000   -14.5400 
  105.5000    54.8760    11.8440    11.0560    10.2310    22.6090     2.2080   -14.4720 
  105.6250    53.9700    11.8840    11.0450    10.2990    23.0060     2.2170   -14.4070 
  105.7500    51.6230    11.8930    11.0170    10.4100    23.2260     2.2210   -14.3020 
  105.8750    49.6080    11.8150    10.9270    10.4860    23.2090     2.2200   -14.1670 
  106.0000    50.8540    11.6150    10.7380    10.5150    22.9960     2.2160   -14.0160 
  106.1250    54.9320    11.3030    10.4400    10.4990    22.8380     2.2140   -13.8760 
  106.2500    57.1810    10.9940    10.1240    10.4560    22.9470     2.2190   -13.7580 
  106.3750    57.2260    10.8060     9.8890    10.3400    23.2530     2.2290   -13.6450 
  106.5000    57.9800    10.8420     9.8300    10.1930    23.5290     2.2390   -13.5590 
  106.6250    60.5190    11.1720    10.0240    10.1850    23.5670     2.2430   -13.5030 
  106.7500    63.2400    11.6620    10.3850    10.4050    23.4380     2.2400   -13.4920 
  106.8750    63.5680    12.1540    10.8010    10.6770    23.2710     2.2360   -13.5160 
  107.0000    61.4500    12.4770    11.1360    10.9400    23.2180     2.2350   -13.5610 
  107.1250    59.4830    12.4730    11.2420    11.0260    23.4040     2.2380   -13.6300 
  107.2500    58.3050    12.2190    11.1340    10.9260    23.6810     2.2410   -13.7240 
  107.3750    57.8420    11.8450    10.8850    10.7790    23.9170     2.2390   -13.8220 
  107.5000    57.4620    11.4970    10.6020    10.7040    24.0490     2.2330   -13.9170 
  107.6250    56.9490    11.3070    10.3970    10.7330    24.0990     2.2260   -13.9840 
  107.7500    56.4830    11.2630    10.3000    10.8950    24.1170     2.2250   -14.0440 
  107.8750    57.2730    11.3110    10.2910    11.1960    24.1460     2.2300   -14.0810 
  108.0000    59.3510    11.3740    10.3230    11.4960    24.2140     2.2380   -14.1170 
  108.1250    60.0620    11.3750    10.3360    11.6070    24.3140     2.2460   -14.1170 
  108.2500    60.0280    11.2930    10.2980    11.5270    24.3970     2.2500   -14.0740 
  108.3750    60.0930    11.1510    10.2160    11.2710    24.4420     2.2510   -14.0050 
  108.5000    59.4190    11.0050    10.1230    10.9140    24.4550     2.2480   -13.9020 
  108.6250    57.8640    10.9350    10.0720    10.5930    24.4460     2.2420   -13.7630 
  108.7500    57.9680    10.9610    10.0830    10.4310    24.3940     2.2290   -13.5680 
  108.8750    58.2370    11.0440    10.1290    10.3310    24.2400     2.2100   -13.3500 
  109.0000    55.8450    11.0820    10.1360    10.2110    23.9460     2.1900   -13.0660 
  109.1250    54.0980    10.8830     9.9610     9.8670    23.4710     2.1780   -12.7480 
  109.2500    56.1530    10.3680     9.5390     9.3000    22.9240     2.1820   -12.4100 
  109.3750    59.7270     9.5520     8.8770     8.4900    22.4470     2.2020   -12.0750 
  109.5000    61.7010     8.5720     8.0730     7.5170    22.1420     2.2340   -11.7390 
  109.6250    63.8350     7.6730     7.3140     6.4720    22.0010     2.2680   -11.4430 
  109.7500    68.3350     7.0260     6.7420     5.7380    22.0080     2.2930   -11.1940 
  109.8750    71.5810     6.6740     6.4060     5.4810    22.1640     2.3060   -10.9920 
  110.0000    70.9930     6.5470     6.2730     5.6150    22.4130     2.3070   -10.8580 
  110.1250    68.9490     6.5170     6.2590     5.8870    22.6810     2.2990   -10.7710 
  110.2500    70.4900     6.4480     6.2400     6.1310    22.9150     2.2920   -10.7060 
  110.3750    74.1430     6.3100     6.1630     6.1410    23.1900     2.2930   -10.6560 
  110.5000    75.7920     6.1430     6.0360     5.9800    23.5470     2.3030   -10.6200 
  110.6250    73.9890     6.0280     5.9140     5.9050    23.9360     2.3200   -10.5890 
  110.7500    71.5940     5.9890     5.8330     5.9750    24.2360     2.3350   -10.5490 
  110.8750    70.4090     5.9880     5.7850     6.1510    24.4130     2.3440   -10.4920 
  111.0000    70.2070     5.9500     5.7220     6.3630    24.4820     2.3470   -10.4250 
  111.1250    72.1740     5.7760     5.5750     6.3380    24.4950     2.3500   -10.3270 
  111.2500    75.7710     5.4660     5.3290     5.8750    24.5030     2.3600   -10.2550 
  111.3750    78.0660     5.0610     5.0040     5.3340    24.5120     2.3770   -10.1750 
  111.5000    77.7110     4.6430     4.6570     4.9840    24.5140     2.3990   -10.1190 
  111.6250    77.9080     4.3420     4.3840     4.9120    24.4950     2.4140   -10.0550 
  111.7500    81.0350     4.2630     4.2770     5.0310    24.4760     2.4190   -10.0130 
  111.8750    83.9890     4.5080     4.4270     5.3810    24.4550     2.4160    -9.9860 
  112.0000    83.1410     5.1500     4.9110     6.1790    24.4240     2.4170    -9.9420 
  112.1250    79.5480     6.2460     5.8100     7.7080    24.3710     2.4390    -9.9410 
  112.2500    74.8050     7.5810     6.9730     9.6040    24.3160     2.4810    -9.9370 
  112.3750    67.7260     8.8880     8.1940    11.4420    24.2850     2.5300    -9.9600 
  112.5000    59.0930     9.8370     9.1900    12.5280    24.2980     2.5590    -9.9710 
  112.6250    54.1810    10.0490     9.5830    11.4190    24.3400     2.5380    -9.9890 
  112.7500    55.5870     9.6120     9.3670     9.7500    24.3730     2.4810    -9.9840 
  112.8750    60.5540     8.7410     8.6800     8.8150    24.3920     2.4150    -9.9690 
  113.0000    64.2200     7.7370     7.7760     7.9560    24.3850     2.3640    -9.9540 
  113.1250    65.1540     6.9050     6.9250     7.0020    24.3310     2.3390    -9.9320 
  113.2500    66.6700     6.3430     6.2670     6.4890    24.2020     2.3210    -9.9060 
  113.3750    69.5650     6.0350     5.8260     6.3180    23.9600     2.2960    -9.8860 
  113.5000    71.6060     5.9020     5.5690     6.2680    23.5820     2.2600    -9.8910 
  113.6250    71.8060     5.8600     5.4590     6.3620    23.0320     2.2300    -9.9100 
  113.7500    71.3330     5.8520     5.4320     6.4370    22.4590     2.2190    -9.9410 
  113.8750    71.0140     5.9160     5.5000     6.3700    22.1010     2.2260    -9.9830 
  114.0000    72.0720     6.1390     5.7070     6.2440    22.0930     2.2370   -10.0510 
  114.1250    73.2900     6.6200     6.1230     6.2830    22.3460     2.2330   -10.1320 
  114.2500    71.5220     7.2610     6.6820     6.8380    22.6820     2.2110   -10.2230 
  114.3750    67.1910     7.8960     7.2650     7.7570    23.0960     2.1760   -10.2790 
  114.5000    63.9490     8.3090     7.7010     8.5950    23.5190     2.1370   -10.3030 
  114.6250    63.4260     8.2570     7.7670     8.6180    23.6580     2.1060   -10.2830 
  114.7500    65.7480     7.8130     7.4760     7.9670    23.3290     2.0940   -10.2620 
  114.8750    69.5530     7.1530     6.9450     7.2150    22.6610     2.1100   -10.2120 
  115.0000    72.6400     6.5120     6.3600     6.7830    22.0470     2.1560   -10.1620 
  115.1250    72.3380     6.1360     5.9300     6.6080    21.9700     2.2220   -10.1140 
