~V
VERS. 2.00: Ver 2.00
~W
STRT.M 50.0000:
STOP.M 212.0000:
STEP.M 0.1250:
NULL. -999.2500:
UWI. F10013:
~C
DEPT.M :
GR.API :
RML.OHMM :
RI. :
RXO.OHMM :
CALI.CM :
DEN.GM/CC :
SP.MV :
~A
# ...
  196.2500    65.1240     8.8000     7.9410     9.5040    22.8630     2.2560   -19.8210 
  196.3750    61.4580     8.6020     7.7390     8.9710    22.9170     2.2620   -19.4300 
  196.5000    58.0520     8.3950     7.5660     8.5160    22.9250     2.2690   -19.1810 
  196.6250    54.3000     8.2020     7.4090     8.5310    22.9300     2.2800   -19.0170 
  196.7500    52.7380     8.1060     7.3040     8.7150    22.8480     2.2900   -18.8620 
  196.8750    54.5470     8.1930     7.2950     8.6450    22.7620     2.2950   -18.7340 
  197.0000    59.0230     8.5070     7.4080     7.8890    22.7370     2.2940   -18.6100 
  197.1250    65.0710     9.0120     7.6460     7.3650    22.7640     2.2970   -18.5120 
  197.2500    70.2830     9.4810     7.8670     7.3040    22.7980     2.3090   -18.4120 
  197.3750    71.2820     9.6860     7.8870     7.8720    22.8190     2.3260   -18.2440 
  197.5000    67.7100     9.4710     7.5660     9.2720    22.8720     2.3360   -18.0320 
  197.6250    61.2860     8.8380     7.1350    10.4590    22.9030     2.3280   -17.8080 
  197.7500    54.5200     8.1340     6.7160     9.5490    22.9550     2.3090   -17.6430 
  197.8750    49.4880     7.6560     6.4450     8.0220    22.9600     2.2960   -17.5090 
  198.0000    47.9070     7.5950     6.4300     7.3010    22.9590     2.3030   -17.3630 
  198.1250    48.7230     8.0300     6.7770     7.5850    22.9130     2.3450   -17.2460 
  198.2500    48.6260     8.6980     7.3420     8.8730    22.7990     2.4140   -17.1480 
  198.3750    47.5140     9.3180     7.9290    10.8890    22.6660     2.4920   -17.0770 
  198.5000    46.4670     9.6330     8.3190    10.9580    22.5820     2.5570   -17.0240 
  198.6250    46.1740     9.4700     8.3220     9.7830    22.5160     2.5800   -16.9440 
  198.7500    47.0480     9.0190     8.0500     9.4810    22.5240     2.5620   -16.8270 
  198.8750    49.1390     8.4890     7.6620     9.5310    22.6310     2.5140   -16.6690 
  199.0000    51.0670     8.0590     7.3120     9.1620    22.7070     2.4590   -16.4770 
  199.1250    51.2280     7.8510     7.1090     8.9870    22.7540     2.4190   -16.2410 
  199.2500    49.9330     7.8140     7.0330     8.8900    22.8800     2.3990   -15.9960 
  199.3750    48.9230     7.8830     7.0480     8.8380    23.0850     2.3940   -15.7740 
  199.5000    49.3490     8.0010     7.1170     8.7480    23.2320     2.3970   -15.5880 
  199.6250    49.8630     8.1220     7.2110     8.8000    23.2740     2.4040   -15.4640 
  199.7500    48.6020     8.2120     7.2930     8.7510    23.2780     2.4100   -15.4220 
  199.8750    46.6360     8.2280     7.3200     8.7440    23.2740     2.4160   -15.4300 
  200.0000    46.8350     8.1240     7.2490     8.7460    23.2660     2.4210   -15.4990 
  200.1250    48.4330     7.8710     7.0500     8.8220    23.2530     2.4210   -15.6680 
  200.2500    48.6100     7.5700     6.7960     8.9100    23.2460     2.4140   -15.8670 
  200.3750    48.3860     7.3480     6.5750     8.7000    23.2530     2.3980   -16.1110 
  200.5000    48.3860     7.3250     6.4740     7.7270    23.2310     2.3780   -16.3680 
  200.6250    48.3860     7.5770     6.5630     7.1920    23.1080     2.3570   -16.6340 
  200.7500    48.3860     7.9740     6.7710     7.5940    22.9660     2.3380   -16.8640 
  200.8750    48.3860     8.3570     6.9930     9.0500    22.9710     2.3180   -17.0430 
  201.0000    48.3860     8.5700     7.1460    11.1210    23.1270     2.2940   -17.1400 
  201.1250    48.3860     8.5080     7.2350    11.4340    23.2200     2.2670   -17.0820 
  201.2500    48.3860     8.2720     7.3160    10.2960    23.2770     2.2450   -16.9390 
  201.3750    48.3860     7.9770     7.3860     8.5990    23.3040     2.2370   -16.7510 
  201.5000    48.3860     7.7380     7.3990     7.8210    23.3410     2.2450   -16.5930 
  201.6250    48.3860     7.6740     7.2590     7.5880    23.3110     2.2670   -16.4870 
  201.7500    48.3860     7.7860     7.0070     7.7550    23.2290     2.2920   -16.4540 
  201.8750    48.3860     8.0220     6.7790     7.7400    23.0910     2.3180   -16.4850 
  202.0000    48.3860     8.2540     6.7010     7.6970    22.9890     2.3450   -16.5770 
  202.1250    48.3860     8.2860     6.7610     8.0440    22.9690     2.3700   -16.7260 
  202.2500    48.3860     8.0890     6.7810     8.4530    22.9940     2.3870   -16.9140 
  202.3750    48.3860     7.7960     6.7080     8.1590    23.0270     2.3940   -17.1300 
  202.5000    48.3860     7.6370     6.6300     7.5760    23.0360     2.3910   -17.3420 
  202.6250    48.3860     7.8260     6.6700     7.1900    23.0120     2.3820   -17.5000 
  202.7500    48.3860     8.2560     6.8150     7.0540    22.9920     2.3720   -17.6240 
  202.8750    48.3860     8.7300     7.0220     7.1210    23.0070     2.3600   -17.7070 
  203.0000    48.3860     9.0330     7.2490     7.7570    23.0700     2.3490   -17.7230 
  203.1250    48.3860     8.9830     7.2550     8.8450    23.0540     2.3410   -17.6440 
  203.2500    48.3860     8.6610     7.0350     9.2310    22.9500     2.3400   -17.4920 
  203.3750    48.3860     8.1850     6.6820     8.2190    22.9300     2.3450   -17.2720 
  203.5000    48.3860     7.6620     6.3430     7.2090    23.0370     2.3540   -16.9870 
  203.6250    48.3860     7.1740     6.1190     6.8970    23.1640     2.3610   -16.6780 
  203.7500    48.3860     6.7590     5.9710     6.9530    23.1980     2.3660   -16.3780 
  203.8750    48.3860     6.4400     5.8550     7.0860    23.1950     2.3690   -16.1140 
  204.0000    48.3860     6.2400     5.7570     7.0830    23.1580     2.3720   -15.9270 
  204.1250    48.3860     6.2120     5.6970     6.9070    23.0740     2.3750   -15.8560 
  204.2500    48.3860     6.3140     5.6930     6.7670    23.0630     2.3760   -15.8890 
  204.3750    48.3860     6.4710     5.7440     6.7330    23.2390     2.3740   -15.9900 
  204.5000    48.3860     6.5870     5.8130     6.8210    23.4620     2.3690   -16.1010 
  204.6250    48.3860     6.6010     5.8640     7.0760    23.4600     2.3570   -16.1970 
  204.7500    48.3860     6.5580     5.8730     7.2810    23.4770     2.3370   -16.2060 
  204.8750    48.3860     6.5140     5.8500     7.2920    23.7380     2.3070   -16.1410 
  205.0000    48.3860     6.5100     5.8460     7.1560    24.0910     2.2670   -16.0600 
  205.1250    48.3860     6.5540     5.8480     7.0320    24.3010     2.2200   -15.9920 
  205.2500    48.3860     6.6100     5.8120     6.9220    24.2310     2.1740   -15.8940 
  205.3750    48.3860     6.6370     5.7210     6.8220    24.1420     2.1380   -15.7770 
  205.5000    48.3860     6.5960     5.6140     6.8040    24.0850     2.1120   -15.6780 
  205.6250    48.3860     6.4660     5.5310     6.8260    23.8620     2.0920   -15.5740 
  205.7500    48.3860     6.3010     5.4830     6.7990    23.4330     2.0690   -15.5120 
  205.8750    48.3860     6.1600     5.4850     6.8330    22.9250     2.0410   -15.4820 
  206.0000    48.3860     6.0850     5.5280     6.9120    22.5210     2.0080   -15.4610 
  206.1250    48.3860     6.0860     5.5710     7.1930    22.0020     1.9730   -15.4280 
  206.2500    48.3860     6.1160     5.5900     7.5440    21.2730     1.9430   -15.3950 
  206.3750    48.3860     6.1380     5.5940     7.6700    20.3340     1.9230   -15.3300 
  206.5000    48.3860     6.1460     5.5940     7.8410    19.1090     1.9170   -15.2440 
  206.6250    48.3860     6.1460     5.5940     7.9240    17.7420     1.9250   -15.2020 
  206.7500    48.3860     6.1460     5.5940     8.2630    16.8530     1.9370   -15.1840 
  206.8750    48.3860     6.1460     5.5940     8.7320    16.4490     1.9450   -15.1840 
  207.0000    48.3860     6.1460     5.5940     9.1320    16.2840     1.9410   -15.2030 
  207.1250    48.3860     6.1460     5.5940     9.8590    16.2240     1.9250   -15.2060 
  207.2500    48.3860     6.1460     5.5940    11.2240    16.2090     1.9040   -15.2050 
  207.3750    48.3860     6.1460     5.5940    12.8010    16.2180     1.8860   -15.2170 
