~V
VERS. 2.00: Ver 2.00
~W
STRT.M 50.0000:
STOP.M 244.0000:
STEP.M 0.1250:
NULL. -999.2500:
UWI. F10003:
~C
DEPT.M :
GR.API :
RML.OHMM :
RI. :
RXO.OHMM :
CALI.CM :
DEN.GM/CC :
SP.MV :
~A
# ...
  173.7500    65.1980     8.9550     8.7050    10.8280    24.2780     2.4620   -15.8790 
  173.8750    64.8200     8.9540     8.7280    10.9830    24.2690     2.4720   -15.9140 
  174.0000    64.2860     9.0880     8.8330    11.0020    24.2500     2.4760   -16.0280 
  174.1250    63.5220     9.5440     9.1890    11.2280    24.2790     2.4660   -16.1370 
  174.2500    63.1700    10.3100     9.8210    12.5850    24.3000     2.4470   -16.2610 
  174.3750    64.7410    11.2820    10.6790    14.8270    24.3150     2.4230   -16.4320 
  174.5000    67.2510    12.2570    11.6160    17.3570    24.3070     2.4000   -16.6660 
  174.6250    67.6630    12.9390    12.3780    18.8650    24.3150     2.3820   -17.0230 
  174.7500    66.9960    13.2430    12.8200    19.1350    24.3780     2.3700   -17.4640 
  174.8750    66.1910    13.2940    12.9660    18.7750    24.4650     2.3660   -17.9290 
  175.0000    66.3880    13.4270    13.0430    18.4410    24.5410     2.3700   -18.4150 
  175.1250    68.7270    14.1810    13.4900    18.1870    24.5680     2.3790   -18.9700 
  175.2500    72.3800    15.6820    14.5160    19.2180    24.5730     2.3900   -19.5890 
  175.3750    73.8360    17.7150    16.0610    22.6680    24.5730     2.3940   -20.2810 
  175.5000    70.3530    19.7110    17.7670    28.4000    24.5740     2.3870   -21.0500 
  175.6250    64.9440    20.7420    18.9210    34.3640    24.5840     2.3660   -21.8790 
  175.7500    61.5270    20.5400    19.1130    37.0450    24.5920     2.3430   -22.7210 
  175.8750    60.3240    19.4960    18.4430    33.6160    24.5790     2.3320   -23.5440 
  176.0000    59.0590    18.6700    17.6190    26.8080    24.5130     2.3470   -24.2760 
  176.1250    55.7960    19.7450    17.9490    24.2120    24.2610     2.3970   -24.7540 
  176.2500    51.1440    23.2030    20.1030    28.2880    23.8740     2.4660   -24.9280 
  176.3750    47.7730    28.5960    24.1340    38.1450    23.6440     2.5320   -24.7990 
  176.5000    47.0010    34.5080    29.2660    50.4540    23.6880     2.5730   -24.3530 
  176.6250    47.5050    38.2710    33.5250    58.5970    23.8370     2.5740   -23.4960 
  176.7500    48.6770    38.2780    34.9530    57.0830    24.0470     2.5430   -22.3650 
  176.8750    51.3630    34.4800    32.7820    47.4950    24.2570     2.4960   -21.0690 
  177.0000    55.4270    28.7550    28.0640    34.8910    24.3880     2.4450   -19.7300 
  177.1250    57.5620    23.5740    23.1030    23.6210    24.4500     2.4070   -18.4430 
  177.2500    57.4720    19.9450    19.3790    18.2660    24.4560     2.3860   -17.2960 
  177.3750    57.3680    17.6510    17.0920    16.6820    24.4550     2.3820   -16.2830 
  177.5000    57.4740    16.7870    16.0490    16.7400    24.4670     2.3880   -15.4310 
  177.6250    58.2720    16.9760    16.0710    17.5960    24.4610     2.3970   -14.8290 
  177.7500    58.5870    17.5910    16.6470    19.5740    24.3690     2.4020   -14.3830 
  177.8750    57.4350    18.2840    17.4550    21.5590    24.2610     2.4030   -14.0330 
  178.0000    55.0220    18.8050    18.2060    21.9200    24.2860     2.4000   -13.7190 
  178.1250    52.0250    18.9430    18.6140    21.3130    24.4440     2.3930   -13.4470 
  178.2500    50.8170    18.6960    18.5980    20.2670    24.5210     2.3840   -13.2270 
  178.3750    52.2230    18.0770    18.1350    19.2180    24.3980     2.3790   -13.0660 
  178.5000    54.7180    17.1480    17.2760    18.4060    24.1180     2.3810   -12.9290 
  178.6250    55.7820    15.9910    16.1010    17.5470    23.9070     2.3920   -12.8260 
  178.7500    55.9970    14.7840    14.8260    16.2020    24.0530     2.4060   -12.7720 
  178.8750    58.1060    13.6810    13.6160    14.8130    24.2750     2.4160   -12.7370 
  179.0000    60.6490    12.8580    12.6400    13.9070    24.4520     2.4180   -12.7070 
  179.1250    61.0710    12.6040    12.1550    13.5430    24.5340     2.4090   -12.7030 
  179.2500    61.7140    13.0500    12.2680    13.8380    24.5750     2.3940   -12.7150 
  179.3750    63.5410    14.3610    13.1340    15.3570    24.5900     2.3780   -12.7720 
  179.5000    64.5160    16.6370    14.8850    18.2190    24.5680     2.3640   -12.8940 
  179.6250    61.1340    19.9600    17.7140    22.6630    24.5390     2.3590   -12.9860 
  179.7500    56.8790    23.8400    21.2650    28.3240    24.5270     2.3680   -13.0360 
  179.8750    54.0450    27.7430    25.0890    33.8480    24.5130     2.3960   -13.0630 
  180.0000    51.4280    31.0480    28.5560    37.4980    24.4440     2.4430   -13.1050 
  180.1250    50.0810    33.0200    30.8180    39.4920    24.2670     2.5020   -13.2460 
  180.2500    49.3120    33.7140    31.7500    40.5290    24.1090     2.5530   -13.4060 
  180.3750    47.4450    33.4080    31.5440    39.3360    24.1570     2.5820   -13.4780 
  180.5000    44.9730    32.5770    30.6610    36.6730    24.3630     2.5800   -13.4380 
  180.6250    45.8920    31.7490    29.6370    33.7750    24.5050     2.5520   -13.3610 
  180.7500    51.1170    31.2960    28.9030    30.7320    24.5320     2.5150   -13.2630 
  180.8750    54.7200    31.3870    28.6730    27.7930    24.5120     2.4760   -13.1460 
  181.0000    53.9490    32.0580    29.0400    26.7300    24.5080     2.4350   -12.9900 
  181.1250    51.1040    33.2690    30.0530    29.1360    24.5170     2.3890   -12.7120 
  181.2500    49.3980    34.7010    31.4420    33.6140    24.5920     2.3430   -12.3940 
  181.3750    48.6890    36.0900    32.9660    38.5900    24.6420     2.3080   -12.1440 
  181.5000    48.7630    37.1820    34.3540    41.7780    24.6100     2.2990   -11.9620 
  181.6250    49.8080    37.6950    35.2740    42.6540    24.5100     2.3240   -11.8490 
  181.7500    50.5640    37.6630    35.6560    42.0310    24.4190     2.3690   -11.8050 
  181.8750    48.6880    37.1790    35.5330    41.2300    24.3840     2.4100   -11.8030 
  182.0000    46.3360    36.4160    35.0390    39.7890    24.3400     2.4260   -11.8620 
  182.1250    46.8170    35.5660    34.3380    37.6920    24.4230     2.4110   -12.0290 
  182.2500    49.2460    34.7780    33.6090    36.7980    24.4840     2.3840   -12.2550 
  182.3750    50.3490    34.0910    32.9090    36.7800    24.5090     2.3630   -12.5030 
  182.5000    49.1960    33.4810    32.2500    36.4150    24.5150     2.3570   -12.7690 
  182.6250    49.6920    32.9090    31.6250    35.0370    24.4940     2.3640   -12.9770 
  182.7500    53.1710    32.3590    31.0410    33.2620    24.4520     2.3730   -13.1160 
  182.8750    56.0610    31.8810    30.5480    31.9180    24.2800     2.3790   -13.2540 
  183.0000    54.6410    31.5830    30.2350    31.1840    23.8500     2.3790   -13.4010 
  183.1250    50.6690    31.6960    30.2960    31.0390    23.2160     2.3770   -13.5350 
  183.2500    49.9120    32.3170    30.8090    31.9430    23.1040     2.3730   -13.6530 
  183.3750    51.7660    33.4950    31.8320    34.1280    23.5070     2.3690   -13.7030 
  183.5000    52.7320    35.1500    33.3140    37.1210    24.1020     2.3640   -13.7350 
  183.6250    52.2570    37.0310    35.0680    40.2680    24.4240     2.3580   -13.8480 
  183.7500    52.7250    38.6920    36.6910    43.1190    24.4060     2.3540   -14.0350 
  183.8750    53.7160    39.7810    37.8390    45.0000    24.1850     2.3500   -14.2770 
  184.0000    53.4490    40.0940    38.2720    45.1680    24.0510     2.3450   -14.5130 
  184.1250    52.5490    39.5740    37.8540    43.5120    24.2650     2.3390   -14.7710 
  184.2500    52.0220    38.6350    36.9320    41.6590    24.4800     2.3350   -15.1160 
  184.3750    51.3900    37.6040    35.7970    41.0510    24.5410     2.3460   -15.5990 
  184.5000    51.0650    36.7810    34.7370    42.2400    24.4900     2.3810   -16.1530 
  184.6250    52.3920    36.5640    34.1230    45.1990    24.3370     2.4390   -16.6430 
  184.7500    54.2090    37.1290    34.1620    48.3060    24.1310     2.4970   -17.0330 
  184.8750    54.7200    38.5810    34.9890    48.2840    24.0510     2.5350   -17.3230 
