~V
VERS. 2.00: Ver 2.00
~W
STRT.M 60.0000:
STOP.M 245.0000:
STEP.M 0.1250:
NULL. -999.2500:
UWI. F10050:
~C
DEPT.M :
SP.MV :
GR.API :
RML.OHMM :
RI. :
RXO.OHMM :
CALI.CM :
DEN.GM/CC :
~A
   60.0000    19.0350    39.7300     0.0000     0.1860     0.1160    25.3380     1.9840 
   60.1250    18.9720    41.3570     0.0000     0.1580     0.1220    25.3380     1.9920 
   60.2500    18.9040    43.1870     0.0000     0.1310     0.1480    25.3380     2.0000 
   60.3750    18.7990    43.7880     0.0000     0.1220     0.2230    25.3380     2.0040 
   60.5000    18.6140    44.6320     0.0000     0.1380     0.3020    25.3380     2.0020 
   60.6250    18.3610    45.6150     0.0020     0.1710     0.2760    25.3380     1.9980 
   60.7500    18.0530    44.9310     0.0340     0.1970     0.1830    25.3380     1.9990 
   60.8750    17.6810    42.7120     0.1480     0.2040     0.1370    25.3380     2.0050 
   61.0000    17.2660    41.2050     0.3450     0.1930     0.1300    25.3380     2.0100 
   61.1250    16.8240    41.1530     0.5500     0.1790     0.1750    25.3380     2.0030 
   61.2500    16.3390    40.8940     0.6700     0.1800     0.2260    25.3380     1.9890 
   61.3750    15.8120    41.9190     0.6450     0.1960     0.2440    25.3380     1.9750 
   61.5000    15.2950    44.3760     0.4650     0.2150     0.1790    25.3380     1.9700 
   61.6250    14.7480    45.6320     0.2220     0.2210     0.1220    25.3380     1.9790 
   61.7500    14.1390    44.2370     0.0610     0.2110     0.1270    25.3380     1.9910 
   61.8750    13.4890    42.2190     0.0060     0.1900     0.2460    25.3380     1.9980 
   62.0000    12.7990    40.3930     0.0000     0.1650     0.3570    25.3380     1.9970 
   62.1250    12.0430    39.5880     0.0000     0.1460     0.3650    25.3380     1.9970 
   62.2500    11.2560    40.9030     0.0000     0.1340     0.3090    25.3380     2.0050 
   62.3750    10.4450    42.8480     0.0000     0.1350     0.2410    25.3380     2.0200 
   62.5000     9.5960    43.6800     0.0000     0.1510     0.1910    25.3380     2.0340 
   62.6250     8.7540    42.4290     0.0000     0.1830     0.1990    25.3380     2.0400 
   62.7500     7.8720    40.8230     0.0040     0.2190     0.2270    25.3380     2.0400 
   62.8750     6.8800    41.1630     0.0460     0.2460     0.4220    25.3380     2.0430 
   63.0000     5.7880    44.2310     0.2120     0.2530     1.1650    25.3380     2.0520 
   63.1250     4.6190    47.0960     0.6880     0.2300     3.0870    25.3380     2.0680 
   63.2500     3.2820    47.1100     1.3260     0.1840     2.9120    25.3380     2.0910 
   63.3750     1.7630    45.9310     1.6370     0.1260     1.9370    25.3380     2.1400 
   63.5000     0.0940    46.3130     1.4020     0.0710     1.6920    25.3380     2.2510 
   63.6250    -1.8410    47.6890     0.9470     0.0360     1.0100    25.3380     2.4370 
   63.7500    -3.9950    48.3720     0.5870     0.0200     0.5650    25.3410     2.6050 
   63.8750    -6.2690    47.7360     0.3670     0.0180     0.5590    25.4380     2.6800 
   64.0000    -8.5850    46.8970     0.2610     0.0320     0.6410    25.7350     2.6390 
   64.1250   -10.8860    49.2130     0.2380     0.0880     0.8130    26.1830     2.5080 
   64.2500   -13.0280    54.2600     0.2540     0.2290     1.2980    26.1340     2.3690 
   64.3750   -14.9500    58.4790     0.3100     0.5290     2.5950    25.8350     2.2620 
   64.5000   -16.6530    60.8560     0.4690     1.0850     4.7940    25.5430     2.2170 
   64.6250   -18.0540    67.0670     0.9560     2.0680     6.0040    24.8710     2.2530 
   64.7500   -19.2040    75.9040     1.9510     3.4760     7.1770    24.0050     2.3240 
   64.8750   -20.1580    80.1400     3.5140     5.2350    10.5900    23.3540     2.3680 
   65.0000   -20.9980    76.1070     5.3260     7.0830    16.0060    22.8520     2.3540 
   65.1250   -21.7500    69.2430     6.6150     8.4650    15.1720    22.5190     2.2960 
   65.2500   -22.4990    65.3180     7.1010     9.0820    11.3490    22.4820     2.2410 
   65.3750   -23.3030    63.2310     6.9800     8.9790     8.6470    22.6850     2.2070 
   65.5000   -24.1530    63.1400     6.6220     8.4810     7.7320    22.9980     2.1930 
   65.6250   -24.9390    64.9390     6.3490     8.0030     7.6600    23.3960     2.1860 
   65.7500   -25.6240    65.9460     6.2930     7.7540     7.7950    23.7860     2.1770 
   65.8750   -26.1940    66.3350     6.4630     7.7220     7.9250    24.0780     2.1670 
   66.0000   -26.6490    68.1560     6.7910     7.8060     8.0380    24.2030     2.1560 
   66.1250   -27.0240    70.1370     7.1320     7.8980     8.2620    24.2220     2.1470 
   66.2500   -27.2930    67.2610     7.3780     7.9420     8.2300    24.2460     2.1410 
   66.3750   -27.4330    60.8810     7.5430     7.9320     7.8430    24.3570     2.1380 
   66.5000   -27.4660    56.6530     7.7080     7.8850     7.4400    24.6050     2.1390 
   66.6250   -27.4620    56.0560     7.9410     7.8210     7.3020    24.8010     2.1460 
   66.7500   -27.4110    56.7200     8.1590     7.7550     7.2650    24.8790     2.1540 
   66.8750   -27.3330    58.5020     8.2200     7.6810     7.1590    24.9050     2.1610 
   67.0000   -27.2580    61.9540     8.0070     7.5850     6.8890    24.9460     2.1610 
   67.1250   -27.0950    64.9280     7.5210     7.4540     6.6120    25.0010     2.1500 
   67.2500   -26.8760    66.0410     6.9990     7.3090     6.4460    25.0210     2.1310 
   67.3750   -26.6210    67.9580     6.6160     7.1770     6.4440    25.0230     2.1140 
   67.5000   -26.3240    71.3350     6.4410     7.0810     6.5760    24.9490     2.1070 
   67.6250   -26.0410    73.5820     6.4480     7.0260     6.7470    24.5560     2.1220 
   67.7500   -25.7960    75.5730     6.5250     6.9830     7.0830    23.8230     2.1520 
   67.8750   -25.5680    79.6480     6.6060     6.9150     7.5410    23.1680     2.1860 
   68.0000   -25.3530    84.1030     6.6420     6.7920     7.6980    22.8750     2.2130 
   68.1250   -25.2500    85.7250     6.6070     6.6030     7.4350    22.8390     2.2280 
   68.2500   -25.2400    85.9630     6.5240     6.3910     7.1520    22.8390     2.2360 
   68.3750   -25.2880    87.0480     6.4110     6.2050     7.0320    22.8390     2.2400 
   68.5000   -25.4380    89.9040     6.3180     6.0920     7.0130    22.8390     2.2390 
   68.6250   -25.6880    91.8020     6.3500     6.1010     7.0910    22.8390     2.2300 
   68.7500   -25.9680    87.7300     6.5560     6.2170     7.2450    22.8400     2.2150 
   68.8750   -26.2990    77.5880     6.8990     6.4170     7.5330    22.8480     2.1980 
   69.0000   -26.6640    68.1390     7.2730     6.6650     7.8260    22.8880     2.1820 
   69.1250   -26.9490    66.5460     7.5340     6.9050     8.0720    23.0050     2.1720 
   69.2500   -27.1760    68.8430     7.6630     7.0900     8.2620    23.1820     2.1650 
   69.3750   -27.3900    71.0050     7.7120     7.2000     8.3960    23.3830     2.1620 
   69.5000   -27.5060    71.4450     7.7310     7.2440     8.4480    23.5440     2.1640 
   69.6250   -27.4340    71.4100     7.7250     7.2590     8.5210    23.6560     2.1700 
   69.7500   -27.2920    71.9350     7.6970     7.2900     8.5840    23.7060     2.1710 
   69.8750   -27.0490    70.6200     7.7020     7.3580     8.6730    23.8020     2.1610 
   70.0000   -26.6810    64.6430     7.8330     7.4610     8.8050    24.0700     2.1460 
   70.1250   -26.2760    57.3710     8.1200     7.5630     8.8670    24.4720     2.1400 
   70.2500   -25.8840    54.7920     8.4020     7.6030     8.7400    24.6400     2.1530 
   70.3750   -25.4370    57.4750     8.5040     7.5300     8.6680    24.2960     2.1820 
   70.5000   -24.9840    63.6230     8.3270     7.3170     8.7400    23.4070     2.2180 
   70.6250   -24.6230    71.3170     7.8900     6.9710     8.8450    22.3790     2.2460 
   70.7500   -24.2970    77.1660     7.3960     6.5860     8.0120    21.7360     2.2630 
   70.8750   -24.0430    83.3790     6.9940     6.2310     7.4760    21.5000     2.2740 
   71.0000   -23.8540    90.2950     6.7630     5.9480     7.3970    21.4870     2.2830 
   71.1250   -23.7070    91.7160     6.6830     5.7430     7.4010    21.6430     2.2840 
