~V
VERS. 2.00: Ver 2.00
~W
STRT.M 50.0000:
STOP.M 265.0000:
STEP.M 0.1250:
NULL. -999.2500:
UWI. F10025:
~C
DEPT.M :
SP.MV :
DEN.GM/CC :
GR.API :
CALI.CM :
RXO.OHMM :
RI. :
RML.OHMM :
~A
# ...
   61.2500   -14.6650     2.1790   106.6870    23.8210     6.6730     6.1580     7.5190 
   61.3750   -15.4430     2.1680   110.1690    23.6950     8.3450     6.5110     8.3070 
   61.5000   -16.3270     2.1610   106.7010    23.5750    10.7120     7.1000     9.2670 
   61.6250   -17.3080     2.1620    97.1110    23.3370    12.6710     7.8500    10.3580 
   61.7500   -18.2920     2.1770    88.2520    23.0810    13.0820     8.5880    11.4750 
   61.8750   -19.3260     2.2070    83.4830    22.9160    12.3650     8.9960    12.1880 
   62.0000   -20.3900     2.2400    80.1620    22.8410    11.1320     8.9560    12.2190 
   62.1250   -21.4290     2.2470    76.7360    22.6940    10.1590     8.5540    11.6240 
   62.2500   -22.4000     2.2210    74.1920    22.3810     9.5690     8.0050    10.6760 
   62.3750   -23.2070     2.1740    74.4690    22.1570     9.5250     7.5370     9.7740 
   62.5000   -23.8120     2.1230    75.9570    22.2910     9.8250     7.2580     9.1920 
   62.6250   -24.2240     2.0840    78.5030    22.9170    10.1850     7.1850     9.0260 
   62.7500   -24.5470     2.0590    81.8850    23.6560    10.3890     7.2710     9.2630 
   62.8750   -24.7650     2.0510    83.9330    24.2440    10.4590     7.4140     9.7360 
   63.0000   -24.8430     2.0600    83.2960    24.5230    10.4950     7.5040    10.1400 
   63.1250   -24.7470     2.0780    80.9420    24.5880    10.4570     7.5000    10.3100 
   63.2500   -24.5350     2.0910    79.8150    24.5560    10.3080     7.3980    10.2270 
   63.3750   -24.3500     2.0980    82.5290    24.4650    10.1160     7.2150    10.0140 
   63.5000   -24.2210     2.1090    85.1920    24.3620     9.9190     7.0080     9.8530 
   63.6250   -24.1800     2.1220    84.8690    24.3550     9.6950     6.8080     9.8170 
   63.7500   -24.2120     2.1270    83.1790    24.3560     9.3930     6.6500     9.8520 
   63.8750   -24.3350     2.1170    83.1730    24.3120     9.3850     6.5780     9.8180 
   64.0000   -24.5380     2.1000    84.1210    24.1750    10.0340     6.5990     9.6870 
   64.1250   -24.8260     2.0900    82.1720    23.9230    10.9730     6.6990     9.5480 
   64.2500   -25.1480     2.0860    76.1850    23.7300    11.5350     6.8400     9.5190 
   64.3750   -25.4290     2.0840    71.0560    23.7610    11.7600     6.9570     9.6770 
   64.5000   -25.7210     2.0870    70.9160    24.0010    12.9730     7.0010     9.9260 
   64.6250   -25.9060     2.1000    75.2360    24.3830    16.3370     6.9610    10.1300 
   64.7500   -25.9930     2.1150    79.5270    24.6190    17.0760     6.8600    10.1880 
   64.8750   -25.9380     2.1190    80.1730    24.6150    13.9270     6.7420    10.0770 
   65.0000   -25.8010     2.1090    80.7810    24.5380    10.5970     6.6510     9.8630 
   65.1250   -25.5690     2.0980    82.2040    24.5000    10.1530     6.6140     9.5890 
   65.2500   -25.2670     2.0950    82.3560    24.5370    10.1470     6.6400     9.3580 
   65.3750   -24.8640     2.0970    80.0930    24.6850    10.1390     6.7030     9.3550 
   65.5000   -24.3000     2.0970    78.2920    25.0080    10.0190     6.7350     9.6220 
   65.6250   -23.5440     2.0900    80.2050    25.4630     9.8250     6.6900    10.0590 
   65.7500   -22.5980     2.0750    84.0680    25.8420     9.5690     6.5500    10.4180 
   65.8750   -21.4830     2.0550    88.3390    25.9460     9.2770     6.3290    10.4000 
   66.0000   -20.2440     2.0440    95.0710    25.7540     9.2330     6.0790    10.0450 
   66.1250   -19.0130     2.0680   105.9650    25.2350     9.4900     5.8370     9.5050 
   66.2500   -17.8130     2.1230   118.2010    24.6870     8.7930     5.6230     8.9390 
   66.3750   -16.7540     2.1860   123.2770    24.1800     7.1580     5.4480     8.4430 
   66.5000   -15.8270     2.2350   123.4310    23.8930     5.7820     5.3040     8.0620 
   66.6250   -15.1260     2.2540   125.4140    23.9390     5.3190     5.1690     7.8120 
   66.7500   -14.6470     2.2530   130.1900    24.0870     5.1530     5.0290     7.6630 
   66.8750   -14.3600     2.2390   135.7980    24.2080     5.1130     4.8990     7.5880 
   67.0000   -14.2410     2.2180   145.3620    24.2180     5.1190     4.8280     7.5500 
   67.1250   -14.2600     2.2040   158.7700    24.0010     5.1920     4.8600     7.5600 
   67.2500   -14.3210     2.2010   167.7860    23.6060     5.3550     5.0050     7.6830 
   67.3750   -14.3590     2.2050   165.7060    23.2240     5.7530     5.2290     8.0150 
   67.5000   -14.4180     2.2110   160.0410    22.9770     6.2020     5.4340     8.4530 
   67.6250   -14.5200     2.2100   152.8130    22.9520     6.4670     5.5470     8.8080 
   67.7500   -14.6620     2.2030   140.1240    23.0890     6.3730     5.5270     8.8990 
   67.8750   -14.8770     2.1970   125.0550    23.3340     6.1280     5.3790     8.6530 
   68.0000   -15.1380     2.1980   113.4510    23.5530     6.0330     5.1930     8.2640 
   68.1250   -15.4030     2.2030   106.1260    23.6500     6.1520     5.0400     7.9170 
   68.2500   -15.6530     2.1930   100.7600    23.6620     6.4430     4.9790     7.7820 
   68.3750   -15.9080     2.1650    97.6340    23.6230     7.4160     5.0940     7.9930 
   68.5000   -16.1440     2.1370    94.6110    23.5700     9.3100     5.4220     8.5000 
   68.6250   -16.2850     2.1340    90.0330    23.5730    11.3340     6.0240     9.3130 
   68.7500   -16.3340     2.1500    87.0620    23.6250    12.8800     6.9750    10.4870 
   68.8750   -16.2950     2.1740    85.7700    23.6690    14.8970     8.4610    12.2820 
   69.0000   -16.2300     2.2150    83.0600    23.6700    19.5920    10.4920    14.7900 
   69.1250   -16.1900     2.2980    79.4100    23.7300    25.4300    12.9700    17.9030 
   69.2500   -16.3090     2.4110    78.1780    23.9040    29.8760    15.3940    20.8840 
   69.3750   -16.6160     2.5210    77.9740    24.0470    31.0840    16.5100    21.8030 
   69.5000   -17.1020     2.5910    76.9280    24.1030    31.0520    15.8180    20.1030 
   69.6250   -17.8200     2.5970    77.5980    24.1070    30.2280    13.7730    16.8080 
   69.7500   -18.6820     2.5500    81.4680    24.1070    22.7560    11.3210    13.4610 
   69.8750   -19.6310     2.4600    85.5250    24.0890    13.5510     9.2710    11.1290 
   70.0000   -20.6100     2.3420    87.1830    24.0140     8.6290     7.8120     9.7590 
   70.1250   -21.5350     2.2320    85.3130    23.8380     8.8680     6.9250     9.1490 
   70.2500   -22.3150     2.1500    81.5760    23.6730     9.4560     6.5180     9.0580 
   70.3750   -22.8880     2.0970    81.4590    23.5520     9.9000     6.4920     9.2680 
   70.5000   -23.3000     2.0650    84.9530    23.4910     9.9000     6.6050     9.5120 
   70.6250   -23.5440     2.0540    88.4150    23.5430     9.9000     6.7200     9.6890 
   70.7500   -23.5960     2.0570    89.4170    23.6140     9.9000     6.7750     9.8100 
   70.8750   -23.4690     2.0630    88.5730    23.6550     9.9000     6.7810     9.8990 
   71.0000   -23.2200     2.0690    86.9250    23.6650     9.9000     6.7790     9.9700 
   71.1250   -22.8890     2.0740    85.7400    23.6010    10.2620     6.7810    10.0220 
   71.2500   -22.4400     2.0810    85.1520    23.4250     9.6030     6.7980    10.0890 
   71.3750   -21.9170     2.0840    82.6640    23.1890     9.3900     6.8420    10.2190 
   71.5000   -21.3600     2.0810    80.1430    23.0200     9.2900     6.8800    10.2950 
   71.6250   -20.6750     2.0790    82.4440    23.0490     9.5530     6.8280    10.1120 
   71.7500   -20.0090     2.0870    88.9650    23.1790    10.0480     6.5990     9.5460 
   71.8750   -19.4840     2.1110    91.3690    23.4110     9.9140     6.1420     8.6910 
   72.0000   -19.0660     2.1480    90.3280    23.6900     8.4200     5.5900     7.9090 
   72.1250   -18.7740     2.1880    92.2800    23.8800     6.5210     5.0880     7.4340 
   72.2500   -18.7160     2.2230    98.4410    23.9200     5.8490     4.7510     7.3540 
   72.3750   -18.8860     2.2440   102.4410    23.9240     7.2180     4.6790     7.6690 
