~V
VERS. 2.00: Ver 2.00
~W
STRT.M 50.0000:
STOP.M 237.0000:
STEP.M 0.1250:
NULL. -999.2500:
UWI. F10006:
~C
DEPT.M :
GR.API :
RML.OHMM :
RI. :
RXO.OHMM :
CALI.CM :
DEN.GM/CC :
SP.MV :
~A
# ...
   72.5000   117.8880     7.5030     6.3490     5.8590    18.1010     2.2950   -24.3810 
   72.6250   117.3880     7.6030     6.4670     6.1350    17.6260     2.2990   -24.2400 
   72.7500   113.8280     7.6070     6.5730     6.4760    17.2270     2.3030   -24.0780 
   72.8750   111.2410     7.5030     6.6360     6.6220    16.8660     2.3040   -23.9060 
   73.0000   111.3210     7.3040     6.6410     6.6120    16.5380     2.3050   -23.7200 
   73.1250   111.0100     7.1160     6.5830     6.5680    16.3290     2.3100   -23.5480 
   73.2500   108.9000     6.9800     6.4880     6.7450    16.2650     2.3170   -23.3700 
   73.3750   107.1190     6.8880     6.3600     6.8710    16.2680     2.3200   -23.1150 
   73.5000   104.5080     6.7930     6.1910     6.9360    16.3170     2.3180   -22.7830 
   73.6250   100.3210     6.6100     5.9640     6.7440    16.4700     2.3180   -22.4450 
   73.7500    99.2560     6.3400     5.7240     6.5860    16.7760     2.3250   -22.1440 
   73.8750   101.8060     6.1280     5.5700     6.5140    17.3230     2.3380   -21.8930 
   74.0000   103.9170     6.2520     5.6490     6.4940    18.0130     2.3400   -21.6270 
   74.1250    98.9900     7.1140     6.2180     7.1780    18.7520     2.3080   -21.3260 
   74.2500    89.0130     8.7740     7.3770     9.3820    19.4690     2.2430   -21.0460 
   74.3750    76.9700    11.2060     9.2150    12.5260    20.2090     2.1620   -20.8070 
   74.5000    66.7270    14.1630    11.6860    14.5960    20.8990     2.0930   -20.6290 
   74.6250    62.9200    17.0800    14.4960    14.6500    21.2980     2.0590   -20.5080 
   74.7500    63.0680    19.3500    17.0290    14.8980    21.4610     2.0530   -20.4140 
   74.8750    65.0040    20.6990    18.8500    15.3810    21.5150     2.0620   -20.3020 
   75.0000    66.2740    21.2380    19.8380    15.5090    21.5640     2.0720   -20.2480 
   75.1250    64.8010    21.3270    20.1320    15.5110    21.6300     2.0780   -20.3040 
   75.2500    61.7040    21.3990    20.1680    15.6580    21.6930     2.0800   -20.3720 
   75.3750    60.0490    21.5560    20.1190    15.6930    21.7450     2.0830   -20.4680 
   75.5000    61.3750    21.7250    20.0230    15.5290    21.7860     2.0910   -20.5870 
   75.6250    63.6990    21.6600    19.7670    15.2450    21.8430     2.1060   -20.7150 
   75.7500    64.8170    21.1590    19.2150    14.7630    21.8990     2.1210   -20.8300 
   75.8750    65.4910    20.1230    18.2750    14.0790    21.9680     2.1340   -20.9590 
   76.0000    66.3290    18.6460    16.9980    12.5400    22.0720     2.1510   -21.0730 
   76.1250    67.5010    17.0630    15.6090    10.5110    22.1840     2.1800   -21.1580 
   76.2500    69.5510    15.8100    14.4250     9.2690    22.2750     2.2180   -21.2850 
   76.3750    72.8980    15.1310    13.6390     9.0860    22.2980     2.2550   -21.4130 
   76.5000    76.0280    15.0490    13.3050     9.4840    22.2690     2.2750   -21.4910 
   76.6250    77.5090    15.3540    13.3410    10.2100    22.2160     2.2690   -21.5350 
   76.7500    77.1750    15.5580    13.4100    10.7090    22.2020     2.2550   -21.5630 
   76.8750    76.1640    15.3310    13.2540    10.7400    22.2480     2.2460   -21.5690 
   77.0000    76.3910    14.5770    12.7520    10.1630    22.3860     2.2440   -21.5380 
   77.1250    77.4850    13.5150    11.9990     9.5590    22.6280     2.2410   -21.4620 
   77.2500    78.7540    12.6850    11.3540     9.4220    22.8340     2.2350   -21.3530 
   77.3750    79.3120    12.4910    11.1160     9.6200    22.9690     2.2340   -21.2490 
   77.5000    77.7490    13.1850    11.5120     9.9600    23.0260     2.2470   -21.1440 
   77.6250    73.8220    14.9710    12.7990    11.6440    23.0520     2.2670   -20.9850 
   77.7500    69.4750    17.4720    14.8100    14.8380    23.0810     2.2790   -20.7890 
   77.8750    67.8870    20.2510    17.2950    18.9130    23.2270     2.2750   -20.5840 
   78.0000    67.1290    22.7490    19.8060    21.6550    23.6050     2.2550   -20.3730 
   78.1250    64.4030    24.3380    21.7210    22.2820    24.1570     2.2260   -20.1890 
   78.2500    62.5240    25.0360    22.8470    22.3190    24.3960     2.1930   -20.0290 
   78.3750    63.3140    25.0570    23.2390    22.6470    24.4210     2.1590   -19.8660 
   78.5000    65.8890    24.7080    23.1030    23.3070    24.3920     2.1280   -19.7170 
   78.6250    65.6810    24.2110    22.6010    23.3750    24.3960     2.1120   -19.6920 
   78.7500    63.7250    23.6720    21.9100    22.5420    24.4110     2.1120   -19.7520 
   78.8750    64.0020    23.0990    21.0960    20.7810    24.4260     2.1200   -19.8310 
   79.0000    67.1290    22.4990    20.2280    18.7040    24.4250     2.1290   -19.9460 
   79.1250    69.9140    21.8580    19.3730    18.0790    24.4140     2.1360   -20.0680 
   79.2500    70.5880    21.1360    18.5520    17.5050    24.4160     2.1440   -20.1920 
   79.3750    70.0080    20.2790    17.7490    16.5220    24.3920     2.1560   -20.3530 
   79.5000    70.7410    19.2820    16.9560    15.3660    24.3100     2.1740   -20.5420 
   79.6250    72.1900    18.2680    16.2450    14.3590    24.2210     2.1980   -20.6570 
   79.7500    72.7760    17.4850    15.7380    13.3390    24.1380     2.2320   -20.7050 
   79.8750    73.0790    17.1490    15.5750    12.9440    24.0360     2.2700   -20.7390 
   80.0000    74.2620    17.3680    15.8550    13.4980    23.9550     2.2990   -20.7890 
   80.1250    75.3250    18.1370    16.6640    17.0220    23.9090     2.3000   -20.8720 
   80.2500    74.3260    19.1110    17.7850    21.5910    23.8980     2.2740   -20.9370 
   80.3750    71.1830    19.9970    18.9750    22.6420    23.8960     2.2360   -20.9700 
   80.5000    68.7460    20.6040    19.9760    22.0640    23.8940     2.2030   -21.0060 
   80.6250    70.9750    20.9140    20.5880    21.7990    23.8860     2.1900   -21.0940 
   80.7500    74.7050    21.1480    20.9220    21.5760    23.8760     2.1910   -21.2400 
   80.8750    73.7150    21.3700    21.0670    20.9840    23.8820     2.1980   -21.4220 
   81.0000    67.5010    21.3770    20.9460    20.8340    23.8910     2.2090   -21.6020 
   81.1250    65.2360    20.5570    20.1090    21.0260    23.8960     2.2280   -21.7730 
   81.2500    70.3090    18.6870    18.3550    19.7370    23.8960     2.2550   -22.0090 
   81.3750    79.0260    15.9510    15.8050    15.6500    23.8980     2.2870   -22.2910 
   81.5000    87.9310    12.9250    12.9410    10.1850    23.9080     2.3180   -22.5820 
   81.6250    93.2130    10.4590    10.4270     7.0430    23.9220     2.3390   -22.8600 
   81.7500    92.4820     8.8740     8.5650     6.5980    23.9210     2.3480   -23.1050 
   81.8750    87.3430     8.0350     7.3970     7.0570    23.9190     2.3450   -23.3090 
   82.0000    83.6350     7.6590     6.8310     7.0860    23.9500     2.3330   -23.4580 
   82.1250    84.8270     7.6330     6.7810     6.5740    24.0340     2.3110   -23.5140 
   82.2500    87.8840     7.8360     7.0280     6.6220    24.1930     2.2830   -23.4900 
   82.3750    90.4460     8.2110     7.4750     6.6830    24.3800     2.2530   -23.4070 
   82.5000    89.8540     8.7390     8.0460     7.2710    24.4950     2.2290   -23.2720 
   82.6250    84.7980     9.3770     8.6580     8.1680    24.5450     2.2190   -23.0690 
   82.7500    78.8480     9.9540     9.1770     9.0410    24.5970     2.2270   -22.8370 
   82.8750    76.0450    10.2740     9.4570     9.1340    24.6600     2.2510   -22.6060 
   83.0000    77.8880    10.1760     9.3740     8.4590    24.6980     2.2820   -22.3910 
   83.1250    82.3380     9.5550     8.8380     7.5490    24.7010     2.3080   -22.1820 
   83.2500    84.6150     8.6330     8.0300     6.6550    24.6690     2.3200   -21.9560 
   83.3750    84.9860     7.6540     7.1410     6.0990    24.6090     2.3210   -21.7250 
   83.5000    86.1670     6.9090     6.4050     5.8130    24.5520     2.3240   -21.5150 
   83.6250    87.8870     6.8240     6.1450     5.9680    24.5160     2.3530   -21.3270 
