~V
VERS. 2.00: Ver 2.00
~W
STRT.M 50.0000:
STOP.M 300.0000:
STEP.M 0.1250:
NULL. -999.2500:
UWI. F10041:
~C
DEPT.M :
DEN.GM/CC :
GR.API :
RML.OHMM :
RI. :
RXO.OHMM :
CALI.CM :
SP.MV :
~A
# ...
  275.0000     2.2610    38.1460    44.9180    51.1840   118.1950    23.8920    -9.6350 
  275.1250     2.1740    30.3940    27.4180    30.8630    79.9610    23.7830    -9.3050 
  275.2500     2.1710    27.9490    16.7170    18.9470    55.8920    23.7090    -8.9720 
  275.3750     2.2560    28.4390    10.7240    12.7940    42.6620    23.7020    -8.7760 
  275.5000     2.3950    28.9570     7.9910    10.0080    24.5990    23.6350    -8.7360 
  275.6250     2.5300    26.5520     7.4120     9.3170    11.2500    23.4820    -8.6850 
  275.7500     2.6100    21.8160     7.5730     9.5860     6.4240    23.2460    -8.6040 
  275.8750     2.6230    18.2450     8.0050    10.2140     8.1560    23.1440    -8.6190 
  276.0000     2.5800    17.7560     8.2250    10.5620    18.7610    23.2160    -8.6990 
  276.1250     2.5020    18.9570     7.8540    10.0050    18.3840    23.2170    -8.7350 
  276.2500     2.4170    19.5130     7.2620     8.7060     9.2750    22.9820    -8.7050 
  276.3750     2.3400    20.2890     6.6690     7.0930     5.0110    22.4400    -8.6090 
  276.5000     2.2830    22.3830     5.9820     5.6210     4.0620    21.5730    -8.3970 
  276.6250     2.2560    25.3010     5.1470     4.6270     3.7090    20.7730    -8.0150 
  276.7500     2.2510    27.9710     4.4830     4.0470     3.5840    20.0150    -7.5640 
  276.8750     2.2600    30.0610     4.1730     3.7730     3.6840    19.2560    -7.0750 
  277.0000     2.2690    30.9150     4.0750     3.6810     3.8300    18.6710    -6.6240 
  277.1250     2.2700    30.8510     4.0750     3.6810     3.8800    18.3300    -6.2850 
  277.2500     2.2620    30.6160     4.1070     3.7100     3.8930    18.1750    -6.0110 
  277.3750     2.2470    30.0570     4.1520     3.7520     3.8460    18.1650    -5.7280 
  277.5000     2.2350    29.0150     4.1990     3.7960     3.8210    18.2860    -5.4300 
  277.6250     2.2330    29.6150     4.2420     3.8350     3.7990    18.6150    -5.2720 
  277.7500     2.2390    32.4660     4.2860     3.8760     3.7910    19.0400    -5.2160 
  277.8750     2.2490    35.9580     4.3470     3.9320     3.7750    19.5210    -5.1550 
  278.0000     2.2620    38.4890     4.4340     4.0130     3.8230    19.9150    -5.0780 
  278.1250     2.2740    39.4670     4.5490     4.1190     3.7590    20.1140    -5.1170 
  278.2500     2.2840    39.3760     4.6680     4.2300     3.8550    20.2920    -5.2630 
  278.3750     2.2920    38.0970     4.7710     4.3250     4.0450    20.6240    -5.4230 
  278.5000     2.2960    36.4970     4.8400     4.3890     4.1480    21.2340    -5.5870 
  278.6250     2.2970    35.4810     4.8670     4.4140     4.3600    22.0100    -5.7580 
  278.7500     2.2960    35.5410     4.8690     4.4160     4.4810    22.5090    -5.9290 
  278.8750     2.2950    36.9430     4.8590     4.4060     4.4570    22.7070    -6.0870 
  279.0000     2.2940    39.0290     4.8500     4.3980     4.4460    22.8160    -6.1530 
  279.1250     2.2980    40.8500     4.8530     4.4010     4.3900    22.9850    -6.0680 
  279.2500     2.3070    41.3400     4.8670     4.4140     4.4340    23.0600    -5.9290 
  279.3750     2.3190    39.9620     4.8860     4.4320     4.4640    23.0790    -5.8050 
  279.5000     2.3230    36.8480     4.8980     4.4420     4.3830    23.0800    -5.6870 
  279.6250     2.3090    33.3110     4.8780     4.4240     4.1480    23.0820    -5.5520 
  279.7500     2.2840    31.1920     4.8100     4.3610     4.1190    23.1130    -5.3450 
  279.8750     2.2600    29.7570     4.6890     4.2490     4.2320    23.2200    -5.0710 
  280.0000     2.2490    28.8740     4.5240     4.0960     4.1380    23.4460    -4.8320 
  280.1250     2.2550    28.8540     4.3500     3.9350     3.7390    23.5630    -4.6740 
  280.2500     2.2680    28.8760     4.2040     3.8000     3.5870    23.6240    -4.5370 
  280.3750     2.2810    28.2760     4.1030     3.7060     3.6210    23.6960    -4.3950 
  280.5000     2.2890    26.9690     4.0430     3.6510     3.6550    23.8200    -4.2850 
  280.6250     2.2930    25.2980     4.0160     3.6260     3.6140    23.9150    -4.2290 
  280.7500     2.2960    24.7760     4.0100     3.6210     3.6330    23.9630    -4.2070 
  280.8750     2.3010    26.1410     4.0310     3.6400     3.7280    23.9760    -4.2370 
  281.0000     2.3070    27.8990     4.0790     3.6850     3.7630    23.9790    -4.3170 
  281.1250     2.3140    28.2530     4.1420     3.7430     3.7430    23.9780    -4.3340 
  281.2500     2.3190    28.5090     4.1940     3.7910     3.7480    23.9760    -4.2890 
  281.3750     2.3200    29.2430     4.2230     3.8170     3.8130    23.9770    -4.2620 
  281.5000     2.3180    29.3430     4.2290     3.8230     3.8690    23.9810    -4.3040 
  281.6250     2.3150    27.8570     4.2210     3.8160     3.9430    23.9970    -4.3830 
  281.7500     2.3160    26.5170     4.2080     3.8040     3.8480    24.0170    -4.4210 
  281.8750     2.3240    26.0610     4.1920     3.7890     3.6550    24.0350    -4.4390 
  282.0000     2.3370    26.1400     4.1760     3.7740     3.5530    24.0350    -4.4740 
  282.1250     2.3490    25.7520     4.1700     3.7680     3.6540    24.0190    -4.5980 
  282.2500     2.3550    25.1140     4.1770     3.7750     3.8420    23.9940    -4.7850 
  282.3750     2.3520    24.8720     4.1970     3.7940     4.0260    23.9810    -4.9580 
  282.5000     2.3420    24.9270     4.2160     3.8110     4.1140    23.9770    -5.0520 
  282.6250     2.3260    25.6220     4.2100     3.8060     3.8020    23.9860    -5.0740 
  282.7500     2.3100    27.0840     4.1700     3.7690     3.8980    24.0100    -5.1370 
  282.8750     2.3010    28.2200     4.1010     3.7050     4.3070    24.0340    -5.2190 
  283.0000     2.3060    27.8170     4.0280     3.6370     4.0080    24.0440    -5.2790 
  283.1250     2.3270    26.3240     3.9990     3.6100     3.8010    24.0410    -5.3050 
  283.2500     2.3490    25.8800     4.0380     3.6460     3.8550    24.0200    -5.3230 
  283.3750     2.3630    26.9460     4.1390     3.7390     4.5740    23.9690    -5.3780 
  283.5000     2.3620    28.2950     4.2660     3.8580     5.7230    23.8850    -5.4610 
  283.6250     2.3510    28.8130     4.3640     3.9480     7.1790    23.7860    -5.5290 
  283.7500     2.3430    28.6600     4.4000     3.9810     5.9650    23.6480    -5.5870 
  283.8750     2.3420    27.6550     4.3760     3.9590     4.3970    23.5150    -5.6500 
  284.0000     2.3480    26.5990     4.3150     3.9030     3.7790    23.4450    -5.7130 
  284.1250     2.3580    26.7670     4.2500     3.8430     3.7520    23.5070    -5.8150 
  284.2500     2.3680    27.3660     4.1990     3.7950     3.8360    23.7140    -5.8890 
  284.3750     2.3780    26.8660     4.1600     3.7590     3.9740    24.0070    -5.8820 
  284.5000     2.3870    25.5320     4.1300     3.7320     4.1490    24.1780    -5.8510 
  284.6250     2.3940    24.9070     4.1080     3.7110     4.0270    24.1320    -5.9070 
  284.7500     2.3980    25.0440     4.0980     3.7020     3.9180    23.9940    -5.9950 
  284.8750     2.3990    25.6270     4.1080     3.7110     3.8110    23.8470    -6.0500 
  285.0000     2.3980    26.6390     4.1410     3.7420     3.8190    23.7690    -6.0330 
  285.1250     2.3960    27.5450     4.1950     3.7910     3.8460    23.7720    -5.9090 
  285.2500     2.3970    27.4100     4.2560     3.8480     3.9100    23.7940    -5.8350 
  285.3750     2.4000    26.3530     4.3170     3.9050     4.0520    23.8510    -5.8700 
  285.5000     2.4080    26.5990     4.3740     3.9580     4.1500    23.9620    -5.9330 
  285.6250     2.4160    29.0200     4.4310     4.0110     4.2140    24.0430    -5.9310 
  285.7500     2.4210    30.6360     4.4930     4.0670     4.1670    24.0410    -5.8820 
  285.8750     2.4170    30.1680     4.5510     4.1210     4.1030    24.0440    -5.8190 
  286.0000     2.4030    28.8890     4.5880     4.1550     4.0340    24.0900    -5.7820 
  286.1250     2.3830    29.0970     4.5770     4.1460     3.9930    24.1840    -5.7440 
