~V
VERS. 2.00: Ver 2.00
~W
STRT.M 55.0000:
STOP.M 314.0000:
STEP.M 0.1250:
NULL. -999.2500:
UWI. F10048:
~C
DEPT.M :
DEN.GM/CC :
GR.API :
RML.OHMM :
RI. :
RXO.OHMM :
CALI.CM :
SP.MV :
~A
# ...
  291.2500     2.3350    66.2670     8.3900     8.2030    10.4030    23.3700   -12.3910 
  291.3750     2.3240    61.8920     7.4330     7.3770     7.9960    23.3470   -11.7420 
  291.5000     2.3220    59.4400     6.8340     6.8160     6.2110    23.3180   -11.1550 
  291.6250     2.3320    60.0800     6.5960     6.5400     6.1160    23.3050   -10.7200 
  291.7500     2.3500    61.2040     6.4410     6.3620     6.7900    23.2890   -10.3370 
  291.8750     2.3710    60.9420     6.1630     6.1260     7.3090    23.2700    -9.9170 
  292.0000     2.3940    58.2110     5.6740     5.7300     6.8790    23.2590    -9.4270 
  292.1250     2.4150    51.7510     5.0250     5.1600     5.8280    23.2560    -8.8980 
  292.2500     2.4330    43.1060     4.4300     4.5550     4.4560    23.2550    -8.4600 
  292.3750     2.4430    34.1430     4.0110     4.0320     3.6970    23.2540    -8.1130 
  292.5000     2.4450    27.5860     3.7900     3.6610     3.4450    23.2540    -7.7670 
  292.6250     2.4420    24.9180     3.7500     3.4730     3.3580    23.2540    -7.3440 
  292.7500     2.4370    24.5420     3.7010     3.4040     3.2240    23.2540    -6.9400 
  292.8750     2.4330    24.9600     3.7010     3.4120     3.1050    23.2540    -6.6410 
  293.0000     2.4300    25.3990     3.7410     3.4610     3.0610    23.2540    -6.4850 
  293.1250     2.4270    26.4750     3.8000     3.5330     3.1410    23.2540    -6.4590 
  293.2500     2.4210    28.7800     3.8720     3.6110     3.3030    23.2540    -6.4460 
  293.3750     2.4140    30.5380     3.9490     3.6840     3.4930    23.2540    -6.4040 
  293.5000     2.4060    30.3480     4.0120     3.7330     3.6380    23.2540    -6.3630 
  293.6250     2.4020    29.7370     4.0200     3.7320     3.6360    23.2540    -6.4080 
  293.7500     2.4010    30.5250     3.9610     3.6810     3.4840    23.2540    -6.4760 
  293.8750     2.4040    30.9160     3.8900     3.5930     3.2660    23.2540    -6.5450 
  294.0000     2.4080    28.5520     3.8350     3.4960     3.1290    23.2540    -6.5830 
  294.1250     2.4110    25.2470     3.7920     3.4320     3.1380    23.2540    -6.5750 
  294.2500     2.4110    24.3830     3.7850     3.4150     3.2110    23.2540    -6.5680 
  294.3750     2.4090    26.2200     3.8140     3.4380     3.2890    23.2540    -6.5740 
  294.5000     2.4070    29.4420     3.8530     3.4730     3.3590    23.2570    -6.6260 
  294.6250     2.4060    31.4230     3.8650     3.4860     3.3790    23.2690    -6.6650 
  294.7500     2.4100    30.8290     3.8440     3.4630     3.3900    23.2960    -6.6290 
  294.8750     2.4170    28.3540     3.7830     3.4120     3.3650    23.3410    -6.5650 
  295.0000     2.4240    26.1200     3.6830     3.3510     3.2920    23.3950    -6.5460 
  295.1250     2.4260    25.9800     3.5710     3.2970     3.2400    23.4430    -6.5920 
  295.2500     2.4210    26.2820     3.4800     3.2550     3.2090    23.4610    -6.6350 
  295.3750     2.4130    25.6930     3.4350     3.2210     3.2150    23.4640    -6.6870 
  295.5000     2.4050    24.3650     3.4250     3.1970     3.2600    23.4640    -6.7480 
  295.6250     2.4050    23.0750     3.4760     3.1960     3.3490    23.4640    -6.8290 
  295.7500     2.4100    23.1120     3.5970     3.2360     3.4740    23.4640    -7.0320 
  295.8750     2.4170    25.3240     3.7950     3.3380     3.6740    23.4640    -7.2990 
  296.0000     2.4210    29.0320     4.0480     3.5080     3.9180    23.4640    -7.5410 
  296.1250     2.4160    33.5130     4.3370     3.7400     4.2390    23.4640    -7.7900 
  296.2500     2.4060    38.7050     4.6170     3.9830     4.6370    23.4620    -8.1150 
  296.3750     2.3950    43.5880     4.8330     4.1840     4.9970    23.4550    -8.4810 
  296.5000     2.3870    45.3910     4.9350     4.2920     5.1500    23.4360    -8.8410 
  296.6250     2.3860    42.7610     4.8740     4.2600     5.0830    23.4020    -9.1720 
  296.7500     2.3910    38.8900     4.6980     4.1260     4.8070    23.3620    -9.4390 
  296.8750     2.4030    35.3090     4.4740     3.9380     4.3330    23.3380    -9.6970 
  297.0000     2.4170    32.4420     4.2760     3.7530     3.9350    23.3530   -10.0010 
  297.1250     2.4310    31.2800     4.1860     3.6390     3.8920    23.4210   -10.3410 
  297.2500     2.4390    31.7300     4.2150     3.6150     4.0440    23.5060   -10.6540 
  297.3750     2.4410    32.9760     4.3480     3.6870     4.2560    23.5730   -10.9300 
  297.5000     2.4340    35.2360     4.5540     3.8450     4.5220    23.6040   -11.1910 
  297.6250     2.4200    38.8360     4.8000     4.0750     4.8620    23.6170   -11.5020 
  297.7500     2.4010    42.0460     5.0510     4.3340     5.2400    23.6300   -11.8870 
  297.8750     2.3800    44.2690     5.2860     4.5890     5.5670    23.6480   -12.2990 
  298.0000     2.3620    47.0440     5.4820     4.8050     5.8280    23.6660   -12.6620 
  298.1250     2.3570    51.2140     5.5860     4.9350     6.0040    23.6730   -12.9350 
  298.2500     2.3660    54.3250     5.5730     4.9730     6.1130    23.6750   -13.1410 
  298.3750     2.3870    53.9330     5.4400     4.9230     6.0470    23.6750   -13.2330 
  298.5000     2.4110    50.1880     5.2170     4.8060     5.6810    23.6750   -13.1690 
  298.6250     2.4280    45.4660     4.9660     4.6500     5.2120    23.6750   -12.9470 
  298.7500     2.4360    41.7150     4.7490     4.4930     4.8720    23.6750   -12.6380 
  298.8750     2.4380    38.8790     4.5970     4.3590     4.6970    23.6760   -12.2500 
  299.0000     2.4370    36.6660     4.5100     4.2610     4.6110    23.6810   -11.8140 
  299.1250     2.4360    36.3820     4.4730     4.2070     4.4790    23.6990   -11.3640 
  299.2500     2.4370    36.8680     4.4460     4.1820     4.4230    23.7330   -10.9410 
  299.3750     2.4410    36.5430     4.4100     4.1730     4.4100    23.7830   -10.6190 
  299.5000     2.4480    36.1590     4.3810     4.1650     4.4100    23.8400   -10.4040 
  299.6250     2.4570    36.8630     4.3760     4.1460     4.3630    23.8790   -10.2390 
  299.7500     2.4650    37.7230     4.3760     4.1180     4.2950    23.9020   -10.0440 
  299.8750     2.4690    37.5170     4.3750     4.0840     4.2360    23.9210    -9.8390 
  300.0000     2.4680    36.4490     4.3740     4.0520     4.2000    23.9450    -9.6960 
  300.1250     2.4620    35.2870     4.3720     4.0250     4.2200    23.9660    -9.6040 
  300.2500     2.4550    34.9650     4.3730     4.0030     4.2360    23.9800    -9.5100 
  300.3750     2.4480    36.2310     4.3850     3.9880     4.2270    23.9840    -9.4330 
  300.5000     2.4390    37.5940     4.4120     3.9910     4.2110    23.9710    -9.4150 
  300.6250     2.4270    37.6500     4.4670     4.0290     4.2340    23.9350    -9.4640 
  300.7500     2.4140    37.3260     4.5410     4.1010     4.4550    23.8840    -9.5620 
  300.8750     2.4050    37.6710     4.6130     4.1990     4.8350    23.8100    -9.6680 
  301.0000     2.4060    37.8230     4.6830     4.2980     5.1540    23.7120    -9.7810 
  301.1250     2.4180    35.5810     4.7250     4.3630     5.2830    23.6200    -9.8830 
  301.2500     2.4310    33.0550     4.7270     4.3730     5.1270    23.5480    -9.9700 
  301.3750     2.4410    33.2840     4.7020     4.3320     5.1540    23.5080   -10.0620 
  301.5000     2.4470    36.0340     4.6900     4.2730     5.1600    23.5010   -10.1600 
  301.6250     2.4510    37.7080     4.7780     4.2760     4.9950    23.5050   -10.2660 
  301.7500     2.4570    37.8160     5.0210     4.4110     4.8560    23.4800   -10.4010 
  301.8750     2.4640    38.2990     5.4540     4.7310     5.0810    23.3970   -10.6310 
  302.0000     2.4650    39.0210     6.0640     5.2440     5.7560    23.2720   -10.9160 
  302.1250     2.4580    38.1130     6.7980     5.9240     6.7640    23.1750   -11.2020 
  302.2500     2.4430    36.6560     7.5720     6.6400     7.9410    23.1850   -11.5090 
  302.3750     2.4270    35.7940     8.2640     7.2810     9.4090    23.3170   -11.8290 
