~V
VERS. 2.00: Ver 2.00
~W
STRT.M 51.0000:
STOP.M 242.0000:
STEP.M 0.1250:
NULL. -999.2500:
UWI. F10056:
~C
DEPT.M :
GR.API :
RML.OHMM :
RI. :
RXO.OHMM :
CALI.CM :
SP.MV :
DEN.GM/CC :
~A
# ...
  118.5000    76.8310     6.1250     5.5840     5.5250    25.1020    -0.9680     2.2980 
  118.6250    80.0410     6.2340     5.6360     5.7420    25.1050    -1.1010     2.2890 
  118.7500    80.7790     6.2760     5.6200     6.0740    25.1170    -1.1710     2.2870 
  118.8750    80.5170     6.2180     5.5200     6.0770    25.1290    -1.1950     2.2960 
  119.0000    82.5320     6.0650     5.3460     5.5610    25.1430    -1.2520     2.3150 
  119.1250    86.0660     5.8570     5.1320     5.1800    25.1460    -1.4100     2.3350 
  119.2500    86.9410     5.6490     4.9260     5.0930    25.1500    -1.5910     2.3480 
  119.3750    84.1230     5.4900     4.7660     5.3340    25.1430    -1.6600     2.3490 
  119.5000    80.7470     5.4810     4.7240     5.4910    25.1230    -1.6590     2.3400 
  119.6250    79.7220     5.8650     4.9600     5.6240    25.0970    -1.7400     2.3350 
  119.7500    78.2660     6.7700     5.5570     5.7860    25.0640    -1.9530     2.3500 
  119.8750    74.2070     8.2880     6.5930     6.8470    24.9770    -2.3240     2.3870 
  120.0000    67.5500    10.3360     8.0650    10.2070    24.7950    -2.8240     2.4350 
  120.1250    61.9970    12.4280     9.7270    19.7160    24.5610    -3.4900     2.4590 
  120.2500    58.8470    13.7320    10.9520    24.0870    24.4000    -4.3380     2.4400 
  120.3750    57.0900    13.7740    11.2870    16.5960    24.3160    -5.3540     2.3780 
  120.5000    57.1860    12.7850    10.7870    10.8220    24.3720    -6.4210     2.2930 
  120.6250    59.7220    11.5320     9.9260     9.2150    24.6480    -7.4110     2.2170 
  120.7500    62.1220    10.6600     9.2140     8.9150    24.9750    -8.3050     2.1640 
  120.8750    63.3120    10.2910     8.8050     8.8680    25.0690    -9.0370     2.1330 
  121.0000    64.7120    10.3140     8.6900     9.0990    24.9520    -9.6600     2.1170 
  121.1250    67.1670    10.6310     8.8510     9.3100    24.8460   -10.0270     2.1190 
  121.2500    66.4950    11.1430     9.2150     9.4320    24.6990   -10.1780     2.1490 
  121.3750    61.6210    11.8020     9.7470     9.5160    24.4950   -10.1610     2.2120 
  121.5000    56.4010    12.4770    10.3480     9.5410    24.4020   -10.0870     2.2980 
  121.6250    54.9440    12.8640    10.7900     9.1020    24.4500   -10.0490     2.3710 
  121.7500    55.4250    12.7540    10.8690     8.3760    24.4600   -10.0050     2.4000 
  121.8750    56.0060    12.1400    10.5240     7.8930    24.2670    -9.9770     2.3790 
  122.0000    57.1570    11.2670     9.8960     8.2190    24.1200    -9.8970     2.3250 
  122.1250    58.4060    10.5320     9.2550     8.5230    24.1930    -9.8480     2.2630 
  122.2500    58.1120    10.1330     8.7960     8.5870    24.4760    -9.8700     2.2130 
  122.3750    56.5030    10.0250     8.5420     8.5860    24.8490    -9.9170     2.1770 
  122.5000    55.7430     9.9630     8.3700     8.4560    25.2300    -9.8090     2.1570 
  122.6250    57.7860     9.5560     8.0290     8.2860    25.2940    -9.3670     2.1640 
  122.7500    61.0770     8.7240     7.4210     8.1170    25.2560    -8.6500     2.2000 
  122.8750    66.8140     7.6370     6.6300     7.4070    25.2080    -7.6900     2.2570 
  123.0000    76.0370     6.5840     5.8420     5.9030    25.2140    -6.6920     2.3140 
  123.1250    82.4870     5.8720     5.2680     4.8150    25.2900    -5.7320     2.3360 
  123.2500    81.3250     5.5540     4.9660     4.7310    25.5410    -4.8400     2.3140 
  123.3750    75.7940     5.5940     4.9360     5.0850    26.0700    -4.0330     2.2610 
  123.5000    71.9240     5.8840     5.1290     5.1750    26.7350    -3.4200     2.2040 
  123.6250    72.7020     6.2600     5.4570     5.6760    26.9630    -3.1050     2.1780 
  123.7500    76.4430     6.5320     5.7590     6.0910    26.6850    -2.9830     2.1860 
  123.8750    81.9780     6.6160     5.9370     6.2020    26.2390    -3.0440     2.2190 
  124.0000    85.3920     6.5300     5.9670     5.8430    25.8680    -3.1630     2.2590 
  124.1250    83.1450     6.3820     5.8940     5.7290    25.6490    -3.2580     2.2840 
  124.2500    78.7150     6.3050     5.8240     5.7240    25.5340    -3.2780     2.2920 
  124.3750    75.8020     6.3430     5.8090     5.7090    25.4750    -3.2520     2.2830 
  124.5000    76.9810     6.4640     5.8420     5.7180    25.4210    -3.2510     2.2650 
  124.6250    79.3200     6.5560     5.8520     6.0770    25.3570    -3.2630     2.2470 
  124.7500    79.7230     6.5400     5.7830     6.4000    25.3140    -3.2510     2.2410 
  124.8750    81.3880     6.4110     5.6310     6.0890    25.2490    -3.1830     2.2530 
  125.0000    85.8610     6.2040     5.4220     5.2940    25.1080    -3.0610     2.2840 
  125.1250    89.8940     5.9600     5.1870     4.8970    24.6230    -2.8830     2.3210 
  125.2500    88.8000     5.7600     4.9820     5.3910    24.2490    -2.7020     2.3460 
  125.3750    85.5540     5.7170     4.8910     6.7170    24.0980    -2.5310     2.3570 
  125.5000    83.2690     5.9780     5.0170     7.0570    24.1900    -2.3430     2.3690 
  125.6250    81.3130     6.7520     5.5160     6.5030    24.4690    -2.2070     2.4030 
  125.7500    78.4600     7.9820     6.3760     7.5930    24.6070    -2.2790     2.4510 
  125.8750    73.5500     9.5120     7.5340    14.0280    24.5360    -2.6090     2.4850 
  126.0000    68.0630    11.0200     8.8010    21.5290    24.3520    -3.1360     2.4800 
  126.1250    65.1640    11.9370     9.7670    21.2730    24.3180    -3.7320     2.4330 
  126.2500    63.7120    12.0260    10.1330    14.5520    24.4290    -4.2200     2.3870 
  126.3750    62.4960    11.3680     9.8450    11.3830    24.6400    -4.4940     2.3720 
  126.5000    64.9580    10.2870     9.0890    13.3280    24.8710    -4.5040     2.3900 
  126.6250    74.5810     9.1120     8.1150    17.2030    25.0120    -4.3140     2.4110 
  126.7500    84.5580     8.0520     7.1620    12.5440    25.0280    -3.9820     2.4070 
  126.8750    90.7820     7.1970     6.3410     7.3750    25.0080    -3.5390     2.3770 
  127.0000    93.5070     6.6070     5.7160     5.4940    25.0700    -2.9870     2.3360 
  127.1250    93.3390     6.3600     5.3580     5.5560    25.1280    -2.4310     2.3050 
  127.2500    90.3290     6.3760     5.2240     5.6640    25.1500    -1.9670     2.2900 
  127.3750    87.7890     6.5500     5.2660     5.8110    25.1520    -1.6860     2.2860 
  127.5000    87.5500     6.7390     5.3940     5.7420    25.1520    -1.6320     2.2850 
  127.6250    87.7050     6.8100     5.5040     6.0360    25.1480    -1.7110     2.2840 
  127.7500    88.3140     6.7730     5.5570     6.5470    25.1380    -1.8150     2.2780 
  127.8750    88.4290     6.7140     5.5850     6.8650    25.1360    -1.8520     2.2730 
  128.0000    86.4290     6.7630     5.6660     6.8700    25.1090    -1.8620     2.2780 
  128.1250    83.1090     7.0750     5.9110     6.7750    25.0270    -1.8090     2.3100 
  128.2500    81.1630     7.6220     6.3230     6.9240    24.9880    -1.7570     2.3660 
  128.3750    79.8710     8.2820     6.8320     8.1830    25.0630    -1.7100     2.4260 
  128.5000    76.4760     8.8220     7.2780    11.3450    25.1500    -1.6450     2.4610 
  128.6250    72.8790     8.9060     7.3980    11.6960    25.2290    -1.5670     2.4420 
  128.7500    73.9400     8.5290     7.1560     9.8950    25.3040    -1.4990     2.3840 
  128.8750    79.2340     7.8600     6.6570     7.8870    25.4320    -1.4370     2.3140 
  129.0000    85.1020     7.1390     6.0760     6.7970    25.5150    -1.3610     2.2620 
  129.1250    87.7250     6.5780     5.5790     6.4240    25.4620    -1.3200     2.2490 
  129.2500    88.8300     6.1950     5.2110     6.0650    25.3890    -1.2790     2.2630 
  129.3750    90.3680     5.9390     4.9570     5.6950    25.3130    -1.2130     2.2890 
  129.5000    92.6340     5.7530     4.7860     5.4520    25.2440    -1.1370     2.3140 
  129.6250    96.1010     5.6390     4.6960     5.2190    25.1850    -1.0440     2.3280 
