~V
VERS. 2.00: Ver 2.00
~W
STRT.M 50.0000:
STOP.M 286.0000:
STEP.M 0.1250:
NULL. -999.2500:
UWI. F10036:
~C
DEPT.M :
GR.API :
RML.OHMM :
RI. :
RXO.OHMM :
CALI.CM :
DEN.GM/CC :
SP.MV :
~A
# ...
  106.2500    83.4020     6.3710     5.9280     6.1510    23.0220     2.2890   -14.4890 
  106.3750    87.6360     6.3490     5.8720     5.9680    22.9690     2.3100   -14.2310 
  106.5000    90.5270     6.4280     5.8720     5.8410    23.0190     2.3350   -13.9620 
  106.6250    89.7930     6.5830     5.9440     6.2200    23.2080     2.3560   -13.7400 
  106.7500    87.2310     6.7030     6.0280     6.9220    23.3920     2.3660   -13.5360 
  106.8750    84.1510     6.6830     6.0490     6.9540    23.4240     2.3600   -13.2440 
  107.0000    82.5400     6.4740     5.9490     6.4630    23.3990     2.3410   -12.9760 
  107.1250    82.3690     6.0990     5.7090     6.1770    23.4680     2.3170   -12.7270 
  107.2500    80.6190     5.7240     5.4310     6.1030    23.6090     2.2960   -12.5120 
  107.3750    78.7570     5.5240     5.2440     5.9720    23.7170     2.2870   -12.3800 
  107.5000    79.5770     5.6660     5.2800     5.9350    23.7870     2.3000   -12.2570 
  107.6250    82.8260     6.2920     5.6730     6.1730    23.8170     2.3440   -12.1670 
  107.7500    84.1860     7.2490     6.3610     7.6060    23.8360     2.4060   -12.0660 
  107.8750    81.8280     8.3120     7.2200    11.4560    23.8680     2.4590   -12.0210 
  108.0000    77.5580     9.1230     8.0000    17.1150    23.8930     2.4780   -12.1000 
  108.1250    75.0470     9.2270     8.3150    15.2320    23.8830     2.4460   -12.3310 
  108.2500    75.6640     8.7730     8.1690    10.3080    23.8390     2.3870   -12.7410 
  108.3750    76.3740     8.1210     7.7820     8.0560    23.7500     2.3250   -13.3430 
  108.5000    75.1330     7.6300     7.4160     7.6560    23.6250     2.2770   -14.0830 
  108.6250    73.0240     7.5510     7.2860     8.2110    23.4880     2.2480   -15.0260 
  108.7500    69.9990     7.7880     7.3890     8.4620    23.4160     2.2280   -16.0690 
  108.8750    65.7590     8.1700     7.6520     8.6150    23.3860     2.2110   -17.1090 
  109.0000    62.5230     8.5200     7.9550     8.7920    23.3720     2.1970   -18.0840 
  109.1250    63.4890     8.7140     8.1720     8.9970    23.3830     2.1880   -18.9870 
  109.2500    66.4420     8.7650     8.2630     9.0220    23.4200     2.1850   -19.7020 
  109.3750    68.8880     8.6880     8.2200     8.9750    23.4390     2.1860   -20.1640 
  109.5000    69.6660     8.5190     8.0590     8.9850    23.4680     2.1910   -20.4330 
  109.6250    67.5970     8.2890     7.8200     8.9010    23.5440     2.1970   -20.3920 
  109.7500    66.4570     8.0480     7.5680     8.6780    23.5710     2.2020   -20.2060 
  109.8750    68.1460     7.8260     7.3270     8.3140    23.5180     2.2070   -20.0080 
  110.0000    70.6450     7.6380     7.0960     8.1680    23.3730     2.2090   -19.8060 
  110.1250    69.3400     7.4580     6.8660     8.3290    23.2050     2.2100   -19.6510 
  110.2500    65.8350     7.2670     6.6730     8.5320    23.0920     2.2100   -19.5480 
  110.3750    64.1690     7.1610     6.6200     8.5210    23.0310     2.2190   -19.4630 
  110.5000    64.1050     7.3990     6.8780     8.4810    23.0030     2.2450   -19.3080 
  110.6250    63.6410     8.5620     7.8420     9.6900    23.0190     2.3010   -19.1150 
  110.7500    63.0160    11.0400     9.8170    13.6440    23.0860     2.3790   -18.8730 
  110.8750    64.1960    15.1920    13.2130    21.2110    23.1290     2.4660   -18.5570 
  111.0000    66.5210    20.9360    18.2020    31.9820    23.1800     2.5460   -18.1890 
  111.1250    67.0390    26.6660    23.8020    43.6800    23.3290     2.6010   -17.8220 
  111.2500    65.8010    29.1740    27.0710    49.4420    23.4790     2.6180   -17.5220 
  111.3750    63.4890    26.8330    26.0250    45.0050    23.5600     2.5890   -17.4260 
  111.5000    60.9590    21.2900    21.6460    31.1360    23.5550     2.5120   -17.6030 
  111.6250    59.8670    15.7450    16.6800    18.1410    23.4620     2.4010   -18.1090 
  111.7500    59.3320    12.2570    12.8020    11.2730    23.3000     2.2920   -18.8060 
  111.8750    58.3140    10.3240    10.1960     9.2180    23.1340     2.2110   -19.6160 
  112.0000    58.4950     9.1230     8.6490     8.8200    22.9890     2.1670   -20.4150 
  112.1250    61.6850     8.8870     7.9930     8.7610    22.8320     2.1570   -21.1860 
  112.2500    65.1650     9.0550     7.8210     8.7460    22.6660     2.1600   -21.9200 
  112.3750    66.3050     9.2740     7.8760     8.6530    22.4900     2.1650   -22.4970 
  112.5000    65.7120     9.2920     7.9410     8.4900    22.3090     2.1660   -22.9200 
  112.6250    63.2020     9.1050     7.9580     8.1870    22.1610     2.1620   -23.1380 
  112.7500    60.0340     9.0150     8.0610     7.9080    22.0490     2.1620   -23.2360 
  112.8750    58.1850     9.2370     8.3830     7.6710    21.9880     2.1740   -23.2820 
  113.0000    57.9020     9.8190     8.9680     7.8250    21.9830     2.2020   -23.3320 
  113.1250    59.5700    10.5780     9.7070     9.7870    22.0420     2.2370   -23.2870 
  113.2500    62.5400    11.0970    10.2580    13.4220    22.1290     2.2600   -23.2130 
  113.3750    64.3960    11.0830    10.3270    14.0920    22.1940     2.2610   -23.1350 
  113.5000    63.0170    10.5200     9.8540    10.6350    22.2580     2.2390   -23.0650 
  113.6250    61.1360     9.6810     9.0780     8.9200    22.2510     2.2070   -22.9780 
  113.7500    61.3470     8.9640     8.3920     8.4640    22.1710     2.1830   -22.8820 
  113.8750    62.0160     8.5460     7.9700     8.5610    22.0830     2.1720   -22.7430 
  114.0000    62.0460     8.4580     7.8570     8.8810    22.0430     2.1720   -22.6070 
  114.1250    62.4400     8.6210     7.9920     9.3120    22.0580     2.1770   -22.5480 
  114.2500    63.4440     8.8260     8.1620     9.5750    22.1080     2.1830   -22.5260 
  114.3750    63.8710     8.9570     8.2380     9.6380    22.1630     2.1880   -22.5650 
  114.5000    63.8600     8.9580     8.1750     9.5020    22.2110     2.1920   -22.5840 
  114.6250    63.6250     8.8040     7.9730     9.2360    22.2420     2.1930   -22.5820 
  114.7500    65.0070     8.5550     7.7060     8.8780    22.3070     2.1930   -22.5350 
  114.8750    68.8170     8.2670     7.4220     8.3980    22.4270     2.1920   -22.4740 
  115.0000    72.9950     7.9970     7.1600     8.2010    22.5830     2.1910   -22.3520 
  115.1250    73.1690     7.7920     6.9420     8.1410    22.7750     2.1920   -22.1490 
  115.2500    70.6600     7.6380     6.7670     8.1060    23.0000     2.1920   -21.8790 
  115.3750    69.4000     7.5170     6.6390     8.0760    23.2470     2.1920   -21.5140 
  115.5000    71.0940     7.4440     6.5630     7.7600    23.5030     2.1890   -21.1520 
  115.6250    71.7900     7.4890     6.5660     7.4880    23.6990     2.1820   -20.8810 
  115.7500    68.1230     7.6770     6.6590     7.6790    23.7890     2.1720   -20.7540 
  115.8750    62.0000     7.9990     6.8520     8.3940    23.7680     2.1610   -20.7460 
  116.0000    58.6670     8.3890     7.1330     9.1170    23.6980     2.1540   -20.8620 
  116.1250    60.7670     8.7310     7.4670     9.7620    23.6490     2.1520   -21.0690 
  116.2500    62.1570     8.9490     7.7790    10.0800    23.6530     2.1560   -21.3050 
  116.3750    60.1100     9.0130     8.0080    10.1700    23.6680     2.1630   -21.5330 
  116.5000    56.8620     8.9300     8.1030    10.1990    23.6840     2.1700   -21.6970 
  116.6250    56.7650     8.6970     8.0100    10.2110    23.7010     2.1750   -21.6910 
  116.7500    59.6420     8.3490     7.7600    10.0540    23.7090     2.1800   -21.4530 
  116.8750    63.9940     7.9220     7.3890     9.3420    23.7310     2.1860   -20.9500 
  117.0000    69.0520     7.4830     6.9580     8.1810    23.7990     2.1950   -20.1600 
  117.1250    72.2520     7.1230     6.5460     6.9010    23.9610     2.2080   -19.1580 
  117.2500    74.9730     6.8750     6.2120     6.2300    24.1020     2.2200   -18.0960 
  117.3750    78.4400     6.7270     5.9810     6.3540    24.1550     2.2290   -17.0720 
