~V
VERS. 2.00: Ver 2.00
~W
STRT.M 51.0000:
STOP.M 313.0000:
STEP.M 0.1250:
NULL. -999.2500:
UWI. F10047:
~C
DEPT.M :
SP.MV :
GR.API :
RML.OHMM :
RI. :
RXO.OHMM :
CALI.CM :
DEN.GM/CC :
~A
# ...
  186.0000    -7.4760    97.3910     6.7030     6.2660     6.8770    23.9010     2.2910 
  186.1250    -7.6360    93.1000     6.5820     6.1470     7.0290    23.7560     2.2930 
  186.2500    -7.8420    91.0650     6.3820     5.9680     7.0140    23.6500     2.3030 
  186.3750    -8.0720    93.0490     6.2330     5.8300     6.8820    23.6100     2.3150 
  186.5000    -8.3170    96.9050     6.3170     5.8620     6.6110    23.6060     2.3220 
  186.6250    -8.6380    95.4050     6.8900     6.2550     6.6550    23.6060     2.3190 
  186.7500    -9.0450    89.5590     7.9740     7.0480     7.0980    23.6060     2.3050 
  186.8750    -9.5750    84.7280     9.5250     8.2630     8.5620    23.6060     2.2840 
  187.0000   -10.2230    82.2350    11.3750     9.8330    10.5340    23.6140     2.2570 
  187.1250   -10.8990    79.4670    13.2210    11.5630    11.2890    23.6590     2.2290 
  187.2500   -11.5610    75.2910    14.7640    13.1240    12.0450    23.7400     2.2030 
  187.3750   -12.2310    71.1750    15.8410    14.2940    12.9400    23.8040     2.1810 
  187.5000   -12.8930    68.7430    16.3920    14.9590    14.5650    23.8280     2.1650 
  187.6250   -13.4560    69.4380    16.3210    15.0150    16.0580    23.8150     2.1540 
  187.7500   -13.8950    70.6900    15.7550    14.5950    15.0290    23.7710     2.1470 
  187.8750   -14.2110    70.2960    14.8620    13.8500    13.0500    23.7000     2.1430 
  188.0000   -14.4250    70.7150    13.9550    13.0410    11.6610    23.6340     2.1430 
  188.1250   -14.6110    75.4780    13.5020    12.5420    11.0990    23.6110     2.1450 
  188.2500   -14.7880    80.0790    13.7120    12.5550    11.3550    23.6060     2.1480 
  188.3750   -14.9530    79.9740    14.6530    13.1820    12.1250    23.6060     2.1460 
  188.5000   -15.0950    77.1860    16.2190    14.4180    14.8170    23.6060     2.1410 
  188.6250   -15.2230    74.8550    18.1580    16.1680    16.9780    23.6060     2.1330 
  188.7500   -15.3560    72.8510    20.0150    18.0450    18.1680    23.6060     2.1270 
  188.8750   -15.4440    71.7440    21.5170    19.7530    18.6150    23.6060     2.1240 
  189.0000   -15.4910    72.2000    22.5690    21.1040    19.0460    23.6060     2.1250 
  189.1250   -15.5400    72.1460    23.1960    22.0030    19.6510    23.6060     2.1260 
  189.2500   -15.6310    70.6720    23.5700    22.5680    20.7770    23.6030     2.1270 
  189.3750   -15.7130    70.2000    23.6700    22.7950    21.8630    23.5810     2.1270 
  189.5000   -15.7270    71.8500    23.3840    22.6010    21.5960    23.5290     2.1290 
  189.6250   -15.6630    72.4280    22.5880    21.8740    20.1180    23.4350     2.1330 
  189.7500   -15.5930    71.6690    21.5200    20.8370    18.0160    23.3940     2.1350 
  189.8750   -15.5310    71.1970    20.4230    19.7170    15.3850    23.3840     2.1330 
  190.0000   -15.4690    71.3570    19.4360    18.6680    12.6600    23.3840     2.1330 
  190.1250   -15.4130    72.2960    18.5080    17.6930    11.4120    23.3840     2.1440 
  190.2500   -15.3340    74.6510    17.5200    16.7270    12.4730    23.3840     2.1670 
  190.3750   -15.2110    76.4330    16.5500    15.8370    15.6490    23.3840     2.1940 
  190.5000   -15.1230    75.3130    15.8800    15.2330    18.3930    23.3840     2.2100 
  190.6250   -15.2140    71.2710    16.1130    15.3500    17.4580    23.3440     2.2030 
  190.7500   -15.3620    67.5330    17.5680    16.4460    16.7240    23.1980     2.1800 
  190.8750   -15.5230    65.3560    20.4240    18.7630    17.8550    22.9360     2.1550 
  191.0000   -15.7220    63.6990    24.4860    22.3090    18.6380    22.7050     2.1370 
  191.1250   -15.9290    60.9190    28.8280    26.5280    17.3010    22.5820     2.1320 
  191.2500   -16.1120    58.7910    31.8360    29.9330    15.8250    22.5290     2.1320 
  191.3750   -16.3030    59.6020    32.5060    31.3690    14.6700    22.5110     2.1320 
  191.5000   -16.4850    62.7060    31.0780    30.7220    13.9070    22.5100     2.1340 
  191.6250   -16.6100    65.5040    28.7490    28.8670    13.7480    22.5090     2.1390 
  191.7500   -16.7570    67.1450    26.7140    27.0210    13.6900    22.5100     2.1500 
  191.8750   -16.9040    67.1050    25.2830    25.5850    13.3530    22.5090     2.1660 
  192.0000   -16.9580    64.9190    24.4430    24.6410    12.9810    22.5080     2.1840 
  192.1250   -16.8660    63.0340    24.0140    24.0990    12.6350    22.5100     2.2000 
  192.2500   -16.7050    63.6150    23.5420    23.5800    12.0230    22.5100     2.2100 
  192.3750   -16.5400    65.8230    22.6970    22.7720    11.5420    22.5090     2.2100 
  192.5000   -16.3750    67.9130    21.3180    21.5010    11.3130    22.5060     2.2030 
  192.6250   -16.1830    69.4740    19.4870    19.8140    10.6980    22.4950     2.1930 
  192.7500   -15.9170    70.8800    17.6780    18.1230     9.6040    22.4700     2.1860 
  192.8750   -15.6420    72.1090    16.2820    16.7730     8.9480    22.4440     2.1860 
  193.0000   -15.4410    74.7420    15.5690    16.0040     8.9930    22.4250     2.1920 
  193.1250   -15.3590    78.3220    15.7820    16.0590     9.1910    22.3940     2.1990 
  193.2500   -15.3870    78.3860    16.7050    16.7960     9.1780    22.3210     2.2000 
  193.3750   -15.4590    74.0080    18.0830    18.0380     9.4020    22.1740     2.1930 
  193.5000   -15.5350    69.6420    19.5340    19.4590    10.0140    21.9320     2.1800 
  193.6250   -15.6680    68.7690    20.5350    20.5460    10.7610    21.6010     2.1670 
  193.7500   -15.8950    67.0620    20.8760    21.0220    11.4770    21.4050     2.1570 
  193.8750   -16.1580    63.6900    20.6050    20.8830    12.1180    21.3420     2.1520 
  194.0000   -16.3700    62.8530    20.0140    20.3720    13.0200    21.3810     2.1510 
  194.1250   -16.5310    66.4890    19.5400    19.8800    14.6830    21.6340     2.1510 
  194.2500   -16.6580    68.9640    19.4970    19.7190    16.1370    22.1390     2.1490 
  194.3750   -16.7410    67.6430    20.0760    20.0780    17.4860    22.6510     2.1430 
  194.5000   -16.7050    63.9570    21.4000    21.0920    18.9290    22.9220     2.1360 
  194.6250   -16.3710    61.0650    23.6080    22.9370    20.7260    22.9990     2.1450 
  194.7500   -15.7880    58.9540    26.3650    25.3690    22.3850    23.0140     2.1840 
  194.8750   -15.0470    56.7710    29.1480    27.9760    24.5830    23.0170     2.2590 
  195.0000   -14.2170    56.3090    31.1170    30.0190    28.1670    23.0120     2.3490 
  195.1250   -13.2840    59.2480    31.1730    30.4270    29.7010    22.9930     2.4170 
  195.2500   -12.2880    61.4430    29.6400    29.3350    28.3830    22.9620     2.4430 
  195.3750   -11.2760    60.5300    27.3610    27.4120    25.4020    22.9360     2.4380 
  195.5000   -10.3880    58.1770    25.2850    25.4910    20.5210    22.9140     2.4290 
  195.6250    -9.7640    58.2060    24.1610    24.2760    19.6770    22.8990     2.4420 
  195.7500    -9.2840    59.5100    23.8880    23.8000    22.6700    22.8880     2.4720 
  195.8750    -8.8650    59.7830    24.1240    23.8620    24.1990    22.8720     2.4940 
  196.0000    -8.5260    59.1260    24.4090    24.1060    24.1510    22.8220     2.4870 
  196.1250    -8.3050    58.6400    24.3180    24.1390    21.5590    22.6980     2.4400 
  196.2500    -8.1360    58.3830    23.8980    23.8950    20.3910    22.5340     2.3750 
  196.3750    -7.9630    57.3690    23.4250    23.5520    19.5960    22.2690     2.3150 
  196.5000    -7.7570    54.7720    23.2020    23.3600    19.1130    21.7130     2.2770 
  196.6250    -7.5000    54.7150    23.4320    23.5170    18.6670    21.0080     2.2680 
  196.7500    -7.3090    58.9220    23.9000    23.8790    19.5260    20.4740     2.2790 
  196.8750    -7.2580    63.5400    24.3010    24.1940    20.4140    20.0440     2.2990 
  197.0000    -7.2620    64.3650    24.3360    24.1890    20.5100    19.7320     2.3190 
  197.1250    -7.2130    63.8630    23.7730    23.6400    20.2140    19.6240     2.3370 
