~V
VERS. 2.00: Ver 2.00
~W
STRT.M 50.0000:
STOP.M 255.0000:
STEP.M 0.1250:
NULL. -999.2500:
UWI. F10005:
~C
DEPT.M :
SP.MV :
GR.API :
RML.OHMM :
RI. :
RXO.OHMM :
CALI.CM :
DEN.GM/CC :
~A
# ...
  128.7500    -1.5070    64.3440    21.1060    18.1360    19.4760    24.3040     2.2040 
  128.8750    -1.3730    62.2500    23.3900    19.8860    23.3980    24.2260     2.1900 
  129.0000    -1.2570    59.2580    25.8110    22.0010    26.6900    24.1630     2.1690 
  129.1250    -1.2000    56.5730    27.4450    23.7890    27.4720    24.1460     2.1480 
  129.2500    -1.1250    55.7260    28.0660    24.8840    26.5140    24.1700     2.1490 
  129.3750    -1.1340    57.5270    27.9250    25.3160    24.0730    24.2190     2.1880 
  129.5000    -1.1860    59.7320    27.4050    25.2720    21.7330    24.2780     2.2640 
  129.6250    -1.3480    58.0840    26.5810    24.7610    24.0780    24.3280     2.3370 
  129.7500    -1.5020    54.5410    25.4300    23.8500    27.7690    24.3500     2.3570 
  129.8750    -1.6470    52.9480    24.1610    22.7580    27.8080    24.3070     2.3130 
  130.0000    -1.7850    53.9780    23.3610    21.9770    22.3200    24.1670     2.2440 
  130.1250    -1.8720    55.3410    23.9920    22.2630    18.7270    23.9080     2.2300 
  130.2500    -1.9470    55.7540    26.1690    23.7810    20.8540    23.5670     2.2990 
  130.3750    -1.9420    56.1620    29.4680    26.3550    33.2290    23.1980     2.4180 
  130.5000    -1.9110    56.4420    32.7190    29.2320    58.4560    22.8950     2.5180 
  130.6250    -1.8420    55.4160    33.8510    30.7860    71.6030    22.7990     2.5310 
  130.7500    -1.8170    55.3900    32.4850    30.3200    49.9700    22.8840     2.4650 
  130.8750    -1.8220    59.2570    29.7260    28.4250    29.4880    23.0970     2.3600 
  131.0000    -1.8010    63.7220    27.2250    26.3600    23.9180    23.3500     2.2580 
  131.1250    -1.7490    61.9740    26.2070    25.2500    28.7830    23.5120     2.1920 
  131.2500    -1.6860    57.1650    26.3680    25.1540    31.3370    23.5430     2.1620 
  131.3750    -1.6640    54.3140    27.1090    25.7730    31.2290    23.4700     2.1560 
  131.5000    -1.6640    52.8710    27.7680    26.6000    30.2400    23.3230     2.1550 
  131.6250    -1.6510    50.3900    27.8730    27.0910    24.7700    23.1400     2.1510 
  131.7500    -1.6470    49.9250    27.7440    27.2790    19.1570    23.0060     2.1460 
  131.8750    -1.6470    51.9040    27.8880    27.5290    19.7630    22.9600     2.1470 
  132.0000    -1.6750    52.4120    28.5780    28.1460    25.3880    22.9610     2.1540 
  132.1250    -1.7010    50.4520    29.6110    29.0860    28.3080    22.9730     2.1610 
  132.2500    -1.7650    49.4410    30.3210    29.7970    28.3090    22.9880     2.1620 
  132.3750    -1.7970    51.2800    30.1250    29.7060    31.3170    23.0050     2.1590 
  132.5000    -1.8170    55.4330    28.7380    28.4900    33.7930    23.0060     2.1560 
  132.6250    -1.8490    58.8400    26.4020    26.3350    32.0970    22.9760     2.1510 
  132.7500    -1.8640    59.4970    24.0850    24.1480    27.2110    22.9100     2.1360 
  132.8750    -1.8880    57.5420    22.4530    22.5140    26.5890    22.8060     2.1160 
  133.0000    -1.8670    55.2870    21.8890    21.7530    22.5780    22.6790     2.1040 
  133.1250    -1.9370    53.8690    22.6290    22.1110    22.2140    22.5690     2.1190 
  133.2500    -1.9910    52.2750    24.0670    23.1810    22.3300    22.4940     2.1550 
  133.3750    -2.0360    50.4230    25.4220    24.3570    23.4080    22.4470     2.1980 
  133.5000    -2.0870    48.4460    25.8690    24.8540    24.5280    22.4210     2.2340 
  133.6250    -2.1470    47.8500    24.8750    24.0580    25.6870    22.4160     2.2540 
  133.7500    -2.1970    51.7170    23.1940    22.5870    26.1200    22.4230     2.2600 
  133.8750    -2.2790    60.0420    21.6860    21.1940    23.7320    22.4400     2.2490 
  134.0000    -2.3890    67.4280    21.0370    20.4790    18.7930    22.4780     2.2200 
  134.1250    -2.4370    66.3410    21.7180    20.8980    20.3120    22.5590     2.1800 
  134.2500    -2.4270    59.8830    23.3310    22.2120    24.3390    22.6960     2.1540 
  134.3750    -2.4010    54.2950    25.3820    24.0790    25.7760    22.8970     2.1550 
  134.5000    -2.3390    52.7140    27.2570    25.9710    24.6730    23.1540     2.1800 
  134.6250    -2.2820    52.0800    28.3200    27.2250    23.7440    23.4140     2.2130 
  134.7500    -2.2380    49.6430    28.6520    27.7420    23.9310    23.6390     2.2390 
  134.8750    -2.1530    46.9230    28.5280    27.7130    24.9570    23.8280     2.2530 
  135.0000    -2.0480    48.0470    28.2000    27.3860    27.3330    23.9950     2.2560 
  135.1250    -1.9810    52.6240    27.6840    26.8080    27.9380    24.1360     2.2400 
  135.2500    -1.9690    54.9110    26.9110    25.9520    26.2930    24.2210     2.2070 
  135.3750    -2.0300    54.0130    25.9110    24.8530    24.4220    24.2520     2.1630 
  135.5000    -2.1310    52.1260    24.9290    23.7440    23.7920    24.2440     2.1250 
  135.6250    -2.2230    51.7160    24.4370    23.0710    25.3990    24.2010     2.1110 
  135.7500    -2.2980    54.2100    24.6590    23.0570    25.9560    24.1170     2.1130 
  135.8750    -2.3410    58.4130    25.6690    23.7930    24.4870    23.9930     2.1170 
  136.0000    -2.4000    59.3640    27.3340    25.1970    27.1010    23.8530     2.1170 
  136.1250    -2.3790    54.7460    29.1930    26.9380    35.1600    23.7570     2.1130 
  136.2500    -2.3750    50.7630    30.5770    28.3980    32.8240    23.7180     2.1140 
  136.3750    -2.3540    50.6120    31.1520    29.1930    29.0010    23.7100     2.1240 
  136.5000    -2.3120    53.1490    30.9560    29.2390    27.9910    23.7070     2.1460 
  136.6250    -2.3110    56.4550    30.2250    28.6510    28.7640    23.6990     2.1760 
  136.7500    -2.3590    59.3210    29.3190    27.8100    28.1140    23.6820     2.2060 
  136.8750    -2.4310    61.4490    28.3010    26.8460    29.1690    23.6560     2.2280 
  137.0000    -2.5320    63.4590    27.0470    25.7040    29.3300    23.6280     2.2350 
  137.1250    -2.7360    64.7400    25.3390    24.1830    27.7610    23.6190     2.2190 
  137.2500    -2.9880    64.6370    23.2860    22.3350    23.2460    23.6300     2.1900 
  137.3750    -3.2590    64.7650    21.1150    20.3540    21.0370    23.6570     2.1590 
  137.5000    -3.5920    66.3560    19.1380    18.5230    19.3880    23.6840     2.1400 
  137.6250    -3.8910    67.2210    17.7700    17.2000    17.0320    23.6850     2.1430 
  137.7500    -4.1710    66.4210    17.1020    16.4630    15.4230    23.6630     2.1610 
  137.8750    -4.4180    63.8960    17.1030    16.2980    15.5220    23.6270     2.1830 
  138.0000    -4.6350    59.5120    17.5980    16.5830    18.3180    23.5900     2.2010 
  138.1250    -4.8400    55.6820    18.3050    17.1140    18.9670    23.5630     2.2100 
  138.2500    -4.9900    55.0610    18.8670    17.5840    18.6450    23.5560     2.2110 
  138.3750    -5.0610    57.7140    19.0950    17.8210    17.9250    23.5680     2.2060 
  138.5000    -5.0860    62.8710    18.9650    17.7840    16.9000    23.5840     2.1970 
  138.6250    -5.1120    67.7670    18.6330    17.5650    16.2880    23.5970     2.1920 
  138.7500    -5.0750    68.0260    18.3830    17.3700    16.8660    23.5880     2.2020 
  138.8750    -5.0670    63.6100    18.3530    17.3060    17.6860    23.5350     2.2260 
  139.0000    -5.0420    59.4550    18.5360    17.4000    18.3390    23.4230     2.2540 
  139.1250    -4.9940    58.7560    18.8240    17.6180    17.9180    23.2660     2.2650 
  139.2500    -4.9050    57.7910    19.0920    17.8540    18.1410    23.1030     2.2550 
  139.3750    -4.8320    56.4460    19.3050    18.0420    18.2650    22.9610     2.2310 
  139.5000    -4.7450    56.0530    19.4880    18.1760    18.3090    22.8590     2.2110 
  139.6250    -4.6070    56.5350    19.7400    18.3220    18.2680    22.7970     2.2050 
  139.7500    -4.5090    55.6360    20.1450    18.5850    18.4400    22.7740     2.2070 
  139.8750    -4.3950    53.8930    20.7400    19.0380    18.4550    22.7950     2.2060 
