~V
VERS. 2.00: Ver 2.00
~W
STRT.M 56.0000:
STOP.M 235.0000:
STEP.M 0.1250:
NULL. -999.2500:
UWI. F10014:
~C
DEPT.M :
GR.API :
RML.OHMM :
RI. :
RXO.OHMM :
CALI.CM :
DEN.GM/CC :
SP.MV :
~A
# ...
  134.7500    53.9930    30.5900    28.9290    28.6590    25.1490     2.1830    -5.9320 
  134.8750    53.0310    30.7550    29.0650    28.6370    25.1650     2.1870    -5.8470 
  135.0000    53.0160    30.8540    29.1650    28.8960    25.1950     2.1830    -5.7760 
  135.1250    52.2770    30.9160    29.2540    29.7060    25.1790     2.1720    -5.6080 
  135.2500    51.7410    31.0310    29.4000    30.6920    25.1660     2.1620    -5.3130 
  135.3750    52.6820    31.2980    29.6860    32.4640    25.1790     2.1570    -4.9630 
  135.5000    54.2300    31.8080    30.1860    30.5630    25.2050     2.1560    -4.5950 
  135.6250    53.9230    32.6340    30.9630    29.4720    25.2020     2.1560    -4.1980 
  135.7500    52.4430    33.6460    31.9150    29.7680    25.2690     2.1510    -3.7630 
  135.8750    51.8080    34.6860    32.9140    31.8560    25.4030     2.1410    -3.3040 
  136.0000    52.0360    35.5640    33.7930    34.2170    25.4770     2.1330    -2.8410 
  136.1250    52.2480    36.0410    34.3290    35.3770    25.4140     2.1340    -2.4470 
  136.2500    53.6880    36.0790    34.4640    35.2600    25.3660     2.1420    -2.1540 
  136.3750    57.3650    35.6830    34.1830    35.1440    25.4870     2.1530    -1.9770 
  136.5000    61.5510    34.9330    33.5480    34.7200    25.6750     2.1610    -1.9040 
  136.6250    61.1520    33.9600    32.6670    34.8490    25.6500     2.1620    -1.8700 
  136.7500    57.8610    33.0190    31.7770    33.5890    25.4470     2.1570    -1.8360 
  136.8750    55.8570    32.3480    31.0930    31.8120    25.3350     2.1460    -1.7900 
  137.0000    55.1570    32.1760    30.8280    30.8910    25.5070     2.1270    -1.7400 
  137.1250    54.5410    32.7710    31.2580    31.0510    25.7410     2.1060    -1.6820 
  137.2500    55.7670    33.9620    32.2860    32.7310    25.7000     2.0990    -1.6180 
  137.3750    59.0270    35.4510    33.6950    37.0230    25.3310     2.1130    -1.5370 
  137.5000    61.5730    36.7670    35.0850    43.0460    24.9090     2.1440    -1.3990 
  137.6250    61.0930    37.2380    35.8220    45.5070    24.8970     2.1720    -1.2280 
  137.7500    59.6430    36.7410    35.6770    43.1710    25.3030     2.1810    -1.0700 
  137.8750    58.0140    35.5150    34.7800    39.3150    25.9050     2.1780    -0.9980 
  138.0000    58.1390    34.0760    33.5520    35.8110    26.1140     2.1770    -1.0130 
  138.1250    60.8570    32.9730    32.4860    36.5690    25.7380     2.1900    -1.0890 
  138.2500    62.7690    32.3160    31.7580    31.2830    25.4990     2.2050    -1.1720 
  138.3750    61.5930    31.9440    31.2880    25.3950    25.4970     2.2080    -1.2430 
  138.5000    59.0470    31.5560    30.8530    27.4830    25.5570     2.1920    -1.3770 
  138.6250    59.5040    30.8310    30.1970    31.2670    25.4580     2.1670    -1.6290 
  138.7500    61.0500    29.8260    29.3420    30.1700    25.3180     2.1530    -1.9220 
  138.8750    60.3250    28.7660    28.4620    26.5050    25.2140     2.1600    -2.1710 
  139.0000    57.3220    27.9070    27.7620    24.2950    25.1830     2.1800    -2.3360 
  139.1250    56.2380    27.4810    27.4320    23.5830    25.1920     2.1980    -2.4150 
  139.2500    57.4800    27.3890    27.3970    24.0750    25.1800     2.2020    -2.4720 
  139.3750    59.7830    27.4360    27.5010    24.6800    25.1730     2.1930    -2.5290 
  139.5000    62.5800    27.4070    27.5450    24.6250    25.1780     2.1740    -2.5460 
  139.6250    64.2030    27.1360    27.3500    23.2940    25.3370     2.1570    -2.4610 
  139.7500    63.8900    26.6640    26.9310    21.8050    25.7540     2.1470    -2.3020 
  139.8750    61.8570    26.0630    26.3420    20.5870    26.2580     2.1420    -2.1170 
  140.0000    59.4640    25.4000    25.6500    19.4780    26.4500     2.1390    -1.9840 
  140.1250    59.6210    24.7110    24.9000    18.9790    26.5510     2.1310    -1.9140 
  140.2500    62.2470    24.0380    24.1540    18.1090    26.7710     2.1150    -1.8480 
  140.3750    64.9260    23.4770    23.5070    17.1610    26.8380     2.0970    -1.7680 
  140.5000    65.2020    23.1720    23.0960    16.8460    26.4440     2.0830    -1.6770 
  140.6250    66.1550    23.3920    23.1610    17.2090    25.6920     2.0820    -1.5720 
  140.7500    69.1660    24.2480    23.7920    18.0370    25.1120     2.0950    -1.4280 
  140.8750    69.4540    25.7900    25.0540    19.5670    24.8210     2.1190    -1.2490 
  141.0000    64.6320    27.8690    26.8530    23.0210    24.9160     2.1540    -1.0590 
  141.1250    58.7400    30.1020    28.8930    24.4110    25.1560     2.1950    -0.9180 
  141.2500    56.6460    31.9960    30.7060    25.0040    25.2490     2.2300    -0.8430 
  141.3750    56.9680    33.2760    32.0020    26.2180    25.2190     2.2470    -0.7380 
  141.5000    56.3160    33.9210    32.7060    28.2050    25.2070     2.2420    -0.5930 
  141.6250    56.4400    34.1250    32.9300    28.6750    25.1480     2.2210    -0.4840 
  141.7500    59.1960    34.2020    32.9680    29.3480    25.0590     2.2050    -0.4570 
  141.8750    62.2730    34.1720    32.8800    32.0820    25.0070     2.2050    -0.5240 
  142.0000    62.1900    33.9160    32.6010    35.3850    24.9710     2.2160    -0.6100 
  142.1250    59.1930    33.3100    32.0480    34.6420    24.9650     2.2240    -0.6360 
  142.2500    56.7250    32.5760    31.3890    30.3470    25.0720     2.2180    -0.6360 
  142.3750    54.9800    32.0370    30.8740    28.1820    25.1700     2.1990    -0.6910 
  142.5000    53.8880    31.9690    30.7430    28.3980    25.1930     2.1770    -0.7640 
  142.6250    56.3750    32.4790    31.1390    30.2700    25.1700     2.1640    -0.7890 
  142.7500    61.2020    33.2160    31.8050    32.3190    25.1900     2.1630    -0.7860 
  142.8750    62.5360    33.8410    32.4560    33.8680    25.2620     2.1650    -0.7240 
  143.0000    58.8710    34.0990    32.8320    33.3400    25.3590     2.1610    -0.6500 
  143.1250    56.2680    33.8450    32.7400    29.5580    25.4350     2.1440    -0.6290 
  143.2500    58.5640    33.2390    32.2850    26.8660    25.3590     2.1240    -0.6360 
  143.3750    61.4900    32.3690    31.5410    27.8770    25.1850     2.1110    -0.6640 
  143.5000    62.0850    31.3050    30.5890    28.9720    25.0790     2.1110    -0.7640 
  143.6250    62.9440    30.1520    29.5400    27.4620    25.0590     2.1250    -0.9300 
  143.7500    64.4230    29.1160    28.5950    24.8850    25.0190     2.1390    -1.1040 
  143.8750    65.2310    28.4240    27.9500    22.9620    24.9400     2.1490    -1.2490 
  144.0000    64.3460    28.2930    27.7910    22.6380    24.8480     2.1550    -1.3260 
  144.1250    62.0740    28.9330    28.3200    24.0100    24.7670     2.1650    -1.3550 
  144.2500    59.9590    30.1010    29.3580    26.1550    24.7200     2.1800    -1.3620 
  144.3750    59.5570    31.5000    30.6660    30.2080    24.7210     2.1940    -1.3690 
  144.5000    60.9830    32.7920    31.9280    34.9870    24.7570     2.1990    -1.3310 
  144.6250    62.7130    33.6430    32.8020    36.7850    24.7680     2.1930    -1.2010 
  144.7500    63.7210    34.0620    33.2520    32.5510    24.7580     2.1830    -1.0980 
  144.8750    63.8620    34.1510    33.3670    28.3260    24.7620     2.1730    -1.1110 
  145.0000    63.4640    34.0160    33.2730    26.3200    24.8050     2.1630    -1.1950 
  145.1250    62.1650    33.6740    33.0280    25.8090    24.9380     2.1480    -1.3240 
  145.2500    60.8700    33.2200    32.7180    28.3000    25.0320     2.1250    -1.4560 
  145.3750    60.1690    32.8970    32.5240    29.9850    25.0730     2.0960    -1.6050 
  145.5000    60.1070    33.1960    32.8260    29.7060    25.1090     2.0720    -1.8480 
  145.6250    60.7160    35.1260    34.4680    27.3470    25.1200     2.0750    -2.2830 
  145.7500    61.1720    39.0580    37.8890    26.1620    24.9970     2.1240    -2.8240 
  145.8750    61.8380    44.8250    43.1540    29.1450    24.7260     2.2250    -3.3940 
