~V
VERS. 2.00: Ver 2.00
~W
STRT.M 50.0000:
STOP.M 265.0000:
STEP.M 0.1250:
NULL. -999.2500:
UWI. F10025:
~C
DEPT.M :
SP.MV :
DEN.GM/CC :
GR.API :
CALI.CM :
RXO.OHMM :
RI. :
RML.OHMM :
~A
# ...
  207.5000    -6.3170     2.2460    95.1880    21.2830     5.8900     6.2180     7.4760 
  207.6250    -6.3400     2.2340    98.0370    21.2350     5.7190     6.1450     7.5080 
  207.7500    -6.3780     2.2350    99.1050    20.8750     5.6750     6.0240     7.4810 
  207.8750    -6.4260     2.2390    98.8130    19.8750     5.6430     5.8740     7.3750 
  208.0000    -6.5250     2.2430    98.4870    18.2630     5.6070     5.7560     7.2720 
  208.1250    -6.6220     2.2480    97.5860    16.8460     5.6360     5.7390     7.2980 
  208.2500    -6.7690     2.2480    95.0490    15.8020     5.7800     5.9050     7.5850 
  208.3750    -6.8740     2.2380    92.5670    15.2390     6.1480     6.4040     8.3140 
  208.5000    -7.0190     2.2170    92.1040    14.9770     6.7550     7.2740     9.4800 
  208.6250    -7.2290     2.1940    93.5800    14.6420     7.3990     8.5310    11.0430 
  208.7500    -7.4370     2.1760    95.2890    14.1880     7.8620    10.0780    12.8220 
  208.8750    -7.6530     2.1700    94.9600    13.9260     8.2500    11.6360    14.4100 
  209.0000    -7.8000     2.1740    91.7350    13.9600     8.6310    12.8910    15.5020 
  209.1250    -7.8900     2.1800    87.8760    14.3210     8.9510    13.7440    16.1180 
  209.2500    -7.9340     2.1810    86.7800    15.0080     9.2080    14.3190    16.5340 
  209.3750    -8.0010     2.1770    88.6590    16.0090     9.4670    14.8830    17.1420 
  209.5000    -8.0560     2.1750    90.1470    17.1880     9.7500    15.6530    18.0990 
  209.6250    -8.0330     2.1770    89.3610    18.1030     9.8460    16.6940    19.3830 
  209.7500    -8.0310     2.1810    88.4490    18.4910     9.7580    17.9620    20.8790 
  209.8750    -8.0070     2.1920    89.2890    18.5360     9.6500    19.3120    22.3810 
  210.0000    -8.0250     2.2160    89.2530    18.4040     9.5260    20.4690    23.5880 
  210.1250    -8.0510     2.2530    88.5710    18.1910     9.3960    21.1420    24.1500 
  210.2500    -8.0620     2.2840    91.3370    17.8590     9.4690    21.1110    23.7880 
  210.3750    -8.0500     2.2970    94.4230    17.2930     9.8860    20.2730    22.4480 
  210.5000    -8.0440     2.2900    91.5390    16.5760    10.2440    18.9920    20.6830 
  210.6250    -8.0830     2.2700    86.5410    16.1090    10.3110    17.5500    18.8780 
  210.7500    -8.1110     2.2520    86.0060    16.1490    10.4470    16.1610    17.2740 
  210.8750    -8.1430     2.2410    90.7570    16.5540    11.1190    14.9350    15.9590 
  211.0000    -8.1050     2.2380    95.7590    17.2580    11.7140    13.8410    14.8290 
  211.1250    -8.1090     2.2420    99.2530    18.2620    11.5770    12.8880    13.8470 
  211.2500    -8.1500     2.2460    99.2730    19.3390    10.7430    12.1300    13.0480 
  211.3750    -8.1690     2.2420    94.0920    20.3370    10.0010    11.6950    12.5940 
  211.5000    -8.1590     2.2280    89.3380    21.2560     9.9690    11.6100    12.5420 
  211.6250    -8.1140     2.2090    86.0590    22.0610    10.8730    11.8980    12.9210 
  211.7500    -8.0590     2.2000    84.1840    22.5210    12.3760    12.5090    13.6460 
  211.8750    -7.9630     2.2040    85.3120    22.7140    13.5920    13.2790    14.4550 
  212.0000    -7.8850     2.2160    87.0730    22.7950    14.4470    13.9010    14.9690 
  212.1250    -7.8040     2.2210    86.0290    22.9330    14.9340    14.1600    14.9750 
  212.2500    -7.6870     2.2170    81.2950    23.2130    14.8000    13.9990    14.4860 
  212.3750    -7.6060     2.2100    77.5380    23.5860    13.9840    13.5170    13.6890 
  212.5000    -7.5070     2.2070    77.2850    23.8780    13.0810    12.9640    12.8880 
  212.6250    -7.4090     2.2110    80.3430    23.9460    12.5860    12.4540    12.2030 
  212.7500    -7.3450     2.2230    85.2390    23.8840    12.3600    12.0100    11.6570 
  212.8750    -7.2720     2.2420    89.1270    23.7660    12.0040    11.5800    11.1980 
  213.0000    -7.2020     2.2610    89.5100    23.6690    11.3140    11.1000    10.7140 
  213.1250    -7.1710     2.2750    87.7830    23.6370    10.3700    10.5490    10.1600 
  213.2500    -7.1290     2.2900    86.7980    23.6310     9.3870     9.9460     9.5490 
  213.3750    -7.0400     2.3070    88.4760    23.6380     8.6930     9.3490     8.9430 
  213.5000    -6.9270     2.3190    89.9180    23.6610     8.2440     8.8130     8.4170 
  213.6250    -6.8940     2.3210    89.3830    23.7320     7.9750     8.3750     8.0160 
  213.7500    -6.8790     2.3230    90.4430    23.8500     7.8140     8.0570     7.7750 
  213.8750    -6.8860     2.3350    93.8420    24.0020     7.7200     7.8950     7.7320 
  214.0000    -6.8660     2.3530    95.5440    24.1200     7.6690     7.8620     7.8290 
  214.1250    -6.7700     2.3660    94.7310    24.1560     7.8050     7.9270     8.0130 
  214.2500    -6.7530     2.3680    93.7830    24.1380     8.2390     8.0570     8.2270 
  214.3750    -6.7320     2.3610    93.6300    24.1000     8.8890     8.2220     8.4230 
  214.5000    -6.7570     2.3440    93.0090    24.0290     9.3820     8.3950     8.6010 
  214.6250    -6.7850     2.3170    92.4050    23.9180     9.6200     8.5930     8.7970 
  214.7500    -6.7750     2.2900    90.6580    23.8220     9.9020     8.8910     9.1090 
  214.8750    -6.7690     2.2810    85.9790    23.7680    10.6510     9.5160     9.8070 
  215.0000    -6.8110     2.3050    80.5940    23.7190    11.7760    10.7130    11.1870 
  215.1250    -6.9260     2.3700    77.6160    23.6360    13.8810    12.9180    13.6960 
  215.2500    -6.9670     2.4600    77.0560    23.4630    19.6290    16.8490    17.9210 
  215.3750    -7.0310     2.5520    74.6670    23.2430    36.6810    24.0500    25.1430 
  215.5000    -7.1100     2.6090    68.3210    23.1630    69.3030    34.5430    35.5070 
  215.6250    -7.1360     2.5820    60.9960    23.3180   107.7380    46.8080    47.8100 
  215.7500    -7.1870     2.4910    56.5760    23.5670   122.2680    57.1430    57.9560 
  215.8750    -7.2510     2.3830    57.5150    23.7360    94.4090    61.0820    60.6450 
  216.0000    -7.2990     2.3020    61.1380    23.7820    63.0680    60.3060    58.8000 
  216.1250    -7.3740     2.2740    64.8990    23.8040    48.2860    58.0470    56.5010 
  216.2500    -7.4700     2.2880    67.3640    23.7930    46.4160    57.0180    56.1080 
  216.3750    -7.5710     2.3380    67.6060    23.6410    48.1390    58.6720    58.4470 
  216.5000    -7.7200     2.4100    66.3920    23.3670    48.0930    62.0810    62.3360 
  216.6250    -7.8480     2.4710    64.1620    23.1520    45.5280    66.0840    66.5140 
  216.7500    -7.9580     2.5080    62.2950    22.9890    41.9120    69.5600    69.7810 
  216.8750    -8.1180     2.5230    62.5750    22.8030    39.2130    71.6850    71.3590 
  217.0000    -8.2690     2.5250    62.2750    22.4320    36.5250    72.4810    71.4350 
  217.1250    -8.3350     2.5100    61.0460    21.8210    33.2810    71.5480    69.5220 
  217.2500    -8.4520     2.4790    61.4140    21.2720    31.9770    68.0970    64.7560 
  217.3750    -8.5830     2.4350    62.9300    20.9730    35.9060    61.0990    56.5930 
  217.5000    -8.6230     2.3840    64.3240    20.9450    40.2030    51.9860    47.1950 
  217.6250    -8.6840     2.3360    65.7600    21.1870    38.7690    42.6300    38.4740 
  217.7500    -8.7510     2.2960    68.3080    21.6610    32.1820    34.7300    31.5920 
  217.8750    -8.7590     2.2710    72.0200    22.4470    26.6250    29.3960    27.1150 
  218.0000    -8.7820     2.2670    73.4810    23.3350    24.3480    26.0200    24.3200 
  218.1250    -8.8690     2.2690    73.3220    23.8630    23.8680    24.1070    22.7640 
  218.2500    -8.9310     2.2560    73.7140    24.0400    24.1000    23.2160    22.0530 
  218.3750    -8.9430     2.2300    76.0350    24.0840    23.7670    23.0580    21.9110 
  218.5000    -8.9770     2.2090    79.7490    24.1320    22.9510    23.2520    22.0270 
  218.6250    -8.9830     2.2030    80.5770    24.1690    22.7830    23.6760    22.3150 
