~V
VERS. 2.00: Ver 2.00
~W
STRT.M 51.0000:
STOP.M 313.0000:
STEP.M 0.1250:
NULL. -999.2500:
UWI. F10047:
~C
DEPT.M :
SP.MV :
GR.API :
RML.OHMM :
RI. :
RXO.OHMM :
CALI.CM :
DEN.GM/CC :
~A
# ...
  219.7500   -12.8790    70.6680    28.7030    26.4440    40.9200    25.2800     2.3200 
  219.8750   -13.2870    71.8680    31.7880    29.8720    36.8510    25.2800     2.3210 
  220.0000   -13.8160    73.4090    35.2500    33.6440    35.4640    25.2800     2.3250 
  220.1250   -14.4420    70.6250    41.0380    39.1890    48.4530    25.2910     2.3290 
  220.2500   -15.0620    65.6680    51.1960    48.6800    65.7900    25.3160     2.3240 
  220.3750   -15.6710    62.6860    68.0310    64.8080    82.1240    25.3460     2.3020 
  220.5000   -16.3150    61.6220    93.6550    89.8060   100.5690    25.3720     2.2650 
  220.6250   -17.0210    58.6120   129.9980   124.6790   123.0320    25.4170     2.2240 
  220.7500   -17.7710    53.4080   170.2270   161.8000   134.0540    25.4590     2.1910 
  220.8750   -18.5620    50.8530   204.0540   191.8580   130.3270    25.4900     2.1740 
  221.0000   -19.3090    51.9960   223.6300   208.7730   125.4940    25.5020     2.1680 
  221.1250   -19.9460    53.0700   229.4120   213.0980   123.8420    25.5000     2.1680 
  221.2500   -20.5690    53.0560   230.6180   212.9970   126.9870    25.4970     2.1690 
  221.3750   -21.2380    54.3330   230.6300   211.9240   125.9780    25.4930     2.1710 
  221.5000   -21.8740    56.7090   230.1180   210.8540   119.2260    25.4740     2.1760 
  221.6250   -22.3710    57.8330   228.6960   209.5990   117.4560    25.4150     2.1830 
  221.7500   -22.7860    57.5730   226.4830   207.9970   113.2620    25.3140     2.1880 
  221.8750   -23.1800    56.6890   223.8940   206.2480   105.3750    25.1840     2.1900 
  222.0000   -23.5710    55.5490   221.5150   204.7960    95.1530    24.9900     2.1870 
  222.1250   -23.9020    54.5960   219.8710   204.1530    85.6060    24.7030     2.1810 
  222.2500   -24.0770    56.0520   218.5900   204.0210    79.8890    24.3420     2.1750 
  222.3750   -24.1650    58.5900   216.9630   203.7110    80.0260    23.8890     2.1740 
  222.5000   -24.2850    60.2480   214.4320   202.5510    80.8740    23.3400     2.1790 
  222.6250   -24.4600    61.2500   210.9420   200.1980    85.3090    23.0450     2.1930 
  222.7500   -24.6430    61.5850   207.4580   197.4130    90.8880    22.9490     2.2080 
  222.8750   -24.6890    61.8000   205.1500   195.3020    92.5450    22.9330     2.2170 
  223.0000   -24.6750    62.0600   205.3100   195.2690    88.7300    22.8920     2.2120 
  223.1250   -24.8160    61.8310   209.5120   199.0850    89.6400    22.7140     2.1910 
  223.2500   -25.0740    61.6390   217.1360   206.2750    95.5270    22.2280     2.1690 
  223.3750   -25.2620    61.6470   227.0290   215.6720    94.6560    21.3960     2.1560 
  223.5000   -25.3900    61.9070   237.0290   225.1410   114.6710    20.7820     2.1580 
  223.6250   -25.5280    61.5400   243.4380   231.2460   130.9780    20.6160     2.1700 
  223.7500   -25.6400    60.3470   244.3350   232.3060   138.2290    20.6540     2.1780 
  223.8750   -25.7920    59.4740   239.4210   228.0580   125.6480    20.7260     2.1780 
  224.0000   -26.0430    58.3310   229.8810   219.5620   116.8460    20.8860     2.1730 
  224.1250   -26.3010    57.0030   217.4740   208.3450   113.9270    21.2940     2.1710 
  224.2500   -26.5820    56.3310   204.7740   196.7700   103.9610    22.0910     2.1760 
  224.3750   -26.9360    56.3720   193.0890   186.1060    94.3620    23.2190     2.1860 
  224.5000   -27.2740    56.6500   182.8080   176.8160    89.7700    24.3590     2.2000 
  224.6250   -27.6490    56.2250   173.6580   168.7510    80.1760    25.0490     2.2170 
  224.7500   -28.0730    55.5150   164.9960   161.2410    73.6040    25.2930     2.2380 
  224.8750   -28.4400    56.0360   156.8340   154.1910    70.2420    25.3420     2.2580 
  225.0000   -28.5260    56.2560   149.5810   147.8720    69.8650    25.3870     2.2700 
  225.1250   -28.2360    54.6580   144.0800   142.9780    72.3340    25.5590     2.2620 
  225.2500   -27.7160    52.9760   140.3700   139.6120    77.9000    25.8700     2.2370 
  225.3750   -27.0470    52.8140   138.2540   137.6750    92.4970    26.1760     2.2050 
  225.5000   -26.2740    53.9660   137.0780   136.6580   102.7520    26.3330     2.1760 
  225.6250   -25.2850    54.8330   135.7850   135.5840   101.6010    26.3710     2.1620 
  225.7500   -24.0440    55.0880   133.7360   133.7110    95.4230    26.3720     2.1580 
  225.8750   -22.7240    53.9320   130.9890   130.9800    98.5760    26.3730     2.1580 
  226.0000   -21.5770    50.5810   127.8840   127.7210   103.4690    26.3650     2.1570 
  226.1250   -20.7200    48.0760   124.7300   124.3120    97.5940    26.3380     2.1580 
  226.2500   -20.0120    48.7860   121.7710   121.0370    98.2970    26.2750     2.1660 
  226.3750   -19.4270    51.6960   119.1470   118.0420   106.3400    26.1760     2.1820 
  226.5000   -18.9960    54.5700   117.1030   115.6090   106.0130    26.0670     2.2000 
  226.6250   -18.7100    56.3110   116.4930   114.6890    92.2560    26.0180     2.2120 
  226.7500   -18.5420    57.0420   117.6040   115.6930    87.6050    26.0060     2.2140 
  226.8750   -18.4490    56.2480   120.0590   118.2680    93.8600    26.0000     2.2080 
  227.0000   -18.3800    54.6880   122.7050   121.2070   104.9160    25.9820     2.2010 
  227.1250   -18.2110    53.1220   123.5040   122.5160   119.4250    25.9480     2.2020 
  227.2500   -17.9850    51.9090   121.3850   121.1170   130.2030    25.9260     2.2090 
  227.3750   -17.6800    51.1650   116.4960   116.9280   115.6920    25.8940     2.2180 
  227.5000   -17.2490    52.6250   110.7210   111.3370    92.8000    25.8310     2.2240 
  227.6250   -16.7540    56.4020   107.6400   107.5650    90.6330    25.7870     2.2320 
  227.7500   -16.2600    58.4990   108.7730   107.6620    97.8670    25.7570     2.2540 
  227.8750   -15.7290    56.8880   111.9970   110.2490    97.9650    25.7480     2.3060 
  228.0000   -15.0790    52.3570   109.2500   108.4900    98.3980    25.7660     2.3960 
  228.1250   -14.3200    49.2040    88.5100    90.3410   123.2650    25.7800     2.5150 
  228.2500   -13.4890    48.9730    59.3760    61.9520   174.4980    25.7920     2.6270 
  228.3750   -12.5430    49.6840    34.9360    36.2780   118.1500    25.8290     2.6970 
  228.5000   -11.4260    50.5410    19.5450    19.6370    36.7230    25.9570     2.7060 
  228.6250   -10.1130    53.0040    11.6640    11.6850    12.8100    26.2210     2.6540 
  228.7500    -8.7480    55.1260     6.8990     7.8350     7.5090    26.4830     2.5800 
  228.8750    -7.4200    54.4730     5.5820     6.1170     6.5280    26.5800     2.5080 
  229.0000    -6.1860    52.2360     5.3380     5.5150     6.5260    26.4510     2.4480 
  229.1250    -5.0900    52.0590     5.6040     5.5880     5.9920    26.0740     2.3960 
  229.2500    -4.0950    51.5290     5.8950     5.8720     5.4580    25.7280     2.3470 
  229.3750    -3.2490    48.0180     6.0480     6.1340     5.1030    25.4180     2.3070 
  229.5000    -2.6370    43.3700     6.0860     6.3010     4.9980    25.1720     2.2900 
  229.6250    -2.2550    40.6780     6.1370     6.4330     5.2120    25.0760     2.3040 
  229.7500    -1.9610    39.8610     6.2580     6.5990     5.6060    25.0580     2.3370 
  229.8750    -1.7290    39.2140     6.4180     6.7960     5.8900    25.0580     2.3750 
  230.0000    -1.5330    38.1200     6.5620     6.9860     5.9870    25.0580     2.4080 
  230.1250    -1.3460    37.7780     6.6250     7.0900     5.9700    25.0580     2.4300 
  230.2500    -1.1620    38.0720     6.6020     7.0820     5.9330    25.0580     2.4420 
  230.3750    -1.0190    38.3260     6.5460     6.9830     5.8730    25.0580     2.4470 
  230.5000    -0.9070    37.9340     6.5250     6.8530     5.8790    25.0580     2.4490 
  230.6250    -0.7980    38.5910     6.5970     6.7700     5.9580    25.0580     2.4510 
  230.7500    -0.7280    41.6260     6.7550     6.7550     6.1310    25.0580     2.4510 
  230.8750    -0.6620    45.0820     6.9590     6.7850     6.4320    25.0570     2.4450 
