~V
VERS. 2.00: Ver 2.00
~W
STRT.M 56.0000:
STOP.M 269.0000:
STEP.M 0.1250:
NULL. -999.2500:
UWI. F10026:
~C
DEPT.M :
GR.API :
RML.OHMM :
RI. :
RXO.OHMM :
CALI.CM :
DEN.GM/CC :
SP.MV :
~A
# ...
  258.5000    54.3320    10.2120     9.4880    12.5110    23.9040     2.3190   -24.0080 
  258.6250    54.3320     9.4180     8.8970    10.0750    23.8540     2.3200   -23.8340 
  258.7500    54.3320     8.3800     7.9860     7.6260    23.7900     2.3190   -23.6230 
  258.8750    54.3320     7.3590     7.0020     6.0520    23.7030     2.3200   -23.3840 
  259.0000    54.3320     6.5420     6.1480     5.2070    23.6110     2.3240   -23.1520 
  259.1250    54.3320     6.0360     5.5610     5.3050    23.6490     2.3290   -22.9490 
  259.2500    54.3320     5.7460     5.1840     5.6690    23.7600     2.3300   -22.7670 
  259.3750    54.3320     5.5860     4.9550     5.9200    23.9130     2.3240   -22.6120 
  259.5000    54.3320     5.4800     4.8220     6.1280    24.0120     2.3160   -22.5100 
  259.6250    54.3320     5.3820     4.7590     5.1320    24.0140     2.3180   -22.4970 
  259.7500    54.3320     5.2940     4.7290     4.6900    23.9810     2.3380   -22.5030 
  259.8750    54.3320     5.2360     4.7100     4.4810    23.9520     2.3680   -22.5220 
  260.0000    54.3320     5.2160     4.6860     4.4400    23.9480     2.3930   -22.5270 
  260.1250    54.3320     5.2190     4.6610     4.3950    24.0150     2.3910   -22.5330 
  260.2500    54.3320     5.2150     4.6590     4.4510    24.1040     2.3670   -22.5690 
  260.3750    54.3320     5.1920     4.6920     4.5280    24.1980     2.3370   -22.6330 
  260.5000    54.3320     5.1620     4.7360     4.5390    24.1610     2.3200   -22.7020 
  260.6250    54.3320     5.1500     4.7430     4.4970    24.1180     2.3300   -22.7360 
  260.7500    54.3320     5.1600     4.7010     4.3960    24.0770     2.3530   -22.7320 
  260.8750    54.3320     5.1770     4.6360     4.3300    24.0500     2.3730   -22.7180 
  261.0000    54.3320     5.1760     4.5870     4.3850    23.9480     2.3780   -22.6770 
  261.1250    54.3320     5.1280     4.5710     4.4690    23.7990     2.3670   -22.6440 
  261.2500    54.3320     5.0430     4.5600     4.4700    23.7180     2.3520   -22.5900 
  261.3750    54.3320     4.9400     4.5200     4.3830    23.6740     2.3480   -22.5080 
  261.5000    54.3320     4.8380     4.4390     4.3220    23.6460     2.3610   -22.4490 
  261.6250    54.3320     4.7570     4.3190     4.2920    23.6190     2.3910   -22.4370 
  261.7500    54.3320     4.6990     4.1900     4.3190    23.5990     2.4230   -22.4550 
  261.8750    54.3320     4.6530     4.0770     4.5600    23.5560     2.4440   -22.4940 
  262.0000    54.3320     4.6280     4.0060     5.5170    23.7080     2.4440   -22.5490 
  262.1250    54.3320     4.6640     4.0070     7.0860    23.9740     2.4160   -22.6170 
  262.2500    54.3320     4.7500     4.0640     7.6770    23.9840     2.3710   -22.6910 
  262.3750    54.3320     4.8370     4.1420     6.3200    23.4350     2.3160   -22.7840 
  262.5000    54.3320     4.8690     4.1910     5.1510    22.9120     2.2560   -22.8680 
  262.6250    54.3320     4.7950     4.1700     4.7140    22.4620     2.1920   -22.9150 
  262.7500    54.3320     4.6460     4.1060     4.6990    21.8680     2.1290   -22.9340 
  262.8750    54.3320     4.4900     4.0490     4.8500    21.0040     2.0710   -22.9470 
  263.0000    54.3320     4.4050     4.0440     4.9890    19.7450     2.0240   -22.9730 
  263.1250    54.3320     4.4260     4.1080     5.0180    18.5050     1.9940   -22.9620 
  263.2500    54.3320     4.4880     4.1850     5.0710    17.5090     1.9770   -22.9750 
  263.3750    54.3320     4.5460     4.2200     5.1540    16.7990     1.9730   -23.0120 
  263.5000    54.3320     4.5700     4.1830     5.2540    16.2820     1.9770   -23.0200 
  263.6250    54.3320     4.5360     4.0770     5.3470    15.9530     1.9880   -23.0570 
  263.7500    54.3320     4.4610     3.9530     5.3940    15.7580     2.0040   -23.1020 
  263.8750    54.3320     4.3710     3.8480     5.4730    15.7250     2.0210   -23.1570 
  264.0000    54.3320     4.3070     3.7830     5.5890    15.7840     2.0400   -23.1870 
  264.1250    54.3320     4.3090     3.7720     5.5280    15.8010     2.0580   -23.2310 
  264.2500    54.3320     4.3740     3.8040     5.4890    15.7640     2.0680   -23.2530 
  264.3750    54.3320     4.4620     3.8560     5.5290    15.7330     2.0700   -23.2470 
  264.5000    54.3320     4.5380     3.8880     5.6460    15.7320     2.0630   -23.2830 
  264.6250    54.3320     4.5740     3.8960     5.6540    15.7590     2.0500   -23.3100 
  264.7500    54.3320     4.5890     3.8960     5.5280    15.8060     2.0360   -23.3190 
  264.8750    54.3320     4.6000     3.8960     5.3950    15.8770     2.0240   -23.3090 
  265.0000    54.3320     4.6080     3.8960     5.3220    15.9070     2.0170   -23.3430 
  265.1250    54.3320     4.6110     3.8960     5.3430    15.8600     2.0170   -23.3940 
  265.2500    54.3320     4.6110     3.8960     5.3430    15.7410     2.0230   -23.4640 
  265.3750    54.3320     4.6110     3.8960     5.2670    15.5650     2.0310   -23.5690 
  265.5000    54.3320     4.6110     3.8960     5.2860    15.3750     2.0380   -23.6590 
  265.6250    54.3320     4.6110     3.8960     5.3000    15.2460     2.0400   -23.7440 
  265.7500    54.3320     4.6110     3.8960     5.3120    15.1770     2.0370   -23.8470 
  265.8750    54.3320     4.6110     3.8960     5.3120    15.1670     2.0320   -23.9440 
  266.0000    54.3320     4.6110     3.8960     5.2290    15.1900     2.0230   -24.0910 
  266.1250    54.3320     4.6110     3.8960     5.2650    15.1480     2.0100   -24.2870 
  266.2500    54.3320     4.6110     3.8960     5.1810    14.9940     1.9940   -24.4680 
  266.3750    54.3320     4.6110     3.8960     5.0070    14.6500     1.9760   -24.6590 
  266.5000    54.3320     4.6110     3.8960     4.9440    14.3410     1.9610   -24.8430 
  266.6250    54.3320     4.6110     3.8960     4.9670    14.2240     1.9510   -25.0320 
  266.7500    54.3320     4.6110     3.8960     4.9740    14.2100     1.9460   -25.2420 
  266.8750    54.3320     4.6110     3.8960     4.9740    14.2100     1.9530   -25.4520 
  267.0000    54.3320     4.6110     3.8960     4.9730    14.2100     1.9630   -25.5620 
  267.1250    54.3320     4.6110     3.8960     4.9720    14.2100  -999.2500   -25.5380 
  267.2500    54.3320     4.6110     3.8960     4.9720    14.2080  -999.2500   -25.5150 
  267.3750    54.3320     4.6110     3.8960     4.9720    14.2030  -999.2500  -999.2500 
  267.5000    54.3320     4.6110     3.8960     4.9730    14.1940  -999.2500  -999.2500 
  267.6250    54.3320     4.6110     3.8960     4.9730    14.1840  -999.2500  -999.2500 
  267.7500    54.3320     4.6110     3.8960     4.9730    14.1740  -999.2500  -999.2500 
  267.8750    54.3320     4.6110     3.8960     4.9730    14.1650  -999.2500  -999.2500 
  268.0000    54.3320     4.6110     3.8960     4.9730    14.1590  -999.2500  -999.2500 
  268.1250    54.3320     4.6110     3.8960     4.9750    14.1540  -999.2500  -999.2500 
  268.2500    54.3320     4.6110     3.8960     4.9770    14.1490  -999.2500  -999.2500 
  268.3750    54.3320     4.6110     3.8960     4.9770    14.1460  -999.2500  -999.2500 
  268.5000    54.3320     4.6110     3.8960     4.9780    14.1440  -999.2500  -999.2500 
  268.6250    54.3320     4.6110     3.8960     4.9780    14.1410  -999.2500  -999.2500 
  268.7500    54.3320     4.6110     3.8960     4.9770    14.1360  -999.2500  -999.2500 
  268.8750    54.3320     4.6110     3.8960     4.9770    14.1300  -999.2500  -999.2500 
  269.0000    54.3320     4.6110     3.8960     4.9770    14.1230  -999.2500  -999.2500 
