~V
VERS. 2.00: Ver 2.00
~W
STRT.M 50.0000:
STOP.M 307.0000:
STEP.M 0.1250:
NULL. -999.2500:
UWI. F10044:
~C
DEPT.M :
GR.API :
RML.OHMM :
RI. :
RXO.OHMM :
CALI.CM :
DEN.GM/CC :
SP.MV :
~A
# ...
  185.0000    77.7670     8.8800     8.1690     7.7980    23.1140     2.3510    -4.4130 
  185.1250    80.2620     8.2860     7.8060     7.4000    23.1920     2.3540    -4.2860 
  185.2500    81.7780     7.6030     7.2580     7.1000    23.3430     2.3490    -4.1660 
  185.3750    83.1080     6.9620     6.6620     6.5980    23.5660     2.3400    -4.0130 
  185.5000    82.9060     6.4180     6.1160     5.9510    23.8240     2.3360    -3.8330 
  185.6250    82.5230     6.0000     5.6910     5.5140    24.0220     2.3400    -3.6970 
  185.7500    84.8220     5.6910     5.3840     5.2060    24.1070     2.3520    -3.6590 
  185.8750    89.3200     5.4970     5.1940     4.9490    24.1130     2.3660    -3.6900 
  186.0000    91.1600     5.4160     5.1080     4.7740    24.0980     2.3790    -3.7230 
  186.1250    88.8330     5.4310     5.1080     4.7960    24.0820     2.3850    -3.7000 
  186.2500    87.0560     5.4830     5.1470     4.9320    24.0540     2.3850    -3.7020 
  186.3750    88.1780     5.5390     5.1960     5.0840    24.0100     2.3810    -3.7630 
  186.5000    89.6080     5.5920     5.2420     5.1970    23.9580     2.3760    -3.8210 
  186.6250    88.7530     5.6720     5.2990     5.2190    23.9220     2.3730    -3.8250 
  186.7500    87.3340     5.8110     5.3880     5.1590    23.9190     2.3740    -3.8330 
  186.8750    86.0060     6.0070     5.5180     5.2400    23.9420     2.3750    -3.8960 
  187.0000    84.8540     6.2160     5.6650     5.5850    23.9860     2.3740    -4.0100 
  187.1250    84.3210     6.3280     5.7580     5.9940    24.0440     2.3680    -4.1610 
  187.2500    83.1840     6.2790     5.7380     6.3230    24.0990     2.3600    -4.2970 
  187.3750    81.1810     6.0790     5.5940     6.3670    24.1420     2.3560    -4.4420 
  187.5000    80.6430     5.8520     5.3960     5.9370    24.1650     2.3640    -4.6390 
  187.6250    83.2130     5.8990     5.3480     5.8070    24.1740     2.3910    -4.8570 
  187.7500    86.5320     6.4420     5.6430     6.1760    24.1730     2.4310    -5.0410 
  187.8750    88.8160     7.5630     6.3810     7.5570    24.1520     2.4730    -5.1760 
  188.0000    88.1770     9.1070     7.5080    10.2090    24.0890     2.5000    -5.3220 
  188.1250    80.6900    10.6060     8.7450    13.6310    23.9640     2.4960    -5.5210 
  188.2500    69.5090    11.5010     9.6410    16.4100    23.8070     2.4660    -5.7070 
  188.3750    61.4470    11.4960     9.8850    16.3290    23.6410     2.4260    -5.8430 
  188.5000    61.1650    10.7200     9.4580    12.4650    23.4940     2.3950    -5.9570 
  188.6250    65.4200     9.8380     8.7570     9.1580    23.4150     2.3930    -6.1200 
  188.7500    69.4060     9.7040     8.4550     8.4020    23.3900     2.4200    -6.2900 
  188.8750    71.5150    10.8350     9.0160    10.0830    23.4170     2.4690    -6.4000 
  189.0000    71.0310    13.3950    10.7170    14.0950    23.4790     2.5290    -6.3960 
  189.1250    67.2630    17.2350    13.7280    20.0710    23.5620     2.5830    -6.3140 
  189.2500    60.7470    21.3350    17.3800    26.7050    23.6410     2.6160    -6.2530 
  189.3750    54.0250    24.7030    20.8600    31.8130    23.7050     2.6240    -6.2190 
  189.5000    48.6920    26.4880    23.2510    32.3930    23.7540     2.6080    -6.1580 
  189.6250    46.7740    26.1550    23.7240    28.7310    23.7920     2.5710    -6.0520 
  189.7500    48.3800    24.6500    22.8800    25.1580    23.8030     2.5290    -6.0060 
  189.8750    50.4610    22.8570    21.4820    23.3990    23.7690     2.4930    -6.0610 
  190.0000    50.8680    21.4280    20.1650    22.3090    23.6690     2.4730    -6.1950 
  190.1250    48.6530    20.7490    19.3270    20.9740    23.5250     2.4760    -6.3520 
  190.2500    46.4050    20.6860    18.9600    19.5090    23.3740     2.4950    -6.5370 
  190.3750    47.3720    21.0670    18.9890    18.7820    23.2380     2.5200    -6.7630 
  190.5000    51.5860    21.6310    19.2680    18.8980    23.1400     2.5420    -7.0310 
  190.6250    55.1830    22.0000    19.5630    18.7450    23.0810     2.5480    -7.2690 
  190.7500    56.2320    21.8890    19.6160    18.5780    23.0400     2.5360    -7.4400 
  190.8750    54.2040    21.1790    19.2680    18.1490    22.9950     2.5110    -7.5930 
  191.0000    51.2220    20.0110    18.5280    17.2540    22.9450     2.4820    -7.7390 
  191.1250    50.0620    18.8720    17.6740    15.8250    22.9050     2.4680    -7.8460 
  191.2500    51.3210    18.3370    17.1640    14.9490    22.9000     2.4780    -7.8550 
  191.3750    53.9150    18.6780    17.2690    14.3530    22.9150     2.5070    -7.7680 
  191.5000    54.9370    19.7420    17.9610    14.7330    22.9420     2.5420    -7.6350 
  191.6250    52.9180    20.7880    18.7740    16.7870    22.9850     2.5610    -7.5010 
  191.7500    50.5920    20.8650    18.9490    19.3180    23.0580     2.5540    -7.3150 
  191.8750    50.8070    19.4850    17.9910    20.8790    23.1720     2.5260    -7.0370 
  192.0000    53.8810    16.8830    15.9570    19.7580    23.3200     2.4950    -6.7380 
  192.1250    57.8340    14.1350    13.6170    15.5460    23.4520     2.4830    -6.5150 
  192.2500    63.6160    12.4090    11.9640    11.6950    23.5590     2.4910    -6.3630 
  192.3750    70.6670    12.0850    11.3730    10.3600    23.6510     2.5140    -6.2190 
  192.5000    74.0080    12.8680    11.7360    12.6040    23.7510     2.5350    -6.0420 
  192.6250    73.2620    13.9390    12.5740    17.0660    23.8880     2.5360    -5.8870 
  192.7500    73.2950    14.3570    13.1050    21.1500    24.0340     2.5150    -5.8110 
  192.8750    72.2150    13.7080    12.8480    23.0500    24.1410     2.4830    -5.7940 
  193.0000    68.5640    12.1480    11.7570    20.8250    24.2000     2.4530    -5.7430 
  193.1250    67.8850    10.3660    10.2890    14.3220    24.2230     2.4410    -5.6210 
  193.2500    73.0050     9.0480     9.0780     9.8640    24.2290     2.4450    -5.5180 
  193.3750    79.3050     8.3640     8.3350     9.2180    24.2280     2.4570    -5.4690 
  193.5000    82.2660     8.2180     8.0620    10.3880    24.2250     2.4720    -5.4320 
  193.6250    81.0420     8.5180     8.2520    11.5120    24.2230     2.4890    -5.3630 
  193.7500    78.1740     9.1370     8.7850    11.5240    24.2180     2.5110    -5.3010 
  193.8750    75.0000    10.0810     9.6470    11.0200    24.2090     2.5390    -5.2610 
  194.0000    71.2200    11.3410    10.8190    12.2670    24.1950     2.5670    -5.2490 
  194.1250    64.4950    12.8100    12.2440    15.0650    24.1780     2.5890    -5.2370 
  194.2500    57.9770    14.1990    13.6730    17.5630    24.1640     2.6010    -5.2030 
  194.3750    54.1860    15.2640    14.8610    18.4870    24.1580     2.6050    -5.1790 
  194.5000    53.7610    15.8690    15.6060    18.5130    24.1570     2.6040    -5.2000 
  194.6250    54.2850    16.0130    15.8030    18.5480    24.1570     2.6000    -5.2170 
  194.7500    53.2670    15.9980    15.7290    18.5500    24.1540     2.5960    -5.1610 
  194.8750    49.6400    16.0320    15.6170    18.5040    24.1450     2.5920    -5.0770 
  195.0000    46.4680    16.2250    15.6230    18.5440    24.1280     2.5890    -5.0410 
  195.1250    47.6850    16.6100    15.8340    18.9570    24.0990     2.5870    -5.0660 
  195.2500    50.6620    17.1120    16.2070    19.4910    24.0650     2.5850    -5.0350 
  195.3750    52.4450    17.6860    16.6990    20.0540    24.0360     2.5840    -4.9220 
  195.5000    52.5310    18.2940    17.2560    20.7330    24.0190     2.5820    -4.8030 
  195.6250    51.0850    18.9060    17.8260    20.7180    24.0060     2.5800    -4.7650 
  195.7500    48.5480    19.4950    18.3680    21.3490    23.9870     2.5780    -4.7490 
  195.8750    45.3440    20.0260    18.8590    21.8480    23.9590     2.5740    -4.6950 
  196.0000    43.6570    20.4540    19.2800    22.1980    23.9280     2.5680    -4.6200 
  196.1250    44.8630    20.7040    19.5880    22.3790    23.8920     2.5590    -4.5750 
