~V
VERS. 2.00: Ver 2.00
~W
STRT.M 64.0000:
STOP.M 220.0000:
STEP.M 0.1250:
NULL. -999.2500:
UWI. F10051:
~C
DEPT.M :
SP.MV :
GR.API :
RML.OHMM :
RI. :
RXO.OHMM :
CALI.CM :
DEN.GM/CC :
~A
# ...
   86.5000   -24.4020    63.9730     7.4520     6.2210     8.3660    22.0240     2.2090 
   86.6250   -23.9620    60.3070     7.5490     6.3230     8.7830    22.0280     2.2110 
   86.7500   -23.5230    59.0430     7.6600     6.4390     9.2110    22.1680     2.2120 
   86.8750   -23.0420    60.8790     7.7750     6.5550     9.3770    22.3620     2.2130 
   87.0000   -22.5160    62.7890     7.8880     6.6610     9.1310    22.5130     2.2160 
   87.1250   -21.9040    62.6580     7.9740     6.7390     8.7160    22.5370     2.2210 
   87.2500   -21.1910    63.8710     7.9890     6.7640     8.4170    22.4950     2.2250 
   87.3750   -20.4060    66.6460     7.8720     6.7000     8.3610    22.4640     2.2300 
   87.5000   -19.6230    67.8760     7.5820     6.5200     8.4670    22.4750     2.2380 
   87.6250   -18.8830    67.0200     7.1330     6.2210     8.4700    22.5310     2.2530 
   87.7500   -18.2220    68.7010     6.6790     5.8970     8.1380    22.5930     2.2750 
   87.8750   -17.7670    74.4650     6.3790     5.6540     7.4730    22.6670     2.2980 
   88.0000   -17.6020    80.5210     6.3620     5.5900     6.7990    22.7530     2.3130 
   88.1250   -17.7540    81.7590     6.7160     5.7910     6.6070    22.7850     2.3120 
   88.2500   -18.0850    79.7190     7.2890     6.1780     6.9260    22.7530     2.3000 
   88.3750   -18.4800    75.9390     7.8940     6.6370     7.5490    22.6660     2.2830 
   88.5000   -18.8900    71.2950     8.3150     7.0100     8.1310    22.5940     2.2680 
   88.6250   -19.2500    68.3480     8.3070     7.1050     8.2830    22.5600     2.2570 
   88.7500   -19.5040    68.8560     7.9130     6.9120     8.0380    22.5710     2.2480 
   88.8750   -19.5460    71.3800     7.2900     6.5170     7.7260    22.6310     2.2340 
   89.0000   -19.3110    73.1440     6.7180     6.0960     7.4550    22.7390     2.2120 
   89.1250   -18.8130    71.6450     6.7220     5.9920     7.3270    22.7870     2.1890 
   89.2500   -18.1820    69.1530     7.7670     6.5670     7.8540    22.8000     2.1890 
   89.3750   -17.5060    67.2230    10.2670     8.2050     9.7750    22.7760     2.2300 
   89.5000   -16.7970    68.1770    14.2910    11.1130    14.3270    22.7790     2.3190 
   89.6250   -16.1090    71.7790    19.2250    15.0920    22.8060    22.9860     2.4400 
   89.7500   -15.4690    74.2090    23.3430    18.8860    32.2200    23.4220     2.5390 
   89.8750   -14.8350    74.1970    24.9970    21.1070    39.6500    23.7470     2.5760 
   90.0000   -14.2820    70.9070    23.2240    20.6620    40.2580    23.8540     2.5440 
   90.1250   -13.7650    66.7530    18.5150    17.4160    28.0570    23.8240     2.4680 
   90.2500   -13.1530    65.9060    13.5670    13.4540    16.9270    23.7760     2.3930 
   90.3750   -12.4180    71.0370     9.7640    10.0740    10.7140    23.7740     2.3400 
   90.5000   -11.6450    81.6290     7.3660     7.7040     7.5970    23.8510     2.3160 
   90.6250   -10.9470    91.8520     6.2000     6.3610     5.9970    23.9490     2.3200 
   90.7500   -10.3610    97.1420     5.6910     5.6450     5.1860    23.9770     2.3350 
   90.8750    -9.9720    97.0370     5.5980     5.3760     4.9790    23.9540     2.3470 
   91.0000    -9.6980    92.8650     5.7680     5.4230     5.0620    23.9200     2.3460 
   91.1250    -9.6330    87.6540     6.1230     5.7170     5.3070    23.8840     2.3300 
   91.2500    -9.8690    84.5160     6.5550     6.1340     5.7080    23.8710     2.3080 
   91.3750   -10.3940    83.5310     6.9950     6.6000     6.2710    23.8910     2.2860 
   91.5000   -11.0780    82.5090     7.3770     7.0360     6.9230    23.9650     2.2670 
   91.6250   -11.7230    80.9600     7.6140     7.3420     7.5510    24.0620     2.2510 
   91.7500   -12.1890    81.9190     7.6790     7.4710     7.8910    24.1040     2.2390 
   91.8750   -12.4250    83.5130     7.5610     7.3980     7.8830    24.0740     2.2310 
   92.0000   -12.4450    83.1930     7.2860     7.1370     7.5890    24.0050     2.2320 
   92.1250   -12.1900    81.1130     6.9060     6.7280     7.0470    23.9510     2.2460 
   92.2500   -11.7000    80.8750     6.5240     6.2810     6.4450    23.9220     2.2710 
   92.3750   -11.0640    83.0820     6.2150     5.8720     5.8740    23.8960     2.3000 
   92.5000   -10.4250    85.8820     6.0420     5.5620     5.5440    23.8730     2.3260 
   92.6250    -9.9240    88.0370     6.0740     5.4150     5.5030    23.8650     2.3390 
   92.7500    -9.6310    89.3840     6.2780     5.4140     5.5500    23.8580     2.3390 
   92.8750    -9.5720    89.4900     6.6080     5.5330     5.6620    23.8330     2.3280 
   93.0000    -9.7350    88.4600     6.9810     5.7230     5.9520    23.7380     2.3080 
   93.1250   -10.0800    86.0600     7.2720     5.9140     6.5130    23.4770     2.2850 
   93.2500   -10.4980    83.2490     7.4220     6.0540     7.2060    23.0500     2.2630 
   93.3750   -10.9250    80.0260     7.4700     6.1530     7.8430    22.6230     2.2440 
   93.5000   -11.2910    77.2920     7.5970     6.3030     8.2970    22.3830     2.2320 
   93.6250   -11.4880    76.7530     8.2600     6.7810     8.4840    22.3420     2.2380 
   93.7500   -11.5870    76.3040     9.8080     7.8510     8.9210    22.3680     2.2700 
   93.8750   -11.6180    73.3900    12.4290     9.7120    10.1510    22.4050     2.3340 
   94.0000   -11.6450    68.9500    15.9150    12.3190    12.5100    22.4620     2.4260 
   94.1250   -11.7320    67.1530    19.3980    15.1730    15.7080    22.5200     2.5240 
   94.2500   -11.9870    67.8560    21.6010    17.2930    18.4610    22.6230     2.5930 
   94.3750   -12.4160    69.5300    21.6160    17.8530    19.6330    22.8360     2.6080 
   94.5000   -13.0430    72.1430    19.3610    16.5720    18.9820    23.1390     2.5660 
   94.6250   -13.9430    74.3440    15.7980    13.9620    16.5770    23.4620     2.4800 
   94.7500   -14.9750    74.3580    12.5760    11.3360    13.2600    23.6830     2.3900 
   94.8750   -16.0710    72.9980    10.3490     9.2970    10.5720    23.8030     2.3130 
   95.0000   -17.1200    72.4800     9.1580     7.9900     9.4650    23.8430     2.2580 
   95.1250   -18.0850    72.1060     8.8350     7.3900     9.4480    23.8390     2.2280 
   95.2500   -18.8990    71.2760     8.9120     7.1940     9.6560    23.8300     2.2130 
   95.3750   -19.6040    71.0820     9.1380     7.2290     9.8130    23.8390     2.2070 
   95.5000   -20.1600    71.1550     9.3360     7.3510     9.8310    23.8470     2.2040 
   95.6250   -20.5060    70.3030     9.3990     7.4540     9.6800    23.8280     2.2050 
   95.7500   -20.7240    70.2230     9.3560     7.5050     9.4870    23.7810     2.2070 
   95.8750   -20.8100    71.7810     9.2580     7.5140     9.3530    23.7380     2.2120 
   96.0000   -20.8250    73.4870     9.1470     7.5030     9.2700    23.7270     2.2190 
   96.1250   -20.7810    72.6710     9.0440     7.4860     9.2250    23.7620     2.2230 
   96.2500   -20.6970    68.3320     8.9580     7.4710     9.2050    23.8270     2.2250 
   96.3750   -20.5440    62.7490     8.9040     7.4670     9.1740    23.9000     2.2220 
   96.5000   -20.2580    60.2930     8.9100     7.4870     9.1110    23.9750     2.2150 
   96.6250   -19.8260    63.3170     9.0140     7.5590     8.9380    24.0790     2.2040 
   96.7500   -19.2750    66.4050     9.1780     7.6660     8.8360    24.1410     2.1930 
   96.8750   -18.6140    66.9130     9.3110     7.7570     8.8720    24.1040     2.1840 
   97.0000   -17.7980    67.5680     9.2740     7.7430     9.1140    23.9730     2.1780 
   97.1250   -16.7560    68.4200     8.8870     7.4910     9.4370    23.8900     2.1770 
   97.2500   -15.5400    67.4180     8.1920     7.0090     9.3580    24.0230     2.1850 
   97.3750   -14.1490    67.7620     7.3240     6.3700     8.6410    24.3060     2.2060 
   97.5000   -12.7320    73.2400     6.4820     5.7060     7.3660    24.4160     2.2400 
   97.6250   -11.4810    82.1030     5.8860     5.1770     6.0940    24.4620     2.2850 
