~V
VERS. 2.00: Ver 2.00
~W
STRT.M 51.0000:
STOP.M 262.0000:
STEP.M 0.1250:
NULL. -999.2500:
UWI. F10019:
~C
DEPT.M :
DEN.GM/CC :
SP.MV :
GR.API :
CALI.CM :
RXO.OHMM :
RI. :
RML.OHMM :
~A
# ...
   73.5000     2.0800    -1.5430    74.1310    24.0950     9.1590     7.1890     9.5660 
   73.6250     2.0820    -1.5430    72.9340    24.0110     9.1160     7.2320     9.5620 
   73.7500     2.0890    -1.5760    72.2410    23.9530     9.0750     7.2830     9.5320 
   73.8750     2.0930    -1.6350    71.7270    23.9480     9.1000     7.3400     9.5140 
   74.0000     2.0920    -1.6840    71.0080    23.9730     9.1000     7.3890     9.5460 
   74.1250     2.0920    -1.7330    70.8300    23.9360     9.0450     7.4260     9.6270 
   74.2500     2.0970    -1.7680    70.2490    23.7530     8.9740     7.4600     9.7470 
   74.3750     2.1060    -1.8550    68.9670    23.5350     8.9620     7.5010     9.8880 
   74.5000     2.1150    -1.9770    68.5170    23.4380     9.1900     7.5320     9.9700 
   74.6250     2.1290    -2.0990    70.4200    23.5250     9.7900     7.4970     9.8880 
   74.7500     2.1480    -2.2020    73.5030    23.7520    10.1090     7.3240     9.5540 
   74.8750     2.1690    -2.3240    76.7290    23.9530     9.4760     6.9640     8.9510 
   75.0000     2.1870    -2.4600    80.3640    24.0200     7.8360     6.4260     8.1680 
   75.1250     2.2060    -2.5710    84.8230    24.0920     6.5950     5.8610     7.4400 
   75.2500     2.2280    -2.7010    90.3010    24.2610     5.9540     5.4000     6.9340 
   75.3750     2.2530    -2.7880    95.0470    24.4000     5.9840     5.1290     6.7280 
   75.5000     2.2710    -2.8500    95.4010    24.4200     6.7520     5.0990     6.8310 
   75.6250     2.2730    -2.8640    93.6920    24.4310     7.5940     5.2170     7.0660 
   75.7500     2.2600    -2.8410    93.4560    24.4620     7.7850     5.3800     7.2540 
   75.8750     2.2410    -2.7940    94.2500    24.4510     7.2040     5.4700     7.2300 
   76.0000     2.2270    -2.7560    94.1460    24.3700     6.5210     5.3940     6.9300 
   76.1250     2.2220    -2.7360    94.1870    24.3100     6.2140     5.2050     6.5490 
   76.2500     2.2280    -2.6660    96.0190    24.3100     6.1480     4.9850     6.2650 
   76.3750     2.2390    -2.5990    98.6730    24.3050     6.0430     4.8050     6.1820 
   76.5000     2.2420    -2.5870    99.5020    24.2970     5.8930     4.7240     6.3210 
   76.6250     2.2380    -2.6600    99.3700    24.2820     5.9600     4.7280     6.5520 
   76.7500     2.2330    -2.7920    98.5340    24.2660     6.2610     4.7900     6.7690 
   76.8750     2.2360    -2.9100    97.5030    24.2540     6.6060     4.8800     6.9070 
   77.0000     2.2400    -3.0060    95.8140    24.3140     6.8670     4.9990     6.9920 
   77.1250     2.2350    -3.1200    93.4710    24.3410     7.0190     5.1840     7.1410 
   77.2500     2.2170    -3.3350    91.9930    24.3510     7.0680     5.4780     7.4450 
   77.3750     2.1950    -3.5990    91.5770    24.3270     7.2890     5.8790     7.9180 
   77.5000     2.1940    -3.8630    90.5090    24.2590     8.3320     6.3080     8.4330 
   77.6250     2.2270    -4.0810    86.9440    24.2120     9.6700     6.6010     8.7310 
   77.7500     2.2790    -4.2310    82.5390    24.2240     9.7170     6.6150     8.6320 
   77.8750     2.3150    -4.3560    81.2310    24.2640     8.3390     6.3230     8.1730 
   78.0000     2.3040    -4.4320    86.4540    24.3210     6.8360     5.8620     7.6440 
   78.1250     2.2680    -4.4650    93.7970    24.4340     6.4000     5.4660     7.3430 
   78.2500     2.2320    -4.4810    98.1470    24.4750     6.2600     5.2480     7.3360 
   78.3750     2.2060    -4.4590    98.9250    24.4190     6.5280     5.2310     7.5370 
   78.5000     2.1850    -4.4060    96.7660    24.2760     7.2440     5.3540     7.7360 
   78.6250     2.1700    -4.3680    93.9040    24.2200     7.5350     5.4400     7.7220 
   78.7500     2.1700    -4.3750    91.2880    24.2900     6.8600     5.3660     7.4210 
   78.8750     2.1910    -4.3740    89.2880    24.3640     5.6570     5.1030     6.8780 
   79.0000     2.2230    -4.3720    88.4930    24.3110     4.9810     4.7040     6.2360 
   79.1250     2.2510    -4.3890    90.5750    24.2540     4.6870     4.3100     5.7120 
   79.2500     2.2650    -4.3650    94.6520    24.2360     4.5870     4.0380     5.4660 
   79.3750     2.2670    -4.3430    95.7110    24.2380     4.6560     3.9900     5.6240 
   79.5000     2.2540    -4.2880    91.9690    24.2510     5.2170     4.2890     6.3210 
   79.6250     2.2360    -4.2150    87.8910    24.1540     7.1770     4.9110     7.4480 
   79.7500     2.2280    -4.1970    85.6470    24.0600    12.0760     5.8080     8.8500 
   79.8750     2.2370    -4.1910    83.4130    24.0790    17.6350     6.8220    10.2270 
   80.0000     2.2510    -4.1420    79.1050    24.1180    17.2750     7.6000    11.0910 
   80.1250     2.2490    -4.1240    73.9270    24.1510    13.1860     7.9170    11.2970 
   80.2500     2.2220    -4.1050    70.9440    24.2420    10.5400     7.8040    10.9920 
   80.3750     2.1790    -4.0750    72.1850    24.4250    10.0500     7.4780    10.5060 
   80.5000     2.1380    -4.1270    74.5820    24.5700    10.2880     7.1890    10.1230 
   80.6250     2.1150    -4.2180    73.9480    24.6740    10.2970     7.0410     9.8990 
   80.7500     2.1080    -4.2730    72.9340    24.7440    10.1360     7.0190     9.7920 
   80.8750     2.1110    -4.3680    74.4830    24.8760     9.8670     7.0580     9.7530 
   81.0000     2.1130    -4.5360    78.4370    25.0060     9.8050     7.0950     9.7430 
   81.1250     2.1130    -4.6880    80.3330    25.0610     9.8000     7.1180     9.7320 
   81.2500     2.1130    -4.8680    78.6980    24.8890     9.6050     7.1260     9.7220 
   81.3750     2.1110    -5.0880    75.8150    24.2760     9.0140     7.1250     9.7290 
   81.5000     2.1010    -5.3160    75.0520    23.3670     8.6090     7.1240     9.7490 
   81.6250     2.0870    -5.5600    75.5510    23.0770     8.4980     7.1300     9.7720 
   81.7500     2.0820    -5.7720    75.5260    23.4510     8.2860     7.1310     9.7870 
   81.8750     2.0920    -5.9660    74.6680    24.0710     7.6990     7.0960     9.7640 
   82.0000     2.1040    -6.1320    74.5030    24.5570     7.1620     6.9530     9.6200 
   82.1250     2.1120    -6.2920    77.7480    24.6000     7.0670     6.6740     9.3070 
   82.2500     2.1290    -6.4390    85.1100    24.3780     7.0120     6.2660     8.8130 
   82.3750     2.1580    -6.5520    95.5180    24.1190     6.5590     5.7840     8.2030 
   82.5000     2.1880    -6.5820   106.9450    23.9850     5.9410     5.3290     7.6210 
   82.6250     2.2060    -6.5520   114.6000    23.9640     5.6260     4.9910     7.1980 
   82.7500     2.2200    -6.5030   116.6970    23.9940     5.6310     4.8160     7.0150 
   82.8750     2.2320    -6.4420   115.2460    23.9380     5.8760     4.8180     7.1030 
   83.0000     2.2250    -6.4100   114.3760    23.6980     6.3460     5.0030     7.4670 
   83.1250     2.1930    -6.3380   112.9410    23.3580     6.8560     5.2970     7.9660 
   83.2500     2.1560    -6.2250   107.3240    23.1400     7.1550     5.6300     8.4610 
   83.3750     2.1340    -6.0640   100.4860    23.0470     7.1640     5.9290     8.8200 
   83.5000     2.1290    -5.9110    98.3140    23.0960     7.2330     6.1220     8.9470 
   83.6250     2.1220    -5.7250    99.6560    23.2930     7.4120     6.2200     8.9310 
   83.7500     2.1130    -5.5300    98.3730    23.6120     7.4940     6.2590     8.8680 
   83.8750     2.1080    -5.3250    93.9080    23.8810     7.4140     6.2800     8.8430 
   84.0000     2.1080    -5.0860    93.8090    23.9700     7.4340     6.2990     8.8840 
   84.1250     2.1070    -4.8380    98.4640    23.9700     7.5670     6.2890     8.9080 
   84.2500     2.1080    -4.6120   103.0680    24.0020     7.6560     6.2170     8.8370 
   84.3750     2.1190    -4.4290   104.9240    24.1030     7.4400     6.0620     8.6260 
   84.5000     2.1450    -4.2790   106.1420    24.2120     6.8280     5.8250     8.2650 
   84.6250     2.1810    -4.2280   107.6460    24.2530     6.3400     5.5700     7.8410 
