~V
VERS. 2.00: Ver 2.00
~W
STRT.M 64.0000:
STOP.M 287.0000:
STEP.M 0.1250:
NULL. -999.2500:
UWI. F10052:
~C
DEPT.M :
SP.MV :
DEN.GM/CC :
GR.API :
RML.OHMM :
RI. :
RXO.OHMM :
CALI.CM :
~A
# ...
  210.2500   -33.2960     2.1590    60.9410    54.6430    53.9020    34.7760    24.1470 
  210.3750   -33.3290     2.1890    62.1700    48.0980    47.5470    30.1990    24.0460 
  210.5000   -33.3820     2.2130    60.9380    43.6120    42.8940    27.5130    23.9100 
  210.6250   -33.4590     2.2180    59.3330    41.5730    40.4600    25.6070    23.7530 
  210.7500   -33.5110     2.2110    59.5470    41.1790    39.6980    26.6200    23.6270 
  210.8750   -33.5400     2.2000    62.0610    41.7790    40.0850    29.6170    23.5770 
  211.0000   -33.5780     2.1920    64.4270    42.7020    40.9680    35.0470    23.6120 
  211.1250   -33.6520     2.1920    63.1640    43.3740    41.7110    35.2790    23.7080 
  211.2500   -33.7160     2.1960    61.1450    43.5890    41.9930    32.9390    23.8250 
  211.3750   -33.7440     2.2050    61.6280    43.3240    41.7430    31.6640    23.9450 
  211.5000   -33.7560     2.2180    65.0450    42.6650    41.0340    34.2070    24.0480 
  211.6250   -33.7680     2.2350    66.0040    41.8280    40.0290    37.7200    24.1070 
  211.7500   -33.8390     2.2460    63.1530    41.2100    39.0720    34.8130    24.1350 
  211.8750   -33.9500     2.2450    59.4350    41.1980    38.5160    30.1430    24.1630 
  212.0000   -34.0560     2.2300    57.6750    42.1590    38.7540    28.8350    24.2220 
  212.1250   -34.1240     2.2050    57.8860    44.5590    40.3170    30.6740    24.3370 
  212.2500   -34.1900     2.1810    57.6350    48.1490    43.0630    35.7390    24.4990 
  212.3750   -34.2830     2.1670    56.4010    52.5290    46.6640    39.7180    24.6940 
  212.5000   -34.3920     2.1680    56.2470    56.9570    50.4730    42.7120    24.8960 
  212.6250   -34.4850     2.1810    59.4290    60.1080    53.3730    44.0630    25.0470 
  212.7500   -34.5270     2.1920    63.5740    61.1210    54.5720    43.8500    25.1160 
  212.8750   -34.5360     2.1910    64.6160    59.7040    53.7120    41.1710    25.1020 
  213.0000   -34.5150     2.1790    60.5860    56.3230    51.0260    38.8100    25.0220 
  213.1250   -34.4650     2.1670    58.8940    51.9250    47.1770    38.0390    24.8880 
  213.2500   -34.4110     2.1660    62.0940    47.7380    43.3260    35.7240    24.7190 
  213.3750   -34.3530     2.1790    64.1490    44.4490    40.1810    33.0150    24.5300 
  213.5000   -34.3020     2.2020    61.6390    42.4650    38.1580    32.5330    24.3500 
  213.6250   -34.2670     2.2200    59.4370    42.1470    37.5420    32.1870    24.2120 
  213.7500   -34.2750     2.2240    61.5140    43.0400    37.9170    31.5340    24.1050 
  213.8750   -34.3010     2.2120    64.4230    44.6460    38.8960    32.9960    23.9980 
  214.0000   -34.3270     2.1930    63.3540    46.2210    39.9520    38.4130    23.8750 
  214.1250   -34.3440     2.1790    58.2470    46.6810    40.3380    40.8100    23.7650 
  214.2500   -34.3550     2.1770    55.8090    45.5750    39.6340    39.4600    23.6950 
  214.3750   -34.3750     2.1890    57.3510    42.8840    37.6720    36.9510    23.6610 
  214.5000   -34.4130     2.2120    59.3080    39.0430    34.6340    34.2250    23.6420 
  214.6250   -34.4390     2.2370    60.5480    34.8010    31.0080    30.3340    23.6240 
  214.7500   -34.4190     2.2520    64.0600    30.9250    27.5110    25.9920    23.6040 
  214.8750   -34.3770     2.2490    68.3220    27.7010    24.4910    22.0370    23.5800 
  215.0000   -34.3530     2.2320    68.5650    25.2030    22.0910    20.5740    23.5480 
  215.1250   -34.3500     2.2160    64.4280    23.6030    20.4580    20.9790    23.5060 
  215.2500   -34.3560     2.2140    61.4600    22.8660    19.5100    21.4550    23.4580 
  215.3750   -34.3620     2.2220    60.2630    23.0450    19.2800    20.5970    23.4020 
  215.5000   -34.3530     2.2290    60.4870    24.0680    19.7640    19.3490    23.3370 
  215.6250   -34.3460     2.2260    61.3960    25.6690    20.8880    22.8430    23.2670 
  215.7500   -34.3660     2.2220    61.2960    27.1180    22.1460    28.4270    23.2140 
  215.8750   -34.3990     2.2260    60.1590    27.7320    22.9830    30.6810    23.2060 
  216.0000   -34.4210     2.2400    58.5810    27.0640    22.9000    28.0950    23.2510 
  216.1250   -34.4390     2.2520    59.0440    25.1310    21.6550    26.1140    23.3190 
  216.2500   -34.4490     2.2550    60.4380    22.9040    19.9010    24.1270    23.3620 
  216.3750   -34.4310     2.2520    62.0170    21.0440    18.1940    21.1850    23.3530 
  216.5000   -34.3850     2.2520    63.9000    19.8520    16.8760    18.9480    23.2850 
  216.6250   -34.3000     2.2560    64.1920    19.3520    16.0940    17.8110    23.1800 
  216.7500   -34.1930     2.2590    63.6670    19.1750    15.6430    16.7990    23.1020 
  216.8750   -34.0960     2.2530    64.6180    19.0920    15.3620    16.3150    23.0820 
  217.0000   -34.0380     2.2380    64.7910    18.9680    15.1400    16.7990    23.1090 
  217.1250   -33.9800     2.2200    60.2450    18.7980    14.9660    17.6040    23.1470 
  217.2500   -33.8860     2.2060    55.0850    18.6530    14.8620    17.7200    23.1750 
  217.3750   -33.7910     2.2020    53.9140    18.5390    14.8100    17.4400    23.1980 
  217.5000   -33.7330     2.2110    55.6400    18.3950    14.7320    17.2200    23.2200 
  217.6250   -33.7010     2.2320    57.5150    18.0910    14.5010    17.3810    23.2430 
  217.7500   -33.6420     2.2530    59.6820    17.5700    14.0860    17.7830    23.2600 
  217.8750   -33.5640     2.2670    62.0410    16.8490    13.5020    17.4840    23.2680 
  218.0000   -33.4840     2.2700    63.2920    16.0310    12.8260    15.4900    23.2620 
  218.1250   -33.4240     2.2670    65.2080    14.6740    12.1810    14.3450    23.2410 
  218.2500   -33.4020     2.2640    65.2970    12.3030    11.6730    13.8430    23.2180 
  218.3750   -33.3970     2.2630    63.9260    12.0630    11.3560    13.7220    23.2010 
  218.5000   -33.3680     2.2650    63.6550    12.0080    11.2300    13.7350    23.1870 
  218.6250   -33.3290     2.2680    66.7170    12.0770    11.2470    13.7380    23.1740 
  218.7500   -33.3050     2.2730    69.5130    12.1700    11.2970    13.5630    23.1660 
  218.8750   -33.2670     2.2800    68.3580    12.2440    11.3340    13.3620    23.1610 
  219.0000   -33.1860     2.2860    65.6830    12.2810    11.3490    13.3510    23.1610 
  219.1250   -33.0820     2.2910    64.1330    12.2580    11.3400    13.5100    23.1710 
  219.2500   -32.9790     2.2940    64.4010    12.1940    11.3110    13.4820    23.1970 
  219.3750   -32.8750     2.2950    65.9480    12.1450    11.2700    13.3440    23.2410 
  219.5000   -32.7840     2.2940    67.2480    12.1890    11.2260    13.2010    23.3040 
  219.6250   -32.7170     2.2890    67.1760    12.3720    11.1830    13.1950    23.3870 
  219.7500   -32.6830     2.2820    66.6770    12.5930    11.1460    13.4370    23.4730 
  219.8750   -32.6640     2.2730    68.7840    12.7380    11.1120    13.6610    23.5420 
  220.0000   -32.6320     2.2650    73.6280    12.7320    11.0800    13.8370    23.5610 
  220.1250   -32.5890     2.2580    75.5610    12.5450    11.0600    14.0640    23.4960 
  220.2500   -32.5410     2.2580    72.2460    12.2680    11.0560    13.9300    23.3590 
  220.3750   -32.4830     2.2660    66.9940    11.9820    11.0690    13.3010    23.1790 
  220.5000   -32.4310     2.2830    64.2130    11.7710    11.0920    12.8700    22.9990 
  220.6250   -32.3640     2.3030    62.7210    11.7330    11.1140    12.7260    22.8730 
  220.7500   -32.2480     2.3230    60.4880    11.8720    11.1270    12.8040    22.8110 
  220.8750   -32.1370     2.3370    60.0710    12.1480    11.1360    12.8160    22.7940 
  221.0000   -32.0840     2.3460    63.9480    12.4420    11.1510    12.6420    22.7860 
  221.1250   -32.0550     2.3490    67.8010    12.5760    11.1650    12.4670    22.7580 
  221.2500   -32.0170     2.3480    67.8340    12.5110    11.1410    12.5720    22.7110 
  221.3750   -31.9560     2.3490    65.2840    12.2730    11.0350    13.0650    22.6530 
