~V
VERS. 2.00: Ver 2.00
~W
STRT.M 50.0000:
STOP.M 207.0000:
STEP.M 0.1250:
NULL. -999.2500:
UWI. F10009:
~C
DEPT.M :
GR.API :
RML.OHMM :
RI. :
RXO.OHMM :
CALI.CM :
DEN.GM/CC :
SP.MV :
~A
   50.0000    37.2120     6.0860     0.3460    13.4920    25.1470  -999.2500    94.1730 
   50.1250    35.3080     6.8180     0.3530    13.5400    25.2070  -999.2500    92.3540 
   50.2500    35.7390     7.3710     0.3590    13.8090    25.2250  -999.2500    90.6100 
   50.3750    36.6060     7.6630     0.3630    14.0480    25.2260  -999.2500    89.0260 
   50.5000    36.4340     7.6900     0.3650    14.3230    25.2260  -999.2500    87.6600 
   50.6250    36.1420     7.4650     0.3670    14.6950    25.2260  -999.2500    86.5640 
   50.7500    36.9810     7.0970     0.3720    14.9530    25.2240     0.0000    85.6840 
   50.8750    37.6270     6.6470     0.3780    15.1170    25.2180     0.0000    85.0120 
   51.0000    36.7190     6.1600     0.3850    15.1120    25.2080     0.0000    84.5280 
   51.1250    35.4850     5.6320     0.3860    15.0880    25.1910     0.0000    84.2850 
   51.2500    35.3090     5.0610     0.3810    15.2440    25.1730     1.0920    84.2830 
   51.3750    35.9200     4.4800     0.3710    15.4830    25.1600     2.1870    84.5150 
   51.5000    35.9100     3.9590     0.3600    15.8980    25.1550     2.1960    84.9810 
   51.6250    35.4830     3.5930     0.3550    16.4790    25.1520     2.2040    85.6990 
   51.7500    35.7150     3.3900     0.3550    16.9520    25.1490     2.2000    86.5940 
   51.8750    37.2030     3.3470     0.3600    17.2310    25.1470     2.1800    87.5790 
   52.0000    39.4210     3.4440     0.3680    17.5050    25.1460     2.1510    88.5190 
   52.1250    40.7210     3.6710     0.3790    17.7950    25.1450     2.1250    89.2170 
   52.2500    41.3540     3.9700     0.3910    18.2690    25.1460     2.1120    89.5790 
   52.3750    41.9520     4.2950     0.4040    18.6670    25.1460     2.1090    89.5960 
   52.5000    43.3410     4.6020     0.4170    18.3670    25.1450     2.1110    89.3310 
   52.6250    44.8400     4.8260     0.4270    17.6200    25.1370     2.1120    88.8350 
   52.7500    44.9230     4.9300     0.4340    16.0490    25.1230     2.1100    88.2510 
   52.8750    43.9340     4.8850     0.4370    13.9050    25.1000     2.1070    87.7040 
   53.0000    42.4340     4.6990     0.4370    11.4850    25.0670     2.1030    87.3390 
   53.1250    41.8390     4.4090     0.4340     8.9930    25.0320     2.0980    87.3760 
   53.2500    42.5080     4.1020     0.4290     7.4280    24.9940     2.0950    87.8530 
   53.3750    44.1010     3.8250     0.4210     6.7770    24.9610     2.0940    88.8030 
   53.5000    45.4320     3.6020     0.4120     6.4670    24.9420     2.0960    90.1910 
   53.6250    45.0270     3.4550     0.4010     5.9780    24.9300     2.1040    92.0560 
   53.7500    44.8600     3.3820     0.3920     5.1180    24.9090     2.1180    94.3140 
   53.8750    46.0120     3.3820     0.3880     4.0700    24.8620     2.1360    97.0010 
   54.0000    48.1850     3.4320     0.3920     2.9560    24.7650     2.1560   100.1520 
   54.1250    50.2590     3.4910     0.4050     1.9670    24.5900     2.1740   103.8440 
   54.2500    51.0570     3.5170     0.4220     1.2750    24.3310     2.1900   107.9680 
   54.3750    50.4190     3.4940     0.4400     1.0150    24.0220     2.2080   112.4170 
   54.5000    48.7430     3.4290     0.4530     1.0300    23.7490     2.2360   117.0950 
   54.6250    46.7540     3.3330     0.4560     1.0950    23.6020     2.2750   121.9520 
   54.7500    45.8330     3.2120     0.4470     1.0790    23.5750     2.3190   126.9020 
   54.8750    46.6800     3.0540     0.4280     0.9890    23.6020     2.3640   131.8520 
   55.0000    48.9580     2.8440     0.4030     0.8830    23.6170     2.4090   136.7240 
   55.1250    50.7050     2.5830     0.3790     0.8470    23.5870     2.4550   141.3610 
   55.2500    49.5560     2.3310     0.3620     0.8050    23.5290     2.4970   145.6790 
   55.3750    45.8610     2.1550     0.3550     0.7570    23.4560     2.5210   149.6130 
   55.5000    41.8280     2.1020     0.3560     0.6900    23.3660     2.5180   153.0710 
   55.6250    39.4800     2.1740     0.3570     0.5730    23.2460     2.4890   155.7680 
   55.7500    38.0790     2.2670     0.3540     0.4250    23.1020     2.4620   157.5440 
   55.8750    36.7900     2.2710     0.3470     0.2510    22.9430     2.4590   158.1180 
   56.0000    36.4940     2.0960     0.3400     0.0910    22.7980     2.4950   157.1800 
   56.1250    37.4950     1.7150     0.3390     0.0060    22.7050     2.5640   154.1170 
   56.2500    38.6550     1.2890     0.3380    -0.0370    22.6110     2.6230   148.9620 
   56.3750    39.6170     0.9540     0.3200     0.1420    22.4980     2.6240   141.5860 
   56.5000    41.2010     0.7940     0.2760     0.7220    22.4060     2.5470   132.0220 
   56.6250    45.5060     0.9670     0.2650     2.4550    22.4570     2.4130   120.2170 
   56.7500    51.8480     1.6420     0.4680     5.5780    22.7380     2.2730   107.1270 
   56.8750    58.2160     3.0440     1.1620     9.6040    23.2880     2.1610    93.4460 
   57.0000    62.8940     5.2850     2.6390    13.8760    24.0150     2.0950    79.8310 
   57.1250    64.9740     8.2550     5.1830    17.1360    24.5900     2.0850    67.0340 
   57.2500    65.7000    11.2270     8.3680    18.6140    24.9050     2.1040    55.4890 
   57.3750    66.1700    13.5190    11.5690    19.3280    25.0790     2.1300    45.5600 
   57.5000    67.0430    14.8210    14.1310    19.8710    25.2090     2.1480    37.4210 
   57.6250    67.2760    15.4740    15.7280    20.3470    25.3310     2.1500    31.3450 
   57.7500    66.0540    16.1990    16.8220    20.6640    25.4120     2.1470    26.6970 
   57.8750    65.0390    17.2340    17.7320    20.8040    25.4070     2.1450    23.0820 
   58.0000    65.5910    18.5730    18.6550    21.0220    25.3560     2.1470    20.1900 
   58.1250    66.5100    20.1010    19.6940    21.5770    25.3210     2.1560    17.8890 
   58.2500    65.4790    21.5790    20.7750    22.7160    25.3300     2.1680    15.9560 
   58.3750    63.3820    22.7950    21.7440    23.8990    25.3570     2.1790    14.2850 
   58.5000    62.3450    23.5520    22.4070    24.7600    25.3750     2.1850    12.8040 
   58.6250    61.7800    23.6220    22.5420    24.6290    25.3630     2.1830    11.4790 
   58.7500    61.0070    23.1430    22.2300    23.5040    25.3280     2.1760    10.2870 
   58.8750    61.1990    22.3140    21.6090    22.0940    25.2780     2.1700     9.2060 
   59.0000    63.1250    21.3960    20.8780    21.2680    25.2250     2.1660     8.2240 
   59.1250    65.6410    20.6700    20.2490    21.0500    25.1930     2.1640     7.3620 
   59.2500    67.0650    20.2410    19.8250    21.0310    25.2060     2.1610     6.5860 
   59.3750    67.6370    20.1220    19.6350    20.9300    25.2760     2.1560     5.9190 
   59.5000    68.4480    20.2800    19.6640    20.9110    25.3990     2.1510     5.3720 
   59.6250    69.1530    20.7100    19.8810    21.1540    25.5570     2.1490     4.9520 
   59.7500    68.0380    21.3400    20.1920    21.5890    25.6930     2.1510     4.5890 
   59.8750    65.9820    22.1330    20.5370    21.9320    25.7570     2.1560     4.2900 
   60.0000    65.2610    23.0200    20.8790    22.2250    25.7280     2.1610     4.0580 
   60.1250    66.1360    23.8850    21.2170    22.2380    25.6120     2.1600     3.8790 
   60.2500    66.5100    24.6500    21.5930    22.4000    25.4640     2.1540     3.7390 
   60.3750    66.3040    25.3120    22.0500    22.9540    25.3330     2.1450     3.6190 
   60.5000    65.7380    25.9100    22.6010    24.0880    25.3010     2.1360     3.5110 
   60.6250    63.8160    26.4890    23.2110    25.5290    25.4400     2.1330     3.4030 
   60.7500    62.0260    27.0610    23.8130    26.9950    25.6450     2.1370     3.3090 
   60.8750    61.9480    27.6090    24.3860    28.3780    25.7980     2.1460     3.2240 
   61.0000    62.8680    28.1210    24.9370    29.1960    25.8310     2.1570     3.1340 
   61.1250    62.8530    28.5880    25.4740    28.8910    25.7890     2.1650     3.0310 
