~V
VERS. 2.00: Ver 2.00
~W
STRT.M 50.0000:
STOP.M 293.0000:
STEP.M 0.1250:
NULL. -999.2500:
UWI. F10045:
~C
DEPT.M :
DEN.GM/CC :
SP.MV :
GR.API :
CALI.CM :
RXO.OHMM :
RI. :
RML.OHMM :
~A
# ...
  117.5000     2.1200   -18.5140   107.4280    23.6670     7.7940     5.9810     7.0330 
  117.6250     2.1100   -18.4770   107.4340    23.6140     7.7880     5.9700     7.0330 
  117.7500     2.1030   -18.4040   101.6480    23.5480     7.8000     5.9470     7.0610 
  117.8750     2.1000   -18.3310    95.1900    23.4350     7.8240     5.9130     7.1070 
  118.0000     2.1030   -18.2390    96.7880    23.2510     7.8340     5.8740     7.1520 
  118.1250     2.1090   -18.1140   103.6280    23.1140     7.8430     5.8430     7.1830 
  118.2500     2.1130   -17.9580   103.7800    23.0620     7.8660     5.8410     7.1870 
  118.3750     2.1130   -17.7340    99.5460    23.0530     7.8670     5.8870     7.1590 
  118.5000     2.1110   -17.4400   100.2450    23.0530     7.8470     5.9820     7.1300 
  118.6250     2.1030   -17.0530   103.8040    23.0530     7.8890     6.1240     7.1390 
  118.7500     2.0940   -16.5920    99.8110    23.0530     7.9390     6.2780     7.1670 
  118.8750     2.0850   -16.0310    94.4480    23.0530     7.9840     6.4090     7.1530 
  119.0000     2.0790   -15.3050    93.8650    23.0530     8.0110     6.4670     7.0400 
  119.1250     2.0730   -14.4550    94.8640    23.0690     7.7800     6.3790     6.7750 
  119.2500     2.0680   -13.5210    95.1610    23.1350     7.1750     6.1550     6.4060 
  119.3750     2.0760   -12.6270    99.0840    23.2720     6.5080     5.8340     6.0210 
  119.5000     2.1070   -11.8520   111.4240    23.4790     5.9760     5.4790     5.7110 
  119.6250     2.1580   -11.1870   123.8910    23.7890     5.6260     5.1670     5.5570 
  119.7500     2.2070   -10.6050   128.7680    24.1590     5.3910     4.9350     5.5320 
  119.8750     2.2390   -10.1690   129.9410    24.4110     5.3930     4.7960     5.5830 
  120.0000     2.2490    -9.9860   132.4900    24.5050     5.4810     4.7450     5.6500 
  120.1250     2.2330   -10.0040   132.9950    24.4990     5.5030     4.7750     5.6820 
  120.2500     2.2080   -10.1630   129.5010    24.4640     5.5310     4.8500     5.6810 
  120.3750     2.1890   -10.3670   129.6080    24.4120     5.6310     4.9470     5.6660 
  120.5000     2.1870   -10.5650   133.5220    24.3530     5.8530     5.0360     5.6580 
  120.6250     2.2010   -10.7620   131.3430    24.2550     6.0910     5.0920     5.6700 
  120.7500     2.2180   -10.9590   124.2210    24.1430     6.1830     5.1300     5.6980 
  120.8750     2.2320   -11.1320   119.2720    24.0960     6.1230     5.1970     5.7740 
  121.0000     2.2400   -11.1870   120.9890    24.1110     6.1610     5.3460     5.9540 
  121.1250     2.2450   -11.1950   123.6350    24.1270     6.4720     5.6110     6.3030 
  121.2500     2.2560   -11.2030   125.2900    24.1460     7.3630     5.9300     6.7760 
  121.3750     2.2820   -11.2560   126.5490    24.1910     9.1980     6.2230     7.2720 
  121.5000     2.3140   -11.3580   131.4720    24.2660    10.5630     6.4030     7.6270 
  121.6250     2.3270   -11.4470   137.2660    24.3210     9.6100     6.3890     7.6310 
  121.7500     2.3100   -11.5350   136.1370    24.2790     7.6740     6.2360     7.3530 
  121.8750     2.2680   -11.5690   128.1590    24.1580     6.8350     6.0100     6.9460 
  122.0000     2.2180   -11.6510   119.4470    24.0260     6.7600     5.7730     6.5610 
  122.1250     2.1810   -11.7290   114.5650    23.9710     6.6880     5.5800     6.3230 
  122.2500     2.1650   -11.8130   112.5770    23.9720     6.4030     5.4540     6.2620 
  122.3750     2.1670   -11.9290   113.3080    23.9860     6.1220     5.4000     6.3900 
  122.5000     2.1750   -11.9620   117.7790    23.9740     5.9670     5.4100     6.6950 
  122.6250     2.1740   -11.9710   122.3860    23.9080     6.0700     5.4840     7.1420 
  122.7500     2.1650   -11.9500   121.8490    23.8160     6.3900     5.5840     7.6000 
  122.8750     2.1560   -11.9150   117.5490    23.7370     6.6400     5.6480     7.8890 
  123.0000     2.1550   -11.8160   113.0930    23.7010     6.5730     5.5960     7.8170 
  123.1250     2.1620   -11.6710   110.6780    23.6850     6.4040     5.3980     7.3040 
  123.2500     2.1680   -11.3980   110.5020    23.6610     6.4380     5.2010     6.6940 
  123.3750     2.1760   -11.0010   112.7460    23.6460     6.5950     5.1890     6.3640 
  123.5000     2.1950   -10.6570   115.0500    23.6860     6.8820     5.5470     6.6510 
  123.6250     2.2430   -10.3270   115.0540    23.7990     8.4380     6.5920     8.0260 
  123.7500     2.3260   -10.0380   113.3350    23.8860    12.7110     8.4460    10.6000 
  123.8750     2.4330    -9.7800   112.0260    23.9020    18.3200    11.1600    14.3860 
  124.0000     2.5330    -9.5830   109.3120    23.8900    21.6210    14.2840    18.6410 
  124.1250     2.5900    -9.4730   102.4500    23.8740    21.7580    16.0890    20.5420 
  124.2500     2.6010    -9.4920    94.0860    23.8470    21.1540    15.4440    18.5720 
  124.3750     2.5740    -9.6150    90.2130    23.8090    18.8650    12.9740    14.4000 
  124.5000     2.5180    -9.7660    95.1220    23.7700    13.6050    10.1210    10.5380 
  124.6250     2.4420    -9.9780   104.1290    23.7490     8.5350     7.9100     8.2150 
  124.7500     2.3600   -10.2110   110.0450    23.7110     6.3090     6.3950     6.9950 
  124.8750     2.2840   -10.4360   113.0640    23.6260     5.8720     5.4540     6.4910 
  125.0000     2.2290   -10.6380   117.2750    23.4980     5.9180     4.9410     6.3730 
  125.1250     2.2100   -10.7730   120.7040    23.3770     5.8780     4.7500     6.3800 
  125.2500     2.2130   -10.8950   120.5970    23.2990     5.6830     4.7010     6.3480 
  125.3750     2.2320   -10.9940   120.6440    23.2620     5.4070     4.7190     6.2720 
  125.5000     2.2650   -11.1020   127.5510    23.2490     5.1990     4.7790     6.2180 
  125.6250     2.3050   -11.2190   136.7290    23.2260     5.3240     4.8860     6.2640 
  125.7500     2.3280   -11.3430   135.8700    23.1450     5.8190     5.0160     6.3770 
  125.8750     2.3180   -11.5030   125.2860    22.9880     6.2370     5.1300     6.4780 
  126.0000     2.2820   -11.6330   115.3200    22.7960     6.2670     5.1920     6.4960 
  126.1250     2.2430   -11.8340   112.1960    22.6610     6.1410     5.1720     6.3900 
  126.2500     2.2190   -12.0350   113.5250    22.5640     6.0450     5.0970     6.2280 
  126.3750     2.2100   -12.2370   120.3950    22.5320     5.9710     5.0000     6.0960 
  126.5000     2.2100   -12.4500   128.6600    22.6380     5.8620     4.9240     6.0700 
  126.6250     2.2160   -12.6560   126.3620    22.8410     5.7930     4.9250     6.1930 
  126.7500     2.2210   -12.8310   116.8030    22.9260     5.7870     5.0210     6.4100 
  126.8750     2.2210   -12.9340   109.6920    22.8860     5.8760     5.2030     6.6840 
  127.0000     2.2100   -13.0170   107.8560    22.7430     6.0900     5.4220     6.9620 
  127.1250     2.1910   -12.9380   105.0740    22.6880     6.4670     5.5690     7.1340 
  127.2500     2.1740   -12.7460   100.3040    22.8390     6.7240     5.5670     7.1160 
  127.3750     2.1730   -12.4850    96.6290    23.1420     6.5990     5.4090     6.8810 
  127.5000     2.1950   -12.0840    96.7970    23.4780     6.1320     5.1500     6.4880 
  127.6250     2.2350   -11.6660   101.7140    23.7260     5.5830     4.8830     6.0820 
  127.7500     2.2690   -11.2640   108.5300    23.9020     5.3460     4.6810     5.7970 
  127.8750     2.2840   -10.9110   112.9940    24.0250     5.3710     4.5620     5.6540 
  128.0000     2.2820   -10.6320   119.5610    24.1220     5.4080     4.5120     5.5830 
  128.1250     2.2760   -10.5130   133.2510    24.1950     5.3360     4.4960     5.4910 
  128.2500     2.2770   -10.5410   140.9240    24.2340     5.2120     4.4690     5.3520 
  128.3750     2.2840   -10.7050   137.5840    24.2500     5.0490     4.4170     5.2160 
  128.5000     2.2910   -11.0470   132.5670    24.2520     4.8850     4.3610     5.1610 
  128.6250     2.2890   -11.4590   134.1470    24.2490     4.9090     4.3590     5.2580 
