~V
VERS. 2.00: Ver 2.00
~W
STRT.M 57.0000:
STOP.M 257.0000:
STEP.M 0.1250:
NULL. -999.2500:
UWI. F10004:
~C
DEPT.M :
GR.API :
RML.OHMM :
RI. :
RXO.OHMM :
CALI.CM :
DEN.GM/CC :
SP.MV :
~A
# ...
  124.5000    87.8470    13.3360    11.5660    11.7240    24.0300     2.3090    -7.4650 
  124.6250    86.9940    13.0910    11.3340    11.5540    24.1250     2.2930    -7.3030 
  124.7500    89.2830    12.8370    11.0720    11.1460    24.2370     2.2830    -7.1660 
  124.8750    91.8970    12.6070    10.8150    10.7070    24.2620     2.2810    -6.9970 
  125.0000    92.0380    12.4200    10.5770    10.1750    24.2360     2.2840    -6.7750 
  125.1250    89.8930    12.2550    10.3360    10.1650    24.2010     2.2890    -6.5390 
  125.2500    88.3320    12.0480    10.0620    10.1350    24.2060     2.2950    -6.2960 
  125.3750    88.5270    11.7690     9.7550    10.6450    24.2870     2.3020    -6.0310 
  125.5000    88.0130    11.4660     9.4640    10.9070    24.4380     2.3100    -5.7260 
  125.6250    86.8110    11.3720     9.3550    10.6400    24.5900     2.3130    -5.3430 
  125.7500    88.5350    11.7620     9.6110    10.8040    24.6380     2.3070    -4.8890 
  125.8750    92.2190    12.9170    10.4370    12.8830    24.5920     2.2960    -4.4590 
  126.0000    91.8690    15.0500    12.0350    17.5840    24.4880     2.2900    -4.0290 
  126.1250    84.6040    18.3160    14.6800    24.5510    24.3710     2.2980    -3.5700 
  126.2500    77.8240    22.1150    18.0270    27.9890    24.3340     2.3140    -3.1010 
  126.3750    75.4070    25.6460    21.4580    27.3570    24.3350     2.3260    -2.6330 
  126.5000    76.1520    27.9730    24.0690    26.1950    24.3520     2.3200    -2.1860 
  126.6250    76.0170    28.2070    24.8510    25.4440    24.3830     2.2890    -1.7810 
  126.7500    75.6860    26.9540    24.1450    23.9250    24.3870     2.2410    -1.4200 
  126.8750    77.5210    25.0450    22.6270    20.9510    24.2880     2.1870    -1.0850 
  127.0000    80.1680    23.3280    21.0540    18.1960    24.1020     2.1410    -0.7570 
  127.1250    79.1890    22.5810    20.1280    18.7120    23.9940     2.1190    -0.4340 
  127.2500    76.0760    22.9590    20.0860    20.8730    24.0220     2.1200    -0.1290 
  127.3750    74.3730    24.4850    21.0340    24.5640    24.1290     2.1340     0.1950 
  127.5000    73.0260    26.9820    22.9340    29.1140    24.2260     2.1490     0.5550 
  127.6250    68.6130    30.0330    25.5950    36.7720    24.4290     2.1500     0.9380 
  127.7500    63.1780    32.8320    28.3320    38.7080    24.7550     2.1410     1.3300 
  127.8750    59.6040    34.7780    30.5520    37.8680    25.0140     2.1260     1.7270 
  128.0000    59.3750    35.5660    31.8480    36.4730    25.1640     2.1130     2.1050 
  128.1250    61.6690    35.1970    32.0360    35.6390    25.2110     2.1060     2.4130 
  128.2500    63.3770    34.3380    31.6120    35.2390    25.2350     2.1070     2.6480 
  128.3750    63.2680    33.4650    30.9840    35.2780    25.2360     2.1180     2.8150 
  128.5000    62.7690    32.9380    30.4990    35.0240    25.2160     2.1380     2.9170 
  128.6250    64.7000    33.1120    30.4940    34.6850    25.1620     2.1660     2.9490 
  128.7500    67.6170    34.0270    31.0700    36.0310    25.0410     2.1900     2.9540 
  128.8750    67.9750    35.6810    32.2950    41.3590    24.8220     2.2010     2.9540 
  129.0000    64.5160    37.8840    34.1070    48.0560    24.4920     2.1890     2.9540 
  129.1250    60.6310    40.1400    36.2010    46.3030    24.3860     2.1520     2.9630 
  129.2500    61.3530    41.7590    37.9540    48.4140    24.5630     2.1100     2.9750 
  129.3750    64.5020    42.2400    38.8450    50.1280    24.7190     2.0830     2.9730 
  129.5000    65.3070    41.4290    38.6070    48.1470    24.7890     2.0840     2.9660 
  129.6250    62.8130    39.5270    37.2730    41.6060    24.8150     2.1150     2.9540 
  129.7500    60.0160    37.3420    35.5360    38.1610    24.8230     2.1500     2.9260 
  129.8750    58.5000    35.3980    33.8870    38.2080    24.8110     2.1730     2.8990 
  130.0000    59.5110    34.0140    32.6630    38.9250    24.8380     2.1760     2.8010 
  130.1250    62.2680    33.3830    32.1100    36.9540    24.9740     2.1650     2.6150 
  130.2500    62.4670    33.2800    32.1000    35.6670    25.2310     2.1540     2.4230 
  130.3750    57.6020    33.5150    32.5070    35.6130    25.5320     2.1500     2.2440 
  130.5000    51.6640    33.9040    33.1700    35.8780    25.7550     2.1510     2.0440 
  130.6250    49.2780    34.2540    33.8950    35.7160    25.8210     2.1490     1.8020 
  130.7500    49.2270    34.3700    34.4390    34.6520    25.7700     2.1350     1.5160 
  130.8750    50.3690    34.0590    34.5580    32.8370    25.7230     2.1120     1.1900 
  131.0000    52.9030    33.1660    34.0360    31.6480    25.6810     2.0890     0.8540 
  131.1250    59.2690    31.5560    32.6590    27.9880    25.5100     2.0810     0.5230 
  131.2500    68.3780    29.4860    30.6800    23.6710    25.0990     2.0880     0.1670 
  131.3750    75.5810    27.2110    28.3670    20.8720    24.5300     2.1040    -0.2200 
  131.5000    76.7080    25.0110    26.0190    19.8170    24.2060     2.1220    -0.6290 
  131.6250    73.3390    23.1860    23.9580    19.2690    24.3050     2.1370    -1.0140 
  131.7500    70.7240    21.8200    22.3210    18.7350    24.5080     2.1510    -1.3370 
  131.8750    70.2130    20.9480    21.1790    18.3930    24.6110     2.1660    -1.6290 
  132.0000    71.0420    20.5690    20.5600    19.1990    24.6090     2.1810    -1.8740 
  132.1250    73.2260    20.7670    20.5720    19.3140    24.5970     2.1990    -2.0850 
  132.2500    75.4610    21.4560    21.1200    21.2120    24.6010     2.2220    -2.2280 
  132.3750    75.7070    22.6860    22.1430    24.9250    24.6360     2.2480    -2.3120 
  132.5000    74.4550    24.4090    23.4910    28.2410    24.6350     2.2710    -2.3560 
  132.6250    73.5310    26.4850    24.9190    29.9280    24.6020     2.2800    -2.3960 
  132.7500    72.4000    28.0280    26.2420    33.7050    24.4550     2.2740    -2.4300 
  132.8750    69.3480    29.3900    27.5610    32.0380    24.2050     2.2580    -2.4220 
  133.0000    65.7210    31.2540    29.2780    26.9970    24.0470     2.2410    -2.3750 
  133.1250    65.2210    34.6550    32.2540    29.2860    24.0610     2.2300    -2.2880 
  133.2500    65.8630    39.8070    36.8750    39.4830    24.1400     2.2180    -2.1950 
  133.3750    64.1490    46.5020    43.1940    58.9460    24.2820     2.1930    -2.1250 
  133.5000    60.2720    53.8180    50.5780    77.5570    24.3890     2.1470    -2.0510 
  133.6250    58.3640    59.7960    57.2970    72.8400    24.3680     2.0990    -1.9170 
  133.7500    57.6970    63.1120    61.6950    63.9610    24.4240     2.0860    -1.7610 
  133.8750    56.8650    63.6850    63.2820    72.0980    24.6320     2.1310    -1.6060 
  134.0000    56.7350    62.6410    62.8740   107.3800    24.7240     2.2210    -1.4590 
  134.1250    58.1270    61.6770    62.0160   116.8380    24.5440     2.3050    -1.2910 
  134.2500    58.4820    61.7290    61.8640    75.4250    24.2640     2.3320    -1.1210 
  134.3750    58.2670    62.5520    62.3950    53.2090    24.0870     2.2960    -0.9450 
  134.5000    60.5420    63.0610    62.7390    51.1100    24.0770     2.2270    -0.8060 
  134.6250    64.8600    61.4320    61.2160    58.8630    24.1860     2.1720    -0.7620 
  134.7500    66.6890    57.2190    57.2770    57.4310    24.3550     2.1500    -0.7630 
  134.8750    65.8770    50.9080    51.2680    46.5720    24.2910     2.1550    -0.7920 
  135.0000    64.5270    43.7350    44.3010    35.6540    24.3190     2.1690    -0.8490 
  135.1250    64.6740    37.3220    37.9080    30.8070    24.6040     2.1800    -0.9450 
  135.2500    66.7850    32.5120    32.9500    29.0050    24.8840     2.1800    -1.0630 
  135.3750    68.8090    29.4960    29.6320    28.9370    24.8640     2.1690    -1.1800 
  135.5000    68.1040    28.0590    27.7880    26.4360    24.8470     2.1490    -1.2700 
  135.6250    65.0570    27.7990    27.1350    25.2840    24.9420     2.1250    -1.3220 
