~V
VERS. 2.00: Ver 2.00
~W
STRT.M 57.0000:
STOP.M 296.0000:
STEP.M 0.1250:
NULL. -999.2500:
UWI. F10043:
~C
DEPT.M :
GR.API :
RML.OHMM :
RI. :
RXO.OHMM :
CALI.CM :
DEN.GM/CC :
SP.MV :
~A
# ...
  225.7500    77.6980    93.5290   104.4380    79.4160    24.2600     2.3120   -25.9400 
  225.8750    81.0860    70.8240    79.8580    64.6350    23.6220     2.3290   -25.7930 
  226.0000    79.2780    53.5290    60.4430    52.0230    23.2200     2.3590   -25.6530 
  226.1250    79.7510    47.0770    47.3720    36.7810    23.0810     2.3850   -25.5520 
  226.2500    85.3750    38.6810    38.6980    29.5040    23.2160     2.3910   -25.4910 
  226.3750    92.9240    33.4190    33.2240    27.8100    23.4450     2.3750   -25.4990 
  226.5000    98.1060    30.1670    29.8760    27.6880    23.6640     2.3430   -25.5610 
  226.6250    99.5760    28.0780    27.8860    26.5510    23.9680     2.3060   -25.7190 
  226.7500    98.7810    26.3220    26.3420    24.3070    24.2860     2.2730   -25.9430 
  226.8750    96.1220    24.6410    24.8980    21.7420    24.4970     2.2510   -26.2040 
  227.0000    94.4540    23.0870    23.5420    20.3640    24.5410     2.2440   -26.4950 
  227.1250    94.6080    22.0540    22.6630    18.8160    24.5660     2.2550   -26.7930 
  227.2500    94.7500    21.7930    22.5140    18.3960    24.5970     2.2720   -27.0810 
  227.3750    94.2490    22.3810    23.1280    18.9450    24.6460     2.2820   -27.3240 
  227.5000    94.6830    23.6280    24.2660    20.4730    24.6790     2.2780   -27.5270 
  227.6250    96.0290    24.9440    25.3840    23.4270    24.6400     2.2630   -27.6530 
  227.7500    95.7880    25.4250    25.7550    27.1760    24.5440     2.2520   -27.7130 
  227.8750    94.4430    24.4110    24.8140    25.8160    24.5080     2.2540   -27.7360 
  228.0000    92.2380    21.8540    22.4680    21.6610    24.5190     2.2690   -27.7280 
  228.1250    91.1660    18.4350    19.2100    18.0810    24.5220     2.2910   -27.6990 
  228.2500    90.8390    15.3030    16.0380    14.0940    24.4790     2.3070   -27.6760 
  228.3750    88.8350    13.0290    13.5090    10.7570    24.4470     2.3130   -27.6850 
  228.5000    87.4840    11.8130    11.9260    10.1420    24.4410     2.3100   -27.7470 
  228.6250    88.4350    11.7570    11.5660    11.5580    24.4530     2.3040   -27.8760 
  228.7500    90.5220    12.5390    12.1810    12.1000    24.4590     2.3040   -28.0640 
  228.8750    93.8670    13.9800    13.5800    12.8540    24.4290     2.3070   -28.2970 
  229.0000    98.2600    15.8040    15.4410    14.8640    24.3920     2.3080   -28.5340 
  229.1250    98.2570    17.4990    17.2220    17.8270    24.4000     2.2920   -28.7920 
  229.2500    92.9990    18.5400    18.3530    20.6810    24.4120     2.2570   -29.0400 
  229.3750    90.2320    18.6400    18.4960    21.3990    24.3280     2.2140   -29.2570 
  229.5000    92.5620    17.8430    17.6630    19.8270    24.2320     2.1810   -29.4130 
  229.6250    92.7940    16.5150    16.2310    15.6380    24.1910     2.1770   -29.5090 
  229.7500    90.5150    15.3170    14.8990    12.1680    24.1520     2.1970   -29.5840 
  229.8750    89.4320    14.6470    14.0550    10.8880    24.1360     2.2270   -29.6720 
  230.0000    89.4190    14.7100    13.8540    11.5260    24.1010     2.2530   -29.8090 
  230.1250    88.9140    15.6480    14.3570    14.0860    23.9500     2.2670   -29.9740 
  230.2500    88.5920    17.1650    15.3360    16.6780    23.7770     2.2750   -30.1700 
  230.3750    89.1970    18.9590    16.6540    18.3470    23.7250     2.2800   -30.3880 
  230.5000    90.0860    20.6590    18.1130    19.6650    23.8500     2.2830   -30.6270 
  230.6250    89.9190    21.8850    19.3840    20.6290    24.0410     2.2860   -30.8650 
  230.7500    89.2880    22.6430    20.2600    21.2670    24.2140     2.2900   -31.0820 
  230.8750    90.4570    23.0520    20.7160    21.8970    24.3060     2.2930   -31.2580 
  231.0000    93.5130    23.2430    20.8740    22.6510    24.4020     2.2940   -31.3780 
  231.1250    95.8990    23.2740    20.8910    23.9620    24.4490     2.2870   -31.4270 
  231.2500    96.5550    23.2170    20.8720    24.2470    24.4830     2.2730   -31.4120 
  231.3750    96.8940    23.1240    20.7880    23.1570    24.4890     2.2570   -31.3740 
  231.5000    96.2950    23.0430    20.6070    20.7750    24.4470     2.2460   -31.3230 
  231.6250    93.0170    22.9400    20.3370    21.8360    24.4590     2.2450   -31.2360 
  231.7500    90.5560    22.6470    20.0070    22.5820    24.4590     2.2520   -31.1190 
  231.8750    91.6240    21.9750    19.5250    23.2280    24.4550     2.2630   -30.9650 
  232.0000    94.7760    20.8480    18.7480    23.6740    24.4680     2.2770   -30.7680 
  232.1250    94.5160    19.3750    17.6110    22.4910    24.4610     2.2910   -30.5460 
  232.2500    92.4880    17.9290    16.3760    19.8360    24.4390     2.3040   -30.3310 
  232.3750    92.3440    16.7610    15.2960    16.9950    24.4630     2.3110   -30.1070 
  232.5000    93.4260    15.9840    14.5150    16.0010    24.5040     2.3080   -29.8830 
  232.6250    92.3040    15.6240    14.0870    15.9010    24.5250     2.2960   -29.6750 
  232.7500    89.6070    15.5080    13.8870    15.5240    24.5380     2.2810   -29.4590 
  232.8750    88.2320    15.5390    13.8550    14.2000    24.5280     2.2670   -29.2370 
  233.0000    87.9490    15.6720    13.9640    13.8700    24.5060     2.2570   -29.0400 
  233.1250    86.3420    15.9260    14.1990    17.5230    24.4680     2.2540   -28.8830 
  233.2500    84.7480    16.2790    14.4670    21.4930    24.4350     2.2580   -28.7290 
  233.3750    85.5680    16.6930    14.7170    20.4380    24.4180     2.2680   -28.5750 
  233.5000    88.6300    17.1460    14.9730    16.8730    24.4040     2.2830   -28.4120 
  233.6250    91.5210    17.6630    15.3340    15.2910    24.3650     2.2960   -28.2560 
  233.7500    93.3550    18.2270    15.7860    14.8550    24.3410     2.3030   -28.1280 
  233.8750    93.9320    18.7470    16.2160    13.1850    24.3610     2.2980   -28.0410 
  234.0000    94.4440    19.0700    16.4940    13.9190    24.3780     2.2870   -28.0210 
  234.1250    94.3130    18.9620    16.4570    18.6260    24.3340     2.2750   -28.0270 
  234.2500    93.2960    18.4160    16.0900    19.0740    24.3540     2.2690   -28.0550 
  234.3750    93.0970    17.5410    15.4170    14.4320    24.3860     2.2710   -28.1600 
  234.5000    97.1440    16.5450    14.5460    12.4810    24.4040     2.2780   -28.3450 
  234.6250   101.7750    15.6110    13.6420    12.4460    24.4580     2.2890   -28.5950 
  234.7500   101.1520    14.7770    12.8390    11.4880    24.5070     2.2990   -28.8820 
  234.8750    97.5030    14.0270    12.1720     9.5680    24.5370     2.3080   -29.1870 
  235.0000    95.9360    13.3530    11.6100     8.7990    24.5520     2.3140   -29.4860 
  235.1250    96.5370    12.8270    11.1400     9.3220    24.6040     2.3140   -29.7770 
  235.2500    97.0800    12.5410    10.8310    10.2030    24.6400     2.3080   -30.0410 
  235.3750    96.7100    12.5910    10.8140    10.8500    24.6250     2.2970   -30.2050 
  235.5000    94.5070    12.9830    11.1450    11.7410    24.6340     2.2850   -30.2920 
  235.6250    92.0550    13.6030    11.7270    12.7830    24.6080     2.2790   -30.2720 
  235.7500    91.8730    14.1860    12.2750    13.9870    24.5370     2.2800   -30.1450 
  235.8750    92.7650    14.5410    12.6190    14.7480    24.4260     2.2870   -29.9540 
  236.0000    91.7460    14.5380    12.6800    14.3710    24.2610     2.2980   -29.6940 
  236.1250    88.5220    14.0940    12.3950    12.4060    23.9670     2.3150   -29.4100 
  236.2500    86.6810    13.3990    11.8560    11.5020    23.6730     2.3370   -29.1380 
  236.3750    87.7780    12.6330    11.1590    11.4550    23.5220     2.3600   -28.9260 
  236.5000    90.8780    11.9470    10.4480    11.2050    23.5650     2.3740   -28.7230 
  236.6250    92.7820    11.4650     9.9230     9.7330    23.8960     2.3710   -28.5700 
  236.7500    92.7010    11.1670     9.6400     9.3390    24.2390     2.3520   -28.5030 
  236.8750    92.8670    11.0010     9.5430     9.3750    24.4210     2.3270   -28.5000 
