~V
VERS. 2.00: Ver 2.00
~W
STRT.M 50.0000:
STOP.M 293.0000:
STEP.M 0.1250:
NULL. -999.2500:
UWI. F10045:
~C
DEPT.M :
DEN.GM/CC :
SP.MV :
GR.API :
CALI.CM :
RXO.OHMM :
RI. :
RML.OHMM :
~A
# ...
  207.5000     2.1680   -30.2620    84.5860    23.5150    12.5610    10.1610     8.7590 
  207.6250     2.1710   -30.2510    81.5040    23.4870    13.2420    10.3640     8.9210 
  207.7500     2.1760   -30.2260    80.3980    23.4670    13.6420    10.4920     9.0170 
  207.8750     2.1780   -30.2180    79.3290    23.4320    13.6980    10.5070     9.0350 
  208.0000     2.1770   -30.2190    76.5160    23.3610    13.4950    10.4110     9.0180 
  208.1250     2.1770   -30.2480    74.5460    23.3120    13.0230    10.2480     8.9980 
  208.2500     2.1800   -30.2930    72.8740    23.2960    12.6000    10.0860     8.9620 
  208.3750     2.1830   -30.3320    71.7090    23.2990    12.4800     9.9640     8.8900 
  208.5000     2.1820   -30.4150    72.1310    23.3030    12.6790     9.8950     8.8040 
  208.6250     2.1790   -30.4620    73.2750    23.3080    12.9990     9.8850     8.7810 
  208.7500     2.1800   -30.5060    73.1480    23.3460    13.2490     9.9160     8.8470 
  208.8750     2.1840   -30.5590    74.0170    23.4150    13.3800     9.9780     8.9870 
  209.0000     2.1910   -30.5730    76.4300    23.4590    13.4030    10.0630     9.1650 
  209.1250     2.2030   -30.5850    78.4250    23.4640    13.3240    10.1580     9.3440 
  209.2500     2.2140   -30.5640    78.3610    23.4460    13.2370    10.2370     9.4980 
  209.3750     2.2140   -30.4740    77.0630    23.4250    13.2910    10.2780     9.5980 
  209.5000     2.2050   -30.3290    77.2460    23.4150    13.5080    10.2700     9.6150 
  209.6250     2.2000   -30.1800    76.6230    23.4730    13.6940    10.2140     9.5330 
  209.7500     2.2020   -30.0360    75.3850    23.6050    13.7830    10.1510     9.4190 
  209.8750     2.2080   -29.8750    76.5340    23.7300    13.8030    10.1200     9.3460 
  210.0000     2.2180   -29.7190    79.2890    23.7750    13.8180    10.1500     9.3640 
  210.1250     2.2360   -29.5640    78.8400    23.7460    13.9470    10.2650     9.4890 
  210.2500     2.2550   -29.3840    77.4390    23.7100    14.3200    10.4410     9.6710 
  210.3750     2.2630   -29.2820    80.0090    23.6880    14.8570    10.6390     9.8690 
  210.5000     2.2570   -29.2500    84.7890    23.7240    15.2790    10.8030    10.0400 
  210.6250     2.2410   -29.2500    85.5490    23.7300    15.2970    10.8720    10.1440 
  210.7500     2.2290   -29.2400    82.0500    23.7250    15.0900    10.8550    10.1970 
  210.8750     2.2230   -29.2080    79.1150    23.7060    14.8770    10.7840    10.2150 
  211.0000     2.2230   -29.1700    80.8900    23.6790    14.7380    10.6930    10.1990 
  211.1250     2.2230   -29.1470    82.6470    23.6560    14.5480    10.6050    10.1260 
  211.2500     2.2200   -29.1580    80.5010    23.6210    14.2930    10.5370    10.0210 
  211.3750     2.2150   -29.1550    78.5050    23.5960    13.9630    10.5080     9.9370 
  211.5000     2.2160   -29.0600    82.2020    23.6420    13.6880    10.5510     9.9350 
  211.6250     2.2300   -28.8990    87.5600    23.7900    13.6960    10.7210    10.1030 
  211.7500     2.2510   -28.7680    87.0340    23.9090    14.0850    11.0060    10.4410 
  211.8750     2.2690   -28.6270    82.3490    23.9460    14.7270    11.3690    10.9000 
  212.0000     2.2790   -28.4870    79.6050    23.9070    15.4410    11.7250    11.3550 
  212.1250     2.2810   -28.3910    82.1700    23.8490    16.0770    11.9160    11.5820 
  212.2500     2.2760   -28.2920    86.5850    23.8260    16.3960    11.8710    11.4910 
  212.3750     2.2610   -28.1560    88.8920    23.8170    16.0740    11.6080    11.1020 
  212.5000     2.2380   -28.0910    89.7660    23.7840    15.1080    11.2350    10.5630 
  212.6250     2.2260   -28.1420    88.2280    23.7350    13.9900    10.9240    10.1160 
  212.7500     2.2320   -28.1700    82.5440    23.6920    13.4170    10.7820     9.9000 
  212.8750     2.2490   -28.1970    77.1260    23.6560    13.7200    10.8320     9.9300 
  213.0000     2.2640   -28.2610    78.6360    23.6130    14.4080    11.0260    10.1230 
  213.1250     2.2640   -28.2830    88.4640    23.5800    14.7250    11.2690    10.3290 
  213.2500     2.2540   -28.3310   100.8160    23.5580    14.6990    11.4360    10.4070 
  213.3750     2.2390   -28.4440   108.9630    23.5760    14.6950    11.4500    10.3140 
  213.5000     2.2260   -28.5480   105.8340    23.6310    14.6440    11.2970    10.1110 
  213.6250     2.2210   -28.6300    91.0140    23.6900    14.2810    11.0190     9.9050 
  213.7500     2.2250   -28.7100    79.2460    23.7180    13.5720    10.7260     9.7470 
  213.8750     2.2350   -28.7840    75.4810    23.7360    12.8960    10.4900     9.6300 
  214.0000     2.2390   -28.8770    77.2120    23.7650    12.6220    10.3510     9.5390 
  214.1250     2.2300   -29.0240    77.9420    23.7700    12.6950    10.3220     9.4630 
  214.2500     2.2200   -29.1060    82.5030    23.7520    12.7800    10.3430     9.3840 
  214.3750     2.2160   -29.1430    90.1910    23.7290    12.8000    10.3680     9.2960 
  214.5000     2.2120   -29.2010    94.2620    23.7190    12.8150    10.3720     9.2110 
  214.6250     2.1990   -29.2110    88.1090    23.7200    12.8390    10.3500     9.1660 
  214.7500     2.1840   -29.2710    80.9360    23.7220    12.8640    10.3260     9.1920 
  214.8750     2.1710   -29.3940    81.1350    23.7210    12.8970    10.3180     9.3010 
  215.0000     2.1610   -29.4630    85.4130    23.7200    12.9120    10.3350     9.4730 
  215.1250     2.1570   -29.5300    85.7550    23.7190    12.9160    10.3850     9.6590 
  215.2500     2.1590   -29.6580    84.0230    23.7190    12.8970    10.4620     9.8440 
  215.3750     2.1630   -29.7450    84.1680    23.7190    12.8780    10.5660    10.0550 
  215.5000     2.1670   -29.7860    85.6430    23.7190    12.9390    10.6970    10.3160 
  215.6250     2.1710   -29.8550    83.7370    23.7110    13.0870    10.8490    10.6100 
  215.7500     2.1750   -29.8140    79.8010    23.6910    13.2940    10.9980    10.8750 
  215.8750     2.1770   -29.7130    76.6520    23.6700    13.4100    11.1190    11.0580 
  216.0000     2.1830   -29.6280    74.8820    23.6680    13.3500    11.1910    11.1160 
  216.1250     2.1920   -29.4400    74.3880    23.6830    13.2790    11.1920    11.0260 
  216.2500     2.1940   -29.2130    74.5060    23.6880    13.2170    11.1420    10.8720 
  216.3750     2.1840   -29.0410    74.6180    23.6390    13.0060    11.0760    10.7450 
  216.5000     2.1710   -28.8900    77.7300    23.5420    12.6700    11.0400    10.7280 
  216.6250     2.1750   -28.6650    85.3700    23.4850    12.6620    11.0850    10.8810 
  216.7500     2.1960   -28.4750    89.9240    23.4410    13.0380    11.2040    11.1110 
  216.8750     2.2170   -28.2700    86.0420    23.3890    13.6650    11.3630    11.3070 
  217.0000     2.2190   -28.0420    79.5920    23.3620    14.1300    11.5100    11.3820 
  217.1250     2.2000   -27.8890    83.1210    23.3790    13.7280    11.5800    11.3090 
  217.2500     2.1810   -27.7520    90.5770    23.3560    12.8500    11.5880    11.1930 
  217.3750     2.1740   -27.5830    90.5970    23.3710    12.1940    11.5770    11.1170 
  217.5000     2.1790   -27.4200    82.0210    23.4300    12.1120    11.5850    11.1310 
  217.6250     2.1940   -27.2580    72.8390    23.4660    12.4210    11.6130    11.2410 
  217.7500     2.2070   -27.0990    67.9240    23.4660    12.8080    11.6140    11.3720 
  217.8750     2.2050   -26.9450    65.1890    23.4400    12.9310    11.5340    11.4580 
  218.0000     2.1860   -26.7300    64.8820    23.3750    12.6800    11.3370    11.4180 
  218.1250     2.1670   -26.4190    66.8570    23.3270    12.2450    11.0290    11.1840 
  218.2500     2.1710   -26.0350    67.1030    23.2910    12.1090    10.7610    10.8810 
  218.3750     2.2050   -25.5450    65.1730    23.2940    12.4780    10.7610    10.7480 
  218.5000     2.2690   -24.8940    63.0820    23.3690    13.2800    11.3330    11.1470 
  218.6250     2.3590   -24.1560    61.9780    23.5500    14.4490    13.0860    12.7170 
