~V
VERS. 2.00: Ver 2.00
~W
STRT.M 50.0000:
STOP.M 216.0000:
STEP.M 0.1250:
NULL. -999.2500:
UWI. F10015:
~C
DEPT.M :
GR.API :
RML.OHMM :
RI. :
RXO.OHMM :
CALI.CM :
DEN.GM/CC :
SP.MV :
~A
   50.0000    38.0520    36.6810     2.0450     1.4140    25.7550  -999.2500    86.7790 
   50.1250    39.9890    36.0350     2.0240     1.6950    25.7560  -999.2500    84.6720 
   50.2500    41.6990    35.6090     2.0110     1.8550    25.7560  -999.2500    83.2990 
   50.3750    41.5550    35.7300     2.0280     1.4770    25.7530  -999.2500    82.5670 
   50.5000    41.7420    36.1490     2.0660     1.2440    25.7530  -999.2500    82.2240 
   50.6250    42.5780    36.4750     2.1050     1.1430    25.7530  -999.2500    82.1320 
   50.7500    43.6980    36.3790     2.1280     1.1740    25.7540  -999.2500    82.3130 
   50.8750    44.5350    35.7250     2.1240     1.3760    25.7540  -999.2500    82.8030 
   51.0000    44.8090    34.7080     2.0980     1.8440    25.7520     0.0000    83.5260 
   51.1250    43.8930    33.6710     2.0600     3.2110    25.7510     0.0000    84.7340 
   51.2500    42.2640    32.8550     2.0290     4.3600    25.7530     0.0000    86.1060 
   51.3750    41.0700    32.3050     2.0120     4.5710    25.7540     0.4440    87.4390 
   51.5000    40.8480    31.9400     2.0060     4.2380    25.7530     1.1850    88.6180 
   51.6250    41.4000    31.6190     2.0050     3.8320    25.7460     1.7820    89.7030 
   51.7500    41.6540    31.2290     2.0010     2.8610    25.7200     1.7890    91.0200 
   51.8750    41.6500    30.7320     1.9890     1.9520    25.6140     1.7970    92.6790 
   52.0000    41.8560    30.2060     1.9730     1.6130    25.5070     1.7990    94.3810 
   52.1250    42.1240    29.7040     1.9590     1.5210    25.5260     1.7930    95.7590 
   52.2500    42.4210    29.2530     1.9500     1.5180    25.6490     1.7770    96.4230 
   52.3750    43.0030    28.8500     1.9510     1.5060    25.7780     1.7540    96.2260 
   52.5000    44.5850    28.4530     1.9570     1.3530    25.8260     1.7310    95.5430 
   52.6250    48.0290    27.9480     1.9670     0.8830    25.8260     1.7140    94.3820 
   52.7500    49.8830    27.3080     1.9720     0.8430    25.8260     1.7010    92.8890 
   52.8750    49.1860    26.5250     1.9690     0.9210    25.8260     1.6890    91.2470 
   53.0000    47.5260    25.6710     1.9610     0.9720    25.8250     1.6820    89.6810 
   53.1250    47.1440    24.8540     1.9550     0.9760    25.8210     1.6810    88.4880 
   53.2500    49.0390    24.1700     1.9570     1.0070    25.8070     1.6930    88.0830 
   53.3750    50.7390    23.6120     1.9670     1.2310    25.7720     1.7200    88.2770 
   53.5000    49.8330    23.0740     1.9770     1.6630    25.7350     1.7670    88.8460 
   53.6250    47.9130    22.5020     1.9830     2.0730    25.7030     1.8280    89.7750 
   53.7500    46.3940    21.8840     1.9840     2.3100    25.6850     1.9000    91.0210 
   53.8750    45.8240    21.2350     1.9790     2.3550    25.6810     1.9770    92.4160 
   54.0000    45.1960    20.5930     1.9690     2.3720    25.6810     2.0530    93.5720 
   54.1250    44.4690    19.9690     1.9500     2.3080    25.6800     2.1240    93.8110 
   54.2500    43.9590    19.3210     1.9220     2.1580    25.6740     2.1830    93.6380 
   54.3750    43.2520    18.6580     1.8820     1.8980    25.6370     2.2190    93.5200 
   54.5000    42.8670    18.0430     1.8310     1.5550    25.5380     2.2280    93.6510 
   54.6250    43.3010    17.5550     1.7750     1.2230    25.3600     2.2140    94.0900 
   54.7500    44.0810    17.2630     1.7100     1.0810    25.1130     2.1830    94.9110 
   54.8750    44.8930    16.5400     1.5990     1.0350    25.0230     2.1600    96.5650 
   55.0000    47.0130    13.9450     1.3540     1.0220    25.0100     2.1720    99.5990 
   55.1250    49.2640    10.0790     1.0130     1.0430    25.0160     2.2270   103.7240 
   55.2500    50.6500     6.1420     0.6640     1.0740    25.0190     2.3250   108.2640 
   55.3750    50.8780     3.2020     0.3930     1.0850    25.0180     2.4480   112.3100 
   55.5000    50.8740     1.4610     0.2280     1.0590    25.0170     2.5530   114.8820 
   55.6250    53.8130     1.0090     0.1880     1.0910    25.0160     2.5600   113.5200 
   55.7500    58.7570     1.1150     0.2220     1.5180    25.0140     2.5040   109.0440 
   55.8750    64.3750     1.7660     0.3760     3.0220    25.0110     2.4180   101.3170 
   56.0000    69.7460     2.7960     0.6870     5.2160    25.0070     2.3340    90.9980 
   56.1250    74.2270     3.9180     1.1900     7.1140    25.0010     2.2750    78.9370 
   56.2500    77.3160     4.7480     1.9350     7.5870    24.9990     2.2520    65.5610 
   56.3750    78.8420     5.0080     2.8190     7.6750    24.9960     2.2570    52.4650 
   56.5000    80.3030     5.2920     3.8350     7.5970    24.9710     2.2900    41.0700 
   56.6250    80.0240     6.0600     5.1410     8.2710    24.9300     2.3490    31.6660 
   56.7500    76.1120     7.8500     7.1290    11.6970    24.8920     2.4300    24.6030 
   56.8750    68.4280    11.0740    10.2030    18.6510    24.8660     2.5270    19.7720 
   57.0000    60.5490    15.8200    14.5610    26.3640    24.8180     2.6270    16.0820 
   57.1250    57.0290    22.1420    20.2100    31.9910    24.6780     2.6830    13.1550 
   57.2500    56.6610    26.6630    24.3830    38.9880    24.4920     2.6780    10.4380 
   57.3750    57.9210    26.9740    25.1080    37.8000    24.2180     2.5960     7.8250 
   57.5000    58.9660    23.9090    22.8880    28.3790    23.8900     2.4570     5.2670 
   57.6250    58.6780    19.7500    19.4070    16.7100    23.5580     2.3000     2.7880 
   57.7500    57.7090    16.4260    16.2200    11.3360    23.2300     2.1680     0.4970 
   57.8750    58.5770    14.5840    14.1500     9.8750    22.9620     2.0950    -1.5500 
   58.0000    60.0150    13.9330    13.1140     9.6920    23.0780     2.0710    -3.3240 
   58.1250    60.9240    14.0170    12.7830    10.2120    23.6500     2.0710    -4.8530 
   58.2500    60.8940    14.4850    12.9220    10.9750    24.4460     2.0800    -6.1300 
   58.3750    59.9260    15.0500    13.3160    11.6520    25.1280     2.0920    -7.1510 
   58.5000    58.1380    15.4320    13.6880    12.0470    25.4550     2.1030    -7.9510 
   58.6250    56.6520    15.3390    13.7760    11.9710    25.5490     2.1160    -8.5270 
   58.7500    56.4270    14.9940    13.6630    11.5160    25.5920     2.1320    -8.9970 
   58.8750    57.3580    14.4950    13.3950    10.9340    25.6320     2.1460    -9.3840 
   59.0000    58.5980    13.9620    13.0570    10.5510    25.7060     2.1550    -9.7070 
   59.1250    59.3250    13.5190    12.7500    10.5360    25.8130     2.1520    -9.9650 
   59.2500    59.4970    13.2790    12.5640    10.6670    25.8770     2.1300   -10.1240 
   59.3750    58.0690    13.3380    12.6020    10.6620    25.8890     2.0950   -10.2460 
   59.5000    57.1410    13.6140    12.8320    10.8040    25.8090     2.0740   -10.3040 
   59.6250    59.5740    13.8750    13.0810    11.0860    25.5530     2.0780   -10.2900 
   59.7500    65.3420    13.8440    13.1320    11.3510    25.1000     2.1110   -10.1900 
   59.8750    72.1000    13.3530    12.8400    11.5410    24.5250     2.1670   -10.0070 
   60.0000    75.7640    12.4830    12.2350    11.9580    24.0440     2.2270    -9.7870 
   60.1250    78.1830    11.5460    11.5000    10.4800    23.9290     2.2760    -9.5600 
   60.2500    80.8390    10.8610    10.9070     8.9400    23.9100     2.3220    -9.3410 
   60.3750    81.6020    10.4830    10.5140     9.1670    23.9160     2.3640    -9.1300 
   60.5000    80.6350    10.2900    10.2590    11.2040    23.9210     2.3970    -8.9280 
   60.6250    79.4470    10.0780    10.0140    12.9580    23.9290     2.4090    -8.7600 
   60.7500    79.9450     9.6600     9.6480     9.8490    23.9660     2.3870    -8.7060 
   60.8750    81.2010     9.0460     9.1300     8.0720    24.0700     2.3320    -8.6760 
   61.0000    82.1570     8.4400     8.5890     7.7810    24.1670     2.2650    -8.6660 
   61.1250    83.2630     7.9430     8.1170     7.6320    24.2400     2.2010    -8.6670 
