~V
VERS. 2.00: Ver 2.00
~W
STRT.M 57.0000:
STOP.M 296.0000:
STEP.M 0.1250:
NULL. -999.2500:
UWI. F10043:
~C
DEPT.M :
GR.API :
RML.OHMM :
RI. :
RXO.OHMM :
CALI.CM :
DEN.GM/CC :
SP.MV :
~A
# ...
  203.2500    63.6140    59.7230    53.6700    51.6120    24.1450     2.2490   -19.2930 
  203.3750    61.7770    65.7610    59.2870    58.4650    24.0870     2.2540   -19.3630 
  203.5000    60.6780    70.0630    63.7130    65.3570    24.0490     2.2480   -19.4460 
  203.6250    59.4610    70.3640    64.7700    68.6360    23.9650     2.2330   -19.4560 
  203.7500    58.5450    66.7460    62.2520    67.4110    23.8770     2.2200   -19.4400 
  203.8750    58.8830    60.2710    56.9750    61.3410    23.8040     2.2130   -19.4050 
  204.0000    61.0440    52.7290    50.4960    50.5710    23.7540     2.2110   -19.3420 
  204.1250    63.8610    45.9890    44.4540    40.5350    23.6910     2.2110   -19.2520 
  204.2500    65.1230    40.7840    39.6140    34.9780    23.6200     2.2110   -19.1680 
  204.3750    65.3950    37.1610    36.1370    32.0480    23.5250     2.2120   -19.0840 
  204.5000    64.3190    34.8610    33.9140    30.3220    23.4240     2.2140   -18.9880 
  204.6250    61.4320    33.6860    32.8430    30.0900    23.3730     2.2200   -18.9330 
  204.7500    59.3720    33.2370    32.4900    29.5330    23.3570     2.2280   -18.9120 
  204.8750    60.4860    33.4130    32.7060    28.7630    23.3590     2.2370   -18.8950 
  205.0000    63.5920    34.0930    33.3740    28.2280    23.3720     2.2430   -18.8900 
  205.1250    65.7650    35.0490    34.3000    29.2980    23.4220     2.2400   -18.8950 
  205.2500    66.6310    35.8390    35.0850    32.5720    23.5300     2.2310   -18.9240 
  205.3750    66.0760    36.1230    35.4000    35.9350    23.6950     2.2190   -18.9620 
  205.5000    64.5100    35.7300    35.0720    34.9670    23.9060     2.2090   -19.0190 
  205.6250    63.6290    34.7560    34.1760    31.6300    24.0650     2.2060   -19.0700 
  205.7500    63.6320    33.7960    33.2250    29.9650    24.0930     2.2040   -19.1070 
  205.8750    63.4610    33.3550    32.6310    29.8920    24.0460     2.2010   -19.1480 
  206.0000    63.2230    33.7600    32.6960    29.5480    23.9840     2.1950   -19.2080 
  206.1250    64.0750    35.1550    33.7100    29.5780    23.9880     2.1910   -19.2780 
  206.2500    64.1400    37.0510    35.4190    32.5800    24.0650     2.1910   -19.3210 
  206.3750    63.8530    38.9460    37.3850    39.2310    24.1140     2.1920   -19.3680 
  206.5000    64.5840    40.3700    39.0020    44.2740    24.1470     2.1960   -19.4210 
  206.6250    64.7220    41.0210    39.7720    38.7110    24.1630     2.2040   -19.4760 
  206.7500    63.2690    41.2750    40.0330    34.8960    24.0890     2.2220   -19.5100 
  206.8750    61.9520    41.6230    40.3020    34.8940    24.0780     2.2510   -19.5530 
  207.0000    62.6970    42.5150    41.0320    37.3430    24.3020     2.2840   -19.5860 
  207.1250    63.9010    44.0830    42.3590    41.2580    24.7060     2.3050   -19.5910 
  207.2500    63.5090    45.4970    43.5630    44.7310    24.9320     2.3050   -19.6260 
  207.3750    63.1180    45.5860    43.6370    47.2140    24.9740     2.2850   -19.6840 
  207.5000    63.9240    43.4200    41.7690    49.8660    24.8690     2.2620   -19.7140 
  207.6250    65.5800    38.9460    37.8260    47.1040    24.6660     2.2580   -19.7430 
  207.7500    68.0680    34.0030    33.3160    37.9790    24.5480     2.2770   -19.7940 
  207.8750    71.6700    29.9850    29.4650    27.1140    24.5190     2.3090   -19.8440 
  208.0000    75.7340    27.6640    27.0540    22.5670    24.5340     2.3380   -19.8850 
  208.1250    75.8640    27.4100    26.5850    24.6080    24.5730     2.3450   -19.9460 
  208.2500    72.7180    28.5260    27.5280    30.4960    24.6250     2.3310   -19.9920 
  208.3750    69.8310    30.4390    29.4130    33.3780    24.6430     2.3030   -20.0060 
  208.5000    68.7550    32.5180    31.6600    32.8330    24.6260     2.2720   -20.0320 
  208.6250    67.7360    34.1410    33.6300    32.4550    24.5930     2.2500   -20.0930 
  208.7500    65.8700    35.2130    35.0640    32.5880    24.5780     2.2390   -20.1660 
  208.8750    65.1110    35.9380    35.9800    33.1030    24.5760     2.2410   -20.2670 
  209.0000    67.2680    36.6000    36.5320    33.3900    24.5510     2.2520   -20.3920 
  209.1250    69.8540    37.4360    36.9460    33.4760    24.5210     2.2650   -20.5490 
  209.2500    70.3980    38.4900    37.4620    34.6310    24.5520     2.2740   -20.7000 
  209.3750    68.7510    39.7630    38.1490    37.0080    24.6570     2.2780   -20.8650 
  209.5000    66.1780    41.2940    38.9890    39.8130    24.7420     2.2780   -21.0450 
  209.6250    66.1860    43.4290    40.1520    41.6010    24.7770     2.2770   -21.2070 
  209.7500    67.3160    46.6280    42.0810    42.4700    24.7790     2.2790   -21.3740 
  209.8750    67.0220    51.5940    45.4840    42.7700    24.7530     2.2850   -21.5190 
  210.0000    65.6810    59.1940    51.2110    43.8020    24.6910     2.3000   -21.6550 
  210.1250    65.1880    71.1800    60.8410    45.9030    24.5930     2.3310   -21.7590 
  210.2500    62.9460    88.0140    74.7040    59.9850    24.5450     2.3700   -21.8720 
  210.3750    57.1280   110.2690    93.1570    84.8980    24.5580     2.4060   -21.9530 
  210.5000    52.3390   137.2470   115.3560   108.9220    24.5780     2.4270   -21.9970 
  210.6250    53.9590   162.9930   136.4110   131.4350    24.2410     2.4320   -22.0090 
  210.7500    59.8080   174.2010   147.0610   175.1000    23.6310     2.4400   -22.0000 
  210.8750    67.1740   160.2970   139.6280   240.9700    23.2740     2.4690   -21.9730 
  211.0000    71.9250   126.2180   115.0500   241.8330    23.5070     2.5230   -21.9180 
  211.1250    69.2390    89.8940    84.2310   133.5460    23.9210     2.5860   -21.8110 
  211.2500    62.0190    62.3200    58.6400    57.0990    24.1620     2.6330   -21.6250 
  211.3750    54.6970    43.7780    40.7850    27.8750    24.2470     2.6540   -21.3700 
  211.5000    50.0720    31.7960    29.3390    19.2700    24.2980     2.6530   -21.0510 
  211.6250    48.0350    24.3380    22.4430    15.4790    24.1730     2.6470   -20.6410 
  211.7500    46.8150    19.0710    17.6650    13.9040    23.9150     2.6530   -20.1450 
  211.8750    46.5890    15.2480    14.1910    13.6010    23.6780     2.6720   -19.5750 
  212.0000    48.4570    10.9510    11.6090     9.8160    23.5970     2.6960   -18.9760 
  212.1250    52.0720     9.3770     9.8480     7.9510    23.6440     2.7060   -18.3780 
  212.2500    54.2890     8.4160     8.7220     7.3550    23.7140     2.6930   -17.8470 
  212.3750    54.7080     7.9400     8.1650     7.4350    23.7900     2.6560   -17.3980 
  212.5000    53.8840     7.8170     8.0400     7.4620    23.8510     2.6040   -17.0410 
  212.6250    52.6890     7.9070     8.1340     7.3780    23.8770     2.5470   -16.8040 
  212.7500    53.8320     8.0330     8.2080     7.4900    23.9030     2.4980   -16.6660 
  212.8750    56.3810     8.1240     8.2130     7.6760    23.9570     2.4630   -16.6180 
  213.0000    56.6440     8.1620     8.2000     7.7810    24.1080     2.4410   -16.6200 
  213.1250    54.6460     8.1470     8.2240     7.6920    24.3090     2.4340   -16.6750 
  213.2500    53.5080     8.1010     8.2380     7.7250    24.5010     2.4370   -16.7480 
  213.3750    53.2730     8.0370     8.1670     7.8620    24.5720     2.4470   -16.8300 
  213.5000    52.6850     7.9690     7.9800     8.1950    24.4820     2.4620   -16.9190 
  213.6250    53.6710     7.9100     7.7430     7.8270    24.3410     2.4730   -17.0120 
  213.7500    56.0750     7.8700     7.5790     7.5220    24.3750     2.4730   -17.1110 
  213.8750    57.0370     7.8460     7.5250     7.5180    24.5030     2.4610   -17.2190 
  214.0000    56.3780     7.8340     7.5300     7.8240    24.5760     2.4400   -17.3580 
  214.1250    57.1960     7.8400     7.5170     7.9600    24.6050     2.4230   -17.5520 
  214.2500    58.9450     7.8620     7.4730     7.9080    24.6420     2.4140   -17.7490 
  214.3750    57.1930     7.8900     7.4310     7.7030    24.6690     2.4140   -17.9600 
