~V
VERS. 2.00: Ver 2.00
~W
STRT.M 57.0000:
STOP.M 307.0000:
STEP.M 0.1250:
NULL. -999.2500:
UWI. F10042:
~C
DEPT.M :
GR.API :
RML.OHMM :
RI. :
RXO.OHMM :
CALI.CM :
DEN.GM/CC :
SP.MV :
~A
# ...
  225.7500    80.5110    13.1490    12.5090    14.0820    25.4380     2.2950   -25.2530 
  225.8750    83.9030    13.3580    12.5810    14.1440    25.5880     2.2610   -25.6970 
  226.0000    86.0860    13.4700    12.4870    13.8550    25.6940     2.2250   -26.2010 
  226.1250    81.8080    13.4540    12.2180    13.3660    25.6760     2.1990   -26.6390 
  226.2500    75.7530    13.2840    11.8380    12.9500    25.6280     2.1810   -27.0160 
  226.3750    71.8170    12.9280    11.4080    12.7790    25.6210     2.1700   -27.3240 
  226.5000    70.0190    12.4420    11.0370    12.8240    25.6600     2.1700   -27.4790 
  226.6250    69.8860    12.1620    10.9850    12.8870    25.6660     2.1920   -27.4070 
  226.7500    69.4760    12.4100    11.4830    13.0710    25.6260     2.2380   -27.1730 
  226.8750    67.9010    13.3260    12.8470    14.0800    25.5810     2.3000   -26.8080 
  227.0000    66.1770    15.1180    15.5300    18.2580    25.6220     2.3620   -26.2940 
  227.1250    65.7910    18.7020    20.5720    33.2150    25.7880     2.4060   -25.5510 
  227.2500    65.2860    24.6560    28.2490    57.7930    25.9530     2.4330   -24.6680 
  227.3750    65.0330    33.3060    38.5070    69.5360    26.0160     2.4590   -23.7400 
  227.5000    65.9500    44.2470    50.2820    74.1420    25.9540     2.4960   -22.8220 
  227.6250    66.7320    56.1770    61.2110    88.3200    25.8700     2.5460   -21.8970 
  227.7500    67.1110    66.8190    69.2100   113.7270    25.8520     2.5920   -20.9620 
  227.8750    68.0720    74.1060    72.5890   142.0140    25.8960     2.6210   -20.0120 
  228.0000    67.5410    75.8880    69.1200   148.4140    25.9490     2.6290   -19.0560 
  228.1250    64.8650    69.2120    56.3550   113.4880    25.9740     2.6150   -18.1680 
  228.2500    64.2090    56.1640    39.7640    83.1100    25.9320     2.5850   -17.3660 
  228.3750    64.8440    40.3410    25.0640    64.1750    25.8530     2.5370   -16.5450 
  228.5000    64.1770    25.7460    14.9400    36.0920    25.7790     2.4750   -15.6230 
  228.6250    62.4840    15.4520     9.4940    14.9940    25.8050     2.4150   -14.6250 
  228.7500    62.3150     9.0630     6.5240     6.3090    25.9390     2.3780   -13.5780 
  228.8750    61.4280     5.7950     5.0040     4.3390    26.0790     2.3740   -12.5000 
  229.0000    56.7440     4.5420     4.3310     4.0940    26.0580     2.3980   -11.4320 
  229.1250    51.0860     4.2920     4.2240     4.0680    25.9150     2.4290   -10.4660 
  229.2500    48.5860     4.3680     4.3580     4.0890    25.7370     2.4460    -9.5690 
  229.3750    48.0510     4.6140     4.5610     4.1600    25.6020     2.4460    -8.7580 
  229.5000    45.8260     4.8900     4.7260     4.1700    25.5150     2.4320    -8.1260 
  229.6250    42.8200     5.0950     4.8080     4.1800    25.3600     2.4150    -7.6780 
  229.7500    42.2370     5.2060     4.8420     4.2150    25.1690     2.3980    -7.3970 
  229.8750    42.6570     5.2380     4.8610     4.2910    24.9530     2.3830    -7.2710 
  230.0000    42.3720     5.2360     4.8900     4.3890    24.7880     2.3660    -7.2010 
  230.1250    42.3290     5.2690     4.9370     4.4960    24.7780     2.3500    -7.0810 
  230.2500    42.4880     5.3810     4.9890     4.6470    24.9080     2.3390    -6.9850 
  230.3750    41.7070     5.5740     5.0330     4.8010    25.0510     2.3330    -6.9830 
  230.5000    40.6620     5.8020     5.0600     4.9060    25.1390     2.3330    -6.9880 
  230.6250    40.5500     5.9780     5.0690     5.0120    25.1970     2.3370    -6.9180 
  230.7500    41.4130     6.0580     5.0730     5.0980    25.1940     2.3450    -6.7820 
  230.8750    43.7380     6.0630     5.0910     5.1940    25.1780     2.3550    -6.5950 
  231.0000    47.2460     6.0700     5.1350     5.2480    25.2010     2.3680    -6.4620 
  231.1250    49.0590     6.1880     5.2210     5.2450    25.2620     2.3790    -6.4870 
  231.2500    48.7550     6.4280     5.3400     5.3690    25.3590     2.3810    -6.5220 
  231.3750    49.0140     6.7360     5.4720     5.6550    25.4410     2.3720    -6.5020 
  231.5000    51.1890     7.0180     5.5880     5.9450    25.4580     2.3560    -6.5420 
  231.6250    53.6170     7.1800     5.6530     6.0240    25.4270     2.3430    -6.7220 
  231.7500    53.2870     7.2240     5.6630     6.0280    25.3740     2.3380    -6.9180 
  231.8750    50.5070     7.1810     5.6250     5.9200    25.3300     2.3360    -7.1090 
  232.0000    47.0930     7.0940     5.5560     5.7730    25.2920     2.3310    -7.2870 
  232.1250    44.8720     6.9950     5.4750     5.8030    25.2640     2.3200    -7.4050 
  232.2500    44.8150     6.9010     5.4090     5.7940    25.3210     2.3120    -7.5130 
  232.3750    46.6460     6.8270     5.3750     5.7450    25.4630     2.3190    -7.6620 
  232.5000    48.5290     6.7990     5.3820     5.7700    25.5380     2.3400    -7.7930 
  232.6250    47.7650     6.8680     5.4300     5.9060    25.5570     2.3680    -7.8680 
  232.7500    45.3790     7.0370     5.4890     5.9730    25.5750     2.3880    -7.9390 
  232.8750    42.2860     7.2820     5.5380     5.9930    25.5970     2.3960    -7.9960 
  233.0000    39.5420     7.5480     5.5590     6.1050    25.5410     2.3970    -8.0520 
  233.1250    38.9860     7.7480     5.5500     6.1070    25.4120     2.3970    -8.1320 
  233.2500    40.3040     7.8330     5.5280     5.8790    25.3060     2.3970    -8.2150 
  233.3750    41.3910     7.7960     5.4960     5.6900    25.2730     2.3970    -8.2440 
  233.5000    41.5580     7.6630     5.4540     5.6600    25.3280     2.3960    -8.2120 
  233.6250    42.2210     7.4780     5.4000     5.7720    25.4490     2.3910    -8.1210 
  233.7500    43.6350     7.2960     5.3450     5.7680    25.5240     2.3820    -8.0590 
  233.8750    45.0910     7.1420     5.3050     5.5370    25.5330     2.3730    -8.0870 
  234.0000    46.0540     7.0330     5.2980     5.2450    25.4910     2.3660    -8.1320 
  234.1250    47.7020     6.9940     5.3380     5.3760    25.4550     2.3610    -8.0760 
  234.2500    50.4410     7.0330     5.4060     5.7250    25.4530     2.3580    -7.9830 
  234.3750    52.6160     7.1490     5.4770     6.0170    25.4640     2.3560    -7.9790 
  234.5000    52.0830     7.3080     5.5230     6.0470    25.4670     2.3560    -8.0190 
  234.6250    48.9650     7.4280     5.5160     6.0190    25.4690     2.3560    -8.0320 
  234.7500    46.6680     7.4480     5.4650     5.9330    25.4510     2.3570    -8.0360 
  234.8750    46.0500     7.3660     5.3870     5.8220    25.4370     2.3570    -8.0890 
  235.0000    45.3480     7.2310     5.3030     5.8000    25.4820     2.3580    -8.2650 
  235.1250    43.7140     7.1100     5.2320     5.6850    25.5440     2.3610    -8.5650 
  235.2500    43.1080     7.0160     5.1840     5.5340    25.5790     2.3660    -8.9670 
  235.3750    44.2240     6.9220     5.1590     5.4050    25.5710     2.3700    -9.4540 
  235.5000    45.6900     6.7980     5.1490     5.3360    25.5380     2.3700    -9.9820 
  235.6250    45.7540     6.6500     5.1450     5.3020    25.4400     2.3650   -10.5800 
  235.7500    45.0420     6.5240     5.1360     5.1850    25.3550     2.3640   -11.2020 
  235.8750    44.8110     6.4500     5.1140     5.1170    25.3210     2.3690   -11.7600 
  236.0000    46.3580     6.4340     5.0820     5.0920    25.3450     2.3800   -12.1970 
  236.1250    49.2950     6.4600     5.0460     5.1550    25.3790     2.3930   -12.4950 
  236.2500    50.4500     6.5020     5.0170     5.1860    25.4140     2.3980   -12.6890 
  236.3750    50.5830     6.5520     4.9950     5.1310    25.4350     2.3950   -12.8040 
  236.5000    52.2220     6.5970     4.9760     5.0210    25.4380     2.3840   -12.8690 
  236.6250    55.5480     6.6110     4.9540     5.0780    25.4710     2.3700   -12.8610 
  236.7500    58.4760     6.5810     4.9420     5.1500    25.4860     2.3590   -12.7490 
  236.8750    61.9540     6.5180     4.9620     5.1170    25.4620     2.3530   -12.5430 
