~V
VERS. 2.00: Ver 2.00
~W
STRT.M 50.0000:
STOP.M 212.0000:
STEP.M 0.1250:
NULL. -999.2500:
UWI. F10013:
~C
DEPT.M :
GR.API :
RML.OHMM :
RI. :
RXO.OHMM :
CALI.CM :
DEN.GM/CC :
SP.MV :
~A
# ...
  151.2500    57.7840     8.5820     7.8840     7.5170    22.8060     2.3350   -20.8990 
  151.3750    63.6250     8.7850     7.9920     7.8300    22.8440     2.3480   -20.9410 
  151.5000    68.6160     9.0290     8.0980     8.1780    22.8930     2.3650   -20.9770 
  151.6250    74.3140     9.2740     8.1910     8.5590    22.9330     2.3820   -21.0070 
  151.7500    80.6800     9.4820     8.2800     8.9010    22.9890     2.3950   -21.0480 
  151.8750    85.8980     9.6310     8.3860     9.2000    23.0500     2.4000   -21.0900 
  152.0000    86.9760     9.7070     8.5120     9.2120    23.0850     2.4000   -21.1200 
  152.1250    85.0430     9.6910     8.6110     9.0830    23.1020     2.3980   -21.1160 
  152.2500    85.0360     9.5940     8.6270     9.2710    23.1220     2.3970   -21.1180 
  152.3750    85.3510     9.4330     8.5470     9.5860    23.1420     2.3950   -21.1380 
  152.5000    83.1560     9.2560     8.4040     9.5970    23.1520     2.3910   -21.1710 
  152.6250    78.5290     9.1630     8.2060     9.4180    23.1700     2.3820   -21.2300 
  152.7500    77.2140     9.2220     8.0290     9.3440    23.2220     2.3730   -21.2940 
  152.8750    78.5110     9.4630     8.0280     9.5140    23.2940     2.3680   -21.3640 
  153.0000    77.6880     9.8540     8.2800    10.0390    23.3350     2.3700   -21.4420 
  153.1250    77.2210    10.3000     8.7390    10.9110    23.3330     2.3780   -21.5480 
  153.2500    79.8790    10.6570     9.2410    12.1670    23.3110     2.3860   -21.6600 
  153.3750    82.8350    10.8420     9.6230    13.0990    23.2860     2.3890   -21.7540 
  153.5000    83.3640    10.8680     9.8030    13.2110    23.2580     2.3840   -21.8230 
  153.6250    83.0190    10.8730     9.8120    13.5780    23.2410     2.3740   -21.8540 
  153.7500    83.4970    11.0640     9.8780    13.7310    23.2790     2.3640   -21.8700 
  153.8750    82.4390    11.5740    10.2230    13.3430    23.3400     2.3620   -21.8770 
  154.0000    80.7340    12.4130    10.9110    14.1720    23.3510     2.3700   -21.8800 
  154.1250    82.0290    13.4300    11.8420    16.8350    23.2980     2.3860   -21.8730 
  154.2500    85.0960    14.3200    12.7500    19.3620    23.2580     2.4000   -21.8630 
  154.3750    85.1840    14.8960    13.4730    21.0690    23.2130     2.4010   -21.8850 
  154.5000    81.4210    15.1460    13.9520    21.8950    23.2440     2.3880   -21.9440 
  154.6250    79.3680    15.2490    14.2660    18.4910    23.3270     2.3610   -22.0220 
  154.7500    80.7020    15.4760    14.6120    17.7040    23.4060     2.3310   -22.0820 
  154.8750    82.1050    15.9210    15.0820    18.8470    23.4530     2.3040   -22.1150 
  155.0000    81.8820    16.5090    15.6470    21.0840    23.4760     2.2830   -22.1350 
  155.1250    80.1100    16.9990    16.1310    23.3240    23.4830     2.2700   -22.1420 
  155.2500    77.9580    17.1860    16.3560    23.2930    23.4820     2.2630   -22.1610 
  155.3750    77.9040    17.0120    16.2450    21.5630    23.4620     2.2610   -22.1710 
  155.5000    81.8080    16.5670    15.8360    19.6820    23.4300     2.2640   -22.1620 
  155.6250    85.6110    16.0370    15.2460    18.8560    23.3960     2.2680   -22.1430 
  155.7500    84.7050    15.5840    14.6340    18.7700    23.3800     2.2730   -22.1390 
  155.8750    81.2480    15.2400    14.0670    18.8290    23.3840     2.2780   -22.1580 
  156.0000    80.1820    14.9910    13.5800    17.9420    23.3550     2.2820   -22.1710 
  156.1250    81.8170    14.9370    13.2900    17.3970    23.2140     2.2850   -22.1900 
  156.2500    81.9170    15.2990    13.3550    17.1210    23.0740     2.2830   -22.1630 
  156.3750    78.0350    16.4130    14.0220    17.4180    23.0070     2.2790   -22.1040 
  156.5000    70.8110    18.6190    15.5720    18.3630    23.0350     2.2820   -22.0330 
  156.6250    63.9180    22.3170    18.4560    22.8300    23.1590     2.3080   -21.9540 
  156.7500    58.7430    27.0500    22.4550    34.6760    23.2510     2.3590   -21.8750 
  156.8750    55.4400    32.0480    27.0270    51.7800    23.2620     2.4190   -21.7920 
  157.0000    54.0750    36.1560    31.1310    62.5690    23.2560     2.4660   -21.7180 
  157.1250    54.3310    37.9460    33.2680    54.3230    23.2600     2.4700   -21.6440 
  157.2500    57.1580    37.6520    33.3460    47.4470    23.3040     2.4370   -21.6060 
  157.3750    62.4090    36.1050    31.9750    43.4830    23.3380     2.3840   -21.6010 
  157.5000    66.4600    34.3970    30.1340    40.8540    23.3890     2.3350   -21.6160 
  157.6250    65.0650    33.5990    28.8230    37.7490    23.4530     2.3170   -21.6400 
  157.7500    60.5010    34.0600    28.5030    35.7650    23.4510     2.3270   -21.6450 
  157.8750    58.1410    35.9090    29.4080    35.7960    23.4130     2.3570   -21.6270 
  158.0000    59.3550    39.0840    31.6410    38.6610    23.3760     2.3940   -21.5880 
  158.1250    60.5890    43.3490    35.2660    42.5380    23.3720     2.4230   -21.5160 
  158.2500    61.6470    47.7100    39.5120    55.5060    23.3310     2.4420   -21.4060 
  158.3750    62.9030    51.0930    43.4350    71.5910    23.2800     2.4480   -21.2790 
  158.5000    63.2230    52.4660    45.9180    80.4000    23.3030     2.4400   -21.1450 
  158.6250    62.7310    50.9100    45.7350    72.6510    23.3290     2.4140   -21.0220 
  158.7500    62.7900    47.3070    43.3370    65.0700    23.3340     2.3780   -20.9240 
  158.8750    63.1500    42.6460    39.5180    58.5710    23.3480     2.3430   -20.8660 
  159.0000    63.3420    37.9240    35.2630    50.1170    23.3980     2.3160   -20.8490 
  159.1250    63.5300    33.9390    31.4440    41.0770    23.4550     2.3010   -20.8900 
  159.2500    63.4580    30.7960    28.3440    34.3290    23.4990     2.2900   -20.9630 
  159.3750    63.0140    28.4430    25.9980    32.6560    23.5250     2.2800   -21.0350 
  159.5000    64.7150    26.7900    24.3700    32.1700    23.5260     2.2730   -21.0950 
  159.6250    67.7360    25.9000    23.5510    31.1950    23.5100     2.2690   -21.1260 
  159.7500    66.3160    25.6750    23.4290    28.7450    23.4820     2.2680   -21.1330 
  159.8750    61.6150    26.1200    23.9940    26.5690    23.4560     2.2700   -21.0980 
  160.0000    60.2390    27.1770    25.1940    27.2160    23.4390     2.2730   -21.0360 
  160.1250    62.6170    28.7250    26.9380    34.3040    23.4520     2.2790   -20.9550 
  160.2500    61.7320    30.3860    28.8600    39.4870    23.4690     2.2870   -20.8730 
  160.3750    58.1460    31.8410    30.6310    41.1940    23.4870     2.2960   -20.8000 
  160.5000    58.0460    32.8060    31.9400    41.3810    23.4950     2.3040   -20.7460 
  160.6250    63.6700    33.3430    32.4630    41.4910    23.4830     2.3050   -20.7300 
  160.7500    67.1290    33.7000    32.3270    42.4590    23.4770     2.2980   -20.7350 
  160.8750    65.6600    33.5890    31.7080    41.5240    23.4750     2.2840   -20.7630 
  161.0000    63.2200    32.7960    30.8510    39.8840    23.4930     2.2670   -20.7850 
  161.1250    63.2670    31.7180    30.0210    37.4180    23.5080     2.2530   -20.7730 
  161.2500    64.0670    30.9060    29.4050    34.6870    23.4980     2.2470   -20.7650 
  161.3750    63.0670    30.4540    29.0750    33.2570    23.4630     2.2460   -20.7650 
  161.5000    60.8810    30.3430    28.9830    32.6460    23.4330     2.2440   -20.7630 
  161.6250    61.5670    30.4380    28.9800    32.4180    23.4370     2.2380   -20.7590 
  161.7500    64.2100    30.4760    28.8690    33.0390    23.4210     2.2290   -20.7550 
  161.8750    64.8130    30.3020    28.6460    33.5530    23.3430     2.2250   -20.7510 
  162.0000    63.3300    29.8800    28.3640    32.0210    23.1940     2.2280   -20.7410 
  162.1250    63.2760    29.2910    28.0760    30.9990    23.0670     2.2370   -20.7320 
  162.2500    65.0670    28.7100    27.7530    30.3590    22.9880     2.2450   -20.6930 
  162.3750    66.0370    28.2160    27.3570    29.4080    23.0120     2.2500   -20.6270 
