~V
VERS. 2.00: Ver 2.00
~W
STRT.M 50.0000:
STOP.M 221.0000:
STEP.M 0.1250:
NULL. -999.2500:
UWI. F10024:
~C
DEPT.M :
GR.API :
RML.OHMM :
RI. :
RXO.OHMM :
CALI.CM :
DEN.GM/CC :
SP.MV :
~A
# ...
  185.0000    94.9810     7.7780     7.4010     7.5710    23.7240     2.3820    -7.0070 
  185.1250    99.6700     8.6700     8.3090     8.3730    23.9210     2.3810    -7.2170 
  185.2500   100.8830     9.5560     9.3090     8.8390    23.9970     2.3850    -7.4190 
  185.3750   100.9430    10.3840    10.3280     9.6420    24.0180     2.3910    -7.6020 
  185.5000   101.1920    11.1460    11.3050    11.1790    24.0400     2.3960    -7.7330 
  185.6250   101.9920    11.8160    12.1270    13.0240    24.0510     2.3910    -7.8740 
  185.7500   103.3750    12.3820    12.7120    13.3950    24.0480     2.3790    -7.9960 
  185.8750   106.0930    12.8100    12.9940    12.8250    24.0280     2.3650    -8.1270 
  186.0000   109.2500    13.0400    12.9160    13.0190    24.0120     2.3520    -8.2640 
  186.1250   109.0070    12.9570    12.4040    12.9590    24.0060     2.3420    -8.4270 
  186.2500   106.4280    12.6210    11.6280    12.9020    23.9860     2.3310    -8.6000 
  186.3750   103.3850    12.1950    10.7990    13.8910    23.9470     2.3240    -8.7860 
  186.5000   101.5240    11.9900    10.2060    13.8170    23.9300     2.3300    -9.0390 
  186.6250   101.7260    12.6560    10.3280    12.4640    23.9790     2.3650    -9.3380 
  186.7500   100.3560    14.7020    11.4760    13.4130    24.0260     2.4160    -9.6860 
  186.8750    93.7680    18.7180    14.1280    17.9060    24.0330     2.4580   -10.0660 
  187.0000    82.2710    25.2710    18.9500    27.4510    23.9680     2.4610   -10.4800 
  187.1250    73.3390    35.3050    27.3830    44.6340    23.8650     2.4080   -10.9050 
  187.2500    70.2650    48.1260    39.3860    70.7930    23.8210     2.3270   -11.3680 
  187.3750    70.0800    62.4620    53.9510    92.6990    23.8800     2.2490   -11.8440 
  187.5000    70.1990    76.1160    68.5720   103.5990    23.9380     2.1970   -12.2920 
  187.6250    70.4340    86.5610    80.1330   108.9510    23.9400     2.1780   -12.6980 
  187.7500    69.8150    94.1820    88.4970   112.2750    23.9180     2.1780   -13.0710 
  187.8750    68.8320   100.3860    94.7450   113.3540    23.9160     2.1840   -13.4020 
  188.0000    67.9290   106.7590   100.3310   115.9300    23.9540     2.1910   -13.6840 
  188.1250    67.3700   114.7050   106.6760   123.5610    23.9570     2.1950   -13.9360 
  188.2500    67.7270   124.0880   114.1580   137.2830    23.9360     2.1960   -14.1450 
  188.3750    68.3170   133.6130   122.0650   153.0560    23.9150     2.2020   -14.3220 
  188.5000    68.4510   140.9610   128.7660   159.7100    23.8750     2.2150   -14.4650 
  188.6250    65.6560   142.9960   131.7350   160.2050    23.8210     2.2400   -14.5890 
  188.7500    62.7740   140.3980   130.9050   164.5730    23.7700     2.2700   -14.6820 
  188.8750    63.0350   138.3190   127.4230   163.1690    23.7330     2.2970   -14.7750 
  189.0000    65.1930   134.2120   123.1540   144.0800    23.7890     2.3130   -14.8680 
  189.1250    66.4750   132.1520   120.0080   119.1910    23.9100     2.3120   -14.9900 
  189.2500    64.9550   133.1310   118.5840   126.4980    23.9340     2.2970   -15.1120 
  189.3750    62.4260   132.6900   118.6260   159.4140    23.9050     2.2770   -15.2390 
  189.5000    60.5640   132.6340   119.3990   157.2290    23.8900     2.2640   -15.3500 
  189.6250    60.2550   132.2990   120.0720   129.1700    23.9000     2.2640   -15.4650 
  189.7500    60.9100   131.7350   120.3170   116.4120    23.8970     2.2720   -15.5790 
  189.8750    62.8820   136.4980   120.5110   123.0690    23.8790     2.2770   -15.6940 
  190.0000    65.7600   139.4230   121.6330   150.7440    23.8910     2.2720   -15.8020 
  190.1250    65.5820   143.4310   125.1340   146.7930    23.9090     2.2550   -15.8710 
  190.2500    63.2540   149.6170   130.8530   141.2990    23.9190     2.2330   -15.9090 
  190.3750    62.3370   156.9750   137.9770   141.0600    23.9020     2.2110   -15.9510 
  190.5000    63.2720   164.2260   145.2880   156.2660    23.8650     2.1930   -16.0030 
  190.6250    62.1410   169.8710   151.3020   198.9460    23.8290     2.1850   -16.0450 
  190.7500    59.6000   173.5480   155.5160   200.6290    23.7350     2.1850   -16.0580 
  190.8750    58.8550   175.3880   157.9980   163.1560    23.5380     2.1900   -16.0540 
  191.0000    59.6010   175.4640   158.9080   131.4190    23.4530     2.1940   -16.0090 
  191.1250    60.8740   172.5780   157.4160   125.0090    23.5520     2.1910   -15.9210 
  191.2500    61.5880   166.0980   152.9760   148.6200    23.7010     2.1830   -15.7840 
  191.3750    60.6660   156.1060   145.3840   172.4890    23.7870     2.1750   -15.6100 
  191.5000    58.5770   144.1660   135.5800   159.4490    23.7860     2.1720   -15.4170 
  191.6250    58.1530   133.0660   125.6900   116.1070    23.7140     2.1770   -15.1750 
  191.7500    59.9890   124.8050   117.8920    95.2330    23.6720     2.1880   -14.9570 
  191.8750    62.2850   120.1080   113.2540   106.2930    23.6980     2.2030   -14.7250 
  192.0000    65.4640   118.8310   111.9130   126.9230    23.7110     2.2170   -14.5510 
  192.1250    68.0300   120.7090   113.7140   132.9750    23.6420     2.2290   -14.3910 
  192.2500    65.9330   124.4260   117.3690   122.8770    23.6660     2.2360   -14.2820 
  192.3750    60.6280   129.3030   122.2560   119.6630    23.7810     2.2410   -14.2100 
  192.5000    56.1850   134.9280   128.0490   128.7550    23.9010     2.2480   -14.1480 
  192.6250    55.9990   141.4550   134.9990   147.4150    23.9370     2.2580   -14.0840 
  192.7500    59.1150   149.2210   143.3830   150.4690    23.9390     2.2660   -14.0080 
  192.8750    63.9650   158.7200   153.5800   154.3880    23.9300     2.2680   -13.9360 
  193.0000    67.2660   170.2900   165.7420   163.7190    23.9310     2.2590   -13.8430 
  193.1250    65.4390   183.3040   179.1180   169.5470    23.9730     2.2420   -13.7220 
  193.2500    61.4100   193.1470   189.6450   192.3200    23.9980     2.2250   -13.6050 
  193.3750    57.7920   192.3580   191.1010   221.2550    24.0110     2.2120   -13.4780 
  193.5000    56.9410   175.5580   178.5290   244.1350    24.0300     2.2040   -13.3610 
  193.6250    60.6710   145.8730   152.3100   229.7780    24.0360     2.2020   -13.2830 
  193.7500    65.1000   116.7820   123.6170   170.1920    24.0220     2.2020   -13.2320 
  193.8750    67.3000    95.0940   100.0430   107.9000    24.0010     2.2030   -13.1960 
  194.0000    68.1460    82.5330    85.0770    70.5930    23.9890     2.1990   -13.1770 
  194.1250    68.8600    79.0310    79.8250    61.0270    24.0010     2.1900   -13.1760 
  194.2500    67.3010    81.2600    81.0000    68.1090    24.0310     2.1790   -13.1500 
  194.3750    63.1800    87.6710    86.9580    94.9720    24.0700     2.1710   -13.0690 
  194.5000    61.2030    96.7470    96.0760   132.2570    24.0990     2.1740   -12.9460 
  194.6250    65.0850   106.2470   105.8910   127.4420    24.1090     2.1990   -12.7560 
  194.7500    67.9500   113.1140   113.0540   101.3720    24.1090     2.2430   -12.5400 
  194.8750    65.9040   114.8080   115.0040   103.4790    24.0970     2.2930   -12.2680 
  195.0000    62.1330   109.9860   110.4420   151.4080    24.0620     2.3320   -11.9570 
  195.1250    63.3030    98.8260    99.3700   192.6320    23.9520     2.3440   -11.6590 
  195.2500    68.6570    85.3160    85.6190   146.0080    23.8250     2.3350   -11.3830 
  195.3750    77.0060    72.2830    72.1140    82.7220    23.7460     2.3200   -11.1300 
  195.5000    87.6680    61.7120    61.0150    50.2970    23.7130     2.3080   -10.9070 
  195.6250    96.1360    55.2180    53.9660    47.2190    23.7330     2.2990   -10.7590 
  195.7500    98.8130    52.3610    50.4690    43.1980    23.7020     2.2860   -10.6170 
  195.8750    96.1750    52.8770    50.2480    40.8490    23.7420     2.2700   -10.5250 
  196.0000    92.4960    56.3670    52.9830    42.9910    23.8420     2.2600   -10.4550 
  196.1250    93.2670    62.5730    58.5810    57.1950    23.9130     2.2680   -10.4250 
