~V
VERS. 2.00: Ver 2.00
~W
STRT.M 50.0000:
STOP.M 265.0000:
STEP.M 0.1250:
NULL. -999.2500:
UWI. F10025:
~C
DEPT.M :
SP.MV :
DEN.GM/CC :
GR.API :
CALI.CM :
RXO.OHMM :
RI. :
RML.OHMM :
~A
# ...
  173.7500    -6.6250     2.1150    81.5360    23.6310    12.2000    16.7570    17.2650 
  173.8750    -6.3980     2.1260    84.8360    23.7440    13.0670    16.9330    17.5060 
  174.0000    -6.1040     2.1260    88.7940    23.7610    14.6510    17.4890    18.1590 
  174.1250    -5.8840     2.1240    90.8740    23.6160    15.8220    18.3870    19.1530 
  174.2500    -5.6800     2.1260    87.8930    23.4300    16.0490    19.4150    20.2360 
  174.3750    -5.4660     2.1290    80.9510    23.2580    16.4910    20.1740    20.9600 
  174.5000    -5.2990     2.1290    75.8440    23.1540    17.2710    20.4620    21.1380 
  174.6250    -5.1660     2.1310    74.7180    23.1150    17.3300    20.3480    20.9120 
  174.7500    -5.0760     2.1530    75.4440    23.1360    16.5100    20.1210    20.6580 
  174.8750    -4.9810     2.2050    75.3850    23.1770    15.9560    20.1460    20.8130 
  175.0000    -4.9510     2.2780    75.2360    23.1900    16.9540    20.5070    21.3930 
  175.1250    -4.9420     2.3200    73.9310    23.1660    19.7460    21.0810    22.1690 
  175.2500    -4.8620     2.3040    70.4250    23.1610    21.6530    21.5940    22.7480 
  175.3750    -4.7920     2.2530    67.8330    23.2070    20.1640    21.6900    22.7090 
  175.5000    -4.7370     2.2110    68.7800    23.3450    17.2270    21.3910    22.2070 
  175.6250    -4.7240     2.2030    71.6160    23.5310    15.6250    20.9160    21.5890 
  175.7500    -4.7370     2.2050    74.0440    23.6770    15.4150    20.5670    21.2200 
  175.8750    -4.7280     2.1980    73.1280    23.7320    15.9250    20.6560    21.3780 
  176.0000    -4.7070     2.1780    70.9010    23.7240    16.4090    21.1540    21.9300 
  176.1250    -4.6690     2.1490    69.3150    23.6930    16.6300    21.9080    22.6630 
  176.2500    -4.7070     2.1240    69.7730    23.7480    16.6710    22.6860    23.3630 
  176.3750    -4.7500     2.1150    70.9390    23.8810    16.6730    23.2500    23.8690 
  176.5000    -4.8110     2.1280    71.0330    24.0280    16.4330    23.5420    24.1450 
  176.6250    -4.8640     2.1510    72.7300    24.0890    16.0080    23.5540    24.1450 
  176.7500    -4.9260     2.1630    75.5810    24.0350    15.6850    23.2890    23.8200 
  176.8750    -5.0940     2.1630    75.3940    23.8580    15.6340    22.7050    23.0870 
  177.0000    -5.2740     2.1550    73.2050    23.7720    15.5730    21.9270    22.1110 
  177.1250    -5.4770     2.1460    72.9430    23.8840    15.3940    21.1460    21.1460 
  177.2500    -5.6860     2.1460    74.6220    24.0330    15.2320    20.6350    20.5360 
  177.3750    -5.8810     2.1740    73.8290    24.0560    15.4070    20.8340    20.8070 
  177.5000    -6.0550     2.2480    71.5310    24.0010    16.6730    21.9760    22.1950 
  177.6250    -6.2470     2.3730    70.9600    23.9900    20.4570    24.3890    24.9970 
  177.7500    -6.4450     2.5030    70.8320    24.0700    26.9260    28.4250    29.4560 
  177.8750    -6.5520     2.5970    68.4070    24.1050    35.0280    34.2630    35.5930 
  178.0000    -6.6650     2.6350    66.2150    24.1220    43.1090    39.9610    41.2210 
  178.1250    -6.7820     2.6280    66.9310    24.1810    51.6620    42.1770    42.4850 
  178.2500    -6.8690     2.6060    69.8500    24.2550    59.4940    38.3450    36.9730 
  178.3750    -6.9880     2.5750    73.5310    24.2610    55.7110    30.0480    27.8440 
  178.5000    -7.0980     2.5340    77.5520    24.2020    39.6210    22.3280    20.3710 
  178.6250    -7.1820     2.4980    81.1900    24.1240    21.0250    17.0020    15.7240 
  178.7500    -7.2020     2.4920    82.3310    24.0950    10.7590    14.1570    13.6010 
  178.8750    -7.2490     2.5230    78.2290    24.1070    10.5280    13.5900    13.7420 
  179.0000    -7.2810     2.5730    71.1030    24.1520    13.7900    14.5680    15.4160 
  179.1250    -7.2750     2.5980    65.4770    24.1430    17.5060    16.8130    18.2120 
  179.2500    -7.2840     2.5940    64.1420    23.9880    20.2200    19.7350    21.3360 
  179.3750    -7.2570     2.5860    67.2390    23.6920    21.3680    22.0250    23.2950 
  179.5000    -7.2440     2.5980    70.2190    23.3410    21.3410    22.8320    23.5260 
  179.6250    -7.2060     2.6190    70.6400    23.0540    20.4740    22.3020    22.4750 
  179.7500    -7.2050     2.6270    68.5820    22.8470    19.6380    21.0550    20.9300 
  179.8750    -7.1760     2.6150    66.6390    22.7510    18.8580    19.5990    19.4390 
  180.0000    -7.1530     2.5930    65.7390    22.7680    17.5280    18.2640    18.2040 
  180.1250    -7.1060     2.5750    65.4130    22.8900    16.1700    17.2080    17.2960 
  180.2500    -7.0220     2.5630    67.2800    23.0170    15.6110    16.5210    16.7620 
  180.3750    -6.9930     2.5540    71.9020    23.1020    15.9710    16.3060    16.7020 
  180.5000    -6.9460     2.5460    74.1010    23.1300    16.5970    16.4890    17.0680 
  180.6250    -6.9150     2.5400    71.7890    23.1680    17.1230    17.0360    17.8290 
  180.7500    -6.8510     2.5440    68.7260    23.2120    17.7630    17.8620    18.8780 
  180.8750    -6.8240     2.5580    68.0550    23.2950    19.4620    18.7900    19.9680 
  181.0000    -6.8110     2.5690    67.0540    23.4960    22.3870    19.5020    20.7080 
  181.1250    -6.7930     2.5570    64.3500    23.8060    24.4560    19.6910    20.7370 
  181.2500    -6.8110     2.5260    61.7610    24.0060    23.7840    19.1330    19.8640 
  181.3750    -6.7840     2.4920    60.6330    24.0720    20.1250    17.7430    18.1590 
  181.5000    -6.7690     2.4670    61.4450    24.0780    16.5170    15.9790    16.2310 
  181.6250    -6.7460     2.4490    65.5970    24.0680    13.8030    14.2160    14.4740 
  181.7500    -6.7500     2.4310    71.8460    24.0500    12.0530    12.7290    13.1050 
  181.8750    -6.8010     2.4150    74.8620    24.0410    11.2840    11.7200    12.2450 
  182.0000    -6.8480     2.4080    73.4960    24.0330    11.0210    11.1170    11.7700 
  182.1250    -6.9320     2.4120    69.5640    24.0080    11.0540    10.8550    11.6020 
  182.2500    -6.9850     2.4160    64.6800    23.9910    11.0120    10.8510    11.6570 
  182.3750    -7.0800     2.4190    59.6630    23.9360    11.0410    11.0350    11.8530 
  182.5000    -7.1470     2.4230    56.5960    23.8260    11.3700    11.2880    12.0680 
  182.6250    -7.2310     2.4270    57.2510    23.8500    11.8520    11.5440    12.2530 
  182.7500    -7.3540     2.4260    60.0420    23.9090    12.2230    11.7640    12.4070 
  182.8750    -7.4460     2.4190    62.5770    23.8020    12.0340    11.9330    12.5520 
  183.0000    -7.5800     2.4100    65.2650    23.5940    11.6130    12.0450    12.6830 
  183.1250    -7.6970     2.4100    67.6700    23.4420    11.5000    12.0760    12.7570 
  183.2500    -7.8360     2.4230    68.8580    23.5090    11.8050    11.9870    12.7130 
  183.3750    -7.9980     2.4380    70.1440    23.6060    11.9800    11.7240    12.4790 
  183.5000    -8.2450     2.4400    71.8490    23.6140    11.5320    11.3450    12.1030 
  183.6250    -8.5180     2.4190    72.3940    23.5320    10.7250    10.9350    11.6840 
  183.7500    -8.8240     2.3920    71.5910    23.4560    10.1320    10.5950    11.3430 
  183.8750    -9.2180     2.3760    70.8240    23.3720    10.3170    10.4350    11.2260 
  184.0000    -9.6360     2.3800    69.3480    23.2780    10.8070    10.4740    11.3540 
  184.1250   -10.1650     2.3960    67.7000    23.2300    11.3570    10.7030    11.7070 
  184.2500   -10.7460     2.4040    70.0380    23.2320    11.8240    11.0790    12.2140 
  184.3750   -11.3960     2.3960    77.1690    23.2270    12.0080    11.5470    12.7990 
  184.5000   -12.0880     2.3750    82.8250    23.1920    12.4750    12.0320    13.3840 
  184.6250   -12.8150     2.3530    84.8890    23.1850    13.4810    12.4910    13.9350 
  184.7500   -13.5520     2.3390    86.4850    23.2020    14.4500    12.8830    14.4090 
  184.8750   -14.1740     2.3320    91.4080    23.1840    14.4980    13.1570    14.7370 
