~V
VERS. 2.00: Ver 2.00
~W
STRT.M 62.0000:
STOP.M 254.0000:
STEP.M 0.1250:
NULL. -999.2500:
UWI. F10030:
~C
DEPT.M :
DEN.GM/CC :
GR.API :
RML.OHMM :
RI. :
RXO.OHMM :
CALI.CM :
SP.MV :
~A
# ...
  107.0000     2.2840    95.8500     7.1730     5.7830     7.0970    24.5290   -16.7370 
  107.1250     2.2920   100.7380     7.0360     5.6660     6.7160    24.6000   -16.5570 
  107.2500     2.3060   101.0960     6.9220     5.6580     6.3920    24.6970   -16.4890 
  107.3750     2.3200    97.0470     6.8110     5.7150     6.2100    24.6780   -16.5730 
  107.5000     2.3280    93.9330     6.7340     5.8200     6.1640    24.5810   -16.7180 
  107.6250     2.3310    94.4830     6.7600     5.9870     6.2320    24.5090   -16.8220 
  107.7500     2.3290    94.2560     6.9030     6.2110     6.2930    24.4490   -16.9570 
  107.8750     2.3210    91.7910     7.1480     6.4740     6.5190    24.3390   -17.1140 
  108.0000     2.3050    88.8040     7.4420     6.7350     6.9170    24.2100   -17.2010 
  108.1250     2.2810    86.5680     7.6880     6.9170     7.6460    24.1640   -17.2890 
  108.2500     2.2530    85.2140     7.7920     6.9620     8.0360    24.2150   -17.3540 
  108.3750     2.2290    84.8560     7.6980     6.8410     7.7090    24.2590   -17.3400 
  108.5000     2.2140    84.5110     7.4270     6.5850     7.2860    24.2050   -17.2990 
  108.6250     2.2160    86.0260     7.1170     6.2980     7.4360    24.0610   -17.2180 
  108.7500     2.2380    90.7010     6.9700     6.1120     7.7170    23.9970   -17.1070 
  108.8750     2.2800    94.8110     7.1110     6.0990     7.3830    24.0900   -17.0040 
  109.0000     2.3370    91.6050     7.5350     6.2590     6.8910    24.2930   -16.9450 
  109.1250     2.3970    80.7090     8.0810     6.5110     8.1240    24.4430   -16.9570 
  109.2500     2.4410    72.6940     8.4580     6.6970    10.8410    24.4290   -17.0210 
  109.3750     2.4550    71.1800     8.4920     6.7140    11.9770    24.2410   -17.1220 
  109.5000     2.4360    72.7830     8.1760     6.5410    10.5750    24.0090   -17.2930 
  109.6250     2.3880    74.1600     7.6730     6.2440     7.6880    23.8580   -17.5820 
  109.7500     2.3350    74.8710     7.2410     5.9700     6.8400    23.7900   -17.8760 
  109.8750     2.2930    74.6690     6.9950     5.7980     7.1010    23.7570   -18.1890 
  110.0000     2.2690    75.5800     6.9440     5.7510     7.2800    23.7350   -18.5020 
  110.1250     2.2660    79.8880     7.0230     5.8100     7.5130    23.7160   -18.7080 
  110.2500     2.2690    84.3150     7.1210     5.9130     7.5820    23.6990   -18.9140 
  110.3750     2.2690    85.5580     7.2060     6.0450     7.0040    23.6850   -19.1200 
  110.5000     2.2650    84.3320     7.2920     6.2170     6.9090    23.6700   -19.2470 
  110.6250     2.2630    82.7810     7.4070     6.4360     8.1200    23.6480   -19.3280 
  110.7500     2.2720    81.7970     7.5300     6.6550     8.9440    23.6280   -19.3960 
  110.8750     2.2900    81.6990     7.6180     6.8150     8.2590    23.6240   -19.4100 
  111.0000     2.3100    80.9160     7.6310     6.8600     7.8440    23.6400   -19.4240 
  111.1250     2.3190    78.1650     7.5520     6.7520     7.8510    23.6540   -19.4570 
  111.2500     2.3170    75.9960     7.4320     6.5470     7.9070    23.6560   -19.4670 
  111.3750     2.3090    75.7620     7.3070     6.2950     7.2930    23.6470   -19.5220 
  111.5000     2.3040    76.3170     7.1930     6.0420     7.0850    23.6380   -19.6010 
  111.6250     2.3030    77.0090     7.1070     5.8510     7.5400    23.6320   -19.6930 
  111.7500     2.3030    77.3320     7.1060     5.7750     7.8590    23.6320   -19.8540 
  111.8750     2.3020    78.1440     7.2790     5.8730     7.9300    23.6470   -20.0570 
  112.0000     2.2970    79.9380     7.7150     6.1940     7.9960    23.6650   -20.2850 
  112.1250     2.2900    81.1410     8.4730     6.7940     8.3560    23.6670   -20.4830 
  112.2500     2.2830    79.1850     9.3660     7.5660     9.6990    23.6530   -20.6080 
  112.3750     2.2790    74.7410    10.1320     8.3450    11.7580    23.6330   -20.6240 
  112.5000     2.2800    72.3250    10.4720     8.8980    13.0670    23.6190   -20.5350 
  112.6250     2.2860    73.1860    10.1160     8.9460    13.0690    23.6210   -20.3580 
  112.7500     2.2910    74.1800     9.2940     8.5520    11.6700    23.6620   -20.1140 
  112.8750     2.2880    74.7800     8.3260     7.8980     9.1010    23.8010   -19.8290 
  113.0000     2.2720    76.2110     7.5320     7.2170     7.5630    24.0800   -19.5470 
  113.1250     2.2450    77.8110     7.1490     6.7110     7.0460    24.3780   -19.3740 
  113.2500     2.2220    77.9300     7.0680     6.3810     7.0150    24.4550   -19.2720 
  113.3750     2.2160    76.7410     7.1080     6.1510     7.4690    24.2880   -19.2340 
  113.5000     2.2300    75.8570     7.0730     5.9220     8.3100    24.0980   -19.3400 
  113.6250     2.2610    76.9010     6.8360     5.6250     8.1790    24.2960   -19.5580 
  113.7500     2.2930    79.7970     6.5130     5.3150     6.9950    24.8760   -19.8680 
  113.8750     2.3190    82.9830     6.2840     5.0970     5.8580    25.4410   -20.3380 
  114.0000     2.3330    84.0150     6.3080     5.0730     5.5920    25.4710   -20.8720 
  114.1250     2.3310    80.2240     6.6890     5.3300     7.2570    24.8840   -21.4390 
  114.2500     2.3180    73.6920     7.2840     5.7840    10.8770    24.2450   -22.0890 
  114.3750     2.2990    68.7580     7.9260     6.3300    12.8870    23.8370   -22.7670 
  114.5000     2.2770    68.0650     8.4490     6.8460    11.5590    23.6470   -23.4540 
  114.6250     2.2590    70.2500     8.7220     7.2250    10.4400    23.5730   -24.1590 
  114.7500     2.2450    72.0260     8.8070     7.4780    10.2380    23.5440   -24.8060 
  114.8750     2.2330    71.9480     8.7880     7.6480    10.1280    23.5550   -25.3700 
  115.0000     2.2240    70.8840     8.7420     7.7730    10.2010    23.5920   -25.8590 
  115.1250     2.2210    71.0140     8.7080     7.8530    10.2990    23.6370   -26.2750 
  115.2500     2.2240    71.0490     8.6830     7.8850    10.3080    23.6610   -26.6650 
  115.3750     2.2320    68.9400     8.6740     7.8770    10.1680    23.6590   -27.0450 
  115.5000     2.2390    65.3860     8.7060     7.8620     9.9810    23.6450   -27.4090 
  115.6250     2.2340    64.5530     8.8430     7.9010    10.1680    23.6430   -27.7790 
  115.7500     2.2130    65.8380     9.1020     8.0190    10.7350    23.6510   -28.1230 
  115.8750     2.1800    64.8990     9.4630     8.2120    11.4870    23.6370   -28.4090 
  116.0000     2.1460    61.0300     9.8570     8.4330    12.1520    23.5670   -28.6850 
  116.1250     2.1290    58.5030    10.1600     8.6040    12.1550    23.3980   -28.8840 
  116.2500     2.1330    60.2250    10.3020     8.6820    11.7100    23.1580   -29.0000 
  116.3750     2.1550    64.4120    10.2720     8.6610    11.0350    22.8880   -29.0880 
  116.5000     2.1780    67.0400    10.1200     8.5730    10.7740    22.6620   -29.0700 
  116.6250     2.1860    65.5500     9.9380     8.4720    11.1960    22.5530   -28.8960 
  116.7500     2.1750    62.6940     9.8170     8.4150    11.8840    22.5360   -28.6550 
  116.8750     2.1540    61.7150     9.8000     8.4350    12.3980    22.5680   -28.2950 
  117.0000     2.1370    63.3450     9.8950     8.5490    12.5370    22.6100   -27.8190 
  117.1250     2.1350    63.5420    10.0730     8.7510    12.5190    22.6320   -27.2710 
  117.2500     2.1410    62.9020    10.2230     8.9640    12.6060    22.6290   -26.6010 
  117.3750     2.1480    63.5560    10.2250     9.0910    12.8180    22.6030   -25.8080 
  117.5000     2.1530    65.9170     9.9720     9.0300    12.8040    22.5510   -24.9930 
  117.6250     2.1630    69.8780     9.4780     8.6980    12.3520    22.5080   -24.1360 
  117.7500     2.1850    74.0870     8.9890     8.1990    10.9510    22.5240   -23.2970 
  117.8750     2.2180    77.6540     8.6190     7.6610     8.7560    22.6180   -22.5900 
  118.0000     2.2520    79.0970     8.2530     7.2090     7.1230    22.7550   -21.9900 
  118.1250     2.2710    78.7310     7.8160     6.9440     6.8580    22.8630   -21.5740 
