~V
VERS. 2.00: Ver 2.00
~W
STRT.M 51.0000:
STOP.M 242.0000:
STEP.M 0.1250:
NULL. -999.2500:
UWI. F10056:
~C
DEPT.M :
GR.API :
RML.OHMM :
RI. :
RXO.OHMM :
CALI.CM :
SP.MV :
DEN.GM/CC :
~A
# ...
  186.0000    73.0450     7.3230     6.4040     6.1460    24.0670    -5.5140     2.4440 
  186.1250    73.3120     7.7790     6.8300     6.9800    24.0460    -5.5700     2.4200 
  186.2500    75.5970     8.0530     7.1520     7.8400    24.1700    -5.5980     2.3910 
  186.3750    78.8370     8.0300     7.2580     8.1900    24.3640    -5.5860     2.3650 
  186.5000    79.9950     7.7390     7.1410     7.5380    24.3690    -5.5270     2.3470 
  186.6250    78.5930     7.3440     6.8970     6.2030    24.0910    -5.4000     2.3390 
  186.7500    78.3510     7.0470     6.6830     5.8510    23.8550    -5.1950     2.3360 
  186.8750    81.3730     6.9290     6.5700     6.1460    23.9690    -4.9190     2.3350 
  187.0000    85.2270     6.9690     6.5630     6.8660    24.3210    -4.5110     2.3370 
  187.1250    86.4250     7.0710     6.6120     6.8700    24.6490    -4.0770     2.3440 
  187.2500    84.4970     7.1150     6.6310     6.6380    24.8180    -3.7790     2.3540 
  187.3750    81.4010     7.0650     6.5860     6.3420    24.8680    -3.5620     2.3640 
  187.5000    80.1540     6.9560     6.4920     6.1480    24.8730    -3.3800     2.3740 
  187.6250    79.5610     6.8670     6.4050     6.2270    24.8730    -3.2420     2.3830 
  187.7500    77.9970     6.8550     6.3730     6.3350    24.8730    -3.2140     2.3930 
  187.8750    76.1690     6.9470     6.4270     6.6840    24.8730    -3.2660     2.4030 
  188.0000    74.9820     7.2000     6.6140     7.5320    24.8730    -3.4680     2.4130 
  188.1250    75.0070     7.8440     7.0940     8.3280    24.8730    -3.6830     2.4210 
  188.2500    76.8740     9.1230     8.0280     8.9630    24.8750    -3.8300     2.4220 
  188.3750    79.5250    12.4220     9.6870    10.6420    24.8820    -3.9820     2.4080 
  188.5000    78.0480    16.6770    12.4480    14.1570    24.9030    -4.1860     2.3760 
  188.6250    71.7750    22.7510    17.0490    27.1850    24.9320    -4.4550     2.3300 
  188.7500    67.3870    30.4220    23.3840    49.0400    24.9970    -4.7070     2.2840 
  188.8750    65.8920    38.6800    30.8160    56.9250    25.0550    -4.9140     2.2490 
  189.0000    64.1410    46.0260    37.9980    47.0940    25.0830    -5.0530     2.2270 
  189.1250    61.6390    51.3380    43.5770    40.1920    25.0830    -5.2390     2.2160 
  189.2500    61.9690    55.8890    48.2260    43.6530    25.1080    -5.4590     2.2100 
  189.3750    63.7310    61.2820    53.2150    54.6920    25.1280    -5.6540     2.2070 
  189.5000    64.1340    68.5360    59.4940    68.8550    25.1450    -5.8320     2.2070 
  189.6250    62.8190    77.4990    67.0780    80.7760    25.1680    -6.0830     2.2120 
  189.7500    61.6130    86.0550    74.3620    87.2480    25.1730    -6.4250     2.2190 
  189.8750    60.1530    92.2040    79.7840    87.9800    25.1660    -6.8840     2.2260 
  190.0000    59.5490    94.8250    82.4130    99.3050    25.1700    -7.3970     2.2320 
  190.1250    61.8180    94.0670    82.1660   100.7530    25.1650    -7.8800     2.2370 
  190.2500    64.9730    92.4780    80.9700    89.5500    25.1650    -8.3390     2.2380 
  190.3750    66.6070    92.2600    80.6750    77.0040    25.1920    -8.8080     2.2340 
  190.5000    65.0020    95.3580    83.0900    71.2280    25.2260    -9.2800     2.2250 
  190.6250    62.2730   104.3210    90.6200    74.3120    25.2490    -9.6780     2.2130 
  190.7500    59.3100   119.5590   103.6890    85.9670    25.3100    -9.9140     2.1990 
  190.8750    56.6300   141.2680   122.3230   114.2160    25.4220   -10.0780     2.1870 
  191.0000    55.5070   167.6220   144.7540   182.3480    25.4970   -10.1410     2.1770 
  191.1250    56.7270   192.4380   166.0690   222.4930    25.5260   -10.1490     2.1680 
  191.2500    59.0620   208.2530   180.7280   213.2430    25.5470   -10.1580     2.1620 
  191.3750    59.8690   211.7650   185.9620   196.2420    25.5430   -10.2020     2.1600 
  191.5000    58.6840   204.8470   182.4770   186.4820    25.4670   -10.2290     2.1640 
  191.6250    57.2850   191.4730   172.7690   161.5560    25.3330   -10.2200     2.1710 
  191.7500    56.0640   176.2490   160.8340   138.7550    25.2540   -10.1980     2.1790 
  191.8750    54.5660   160.8890   148.2600   136.2160    25.2280   -10.1510     2.1840 
  192.0000    53.4950   146.7980   136.2980   130.7950    25.1910   -10.1410     2.1890 
  192.1250    55.1950   135.9450   126.7550   120.3790    25.1470   -10.1830     2.1930 
  192.2500    57.7510   128.8120   120.3830   110.4890    25.1290   -10.1820     2.1970 
  192.3750    59.7260   125.5630   117.5360   105.7760    25.1280   -10.1290     2.1990 
  192.5000    60.7090   125.8550   118.0250   107.3940    25.1290   -10.0460     2.1950 
  192.6250    60.4760   129.1730   121.4330   117.9310    25.1210    -9.9660     2.1870 
  192.7500    58.6310   133.7010   126.0500   134.8340    25.1080    -9.9270     2.1790 
  192.8750    56.5440   138.0550   130.5830   152.1760    25.1130    -9.8830     2.1760 
  193.0000    55.7680   140.9230   133.7970   157.8570    25.1450    -9.8290     2.1790 
  193.1250    56.7590   140.8820   134.2900   154.6940    25.2240    -9.7600     2.1860 
  193.2500    58.0490   138.2330   132.2180   152.6730    25.3200    -9.7480     2.1930 
  193.3750    57.3330   133.6600   128.1480   150.5440    25.3870    -9.6850     2.1990 
  193.5000    55.0230   128.3110   123.1450   127.4480    25.3820    -9.6800     2.2040 
  193.6250    55.1590   123.8770   118.8120   110.3120    25.3460    -9.7360     2.2100 
  193.7500    57.0290   121.5990   116.4240   102.0420    25.3250    -9.8390     2.2170 
  193.8750    57.0650   122.0760   116.6420   108.4320    25.3120    -9.9070     2.2200 
  194.0000    54.8360   125.1000   119.3640   115.9430    25.2930    -9.9580     2.2200 
  194.1250    54.6940   129.3350   123.4990   129.0290    25.3050   -10.0120     2.2150 
  194.2500    57.5870   132.0250   126.5700   146.5230    25.3170   -10.0320     2.2080 
  194.3750    59.9420   131.0680   126.6380   169.4930    25.2950   -10.0880     2.2020 
  194.5000    59.1370   125.9090   122.9670   190.4950    25.1530   -10.1480     2.1990 
  194.6250    57.6860   117.4230   115.9440   170.4220    24.7510   -10.0930     2.2030 
  194.7500    59.3990   107.9680   107.5900   115.8930    24.2810   -10.0320     2.2120 
  194.8750    63.3130    98.8780    99.1680    91.8700    24.0800   -10.0070     2.2240 
  195.0000    65.7930    91.0070    91.6150    98.9630    24.2790    -9.9920     2.2340 
  195.1250    63.5170    84.7780    85.5380    93.9610    24.6580    -9.9160     2.2350 
  195.2500    59.2710    79.5790    80.5240    74.2740    24.9750    -9.8220     2.2290 
  195.3750    56.6200    75.0840    76.2890    62.1590    25.0980    -9.7290     2.2170 
  195.5000    57.8310    71.2670    72.7640    80.7520    25.1140    -9.5850     2.2090 
  195.6250    60.1590    68.6930    70.4140    90.1580    25.1200    -9.5040     2.2080 
  195.7500    60.0540    67.8180    69.6340    75.5680    25.1220    -9.3580     2.2130 
  195.8750    59.1130    69.0310    70.8220    60.2210    25.1250    -9.2480     2.2200 
  196.0000    59.1640    72.1850    73.8890    60.0390    25.1290    -9.1310     2.2260 
  196.1250    59.7030    76.3020    77.9440    74.4470    25.1310    -9.0150     2.2310 
  196.2500    59.8200    79.3370    81.0220    92.9210    25.1290    -8.9890     2.2350 
  196.3750    60.0690    79.6660    81.5060   103.7880    25.1300    -9.0300     2.2390 
  196.5000    60.5280    76.8780    78.8560    95.0090    25.1640    -9.0770     2.2400 
  196.6250    59.4640    72.4740    74.2750    71.1660    25.1890    -9.1360     2.2370 
  196.7500    58.1220    69.4070    70.6190    54.7660    25.1820    -9.2840     2.2340 
  196.8750    57.1470    69.4410    69.7080    49.7570    25.1300    -9.4160     2.2330 
  197.0000    55.7330    73.2900    72.3960    57.9610    25.0550    -9.5720     2.2340 
  197.1250    54.3970    81.2650    79.1860    76.2260    25.0350    -9.7360     2.2340 
