~V
VERS. 2.00: Ver 2.00
~W
STRT.M 63.0000:
STOP.M 195.0000:
STEP.M 0.1250:
NULL. -999.2500:
UWI. F10020:
~C
DEPT.M :
GR.API :
CALI.CM :
RXO.OHMM :
RI. :
RML.OHMM :
DEN.GM/CC :
SP.MV :
~A
# ...
  164.2500   103.5320    23.6220    12.1430    10.1840    12.3510     2.2730   -33.2510 
  164.3750   107.9020    23.6330    11.8670     9.9010    11.8780     2.2780   -32.9860 
  164.5000   109.0930    23.6300    10.4760     9.1140    10.8340     2.2830   -32.5070 
  164.6250   102.4710    23.6220     8.2760     8.1160     9.6240     2.2840   -31.9380 
  164.7500    93.1230    23.6160     6.5370     7.2710     8.6520     2.2880   -31.3140 
  164.8750    87.2320    23.6140     6.0110     6.7650     8.1250     2.2890   -30.8230 
  165.0000    84.9930    23.5940     6.4580     6.6680     8.1340     2.2810   -30.4090 
  165.1250    87.1240    23.5620     7.7490     6.9980     8.7260     2.2700   -30.1070 
  165.2500    95.6250    23.5670     9.5260     7.5450     9.6030     2.2710   -29.9540 
  165.3750   104.4630    23.5690    11.0580     8.1250    10.4530     2.2840   -29.8700 
  165.5000   106.4440    23.5220    11.1240     8.5450    10.9470     2.2950   -29.8840 
  165.6250   100.1660    23.4880     9.9500     8.6000    10.7920     2.2990   -29.8560 
  165.7500    92.8230    23.5070     9.2530     8.3080    10.1610     2.3030   -29.7950 
  165.8750    88.1620    23.5130     9.7290     7.7420     9.2810     2.3070   -29.6290 
  166.0000    85.1000    23.5280     9.4240     7.0340     8.3940     2.3070   -29.3650 
  166.1250    81.2780    23.5050     7.2170     6.3730     7.7400     2.3080   -29.1280 
  166.2500    75.5900    23.4380     5.3080     5.9090     7.3830     2.3160   -28.8530 
  166.3750    69.7520    23.4190     4.9810     5.7140     7.3360     2.3220   -28.6200 
  166.5000    67.3820    23.4080     5.8290     5.7990     7.5800     2.3160   -28.3530 
  166.6250    70.1970    23.3100     6.7680     6.1280     8.0670     2.3040   -28.0510 
  166.7500    74.3710    23.2610     6.7930     6.5010     8.5520     2.3020   -27.7670 
  166.8750    76.2890    23.2300     6.4220     6.7180     8.7930     2.3120   -27.4330 
  167.0000    74.6300    23.2090     6.7600     6.6520     8.6590     2.3240   -27.1390 
  167.1250    70.8940    23.1510     7.3340     6.3080     8.2000     2.3250   -26.8000 
  167.2500    67.5110    23.1290     6.8030     5.8810     7.6800     2.3200   -26.4440 
  167.3750    65.5270    23.1240     5.6210     5.4890     7.2410     2.3170   -26.1320 
  167.5000    65.5060    23.1220     4.9390     5.1920     6.9230     2.3160   -25.8210 
  167.6250    66.4960    23.1140     4.8640     5.0180     6.7050     2.3130   -25.5960 
  167.7500    66.9380    23.0770     4.9210     4.9390     6.5600     2.3100   -25.4250 
  167.8750    66.9960    22.9830     4.9810     4.9480     6.5270     2.3080   -25.3270 
  168.0000    67.2450    22.8100     5.0190     5.0320     6.6110     2.3070   -25.3030 
  168.1250    68.9740    22.6910     5.1140     5.1580     6.7670     2.3040   -25.3200 
  168.2500    72.6000    22.7740     5.2830     5.2750     6.9040     2.2980   -25.4130 
  168.3750    75.3330    22.9860     5.4510     5.3460     6.9680     2.2920   -25.4870 
  168.5000    73.9830    23.2760     5.4980     5.3400     6.9370     2.2900   -25.5890 
  168.6250    70.2620    23.6420     5.4920     5.2520     6.8350     2.2960   -25.7020 
  168.7500    68.4530    23.9320     5.5490     5.1360     6.7430     2.3040   -25.7760 
  168.8750    69.1430    24.0330     5.6510     5.0490     6.7210     2.3130   -25.9270 
  169.0000    71.1820    24.0070     5.7610     5.0320     6.7900     2.3230   -26.0770 
  169.1250    73.2450    23.9140     5.8560     5.1160     6.9200     2.3380   -26.2590 
  169.2500    74.5570    23.8490     6.0290     5.2640     7.0250     2.3530   -26.5080 
  169.3750    74.2940    23.8920     6.3550     5.4350     7.0480     2.3640   -26.7930 
  169.5000    72.0070    24.0130     6.7360     5.5850     7.0070     2.3710   -27.1080 
  169.6250    67.4140    24.1000     6.9500     5.6840     6.9950     2.3740   -27.4740 
  169.7500    62.5250    24.1200     6.9780     5.7650     7.0840     2.3730   -27.8400 
  169.8750    60.5960    24.0960     6.9060     5.8810     7.2870     2.3730   -28.1290 
  170.0000    60.9420    24.0770     6.9900     6.0790     7.5870     2.3830   -28.3590 
  170.1250    59.1950    24.0960     7.8900     6.3600     7.9620     2.4100   -28.4960 
  170.2500    55.6940    24.1230     9.3520     6.6320     8.3100     2.4420   -28.5170 
  170.3750    53.7050    24.1330     9.9710     6.7790     8.5120     2.4660   -28.4110 
  170.5000    55.2990    24.1180     8.9320     6.7160     8.4810     2.4740   -28.2670 
  170.6250    57.8570    24.0950     7.2690     6.4320     8.1870     2.4630   -28.0070 
  170.7500    59.2090    24.0470     6.3610     6.0780     7.8050     2.4430   -27.7030 
  170.8750    60.3090    23.9530     6.1160     5.7720     7.4850     2.4210   -27.4500 
  171.0000    61.5960    23.8000     6.1180     5.5860     7.3230     2.4010   -27.2060 
  171.1250    62.4450    23.6750     6.1060     5.5630     7.3510     2.3900   -27.0030 
  171.2500    62.8880    23.6340     6.1710     5.6560     7.4730     2.3890   -26.8920 
  171.3750    63.7720    23.7100     6.4680     5.8280     7.6340     2.3930   -26.8950 
  171.5000    64.7510    23.8810     6.8990     6.0510     7.8060     2.3960   -26.9680 
  171.6250    65.2140    23.9610     7.3400     6.3090     7.9890     2.3980   -27.2170 
  171.7500    65.1900    23.9850     7.6870     6.5700     8.1780     2.4060   -27.5410 
  171.8750    64.8940    23.9430     7.8510     6.8100     8.3460     2.4160   -27.8890 
  172.0000    64.8960    23.8260     7.8240     7.0210     8.4690     2.4220   -28.3100 
  172.1250    66.9890    23.6260     7.8350     7.2070     8.5820     2.4170   -28.7770 
  172.2500    70.5520    23.6050     7.9770     7.3890     8.7440     2.4070   -29.2530 
  172.3750    72.2370    23.7410     8.2200     7.5750     8.9600     2.3950   -29.7370 
  172.5000    72.1290    23.9530     8.5160     7.7520     9.1630     2.3770   -30.2010 
  172.6250    71.9990    24.0930     8.8260     7.8750     9.2450     2.3590   -30.6590 
  172.7500    71.7050    24.1770     8.8870     7.9110     9.2100     2.3460   -31.1310 
  172.8750    70.7040    24.2030     8.6070     7.8380     9.1140     2.3430   -31.5130 
  173.0000    69.3870    24.1940     8.1660     7.6610     9.0210     2.3450   -31.8790 
  173.1250    68.7860    24.1690     7.9290     7.4030     8.9430     2.3450   -32.3070 
  173.2500    67.8950    24.1440     8.0570     7.1410     8.8720     2.3370   -32.6650 
  173.3750    66.9480    24.1730     8.3190     6.9670     8.8680     2.3230   -33.0420 
  173.5000    66.9940    24.2330     8.5250     6.9980     9.0630     2.3150   -33.4520 
  173.6250    70.8520    24.2670     9.0850     7.4260     9.6900     2.3210   -33.7670 
  173.7500    78.8000    24.2660    11.0190     8.3070    10.8010     2.3300   -34.0900 
  173.8750    87.3120    24.2470    15.1720     9.6950    12.4150     2.3260   -34.4820 
  174.0000    93.0870    24.2000    20.6020    11.5610    14.4460     2.3060   -34.7640 
  174.1250    96.5160    24.1170    23.4310    13.6840    16.5790     2.2780   -34.9010 
  174.2500    99.6970    24.0980    23.5140    15.4620    18.1740     2.2640   -35.0200 
  174.3750   103.1310    24.0960    22.8180    16.2950    18.5920     2.2730   -35.0290 
  174.5000   106.1390    24.0770    21.7360    15.8640    17.5900     2.2960   -34.8740 
  174.6250   107.1710    24.0450    18.8800    14.3110    15.5260     2.3110   -34.6450 
  174.7500   105.5410    24.0030    14.9400    12.4490    13.3130     2.3090   -34.3580 
  174.8750   103.5170    23.9480    11.1900    10.7270    11.3930     2.2950   -34.0170 
  175.0000   104.5740    24.0020     8.7920     9.3630     9.9820     2.2780   -33.6660 
  175.1250   107.1360    24.0720     8.5240     8.4570     9.1540     2.2640   -33.2820 
  175.2500   107.1290    24.1450     8.5070     7.8580     8.6250     2.2580   -32.8240 
  175.3750   105.1750    24.1760     8.0360     7.4550     8.2030     2.2670   -32.3160 
