~V
VERS. 2.00: Ver 2.00
~W
STRT.M 63.0000:
STOP.M 195.0000:
STEP.M 0.1250:
NULL. -999.2500:
UWI. F10020:
~C
DEPT.M :
GR.API :
CALI.CM :
RXO.OHMM :
RI. :
RML.OHMM :
DEN.GM/CC :
SP.MV :
~A
   63.0000    46.2380    24.9830     1.0790     0.0330    -0.0960     1.9560     5.2520 
   63.1250    48.6810    24.7950     0.7780     0.0180    -0.0650     1.9050     4.1050 
   63.2500    50.6310    24.4210     0.8890     0.0330     0.0240     1.9330     2.2720 
   63.3750    54.4730    23.9080     3.7990     0.1310     0.1840     2.0550    -0.2560 
   63.5000    61.7960    23.4970     8.2660     0.4190     0.4930     2.1930    -3.2880 
   63.6250    69.3970    23.4590    11.3590     1.1810     1.2350     2.2370    -6.6380 
   63.7500    73.8840    23.5340    11.1040     2.5420     2.6230     2.2080   -10.1350 
   63.8750    75.1400    23.5260    10.8660     4.3400     4.3870     2.1680   -13.6000 
   64.0000    76.0920    23.4210    10.7930     6.0430     5.6010     2.1520   -16.8970 
   64.1250    77.5320    23.3000    10.8890     7.1670     5.7670     2.1550   -19.7880 
   64.2500    76.6440    23.2320    10.9930     7.8810     5.5750     2.1570   -22.1280 
   64.3750    73.9440    23.2100    11.0610     8.3610     5.4930     2.1570   -23.8910 
   64.5000    70.9480    23.2080    11.1800     8.6970     5.7420     2.1520   -25.2300 
   64.6250    69.2240    23.2440    17.6540     8.9260     6.4030     2.1400   -26.3080 
   64.7500    69.6600    23.4190    33.8900     9.1160     7.2670     2.1290   -27.1540 
   64.8750    72.4890    23.7670    33.5910     9.3030     8.1840     2.1290   -27.8500 
   65.0000    74.4970    23.9370    12.4420     9.5120     9.0660     2.1330   -28.4260 
   65.1250    71.5600    23.6520    12.1340     9.7530     9.8110     2.1280   -28.8510 
   65.2500    68.9820    23.3100    12.1440    10.0010    10.3070     2.1160   -29.1700 
   65.3750    70.1880    23.2200    12.2060    10.2280    10.4180     2.1040   -29.4020 
   65.5000    72.4590    23.1910    12.2410    10.4120    10.1450     2.0950   -29.5970 
   65.6250    72.7480    23.0550    12.3140    10.5430     9.8030     2.0940   -29.6660 
   65.7500    73.4430    22.9570    12.4240    10.6440     9.7000     2.1040   -29.6640 
   65.8750    74.6840    22.9810    12.4170    10.7180     9.8160     2.1260   -29.6260 
   66.0000    73.5050    23.1080    12.1900    10.7550     9.9730     2.1490   -29.5670 
   66.1250    70.6010    23.1810    12.0570    10.7400    10.0670     2.1570   -29.5350 
   66.2500    69.0050    23.1100    12.5780    10.6900    10.1480     2.1480   -29.5360 
   66.3750    67.8790    22.9170    13.9390    10.6380    10.3170     2.1330   -29.5740 
   66.5000    65.7150    22.6970    14.9340    10.6220    10.6160     2.1230   -29.6030 
   66.6250    64.8010    22.6090    13.9060    10.6770    10.9420     2.1190   -29.6520 
   66.7500    68.9660    22.5260    12.4840    10.7840    11.1320     2.1090   -29.7340 
   66.8750    75.0150    22.4410    11.8440    10.9050    11.0940     2.0870   -29.8400 
   67.0000    76.5300    22.3270    11.4300    10.9910    10.8220     2.0570   -29.9630 
   67.1250    72.7150    22.0330     6.3840    10.9960    10.4080     2.0270   -30.0970 
   67.2500    69.6500    21.4590     7.0660    10.9360    10.0710     1.9980   -30.2100 
   67.3750    70.8100    20.7860     7.5550    10.8550     9.9730     1.9710   -30.3230 
   67.5000    74.2110    20.2820     7.8210    10.7950    10.1700     1.9510   -30.4210 
   67.6250    75.6710    20.1910     8.3730    10.7830    10.5920     1.9370   -30.4470 
   67.7500    74.9790    20.2130     9.2640    10.7920    11.0220     1.9210   -30.4120 
   67.8750    76.2270    20.2580    10.0160    10.7840    11.3180     1.9020   -30.2940 
   68.0000    80.2240    20.4310    10.4460    10.7330    11.4120     1.8850   -30.1340 
   68.1250    81.7910    20.8020    10.8850    10.6810    11.3580     1.8780   -29.9300 
   68.2500    79.1690    21.0850    11.4270    10.7590    11.3790     1.8820   -29.6980 
   68.3750    75.1040    21.2110    11.9080    11.1230    11.6870     1.9040   -29.4250 
   68.5000    71.1070    21.2620    12.0220    11.9010    12.4390     1.9660   -29.1150 
   68.6250    68.0230    21.3170    11.7160    13.2030    13.7460     2.0970   -28.8470 
   68.7500    67.8170    21.4380    11.7270    14.8700    15.3990     2.2770   -28.6030 
   68.8750    69.2910    21.6130    12.8290    16.6820    17.0810     2.4560   -28.3860 
   69.0000    70.3530    21.7880    15.0950    18.1550    18.2060     2.5700   -28.1700 
   69.1250    71.4250    22.0750    16.7990    18.3300    17.8690     2.5910   -27.9810 
   69.2500    72.3750    22.5320    16.8430    17.0800    16.1700     2.5730   -27.8310 
   69.3750    71.9280    22.9580    16.3830    14.8780    13.7060     2.5490   -27.7780 
   69.5000    71.6280    23.1530    15.6740    12.4230    11.2360     2.5160   -27.8220 
   69.6250    75.9060    23.1140    12.5450    10.3100     9.3420     2.4510   -27.9700 
   69.7500    83.5760    23.1090     6.9290     8.6950     8.0200     2.3660   -28.1910 
   69.8750    91.0160    23.1910     6.2020     7.5490     7.1470     2.2860   -28.4720 
   70.0000    94.8360    23.3080     6.3180     6.7770     6.5980     2.2320   -28.8040 
   70.1250    96.5900    23.3570     6.0560     6.3180     6.3280     2.2110   -29.1490 
   70.2500    99.7750    23.3720     5.5620     6.0490     6.1970     2.2100   -29.4540 
   70.3750   102.3510    23.3150     5.1740     5.9430     6.1210     2.2210   -29.6260 
   70.5000   102.4820    23.2580     4.8980     6.0270     6.0980     2.2410   -29.6760 
   70.6250   101.9990    23.2150     5.0130     6.4160     6.2740     2.2520   -29.6020 
   70.7500   101.0410    23.1300     5.7610     7.0820     6.7410     2.2400   -29.4420 
   70.8750    97.3960    23.0430     6.9850     7.9070     7.4660     2.2040   -29.2270 
   71.0000    92.8760    23.1070     8.0050     8.6410     8.2510     2.1600   -28.9870 
   71.1250    90.6980    23.3930     8.0730     8.9000     8.6900     2.1360   -28.7230 
   71.2500    89.7670    23.6480     7.2920     8.6480     8.6280     2.1440   -28.4960 
   71.3750    89.9210    23.7170     6.2880     8.0650     8.1750     2.1790   -28.3280 
   71.5000    92.4270    23.6920     5.6190     7.4260     7.6100     2.2250   -28.1640 
   71.6250    97.7000    23.6570     5.6070     6.9720     7.2380     2.2610   -28.0040 
   71.7500   104.0190    23.6360     6.0150     6.7440     7.1720     2.2760   -27.8770 
   71.8750   109.5470    23.6080     6.6740     6.7310     7.4150     2.2790   -27.7370 
   72.0000   110.7040    23.5830     7.3140     6.9020     7.8770     2.2760   -27.5350 
   72.1250   107.0610    23.5900     7.6820     7.2590     8.4630     2.2490   -27.3200 
   72.2500   102.6630    23.6500     8.0080     7.7760     9.1380     2.1910   -27.0780 
   72.3750    96.8260    23.7670     8.7280     8.4610     9.9610     2.1260   -26.7850 
   72.5000    89.3210    23.9040     9.6210     9.3040    10.9890     2.1010   -26.5170 
   72.6250    84.2630    23.8240    10.2220    10.2300    12.1870     2.1410   -26.2540 
   72.7500    83.2750    23.5670    10.6130    11.0580    13.2870     2.2040   -26.0040 
   72.8750    83.9900    23.3750    11.0970    11.6080    14.0010     2.2510   -25.8180 
   73.0000    86.1390    23.4400    11.6520    11.7800    14.1730     2.2630   -25.6570 
   73.1250    91.0960    23.7770    12.0010    11.6490    13.9150     2.2420   -25.4690 
   73.2500    94.3760    24.0200    11.8930    11.5420    13.6730     2.2100   -25.2240 
   73.3750    93.4130    24.0500    11.6170    11.7050    13.7760     2.1770   -25.0010 
   73.5000    90.4610    23.9000    11.8860    12.3060    14.4760     2.1470   -24.7970 
   73.6250    89.7020    23.7270    13.6310    13.5100    16.0250     2.1240   -24.6440 
   73.7500    89.6250    23.6190    15.9070    15.1110    18.1240     2.1100   -24.4820 
   73.8750    85.7980    23.6590    16.9570    16.6750    20.1160     2.1060   -24.3300 
   74.0000    79.0100    23.8260    16.6500    17.4550    20.9240     2.1080   -24.2900 
   74.1250    76.7420    24.0880    16.1400    16.5500    19.4520     2.1150   -24.3790 
