~V
VERS. 2.00: Ver 2.00
~W
STRT.M 60.0000:
STOP.M 271.0000:
STEP.M 0.1250:
NULL. -999.2500:
UWI. F10035:
~C
DEPT.M :
GR.API :
RML.OHMM :
RI. :
RXO.OHMM :
CALI.CM :
DEN.GM/CC :
SP.MV :
~A
# ...
  262.5000    64.0730     4.8510     4.6110     4.9920    24.9280     2.4330    -2.9010 
  262.6250    64.0730     4.8630     4.5770     5.0390    24.9170     2.4370    -2.7550 
  262.7500    64.0730     4.8490     4.5260     5.0200    24.9850     2.4390    -2.6770 
  262.8750    64.0730     4.8120     4.4640     4.9280    25.1610     2.4370    -2.6490 
  263.0000    64.0730     4.7670     4.4040     4.8910    25.2830     2.4300    -2.6860 
  263.1250    64.0730     4.7560     4.3840     4.9150    24.9470     2.4190    -2.8090 
  263.2500    64.0730     4.8210     4.4320     5.0110    24.7390     2.4030    -3.0330 
  263.3750    64.0730     4.9900     4.5700     5.3840    24.6720     2.3820    -3.3610 
  263.5000    64.0730     5.2800     4.8080     6.4110    24.6690     2.3570    -3.7690 
  263.6250    64.0730     5.6930     5.1520     6.9410    24.6840     2.3340    -4.2730 
  263.7500    64.0730     6.1530     5.5470     7.2800    24.6470     2.3210    -4.8270 
  263.8750    64.0730     6.5840     5.9400     7.6240    24.6200     2.3180    -5.4270 
  264.0000    64.0730     6.9200     6.2790     8.6340    24.5980     2.3240    -6.0060 
  264.1250    64.0730     7.1260     6.5180     9.3420    24.5360     2.3370    -6.5220 
  264.2500    64.0730     7.2690     6.6910     9.3110    24.4770     2.3510    -6.9420 
  264.3750    64.0730     7.4200     6.8380     9.3170    24.4940     2.3570    -7.2320 
  264.5000    64.0730     7.6220     6.9920     9.6410    24.5010     2.3510    -7.3880 
  264.6250    64.0730     7.8600     7.1570     8.2320    24.3940     2.3330    -7.4050 
  264.7500    64.0730     8.0740     7.3050     7.6930    24.1880     2.3150    -7.2170 
  264.8750    64.0730     8.2230     7.4130     7.4980    24.0200     2.3080    -6.8220 
  265.0000    64.0730     8.2990     7.4710     6.7960    23.8540     2.3120    -6.3230 
  265.1250    64.0730     8.3200     7.4850     5.9950    23.5820     2.3160    -5.8050 
  265.2500    64.0730     8.3240     7.4860     5.3890    23.1540     2.3060    -5.2940 
  265.3750    64.0730     8.3240     7.4850     5.1520    22.6870     2.2780    -4.8230 
  265.5000    64.0730     8.3200     7.4840     4.9060    22.2100     2.2340    -4.4510 
  265.6250    64.0730     8.3120     7.4820     4.8670    21.2730     2.1770    -4.2250 
  265.7500    64.0730     8.3060     7.4810     5.1040    19.5500     2.1110    -4.1760 
  265.8750    64.0730     8.3040     7.4800     5.6650    17.7730     2.0390    -4.2920 
  266.0000    64.0730     8.3040     7.4800     6.2730    16.7180     1.9740    -4.5100 
  266.1250    64.0730     8.3040     7.4800     6.5540    16.4360     1.9410    -4.7470 
  266.2500    64.0730     8.3040     7.4800     6.4480    16.5270     1.9450    -4.7590 
  266.3750    64.0730     8.3040     7.4800     6.3680    16.8770     1.9770    -4.6000 
  266.5000    64.0730     8.3040     7.4800     6.2440    17.3530     2.0170    -4.3910 
  266.6250    64.0730     8.3040     7.4800     6.1920    17.7850     2.0430    -4.0780 
  266.7500    64.0730     8.3040     7.4800     6.0820    18.0400     2.0520    -3.7000 
  266.8750    64.0730     8.3040     7.4800     6.0250    18.0590     2.0550    -3.3170 
  267.0000    64.0730     8.3040     7.4800     6.3280    17.7460     2.0630    -2.9550 
  267.1250    64.0730     8.3040     7.4800     6.5100    16.9070     2.0820    -2.6070 
  267.2500    64.0730     8.3040     7.4800     6.5980    16.0160     2.1070    -2.5250 
  267.3750    64.0730     8.3040     7.4800     6.5950    15.3190     2.1320    -2.6260 
  267.5000    64.0730     8.3040     7.4800     6.7070    14.9810     2.1490    -2.7400 
  267.6250    64.0730     8.3040     7.4800     6.8930    14.9050     2.1570    -2.9070 
  267.7500    64.0730     8.3040     7.4800     6.8410    14.9120     2.1590    -3.1050 
  267.8750    64.0730     8.3040     7.4800     6.6720    14.9810     2.1590    -3.2350 
  268.0000    64.0730     8.3040     7.4800     6.4370    15.1130     2.1580    -3.3080 
  268.1250    64.0730     8.3040     7.4800     6.4800    15.2780     2.1530    -3.3810 
  268.2500    64.0730     8.3040     7.4800     6.6400    15.3810     2.1440    -3.4250 
  268.3750    64.0730     8.3040     7.4800     6.6760    15.4410     2.1350    -3.4550 
  268.5000    64.0730     8.3040     7.4800     6.7690    15.4910     2.1300    -3.5060 
  268.6250    64.0730     8.3040     7.4800     7.1970    15.4680     2.1350    -3.4790 
  268.7500    64.0730     8.3040     7.4800     7.0890    15.4190     2.1500    -3.4400 
  268.8750    64.0730     8.3040     7.4800     6.3420    15.3930     2.1730    -3.4550 
  269.0000    64.0730     8.3040     7.4800     5.9700    15.4020     2.1950    -3.4880 
  269.1250    64.0730     8.3040     7.4800     6.1810    15.3930     2.2010    -3.4880 
  269.2500    64.0730     8.3040     7.4800     6.2110    15.3450     2.1910    -3.4880 
  269.3750    64.0730     8.3040     7.4800     6.1810    15.2470     2.1700  -999.2500 
  269.5000    64.0730     8.3040     7.4800     5.9510    15.0570     2.1490  -999.2500 
  269.6250    64.0730     8.3040     7.4800     5.7900    14.7280     2.1440  -999.2500 
  269.7500    64.0730     8.3040     7.4800     5.6300    14.4190     2.1520  -999.2500 
  269.8750    64.0730     8.3040     7.4800     5.5920    14.2860     2.1660  -999.2500 
  270.0000    64.0730     8.3040     7.4800     5.5900    14.2640     2.1820  -999.2500 
  270.1250    64.0730     8.3040     7.4800     5.5900    14.2640     2.1940  -999.2500 
  270.2500    64.0730     8.3040     7.4800     5.5890    14.2640     2.2030  -999.2500 
  270.3750    64.0730     8.3040     7.4800     5.5890    14.2640     2.2110  -999.2500 
  270.5000    64.0730     8.3040     7.4800     5.5890    14.2640     2.2160  -999.2500 
  270.6250    64.0730     8.3040     7.4800     5.5890    14.2640     2.2120  -999.2500 
  270.7500    64.0730     8.3040     7.4800     5.5900    14.2640     2.2240  -999.2500 
  270.8750  -999.2500  -999.2500  -999.2500  -999.2500  -999.2500     2.2250  -999.2500 
  271.0000  -999.2500  -999.2500  -999.2500  -999.2500  -999.2500     2.2320  -999.2500 
