~V
VERS. 2.00: Ver 2.00
~W
STRT.M 55.0000:
STOP.M 181.0000:
STEP.M 0.1250:
NULL. -999.2500:
UWI. F10008:
~C
DEPT.M :
SP.MV :
GR.API :
RML.OHMM :
RI. :
RXO.OHMM :
CALI.CM :
DEN.GM/CC :
~A
# ...
  100.0000    -4.7700    58.3650    50.5480    44.3710    53.4040    24.1670     2.3070 
  100.1250    -4.7130    56.9440    51.1550    44.9970    55.8740    24.0930     2.3200 
  100.2500    -4.6150    55.8830    51.4260    45.2530    56.6810    24.0720     2.2820 
  100.3750    -4.4880    55.8200    51.5890    45.2690    56.3270    24.1860     2.2200 
  100.5000    -4.3200    55.5590    51.7170    45.1380    55.4230    24.4060     2.1650 
  100.6250    -4.1120    55.4440    51.5680    44.7980    55.1360    24.5300     2.1370 
  100.7500    -3.9340    56.8250    50.8960    44.1770    56.3760    24.5710     2.1260 
  100.8750    -3.8320    59.1780    49.6830    43.2870    58.6890    24.6340     2.1190 
  101.0000    -3.7560    61.1840    48.2600    42.3400    60.4970    24.7710     2.1110 
  101.1250    -3.6490    61.3330    47.3590    41.8760    54.6520    25.1810     2.1000 
  101.2500    -3.5580    60.7150    47.6070    42.3880    51.7970    25.4290     2.0890 
  101.3750    -3.4720    59.5990    49.4610    44.3100    51.4810    25.2480     2.0790 
  101.5000    -3.3400    57.3620    53.1430    47.8880    57.0630    25.0830     2.0810 
  101.6250    -3.1670    54.9330    58.6660    53.1560    75.5160    24.7080     2.1120 
  101.7500    -3.0240    52.5310    64.4350    58.7170   104.7910    24.6140     2.1770 
  101.8750    -2.8970    49.2310    67.6790    62.2290   115.4470    24.5830     2.2650 
  102.0000    -2.7220    45.1730    64.9300    60.6520   105.5360    24.5930     2.3560 
  102.1250    -2.5120    43.6130    54.3180    51.8000    72.6910    25.4580     2.4240 
  102.2500    -2.3030    47.6210    40.8750    39.7320    43.0020    26.7190     2.4670 
  102.3750    -2.1230    57.0280    28.5910    28.2940    22.9250    26.6090     2.4860 
  102.5000    -2.0640    67.3680    19.4170    19.6600    17.2440    26.0470     2.4890 
  102.6250    -2.1210    75.2220    14.0190    14.5070    13.4940    24.9240     2.4750 
  102.7500    -2.1310    80.1760    11.1640    11.5550    11.9810    24.6960     2.4480 
  102.8750    -2.0410    82.5570    10.1450    10.1280    10.2410    24.5190     2.4140 
  103.0000    -1.9430    81.5250    10.3220     9.7710     9.3930    24.4720     2.3820 
  103.1250    -1.8980    79.6830    11.0500    10.1680    10.6410    24.5420     2.3620 
  103.2500    -1.8930    78.9690    11.5550    10.7000    11.7650    24.6790     2.3560 
  103.3750    -1.9430    77.2830    11.4800    10.9350    11.5930    24.7850     2.3610 
  103.5000    -1.9770    74.3590    10.8390    10.7030    10.1610    24.5300     2.3690 
  103.6250    -1.9770    75.1680     9.9200    10.1350     8.1810    24.3970     2.3710 
  103.7500    -2.0340    78.3010     9.1140     9.5820     7.1470    24.4310     2.3630 
  103.8750    -2.1520    78.9990     8.5830     9.2130     7.3910    24.5300     2.3500 
  104.0000    -2.2990    77.7500     8.3390     9.0470     8.1020    24.5750     2.3380 
  104.1250    -2.4820    78.9930     8.3280     9.0080     9.2750    24.5380     2.3300 
  104.2500    -2.6890    82.1280     8.4540     9.0090     9.1760    24.4070     2.3200 
  104.3750    -2.8650    84.0580     8.7080     9.0560     8.3300    24.2010     2.3060 
  104.5000    -2.9910    82.6810     9.0590     9.1580     7.5430    24.0430     2.2930 
  104.6250    -3.0700    79.6250     9.3870     9.2340     8.0730    23.9970     2.2960 
  104.7500    -3.1350    78.6950     9.4570     9.0770    11.2000    23.9890     2.3220 
  104.8750    -3.2510    81.0040     9.0520     8.5120    16.0180    23.9720     2.3620 
  105.0000    -3.4540    84.9950     8.1900     7.6090    15.7650    23.9180     2.4010 
  105.1250    -3.6420    89.2790     7.3170     6.7730     9.7120    23.8130     2.4160 
  105.2500    -3.7090    91.3060     7.0300     6.3640     7.2650    23.7800     2.4080 
  105.3750    -3.7260    86.8610     7.7690     6.5960     7.5920    23.8040     2.3910 
  105.5000    -3.8030    75.6310     9.8930     7.7190    11.5480    23.8750     2.3810 
  105.6250    -3.9780    64.6840    13.9280    10.3560    26.0980    24.0630     2.3890 
  105.7500    -4.1320    57.9720    19.3870    14.5490    46.7560    24.3710     2.4020 
  105.8750    -4.2360    53.9710    25.3310    19.8200    46.7540    24.6810     2.4070 
  106.0000    -4.2730    51.0670    30.2810    24.8110    38.7280    24.9580     2.3980 
  106.1250    -4.3220    49.5990    32.7210    27.7750    36.5590    24.6520     2.3830 
  106.2500    -4.4440    49.4210    33.2720    28.8990    41.9530    24.5600     2.3780 
  106.3750    -4.5620    49.8710    32.9220    28.9660    41.6880    24.5770     2.3860 
  106.5000    -4.6360    50.7240    32.4770    28.7210    39.2560    24.6430     2.4050 
  106.6250    -4.6510    51.3960    32.4150    28.6370    37.4610    24.7210     2.4210 
  106.7500    -4.6090    51.2030    32.8710    28.8880    39.7140    24.6800     2.4240 
  106.8750    -4.5320    49.5620    33.9460    29.5770    38.0160    24.3810     2.4120 
  107.0000    -4.4540    46.3940    35.6140    30.7490    35.6210    24.0270     2.3920 
  107.1250    -4.3810    45.9220    37.6040    32.3240    37.4270    23.8120     2.3740 
  107.2500    -4.2730    50.2750    39.3810    33.9010    39.5010    23.8530     2.3630 
  107.3750    -4.1660    55.3330    40.5430    35.1020    37.9130    24.0650     2.3570 
  107.5000    -4.0580    55.8680    40.8320    35.6160    34.8630    24.3200     2.3510 
  107.6250    -3.9660    52.1810    40.0320    35.1080    34.2520    24.3600     2.3430 
  107.7500    -3.9170    49.8040    38.4500    33.7760    34.7500    24.3190     2.3380 
  107.8750    -3.8940    49.7440    36.3330    31.8780    32.5720    24.1530     2.3390 
  108.0000    -3.9110    50.4920    33.9730    29.7900    29.6160    23.9710     2.3490 
  108.1250    -3.9760    51.4150    31.7850    27.9910    27.2780    23.8650     2.3620 
  108.2500    -4.0750    51.2510    30.1970    26.8010    25.7220    23.8150     2.3750 
  108.3750    -4.1640    49.9010    29.5510    26.4210    24.9000    23.7610     2.3830 
  108.5000    -4.2260    48.8490    30.0200    26.9510    26.3980    23.7200     2.3830 
  108.6250    -4.3520    50.0480    31.7200    28.5370    31.4500    23.7530     2.3710 
  108.7500    -4.5550    52.2190    34.1520    30.8480    37.4960    23.9120     2.3510 
  108.8750    -4.7230    53.4270    36.7630    33.4510    41.7450    24.2170     2.3300 
  109.0000    -4.7770    53.5030    38.8050    35.6520    42.5430    24.5460     2.3150 
  109.1250    -4.8050    53.0880    39.2900    36.4610    41.0290    24.2490     2.3150 
  109.2500    -4.8400    52.0700    38.1820    35.7700    41.1910    23.8460     2.3250 
  109.3750    -4.8660    52.4020    35.8410    33.8760    39.4860    23.5290     2.3410 
  109.5000    -4.8970    55.1760    32.9580    31.3970    35.5940    23.3920     2.3570 
  109.6250    -4.8740    58.9840    30.3830    29.0580    32.1250    23.3930     2.3670 
  109.7500    -4.7900    60.4850    28.5850    27.2930    32.2940    23.4710     2.3670 
  109.8750    -4.7460    58.9850    27.7080    26.2720    30.9620    23.6260     2.3600 
  110.0000    -4.7090    56.0300    27.6760    26.0170    28.4910    23.8620     2.3510 
  110.1250    -4.5770    52.9730    28.3140    26.5050    27.7830    24.1320     2.3450 
  110.2500    -4.4850    51.4510    29.2350    27.4180    30.0620    24.3540     2.3460 
  110.3750    -4.4880    51.9700    30.3020    28.5910    34.7870    24.5140     2.3540 
  110.5000    -4.5550    52.6210    31.4880    29.9520    36.5760    24.5880     2.3660 
  110.6250    -4.6260    51.3420    32.8240    31.4780    36.0230    24.6170     2.3770 
  110.7500    -4.6790    49.7000    34.1840    33.0000    37.1470    24.6100     2.3820 
  110.8750    -4.7530    49.8320    35.3410    34.2680    38.4310    24.6000     2.3800 
  111.0000    -4.8440    51.2750    36.0320    35.0120    40.4800    24.5770     2.3720 
  111.1250    -4.9730    52.6480    35.9740    34.9550    40.4770    24.4710     2.3600 
