~V
VERS. 2.00: Ver 2.00
~W
STRT.M 55.0000:
STOP.M 297.0000:
STEP.M 0.1250:
NULL. -999.2500:
UWI. F10076:
~C
DEPT.M :
DEN.GM/CC :
SP.MV :
GR.API :
CALI.CM :
RXO.OHMM :
RI. :
RML.OHMM :
~A
   55.0000  -999.2500    34.2030  -999.2500  -999.2500  -999.2500  -999.2500  -999.2500 
   55.1250  -999.2500    34.3840  -999.2500  -999.2500  -999.2500  -999.2500  -999.2500 
   55.2500  -999.2500    34.4860  -999.2500  -999.2500  -999.2500  -999.2500  -999.2500 
   55.3750  -999.2500    34.5520  -999.2500  -999.2500  -999.2500  -999.2500  -999.2500 
   55.5000  -999.2500    34.7520  -999.2500  -999.2500  -999.2500  -999.2500  -999.2500 
   55.6250  -999.2500    35.0960  -999.2500  -999.2500  -999.2500  -999.2500  -999.2500 
   55.7500  -999.2500    35.4870  -999.2500  -999.2500  -999.2500  -999.2500  -999.2500 
   55.8750  -999.2500    35.8680  -999.2500  -999.2500  -999.2500  -999.2500  -999.2500 
   56.0000  -999.2500    36.1430  -999.2500  -999.2500  -999.2500  -999.2500  -999.2500 
   56.1250  -999.2500    36.2580  -999.2500  -999.2500  -999.2500  -999.2500  -999.2500 
   56.2500  -999.2500    36.2680  -999.2500  -999.2500  -999.2500  -999.2500  -999.2500 
   56.3750  -999.2500    36.1580  -999.2500  -999.2500  -999.2500  -999.2500  -999.2500 
   56.5000  -999.2500    35.8560  -999.2500  -999.2500  -999.2500  -999.2500  -999.2500 
   56.6250  -999.2500    35.5020  -999.2500  -999.2500  -999.2500  -999.2500  -999.2500 
   56.7500  -999.2500    35.2340  -999.2500  -999.2500  -999.2500  -999.2500  -999.2500 
   56.8750  -999.2500    35.1250  -999.2500  -999.2500  -999.2500  -999.2500  -999.2500 
   57.0000  -999.2500    35.3070  -999.2500  -999.2500  -999.2500  -999.2500  -999.2500 
   57.1250  -999.2500    35.8950  -999.2500  -999.2500  -999.2500  -999.2500  -999.2500 
   57.2500  -999.2500    36.8320  -999.2500  -999.2500  -999.2500  -999.2500  -999.2500 
   57.3750  -999.2500    38.0240  -999.2500  -999.2500  -999.2500  -999.2500  -999.2500 
   57.5000     1.8040    39.3750  -999.2500  -999.2500  -999.2500  -999.2500  -999.2500 
   57.6250     1.8040    40.8590    51.4700    24.5180     0.9590     0.2210     2.3860 
   57.7500     1.8150    42.3890    51.4700    24.5180     0.9590     0.2210     2.3860 
   57.8750     1.8450    43.9180    51.4700    25.1180     0.7150     0.2210     2.3860 
   58.0000     1.8680    45.3840    48.9870    25.3200     0.5990     0.1750     2.4560 
   58.1250     1.8690    46.6910    48.5020    25.3200     0.5440     0.1470     2.5030 
   58.2500     1.8610    47.7360    50.3910    25.3170     0.5820     0.1560     2.5280 
   58.3750     1.8550    48.4650    52.7720    25.3150     0.6910     0.1950     2.5520 
   58.5000     1.8600    49.0010    53.6160    25.3140     0.7420     0.2390     2.5930 
   58.6250     1.8690    49.3230    52.0040    25.3180     0.6660     0.2640     2.6500 
   58.7500     1.8670    49.4130    49.0050    25.3190     0.6300     0.2680     2.7060 
   58.8750     1.8540    49.2510    46.8790    25.3180     0.6050     0.2620     2.7490 
   59.0000     1.8440    48.9100    46.6030    25.3180     0.5430     0.2560     2.7760 
   59.1250     1.8520    48.4000    48.2710    25.3210     0.5070     0.2570     2.7850 
   59.2500     1.8690    47.9190    49.6510    25.3190     0.5220     0.2610     2.7870 
   59.3750     1.8780    47.5600    49.4070    25.3120     0.5440     0.2650     2.7820 
   59.5000     1.8700    47.2750    47.6170    25.3040     0.5340     0.2670     2.7720 
   59.6250     1.8530    47.0480    46.8660    25.3040     0.4360     0.2630     2.7620 
   59.7500     1.8400    46.8270    48.0640    25.3050     0.4170     0.2510     2.7630 
   59.8750     1.8370    46.6190    49.1800    25.3080     0.4570     0.2400     2.7840 
   60.0000     1.8440    46.4150    48.5770    25.3090     0.5410     0.2360     2.8130 
   60.1250     1.8520    46.2080    47.6480    25.3050     0.6660     0.2440     2.8150 
   60.2500     1.8550    45.9850    48.2790    25.3050     0.7100     0.2610     2.8040 
   60.3750     1.8590    45.7350    48.5320    25.3090     0.7080     0.2860     2.8180 
   60.5000     1.8720    45.4880    46.8470    25.3130     0.7670     0.3200     2.8960 
   60.6250     1.8930    45.3860    45.3980    25.3130     0.7390     0.3570     3.0850 
   60.7500     1.9040    45.5030    46.1770    25.3120     0.6760     0.3870     3.3490 
   60.8750     1.8990    45.8580    47.1680    25.3100     0.6210     0.3950     3.5880 
   61.0000     1.8830    46.4880    46.3330    25.3090     0.5730     0.3820     3.6580 
   61.1250     1.8700    47.4440    45.1120    25.3110     0.5930     0.3570     3.5300 
   61.2500     1.8710    48.6540    44.8420    25.3170     0.5960     0.3300     3.3850 
   61.3750     1.8830    50.1470    44.3470    25.3200     0.5550     0.3110     3.3320 
   61.5000     1.8920    51.8740    42.7940    25.3170     0.4790     0.3060     3.3990 
   61.6250     1.8790    53.6390    41.5550    25.2960     0.4230     0.3210     3.5350 
   61.7500     1.8490    55.2020    41.8640    25.2300     0.4400     0.3510     3.6300 
   61.8750     1.8190    56.4680    42.6150    25.0980     0.4850     0.3840     3.6400 
   62.0000     1.8180    57.3710    42.7370    24.9160     0.5350     0.4110     3.5970 
   62.1250     1.8860    57.9680    40.7790    24.7160     0.6380     0.4200     3.6110 
   62.2500     2.0060    58.3650    37.6520    24.5710     0.8280     0.4130     3.7070 
   62.3750     2.1340    58.6700    36.2550    24.4030     1.0910     0.3950     3.7670 
   62.5000     2.2200    59.0360    38.1310    24.1850     1.1660     0.3650     3.5890 
   62.6250     2.2450    59.5330    40.8990    24.0760     1.0300     0.3240     3.0990 
   62.7500     2.2440    60.2770    41.5240    24.0240     0.8970     0.2900     2.5920 
   62.8750     2.2390    61.2590    40.8380    24.0000     0.8510     0.2740     2.2400 
   63.0000     2.2340    62.5130    41.3830    23.9670     0.7610     0.2790     2.0650 
   63.1250     2.2210    64.0180    43.0340    23.9470     0.6680     0.2970     2.0290 
   63.2500     2.2090    65.6790    44.1380    23.9380     0.7140     0.3160     2.0370 
   63.3750     2.2000    67.2570    44.7350    23.9440     0.8840     0.3310     2.0440 
   63.5000     2.1860    68.5520    45.3690    23.9740     0.9990     0.3410     2.0320 
   63.6250     2.1510    69.4200    45.2980    23.9980     1.0730     0.3500     2.0010 
   63.7500     2.0990    69.9640    44.3030    24.0220     1.1380     0.3600     1.9800 
   63.8750     2.0410    70.3120    44.1680    24.0690     1.2280     0.3680     1.9840 
   64.0000     1.9840    70.4670    44.6250    24.1490     1.2940     0.3740     2.0170 
   64.1250     1.9410    70.4140    43.2130    24.2060     1.3340     0.3770     2.0690 
   64.2500     1.9140    70.1870    41.0480    24.2280     1.3630     0.3780     2.1140 
   64.3750     1.8930    70.0460    40.4890    24.2310     1.3610     0.3800     2.1330 
   64.5000     1.8700    70.2290    41.5410    24.2310     1.3080     0.3860     2.1220 
   64.6250     1.8500    70.8680    42.3340    24.2310     1.2060     0.3990     2.1070 
   64.7500     1.8450    71.7760    42.8680    24.2300     1.1060     0.4200     2.1100 
   64.8750     1.8560    72.8110    43.9910    24.2300     0.9690     0.4480     2.1370 
   65.0000     1.8760    73.8400    46.0980    24.2370     0.7800     0.4760     2.1850 
   65.1250     1.8920    74.6550    47.9250    24.2570     0.6410     0.4950     2.2240 
   65.2500     1.8960    75.0670    48.9870    24.2840     0.6350     0.4930     2.2140 
   65.3750     1.8880    74.7370    48.8720    24.3060     0.7180     0.4600     2.1010 
   65.5000     1.8780    73.2730    46.4540    24.3730     0.8190     0.3900     1.8230 
   65.6250     1.8730    70.4050    42.6840    24.5890     0.9000     0.2890     1.3600 
   65.7500     1.8700    66.5720    40.5500    24.9350     1.0220     0.1910     0.8910 
   65.8750     1.8720    61.9940    41.2160    25.3230     1.1400     0.1150     0.5440 
   66.0000     1.8740    56.8090    42.7100    25.7070     1.3090     0.0680     0.3410 
   66.1250     1.8310    50.9350    42.9150    25.9140     1.6410     0.0510     0.2610 
