~V
VERS. 2.00: Ver 2.00
~W
STRT.M 50.0000:
STOP.M 266.0000:
STEP.M 0.1250:
NULL. -999.2500:
UWI. F10057:
~C
DEPT.M :
GR.API :
RML.OHMM :
RI. :
RXO.OHMM :
CALI.CM :
DEN.GM/CC :
SP.MV :
~A
# ...
  252.5000    61.7390    18.7520    16.7390    12.8530    23.9560     2.5770     2.6200 
  252.6250    61.1140    18.6690    16.7150    13.2840    23.9350     2.5730     2.6550 
  252.7500    63.8310    18.7280    16.7140    13.4440    23.9220     2.5730     2.7050 
  252.8750    65.8660    18.9750    16.8530    13.4000    23.9220     2.5740     2.7460 
  253.0000    63.7890    19.3740    17.1820    13.7260    23.9230     2.5660     2.7720 
  253.1250    61.4730    19.9130    17.7710    14.9880    23.9100     2.5460     2.7750 
  253.2500    62.5490    20.5790    18.5580    16.3880    23.8870     2.5280     2.7660 
  253.3750    64.9680    21.3630    19.5000    17.2870    23.8740     2.5230     2.7750 
  253.5000    65.4650    22.2010    20.5140    18.0320    23.8710     2.5360     2.7900 
  253.6250    63.2450    22.9300    21.4190    19.5900    23.8110     2.5580     2.7690 
  253.7500    61.1470    23.3680    22.0740    21.5110    23.7110     2.5720     2.7350 
  253.8750    60.2630    23.3930    22.3770    22.5210    23.6490     2.5720     2.7120 
  254.0000    60.9140    23.0170    22.3120    22.6210    23.6600     2.5610     2.7050 
  254.1250    62.9230    22.3710    21.9530    23.2310    23.7120     2.5480     2.7060 
  254.2500    65.3330    21.6820    21.4750    24.9280    23.7650     2.5420     2.7230 
  254.3750    66.1820    21.0460    20.9670    26.7240    23.8190     2.5450     2.7580 
  254.5000    64.0940    20.4740    20.4740    27.0660    23.8410     2.5570     2.7870 
  254.6250    61.0020    21.6070    20.0180    24.2070    23.8070     2.5710     2.8020 
  254.7500    59.8450    21.9890    19.6520    19.7050    23.7600     2.5790     2.8330 
  254.8750    59.8450    21.6320    19.4480    16.2150    23.7320     2.5770     2.8430 
  255.0000    59.8450    21.5680    19.4840    15.2880    23.7310     2.5710     2.8290 
  255.1250    59.8450    21.9310    19.8780    17.2710    23.7370     2.5690     2.8480 
  255.2500    59.8450    22.5900    20.5330    21.0370    23.7310     2.5750     2.8570 
  255.3750    59.8450    23.3450    21.3240    25.0100    23.7120     2.5810     2.7790 
  255.5000    59.8450    23.9600    22.0800    26.4140    23.6720     2.5770     2.6550 
  255.6250    59.8450    24.2200    22.5680    23.4920    23.5740     2.5580     2.5640 
  255.7500    59.8450    24.1930    22.7660    20.2480    23.4470     2.5380     2.4600 
  255.8750    59.8450    23.9990    22.7270    20.1120    23.3540     2.5290     2.3740 
  256.0000    59.8450    23.7530    22.5370    24.1120    23.3000     2.5380     2.3100 
  256.1250    59.8450    23.4830    22.2840    30.2870    23.2110     2.5580     2.2230 
  256.2500    59.8450    23.1480    22.0310    35.3350    23.0740     2.5770     2.1850 
  256.3750    59.8450    22.7110    21.8060    38.4920    22.9340     2.5870     2.2220 
  256.5000    59.8450    22.1760    21.6310    39.6240    22.8060     2.5890     2.2860 
  256.6250    59.8450    21.6230    21.5320    36.6540    22.5730     2.5870     2.3130 
  256.7500    59.8450    21.2070    21.5030    31.2660    22.1880     2.5830     2.3310 
  256.8750    59.8450    21.0780    21.5370    26.6150    21.7750     2.5800     2.3510 
  257.0000    59.8450    21.2960    21.6110    23.4690    21.5130     2.5760     2.3920 
  257.1250    59.8450    21.7820    21.7280    21.0340    21.4200     2.5640     2.4660 
  257.2500    59.8450    22.3050    21.8820    18.8610    21.2480     2.5400     2.4900 
  257.3750    59.8450    22.7260    22.0510    17.1660    20.9100     2.5020     2.5190 
  257.5000    59.8450    22.9760    22.2150    15.9980    20.5670     2.4600     2.5630 
  257.6250    59.8450    23.0550    22.3320    14.9990    20.4300     2.4290     2.6440 
  257.7500    59.8450    23.0710    22.3800    14.0740    20.4000     2.4170     2.7580 
  257.8750    59.8450    23.0870    22.3670    13.4620    20.2810     2.4230     2.8590 
  258.0000    59.8450    23.1210    22.3140    13.2450    19.9370     2.4370     2.9470 
  258.1250    59.8450    23.1490    22.2640    13.5300    19.4560     2.4490     3.0400 
  258.2500    59.8450    23.1490    22.2420    14.2440    19.1130     2.4560     3.1610 
  258.3750    59.8450    23.1160    22.2410    14.9150    19.0410     2.4600     3.2430 
  258.5000    59.8450    23.0600    22.2610    15.2730    19.1700     2.4640     3.3380 
  258.6250    59.8450    23.0010    22.2990    15.8850    19.2940     2.4690     3.4230 
  258.7500    59.8450    22.9470    22.3340    16.8820    19.3210     2.4730     3.4720 
  258.8750    59.8450    22.9100    22.3700    17.8410    19.2850     2.4760     3.5190 
  259.0000    59.8450    22.9160    22.3900    18.4850    19.2700     2.4760     3.5760 
  259.1250    59.8450    22.9760    22.3460    19.1720    19.3070     2.4720     3.5950 
  259.2500    59.8450    23.0460    22.2520    19.6150    19.3200     2.4650     3.6060 
  259.3750    59.8450    23.0810    22.1450    18.8430    19.2870     2.4550     3.6150 
  259.5000    59.8450    23.0530    22.0640    17.3650    19.2350     2.4430     3.5820 
  259.6250    59.8450    22.9790    22.0330    16.4210    19.1250     2.4300     3.5570 
  259.7500    59.8450    22.9210    22.0540    15.7390    18.9010     2.4150     3.5330 
  259.8750    59.8450    22.9140    22.1180    15.0400    18.6200     2.4080     3.5300 
  260.0000    59.8450    22.9560    22.1680    14.5340    18.3920     2.3740     3.4780 
  260.1250    59.8450    23.0020    22.1650    14.3970    18.2260     2.3490     3.4030 
  260.2500    59.8450    23.0210    22.1570    14.1650    17.9930     2.3250     3.3370 
  260.3750    59.8450    23.0090    22.1640    13.6300    17.6410     2.3020     3.3070 
  260.5000    59.8450    22.9860    22.1860    12.9730    17.1990     2.2750     3.2820 
  260.6250    59.8450    22.9720    22.2220    12.5020    16.7910     2.2340     3.2390 
  260.7500    59.8450    22.9720    22.2220    12.2950    16.5400     2.1760     3.2090 
  260.8750    59.8450    22.9720    22.2220    12.2200    16.4650     2.1060     3.1710 
  261.0000    59.8450    22.9720    22.2220    11.8420    16.3980     2.0330     3.1320 
  261.1250    59.8450    22.9720    22.2220    10.9960    16.0960     1.9710     3.1260 
  261.2500    59.8450    22.9720    22.2220    10.2490    15.6780     1.9280     3.0860 
  261.3750    59.8450    22.9720    22.2220     9.8640    15.3760     1.9020     3.0180 
  261.5000    59.8450    22.9720    22.2220     9.7690    15.2820     1.8900     2.9730 
  261.6250    59.8450    22.9720    22.2220     9.7850    15.2930     1.8870     2.9430 
  261.7500    59.8450    22.9720    22.2220     9.7860    15.2980     1.8880     2.8730 
  261.8750    59.8450    22.9720    22.2220     9.7800    15.3060     1.8900     2.7900 
  262.0000    59.8450    22.9720    22.2220     9.7750    15.3160     1.8930     2.7140 
  262.1250    59.8450    22.9720    22.2220     9.7730    15.3200     1.8970     2.6380 
  262.2500    59.8450    22.9720    22.2220     9.7770    15.3140     1.9000     2.5980 
  262.3750    59.8450    22.9720    22.2220     9.7840    15.3060     1.9020     2.5460 
  262.5000    59.8450    22.9720    22.2220     9.7870    15.3040     1.9020     2.5430 
  262.6250    59.8450    22.9720    22.2220     9.7850    15.3050     1.9020     2.5400 
  262.7500    59.8450    22.9720    22.2220     9.7830    15.3030     1.9010  -999.2500 
  262.8750    59.8450    22.9720    22.2220     9.7820    15.3020     1.8990  -999.2500 
  263.0000    59.8450    22.9720    22.2220     9.7820    15.3040     1.8980  -999.2500 
  263.1250    59.8450    22.9720    22.2220     9.7840    15.3060     1.8970  -999.2500 
  263.2500    59.8450    22.9720    22.2220     9.7860    15.3040     1.8960  -999.2500 
  263.3750    59.8450    22.9720    22.2220     9.7870    15.3030     1.8950  -999.2500 
  263.5000    59.8450    22.9720    22.2220     9.7870    15.3020     1.8940  -999.2500 
  263.6250    59.8450    22.9720    22.2220     9.7870    15.2980     1.8930  -999.2500 
