~V
VERS. 2.00: Ver 2.00
~W
STRT.M 55.0000:
STOP.M 308.0000:
STEP.M 0.1250:
NULL. -999.2500:
UWI. F10053:
~C
DEPT.M :
GR.API :
RML.OHMM :
RI. :
RXO.OHMM :
CALI.CM :
DEN.GM/CC :
SP.MV :
~A
   55.0000  -999.2500  -999.2500  -999.2500  -999.2500  -999.2500     2.1110  -999.2500 
   55.1250  -999.2500  -999.2500  -999.2500  -999.2500  -999.2500     2.0990  -999.2500 
   55.2500  -999.2500  -999.2500  -999.2500  -999.2500  -999.2500     2.0830  -999.2500 
   55.3750  -999.2500  -999.2500  -999.2500  -999.2500  -999.2500     2.0680  -999.2500 
   55.5000  -999.2500  -999.2500  -999.2500  -999.2500  -999.2500     2.0580  -999.2500 
   55.6250  -999.2500  -999.2500  -999.2500  -999.2500  -999.2500     2.0580  -999.2500 
   55.7500  -999.2500  -999.2500  -999.2500  -999.2500  -999.2500     2.0640  -999.2500 
   55.8750  -999.2500  -999.2500  -999.2500  -999.2500  -999.2500     2.0690  -999.2500 
   56.0000  -999.2500  -999.2500  -999.2500  -999.2500  -999.2500     2.0710  -999.2500 
   56.1250  -999.2500  -999.2500  -999.2500  -999.2500  -999.2500     2.0690  -999.2500 
   56.2500  -999.2500  -999.2500  -999.2500  -999.2500  -999.2500     2.0650  -999.2500 
   56.3750  -999.2500  -999.2500  -999.2500  -999.2500  -999.2500     2.0600  -999.2500 
   56.5000  -999.2500  -999.2500  -999.2500  -999.2500  -999.2500     2.0530  -999.2500 
   56.6250  -999.2500  -999.2500  -999.2500  -999.2500  -999.2500     2.0400  -999.2500 
   56.7500  -999.2500  -999.2500  -999.2500  -999.2500  -999.2500     2.0250  -999.2500 
   56.8750  -999.2500  -999.2500  -999.2500  -999.2500  -999.2500     2.0080  -999.2500 
   57.0000  -999.2500  -999.2500  -999.2500  -999.2500  -999.2500     1.9910  -999.2500 
   57.1250  -999.2500  -999.2500  -999.2500  -999.2500  -999.2500     1.9770  -999.2500 
   57.2500  -999.2500  -999.2500  -999.2500  -999.2500  -999.2500     1.9640  -999.2500 
   57.3750  -999.2500  -999.2500  -999.2500  -999.2500  -999.2500     1.9550  -999.2500 
   57.5000  -999.2500  -999.2500  -999.2500  -999.2500  -999.2500     1.9500  -999.2500 
   57.6250  -999.2500  -999.2500  -999.2500  -999.2500  -999.2500     1.9480  -999.2500 
   57.7500  -999.2500  -999.2500  -999.2500  -999.2500  -999.2500     1.9460  -999.2500 
   57.8750  -999.2500  -999.2500  -999.2500  -999.2500  -999.2500     1.9440  -999.2500 
   58.0000  -999.2500  -999.2500  -999.2500  -999.2500  -999.2500     1.9390  -999.2500 
   58.1250  -999.2500  -999.2500  -999.2500  -999.2500  -999.2500     1.9330  -999.2500 
   58.2500  -999.2500  -999.2500  -999.2500  -999.2500  -999.2500     1.9290  -999.2500 
   58.3750  -999.2500  -999.2500  -999.2500  -999.2500  -999.2500     1.9290  -999.2500 
   58.5000  -999.2500  -999.2500  -999.2500  -999.2500  -999.2500     1.9300  -999.2500 
   58.6250  -999.2500  -999.2500  -999.2500  -999.2500  -999.2500     1.9290     0.0000 
   58.7500  -999.2500  -999.2500  -999.2500  -999.2500  -999.2500     1.9240     0.0000 
   58.8750  -999.2500  -999.2500  -999.2500  -999.2500  -999.2500     1.9200     0.0000 
   59.0000  -999.2500  -999.2500  -999.2500  -999.2500  -999.2500     1.9180     0.0000 
   59.1250  -999.2500  -999.2500  -999.2500  -999.2500  -999.2500     1.9220   211.6850 
   59.2500  -999.2500  -999.2500  -999.2500  -999.2500  -999.2500     1.9300   211.9300 
   59.3750  -999.2500  -999.2500  -999.2500  -999.2500  -999.2500     1.9410   212.1130 
   59.5000  -999.2500  -999.2500  -999.2500  -999.2500  -999.2500     1.9530   212.3370 
   59.6250  -999.2500  -999.2500  -999.2500  -999.2500  -999.2500     1.9620   212.5940 
   59.7500  -999.2500  -999.2500  -999.2500  -999.2500  -999.2500     1.9680   212.7990 
   59.8750  -999.2500  -999.2500  -999.2500  -999.2500  -999.2500     1.9710   212.8260 
   60.0000  -999.2500  -999.2500  -999.2500  -999.2500  -999.2500     1.9720   212.7220 
   60.1250  -999.2500  -999.2500  -999.2500  -999.2500  -999.2500     1.9760   212.4540 
   60.2500  -999.2500  -999.2500  -999.2500  -999.2500  -999.2500     1.9850   212.0650 
   60.3750  -999.2500  -999.2500  -999.2500  -999.2500  -999.2500     1.9980   211.6280 
   60.5000  -999.2500  -999.2500  -999.2500  -999.2500  -999.2500     2.0140   210.9980 
   60.6250  -999.2500  -999.2500  -999.2500  -999.2500  -999.2500     2.0270   210.1740 
   60.7500  -999.2500  -999.2500  -999.2500  -999.2500  -999.2500     2.0330   209.2040 
   60.8750  -999.2500  -999.2500  -999.2500  -999.2500  -999.2500     2.0280   208.2090 
   61.0000  -999.2500  -999.2500  -999.2500  -999.2500  -999.2500     2.0170   207.0950 
   61.1250  -999.2500  -999.2500  -999.2500  -999.2500  -999.2500     2.0080   205.9050 
   61.2500  -999.2500  -999.2500  -999.2500  -999.2500  -999.2500     2.0090   204.6370 
   61.3750  -999.2500  -999.2500  -999.2500  -999.2500  -999.2500     2.0210   203.2790 
   61.5000  -999.2500  -999.2500  -999.2500  -999.2500  -999.2500     2.0380   201.9550 
   61.6250  -999.2500  -999.2500  -999.2500  -999.2500  -999.2500     2.0490   200.6580 
   61.7500  -999.2500  -999.2500  -999.2500  -999.2500  -999.2500     2.0500   199.3760 
   61.8750    -4.0000     0.0000     0.0000     0.0000     0.0000     2.0430   197.9980 
   62.0000    -4.0000     0.0000     0.0000     0.0000     0.0000     2.0330   196.5720 
   62.1250     8.0660     0.2020     0.2180     1.6770     6.3880     2.0260   195.1110 
   62.2500    44.3600     0.2150     0.8610     6.6730    25.5520     2.0230   193.5890 
   62.3750    44.6020     0.1540     0.8200     7.2330    25.5520     2.0240   191.9080 
   62.5000    47.1100     0.1020     0.8010     7.2280    25.5520     2.0270   189.9580 
   62.6250    46.6600     0.1830     0.8250     6.9120    25.5520     2.0310   187.5370 
   62.7500    45.1780     0.3510     0.8770     7.2220    25.5520     2.0360   184.5970 
   62.8750    47.8040     0.5200     0.8910     8.4800    25.5520     2.0440   180.9750 
   63.0000    49.3530     0.6300     0.9060     9.1570    25.5520     2.0520   176.4550 
   63.1250    49.2190     0.6620     0.9200     8.6790    25.5520     2.0580   170.6270 
   63.2500    47.7650     0.6660     0.9250     8.6220    25.5520     2.0610   163.6670 
   63.3750    45.8350     0.6720     0.9190     8.6330    25.5520     2.0590   155.6450 
   63.5000    45.1510     0.6850     0.9160     7.5200    25.5520     2.0540   146.4560 
   63.6250    45.6560     0.6820     0.9340     6.1360    25.5520     2.0450   136.5320 
   63.7500    45.3350     0.6510     0.9760     4.4960    25.5520     2.0360   126.2590 
   63.8750    42.6240     0.6050     1.0330     3.1060    25.5520     2.0280   115.6310 
   64.0000    38.6750     0.5720     1.0840     2.5150    25.5520     2.0260   104.7360 
   64.1250    37.4330     0.5840     1.0980     2.9670    25.5520     2.0390    94.0880 
   64.2500    38.0070     0.6110     1.0610     3.9000    25.5520     2.0730    84.0040 
   64.3750    38.5940     0.5870     0.9570     4.4040    25.5520     2.1300    74.4200 
   64.5000    38.1780     0.4450     0.7630     4.3970    25.5520     2.2100    65.4250 
   64.6250    37.5730     0.1810     0.5030     4.4180    25.5520     2.3050    56.7940 
   64.7500    38.3830    -0.0890     0.2820     4.3750    25.5520     2.3940    48.6630 
   64.8750    40.1030    -0.2900     0.1430     4.3160    25.5520     2.4550    41.6090 
   65.0000    42.1190    -0.4000     0.0760     2.6230    25.5180     2.4660    35.8490 
   65.1250    44.9140    -0.4090     0.0820     1.6080    25.4110     2.4120    30.8210 
   65.2500    47.6160    -0.3060     0.1750     2.3250    25.0740     2.3190    25.6660 
   65.3750    51.1740    -0.0060     0.4340     4.7340    24.4420     2.2190    20.4950 
   65.5000    57.3360     0.6430     1.0070     7.9850    23.9200     2.1410    15.6360 
   65.6250    64.2060     1.8050     2.1890    10.4960    23.7370     2.1050    11.2540 
   65.7500    66.1640     3.1770     3.8570    10.4300    23.7190     2.0990     6.9940 
   65.8750    63.0990     4.3440     5.5310    10.0000    23.6710     2.1060     2.5510 
   66.0000    60.6320     5.0370     6.7360     9.6050    23.5960     2.1170    -2.0390 
   66.1250    60.5920     5.3050     7.4260     9.4530    23.5900     2.1260    -6.1980 
