~V
VERS. 2.00: Ver 2.00
~W
STRT.M 55.0000:
STOP.M 293.0000:
STEP.M 0.1250:
NULL. -999.2500:
UWI. F10038:
~C
DEPT.M :
SP.MV :
DEN.GM/CC :
GR.API :
RML.OHMM :
RI. :
RXO.OHMM :
CALI.CM :
~A
# ...
  268.7500    -3.6920     2.3790    28.2890     4.4520     4.0150     4.0440    23.2510 
  268.8750    -3.7340     2.3860    26.9940     4.3960     3.9430     4.0260    23.2210 
  269.0000    -3.7930     2.3910    26.6210     4.3520     3.9050     4.1700    23.1810 
  269.1250    -3.8480     2.3900    27.8920     4.3490     3.9240     4.4940    23.1300 
  269.2500    -3.9120     2.3820    29.6010     4.3790     3.9910     4.8800    23.1120 
  269.3750    -3.9720     2.3690    30.3190     4.4460     4.0840     5.2010    23.1050 
  269.5000    -4.0190     2.3530    29.4180     4.5070     4.1720     5.3040    23.0960 
  269.6250    -4.0790     2.3400    27.9070     4.5340     4.2180     4.8970    23.1780 
  269.7500    -4.1200     2.3330    27.0550     4.5070     4.2130     4.5170    23.3900 
  269.8750    -4.1240     2.3310    27.8880     4.4240     4.1650     4.2830    23.7300 
  270.0000    -4.1110     2.3320    29.5790     4.3130     4.0950     4.1770    24.1690 
  270.1250    -4.1170     2.3340    30.3540     4.2390     4.0330     4.2340    24.3690 
  270.2500    -4.0920     2.3370    30.8310     4.2220     3.9990     4.3550    24.4290 
  270.3750    -4.0130     2.3410    31.9830     4.2630     3.9970     4.4580    24.4140 
  270.5000    -3.9460     2.3490    33.0960     4.3420     4.0220     4.4660    24.3680 
  270.6250    -3.8940     2.3620    32.2100     4.4320     4.0630     4.3990    24.3380 
  270.7500    -3.8020     2.3780    30.5450     4.5080     4.1030     4.3420    24.3120 
  270.8750    -3.6790     2.3950    29.6010     4.5600     4.1320     4.2950    24.2930 
  271.0000    -3.5680     2.4100    29.3740     4.5900     4.1490     4.2240    24.2810 
  271.1250    -3.4590     2.4180    29.7040     4.6020     4.1570     4.1660    24.2680 
  271.2500    -3.3050     2.4200    30.2890     4.6030     4.1660     4.1770    24.2450 
  271.3750    -3.1650     2.4170    31.1390     4.5930     4.1780     4.2300    24.2080 
  271.5000    -3.0670     2.4160    31.8790     4.5750     4.1900     4.2860    24.1640 
  271.6250    -2.9180     2.4210    31.9050     4.5510     4.1930     4.2770    24.1220 
  271.7500    -2.7740     2.4330    30.8460     4.5200     4.1770     4.2720    24.1320 
  271.8750    -2.6860     2.4480    28.7650     4.4800     4.1380     4.2960    24.2260 
  272.0000    -2.6160     2.4590    27.1680     4.4270     4.0790     4.3660    24.3480 
  272.1250    -2.5610     2.4540    26.8070     4.3660     4.0110     4.4390    24.4630 
  272.2500    -2.5240     2.4360    26.5810     4.3130     3.9490     4.4520    24.5600 
  272.3750    -2.5560     2.4100    26.8810     4.2830     3.9030     4.3400    24.6300 
  272.5000    -2.5850     2.3870    28.1500     4.2870     3.8770     4.1790    24.6530 
  272.6250    -2.6830     2.3760    29.2500     4.3310     3.8750     4.1630    24.6570 
  272.7500    -2.8260     2.3700    29.1230     4.3910     3.8850     4.2160    24.6180 
  272.8750    -2.9880     2.3640    29.2650     4.4410     3.8950     4.2040    24.5550 
  273.0000    -3.1890     2.3490    30.6940     4.4570     3.8910     4.1620    24.4860 
  273.1250    -3.3620     2.3280    32.4110     4.4170     3.8610     4.1600    24.4260 
  273.2500    -3.5770     2.3100    34.1650     4.3410     3.8160     4.1290    24.3720 
  273.3750    -3.7460     2.3010    34.8560     4.2740     3.7860     4.0730    24.3340 
  273.5000    -3.9400     2.3070    34.8220     4.2850     3.8220     4.1300    24.3300 
  273.6250    -4.1340     2.3310    34.4530     4.4850     4.0100     4.5150    24.3190 
  273.7500    -4.3160     2.3670    34.0140     4.8940     4.3650     5.2490    24.2720 
  273.8750    -4.4930     2.4110    33.9520     5.4770     4.8680     6.3910    24.2360 
  274.0000    -4.6540     2.4510    34.0910     6.1130     5.4340     7.7030    24.2250 
  274.1250    -4.8150     2.4760    34.8680     6.5590     5.8910     8.7490    24.2720 
  274.2500    -4.9380     2.4800    35.6420     6.6470     6.0980     8.9530    24.3510 
  274.3750    -5.0660     2.4650    36.4480     6.3540     5.9990     7.8990    24.4180 
  274.5000    -5.1490     2.4370    37.2360     5.8270     5.6430     6.2620    24.4330 
  274.6250    -5.1780     2.4070    36.2100     5.3040     5.1660     4.9930    24.4190 
  274.7500    -5.1580     2.3820    34.4830     4.9310     4.7420     4.3130    24.3860 
  274.8750    -5.1060     2.3670    33.8430     4.7290     4.4400     4.0900    24.3120 
  275.0000    -5.0270     2.3580    34.5160     4.6600     4.2720     4.1380    24.2350 
  275.1250    -4.9460     2.3500    35.7310     4.6660     4.2050     4.2440    24.1700 
  275.2500    -4.8860     2.3400    35.4200     4.6680     4.1630     4.2600    24.0870 
  275.3750    -4.8270     2.3270    33.5730     4.6240     4.0980     4.2330    24.0310 
  275.5000    -4.7770     2.3170    31.5100     4.5250     3.9910     4.0960    23.9790 
  275.6250    -4.7450     2.3160    30.2090     4.3710     3.8490     3.9070    23.9280 
  275.7500    -4.7430     2.3220    30.0360     4.2040     3.7090     3.7210    23.8420 
  275.8750    -4.7550     2.3310    30.3780     4.0450     3.6000     3.5760    23.6840 
  276.0000    -4.7830     2.3400    30.7860     3.9070     3.5360     3.4940    23.4680 
  276.1250    -4.8180     2.3440    30.0990     3.8630     3.5210     3.4500    23.3000 
  276.2500    -4.8440     2.3400    28.5810     3.8620     3.5310     3.4900    23.2330 
  276.3750    -4.8700     2.3320    28.2610     3.8700     3.5520     3.5680    23.2890 
  276.5000    -4.8930     2.3230    29.3950     3.8690     3.5710     3.6840    23.4500 
  276.6250    -4.9140     2.3170    30.0540     3.8670     3.5780     3.7780    23.5350 
  276.7500    -4.9200     2.3160    29.7260     3.8640     3.5740     3.8540    23.5500 
  276.8750    -4.9080     2.3210    28.6330     3.8630     3.5630     3.8810    23.5840 
  277.0000    -4.8990     2.3270    28.0580     3.8820     3.5500     3.8230    23.6600 
  277.1250    -4.8700     2.3320    29.5200     3.9280     3.5510     3.8200    23.7790 
  277.2500    -4.8380     2.3360    32.7510     3.9820     3.5700     3.9030    23.8560 
  277.3750    -4.8150     2.3420    36.3470     4.0380     3.6060     4.0700    23.9370 
  277.5000    -4.7950     2.3500    38.3200     4.0920     3.6490     4.2650    23.9880 
  277.6250    -4.7710     2.3560    38.2000     4.1360     3.6780     4.3980    23.9750 
  277.7500    -4.7400     2.3590    36.7000     4.1540     3.6800     4.2910    23.9280 
  277.8750    -4.7100     2.3550    34.1890     4.1370     3.6530     3.9920    23.8770 
  278.0000    -4.6670     2.3420    32.3640     4.0870     3.6050     3.7920    23.8410 
  278.1250    -4.6320     2.3180    31.3710     4.0200     3.5500     3.8000    23.7940 
  278.2500    -4.5850     2.2880    30.7470     3.9570     3.5020     3.9060    23.7900 
  278.3750    -4.5280     2.2550    29.7650     3.9020     3.4670     3.9720    23.8460 
  278.5000    -4.4780     2.2280    27.8470     3.8530     3.4420     4.0010    23.8910 
  278.6250    -4.4540     2.2110    24.8010     3.8140     3.4230     3.9910    23.7490 
  278.7500    -4.4630     2.2040    22.2580     3.7880     3.4040     3.9790    23.4720 
  278.8750    -4.4990     2.2050    21.3260     3.7810     3.3850     3.9060    23.4650 
  279.0000    -4.5510     2.2120    21.5070     3.7890     3.3680     3.7410    23.8180 
  279.1250    -4.6170     2.2250    21.8300     3.8050     3.3540     3.6510    23.9440 
  279.2500    -4.7040     2.2430    23.0200     3.8210     3.3460     3.5640    23.9420 
  279.3750    -4.8140     2.2620    24.8980     3.8410     3.3480     3.5500    23.9090 
  279.5000    -4.9240     2.2810    26.3080     3.8710     3.3640     3.5710    23.9220 
  279.6250    -5.0230     2.2940    27.1950     3.9170     3.4010     3.6500    23.9060 
  279.7500    -5.0950     2.3020    28.7430     3.9720     3.4530     3.8090    23.8890 
  279.8750    -5.1620     2.3040    30.9250     4.0330     3.5190     3.9820    23.8860 
