~V
VERS. 2.00: Ver 2.00
~W
STRT.M 50.0000:
STOP.M 280.0000:
STEP.M 0.1250:
NULL. -999.2500:
UWI. F10023:
~C
DEPT.M :
SP.MV :
DEN.GM/CC :
GR.API :
CALI.CM :
RXO.OHMM :
RI. :
RML.OHMM :
~A
# ...
  117.5000   -21.3320     2.2420    98.9140    23.0520     5.5420     5.8230     6.4580 
  117.6250   -21.2590     2.2600    95.7390    23.1170     5.4660     5.7090     6.3170 
  117.7500   -21.2250     2.2660    94.2170    23.2050     5.4670     5.5950     6.2020 
  117.8750   -21.3150     2.2650    95.8380    23.2270     5.5030     5.5210     6.1410 
  118.0000   -21.4780     2.2640    99.5680    23.1620     5.4810     5.5140     6.1600 
  118.1250   -21.6530     2.2660    99.8930    23.2080     5.4980     5.6130     6.3030 
  118.2500   -22.0120     2.2650    96.6850    23.3450     5.8160     5.8140     6.5590 
  118.3750   -22.4530     2.2520    95.9930    23.4140     6.2560     6.1060     6.9100 
  118.5000   -22.8440     2.2200    98.4650    23.3510     6.6780     6.4670     7.3180 
  118.6250   -23.2820     2.1780    97.3090    23.2440     7.2440     6.8760     7.7540 
  118.7500   -23.7960     2.1430    92.5860    23.1890     7.8170     7.3150     8.2040 
  118.8750   -24.2510     2.1200    88.7010    23.1760     8.1180     7.7880     8.6790 
  119.0000   -24.6680     2.1050    85.7920    23.1670     8.1660     8.3070     9.1960 
  119.1250   -25.0880     2.0970    81.4400    23.1420     8.4520     8.8700     9.7560 
  119.2500   -25.3150     2.0990    78.8190    23.2660     9.2410     9.4360    10.3130 
  119.3750   -25.4100     2.1090    78.8750    23.5350    10.2120     9.9580    10.8180 
  119.5000   -25.4800     2.1190    78.4940    23.8590    10.8450    10.3930    11.2210 
  119.6250   -25.4110     2.1230    76.5250    24.0470    11.0200    10.6480    11.4090 
  119.7500   -25.1380     2.1270    74.7840    24.1180    11.0670    10.6500    11.3090 
  119.8750   -24.7830     2.1340    73.4900    24.1300    11.0020    10.3230    10.8610 
  120.0000   -24.3570     2.1500    74.5500    24.1300    10.7080     9.6570    10.0890 
  120.1250   -23.7840     2.1760    79.5300    24.1300     9.6770     8.7350     9.1150 
  120.2500   -23.2840     2.2030    85.3800    24.1300     8.1760     7.7930     8.1780 
  120.3750   -22.8800     2.2200    90.1150    24.1300     6.9600     6.9910     7.4260 
  120.5000   -22.4910     2.2270    92.8700    24.1300     6.5170     6.4270     6.9420 
  120.6250   -22.2020     2.2320    96.1090    24.1250     6.6060     6.1710     6.7760 
  120.7500   -22.0970     2.2390    98.6540    24.0980     6.6540     6.1350     6.8190 
  120.8750   -22.0840     2.2400    97.4890    24.0440     6.5290     6.2430     6.9680 
  121.0000   -22.0880     2.2280    92.8770    24.0160     6.4530     6.3880     7.1030 
  121.1250   -22.2510     2.2010    89.4050    24.0360     6.8570     6.4620     7.1230 
  121.2500   -22.4660     2.1780    89.9710    24.0590     7.2180     6.4590     7.0590 
  121.3750   -22.6040     2.1740    93.1060    24.0710     7.3580     6.4220     6.9800 
  121.5000   -22.7290     2.1870    96.4520    24.0860     7.2880     6.4190     6.9640 
  121.6250   -22.9090     2.1950    96.9140    24.1180     7.3010     6.5290     7.0900 
  121.7500   -23.0090     2.1860    93.4470    24.1490     7.8120     6.7450     7.3290 
  121.8750   -23.0140     2.1730    89.8510    24.1900     8.8060     7.0020     7.5950 
  122.0000   -22.9730     2.1750    88.8550    24.2180    10.2310     7.1810     7.7580 
  122.1250   -22.8730     2.1940    88.6630    24.1610    11.5530     7.1190     7.6570 
  122.2500   -22.6650     2.2090    88.0830    24.0610    10.9480     6.8170     7.3210 
  122.3750   -22.4880     2.2130    88.5760    23.9720     8.5920     6.3650     6.8640 
  122.5000   -22.3930     2.2140    91.5620    23.9120     6.5340     5.9000     6.4360 
  122.6250   -22.2510     2.2220    98.1480    23.8540     5.9060     5.5560     6.1740 
  122.7500   -22.1090     2.2340   103.7680    23.7670     5.7440     5.3630     6.0880 
  122.8750   -22.0960     2.2430   103.8140    23.6670     5.5730     5.3340     6.1710 
  123.0000   -22.2280     2.2480    99.6620    23.5230     5.4710     5.4520     6.3890 
  123.1250   -22.3520     2.2450    98.9050    23.3240     5.6620     5.6790     6.6860 
  123.2500   -22.5300     2.2320   101.5210    23.1350     6.3000     5.9250     6.9580 
  123.3750   -22.7040     2.2070   101.1280    23.0180     7.0490     6.1160     7.1210 
  123.5000   -22.8260     2.1820    96.6170    22.9970     7.3680     6.1890     7.1190 
  123.6250   -22.9100     2.1790    93.7950    23.0970     7.0790     6.1200     6.9570 
  123.7500   -22.9510     2.1890    93.6690    23.2710     6.6820     6.0140     6.8020 
  123.8750   -22.9380     2.1940    93.3950    23.4960     6.5390     6.0040     6.8150 
  124.0000   -22.8510     2.1920    91.0240    23.6480     6.6500     6.2030     7.1120 
  124.1250   -22.7070     2.2070    87.2040    23.5380     7.1880     6.7120     7.7530 
  124.2500   -22.5270     2.2530    84.2370    23.3380     8.2530     7.4120     8.5330 
  124.3750   -22.3290     2.3150    82.6570    23.2030     9.4030     8.0740     9.1540 
  124.5000   -22.1000     2.3590    82.9650    23.1350     9.5560     8.3870     9.2890 
  124.6250   -21.8610     2.3540    86.5470    23.0560     8.4530     8.0650     8.7420 
  124.7500   -21.6250     2.3200    92.0280    23.0470     7.3020     7.3560     7.8990 
  124.8750   -21.3420     2.2820    96.5860    23.2140     6.6550     6.5590     7.1010 
  125.0000   -21.0760     2.2590    99.4370    23.5680     6.2400     5.9000     6.5610 
  125.1250   -20.9030     2.2540   102.4340    23.8790     5.8060     5.5350     6.3860 
  125.2500   -20.7550     2.2560   106.8500    23.9800     5.5610     5.4180     6.4560 
  125.3750   -20.6300     2.2570   109.5950    23.9860     7.9800     5.4850     6.6540 
  125.5000   -20.5140     2.2570   107.2820    23.9820    14.1600     5.6360     6.8530 
  125.6250   -20.4690     2.2610   102.7460    23.9830    25.3060     5.7650     6.9370 
  125.7500   -20.5200     2.2710   100.8480    23.9820    20.9880     5.8080     6.8930 
  125.8750   -20.6410     2.2830   102.0230    23.9810     9.5660     5.7650     6.7590 
  126.0000   -20.7460     2.2880   104.1340    23.9810     5.5250     5.6880     6.6130 
  126.1250   -20.8280     2.2830   107.1060    23.9810     5.5960     5.6510     6.5440 
  126.2500   -20.9410     2.2780   110.0150    23.9790     5.8280     5.6760     6.5570 
  126.3750   -21.0590     2.2730   111.0400    23.9550     6.0330     5.7410     6.6240 
  126.5000   -21.1670     2.2640   110.7620    23.8940     6.2080     5.8100     6.7020 
  126.6250   -21.2340     2.2450   109.8240    23.8400     6.2510     5.8520     6.7570 
  126.7500   -21.2400     2.2270   105.6740    23.8990     6.2270     5.8730     6.8050 
  126.8750   -21.1870     2.2230    99.7790    24.0170     6.3080     5.9020     6.8770 
  127.0000   -21.1120     2.2370    98.3720    24.0680     6.6870     5.9570     6.9890 
  127.1250   -21.0250     2.2570   102.2210    24.0400     7.2020     6.0360     7.1040 
  127.2500   -20.9170     2.2650   104.3680    24.0220     7.3120     6.0850     7.1510 
  127.3750   -20.7810     2.2570   103.1350    24.0600     6.9800     6.0660     7.0910 
  127.5000   -20.6240     2.2440   100.9800    24.1020     6.4920     5.9620     6.9350 
  127.6250   -20.4700     2.2410   101.0300    24.1180     6.1970     5.7980     6.7350 
  127.7500   -20.3710     2.2430   103.1760    24.1190     5.9970     5.6380     6.5620 
  127.8750   -20.3540     2.2450   105.9860    24.1190     5.8030     5.5160     6.4500 
  128.0000   -20.3680     2.2430   106.7240    24.1190     5.6060     5.4500     6.4100 
  128.1250   -20.3830     2.2410   106.0180    24.1190     5.6650     5.4360     6.4400 
  128.2500   -20.4170     2.2390   105.9020    24.1190     5.6770     5.4330     6.4890 
  128.3750   -20.5330     2.2420   106.8200    24.1190     5.5900     5.4010     6.5010 
  128.5000   -20.7520     2.2510   108.1230    24.1180     5.5260     5.3070     6.4230 
  128.6250   -21.0480     2.2650   111.3380    24.1170     5.5290     5.1290     6.2300 
