~V
VERS. 2.00: Ver 2.00
~W
STRT.M 50.0000:
STOP.M 237.0000:
STEP.M 0.1250:
NULL. -999.2500:
UWI. F10006:
~C
DEPT.M :
GR.API :
RML.OHMM :
RI. :
RXO.OHMM :
CALI.CM :
DEN.GM/CC :
SP.MV :
~A
# ...
  162.5000    82.7510     7.4240     7.0360     6.0290    22.8310     2.4330   -22.4360 
  162.6250    85.0090     7.2610     6.8860     6.3410    22.8290     2.4220   -22.5040 
  162.7500    87.0940     7.0450     6.6720     6.0430    22.8450     2.4070   -22.6020 
  162.8750    88.1600     6.7600     6.4180     5.6970    22.8930     2.3950   -22.7100 
  163.0000    87.9100     6.4080     6.1780     5.5940    22.9480     2.3890   -22.8420 
  163.1250    87.4010     6.2770     6.0380     5.9990    22.9640     2.3910   -23.0030 
  163.2500    87.4570     6.3890     6.0420     6.6430    22.9370     2.4010   -23.1610 
  163.3750    87.1540     6.7350     6.2280     7.2290    22.9220     2.4220   -23.3050 
  163.5000    86.8330     7.2800     6.6160     7.8210    22.9480     2.4550   -23.4370 
  163.6250    86.5970     8.0480     7.2470     8.8870    23.0470     2.4960   -23.5360 
  163.7500    85.2790     8.9820     8.0670    10.6060    23.3330     2.5280   -23.5920 
  163.8750    83.0520    10.0110     9.0250    12.3780    23.9350     2.5390   -23.6340 
  164.0000    80.1760    10.9930    10.0090    13.1350    24.1100     2.5250   -23.6420 
  164.1250    77.7000    11.6740    10.8020    13.3420    24.3700     2.4910   -23.6110 
  164.2500    78.0230    11.9370    11.2460    12.0990    23.8830     2.4520   -23.5740 
  164.3750    81.5070    11.7780    11.2800    10.6550    23.6230     2.4180   -23.5460 
  164.5000    86.4880    11.3310    10.9750     9.6580    23.5530     2.3960   -23.5300 
  164.6250    88.6860    10.8190    10.5110     9.0810    23.5010     2.3880   -23.5310 
  164.7500    88.4080    10.4300    10.1100     8.9840    23.3350     2.3900   -23.5320 
  164.8750    86.6010    10.1950     9.8560     8.6620    23.1020     2.3960   -23.5320 
  165.0000    84.2510    10.0500     9.7460     8.3030    22.8240     2.4020   -23.5210 
  165.1250    82.4200     9.9330     9.7170     8.3550    22.4630     2.4050   -23.4960 
  165.2500    82.7170     9.8160     9.6880     8.5720    22.0990     2.4050   -23.4590 
  165.3750    84.6730     9.7020     9.6500     8.3970    22.1810     2.4050   -23.4170 
  165.5000    87.0470     9.5990     9.6540     8.3990    22.7730     2.4020   -23.3660 
  165.6250    87.4430     9.6750     9.8190     8.7630    23.6140     2.3900   -23.3070 
  165.7500    85.6970    10.0550    10.2160     9.6200    23.9400     2.3720   -23.2550 
  165.8750    82.5170    10.8040    10.8980    10.6780    24.0070     2.3560   -23.1930 
  166.0000    78.5530    11.8820    11.8660    12.0940    24.0110     2.3500   -23.1250 
  166.1250    75.3020    13.1270    13.0230    13.3940    24.0210     2.3600   -23.0660 
  166.2500    73.2750    14.2150    14.0790    14.8390    24.0150     2.3720   -23.0140 
  166.3750    72.1340    14.8770    14.7680    16.1350    23.9820     2.3720   -22.9570 
  166.5000    71.9450    14.9670    14.9220    15.0400    23.9330     2.3530   -22.8840 
  166.6250    72.2430    14.4800    14.5150    12.5510    23.9430     2.3220   -22.7830 
  166.7500    75.0120    13.7710    13.8690    11.3790    23.9170     2.2990   -22.6570 
  166.8750    79.1490    13.1100    13.2200    11.3710    23.8080     2.2920   -22.5040 
  167.0000    80.9440    12.6920    12.7340    11.6490    23.6630     2.2990   -22.3320 
  167.1250    79.3970    12.6800    12.5600    11.6280    23.5900     2.3120   -22.1150 
  167.2500    78.7590    13.0520    12.7170    11.8430    23.5620     2.3200   -21.8610 
  167.3750    79.3800    13.8130    13.2420    12.2740    23.5920     2.3150   -21.5570 
  167.5000    79.2500    14.9400    14.1490    13.2430    23.7150     2.2990   -21.2250 
  167.6250    78.9770    16.3810    15.4300    14.9960    23.9500     2.2730   -20.8810 
  167.7500    77.8620    17.8770    16.8610    17.5230    24.2050     2.2480   -20.5370 
  167.8750    74.8590    19.1650    18.2020    19.3700    24.3560     2.2310   -20.2160 
  168.0000    72.0250    20.0080    19.2070    20.3650    24.4060     2.2270   -19.9160 
  168.1250    73.5200    20.2000    19.6240    20.3410    24.4030     2.2340   -19.6550 
  168.2500    76.8710    19.9360    19.5600    19.1210    24.4010     2.2460   -19.4270 
  168.3750    79.6500    19.4330    19.1810    18.3530    24.3990     2.2580   -19.2490 
  168.5000    81.3700    18.9360    18.7080    18.1210    24.4010     2.2660   -19.1140 
  168.6250    80.4650    18.6890    18.3900    18.1300    24.4120     2.2710   -19.0200 
  168.7500    78.7620    18.7680    18.3570    18.7010    24.4190     2.2730   -18.9480 
  168.8750    77.4920    19.1910    18.6730    19.6470    24.4050     2.2720   -18.8850 
  169.0000    75.6300    19.9220    19.3450    20.9390    24.3800     2.2700   -18.8430 
  169.1250    71.6250    20.8980    20.3650    22.5490    24.3470     2.2640   -18.8020 
  169.2500    67.8780    21.9520    21.5800    24.5870    24.3000     2.2550   -18.7470 
  169.3750    67.3070    22.9490    22.8600    26.4600    24.2290     2.2440   -18.6770 
  169.5000    70.9590    23.7570    24.0560    27.2080    24.2160     2.2360   -18.5900 
  169.6250    75.9470    24.5570    24.9530    26.4490    24.3210     2.2350   -18.4910 
  169.7500    76.9650    25.4700    25.4710    25.7100    24.3770     2.2410   -18.3990 
  169.8750    73.4480    26.0600    25.5870    25.3480    24.3680     2.2520   -18.3120 
  170.0000    68.9760    25.9470    25.3560    25.1940    24.3190     2.2590   -18.2090 
  170.1250    67.4170    25.3540    24.8610    24.4840    24.2810     2.2570   -18.1300 
  170.2500    67.9420    24.7360    24.2450    22.4890    24.3180     2.2510   -18.0760 
  170.3750    70.0680    24.0600    23.5150    21.3750    24.3920     2.2510   -18.0400 
  170.5000    72.8090    23.1750    22.5730    21.1830    24.4420     2.2680   -18.0110 
  170.6250    74.4070    21.8090    21.2160    20.6760    24.4450     2.3060   -17.9920 
  170.7500    73.6540    20.0500    19.5430    19.9830    24.4020     2.3480   -17.9940 
  170.8750    71.0720    18.2370    17.8460    17.8210    24.3330     2.3730   -18.0290 
  171.0000    69.8260    16.9280    16.5640    13.8580    24.2700     2.3700   -18.1000 
  171.1250    71.8440    17.0490    16.3970    13.5430    24.2620     2.3500   -18.2220 
  171.2500    71.9230    19.0310    17.7300    19.8610    24.2360     2.3420   -18.3910 
  171.3750    66.8270    23.2350    21.0530    32.3740    24.1830     2.3630   -18.6010 
  171.5000    59.7690    29.7140    26.7580    42.0480    24.0300     2.4090   -18.8600 
  171.6250    56.5890    38.0900    35.0550    49.9710    23.8500     2.4500   -19.1510 
  171.7500    55.9830    46.5940    44.2970    54.0870    23.8430     2.4660   -19.4320 
  171.8750    57.0870    53.6300    52.6120    57.0140    23.9790     2.4540   -19.6860 
  172.0000    59.6720    58.1960    58.4720    56.8010    24.1560     2.4220   -19.9130 
  172.1250    60.7700    59.9920    61.0870    59.8100    24.3260     2.3710   -20.0820 
  172.2500    58.6750    60.1050    61.5490    60.2210    24.3880     2.3080   -20.2050 
  172.3750    55.5420    58.9750    60.4240    57.9280    24.3530     2.2390   -20.2860 
  172.5000    55.5600    56.8300    58.0760    54.7320    24.2180     2.1810   -20.3250 
  172.6250    59.9890    53.8830    54.7960    46.2570    24.0410     2.1570   -20.3110 
  172.7500    64.3740    50.7740    51.3050    39.3100    23.8020     2.1630   -20.2600 
  172.8750    66.1350    48.0380    48.1740    36.1720    23.6320     2.1860   -20.1910 
  173.0000    65.8170    46.1310    45.8880    37.1910    23.6700     2.2100   -20.1030 
  173.1250    65.9110    45.5980    44.9980    39.5350    24.0040     2.2300   -20.0030 
  173.2500    65.3480    46.3790    45.4380    41.3200    24.1030     2.2460   -19.9000 
  173.3750    64.0560    48.3660    47.1160    42.1190    24.2230     2.2580   -19.7970 
  173.5000    63.8410    51.1780    49.7060    44.6050    24.2680     2.2600   -19.6910 
  173.6250    64.7970    54.0230    52.5340    49.8680    24.2300     2.2510   -19.6050 
