~V
VERS. 2.00: Ver 2.00
~W
STRT.M 55.0000:
STOP.M 310.0000:
STEP.M 0.1250:
NULL. -999.2500:
UWI. F10049:
~C
DEPT.M :
GR.API :
RML.OHMM :
RI. :
RXO.OHMM :
CALI.CM :
DEN.GM/CC :
SP.MV :
~A
# ...
  100.0000   102.0080     6.7230     5.4240     5.1720    25.2280     2.2600    -5.8250 
  100.1250   103.2620     6.8460     5.2920     5.0850    25.1670     2.2710    -4.1820 
  100.2500   104.4850     6.9340     5.2410     5.1020    25.1250     2.2820    -2.9680 
  100.3750   104.2340     6.9220     5.2070     5.1210    25.1090     2.2930    -2.2180 
  100.5000   103.5560     6.8050     5.1580     4.9820    25.0710     2.3020    -1.9170 
  100.6250   103.2720     6.6380     5.1070     4.8040    25.0300     2.3090    -1.9610 
  100.7500   101.3870     6.5290     5.1020     4.7640    25.0100     2.3130    -2.1190 
  100.8750    99.2980     6.5520     5.1980     4.8470    25.0130     2.3140    -2.2710 
  101.0000    99.1580     6.7200     5.4330     5.0240    25.0300     2.3160    -2.3940 
  101.1250    97.2240     6.9630     5.8160     5.4120    25.0650     2.3240    -2.5420 
  101.2500    91.6980     7.1500     6.2380     6.4520    25.0940     2.3390    -2.7400 
  101.3750    87.9880     7.2170     6.5770     8.0340    25.1200     2.3530    -2.9630 
  101.5000    89.4050     7.1720     6.7350     7.7980    25.1290     2.3560    -3.2260 
  101.6250    93.5250     7.0820     6.6910     6.8870    25.1290     2.3420    -3.4090 
  101.7500    95.1900     7.0170     6.5810     6.0660    25.1490     2.3260    -3.6360 
  101.8750    94.1290     6.9820     6.4830     6.3400    25.1860     2.3250    -3.8420 
  102.0000    92.8830     6.9370     6.4020     7.7030    25.2090     2.3470    -3.9850 
  102.1250    94.5290     6.8000     6.2770     8.3320    25.2110     2.3800    -4.0020 
  102.2500    99.7280     6.5560     6.0770     7.2510    25.2280     2.3970    -3.9010 
  102.3750   106.7570     6.2530     5.8510     5.7110    25.3210     2.3890    -3.6950 
  102.5000   110.0790     6.0000     5.6890     5.0780    25.4890     2.3590    -3.3610 
  102.6250   105.1890     5.9300     5.6840     5.1300    25.5800     2.3300    -3.0280 
  102.7500    98.5520     6.0120     5.7870     5.7500    25.6260     2.3150    -2.6390 
  102.8750    96.6610     6.1270     5.8970     6.5770    25.6620     2.3150    -2.2850 
  103.0000   100.2460     6.1340     5.9000     6.3310    25.7050     2.3230    -2.0180 
  103.1250   105.0940     5.9390     5.7260     5.4550    25.6770     2.3310    -1.8470 
  103.2500   108.6170     5.6450     5.4630     4.9440    25.6620     2.3380    -1.7660 
  103.3750   110.7940     5.3690     5.2000     4.8080    25.6600     2.3430    -1.7760 
  103.5000   112.8400     5.2010     4.9950     4.7410    25.6800     2.3480    -1.8430 
  103.6250   116.2990     5.1780     4.8760     4.6750    25.7130     2.3500    -1.9090 
  103.7500   120.3180     5.2130     4.7920     4.6880    25.7070     2.3520    -1.9270 
  103.8750   122.4690     5.1970     4.6860     4.7300    25.6560     2.3540    -1.9560 
  104.0000   119.8870     5.0420     4.5130     4.7160    25.6120     2.3560    -2.0180 
  104.1250   112.9450     4.7760     4.3040     4.7360    25.6060     2.3550    -2.1470 
  104.2500   106.4840     4.6510     4.2100     4.9060    25.7320     2.3500    -2.2930 
  104.3750    99.5590     5.0130     4.4100     4.9530    25.8190     2.3450    -2.4690 
  104.5000    89.4780     6.2760     5.1490     5.2890    25.7980     2.3510    -2.6290 
  104.6250    77.9990     9.1610     7.0440     8.3640    25.5140     2.3830    -2.8540 
  104.7500    69.1710    13.6970    10.5030    17.1720    25.3060     2.4330    -3.2470 
  104.8750    64.6690    19.2710    15.7190    30.1370    25.1180     2.4870    -3.8360 
  105.0000    62.7980    24.0390    21.5700    43.4820    24.9130     2.5200    -4.6700 
  105.1250    62.7540    24.9820    24.0700    47.4210    24.6760     2.5090    -5.6900 
  105.2500    63.7170    22.1500    21.9360    39.2210    24.5660     2.4600    -6.9590 
  105.3750    66.2710    17.3730    17.5530    25.1350    24.4950     2.3840    -8.3840 
  105.5000    71.2140    12.9260    13.5110    15.4030    24.3880     2.3010    -9.9810 
  105.6250    73.5300    10.2720    10.9270    11.9480    24.2970     2.2280   -11.5770 
  105.7500    72.5480     9.0080     9.4260    11.0250    24.2700     2.1750   -13.1330 
  105.8750    71.0990     8.6440     8.7200    10.8190    24.3140     2.1460   -14.5530 
  106.0000    70.5550     8.7450     8.5740    10.7870    24.4060     2.1360   -15.7680 
  106.1250    70.6420     8.9820     8.7950    10.7450    24.4660     2.1380   -16.7970 
  106.2500    71.2000     9.1530     9.1030    10.7690    24.4830     2.1410   -17.6510 
  106.3750    71.3320     9.2390     9.3450    10.7400    24.4810     2.1410   -18.3700 
  106.5000    68.6720     9.2880     9.4480    10.7010    24.4860     2.1380   -18.9840 
  106.6250    65.6010     9.3540     9.3930    10.5390    24.4810     2.1350   -19.5110 
  106.7500    66.1780     9.4370     9.2600    10.7000    24.4490     2.1370   -20.0040 
  106.8750    68.4450     9.5160     9.1130    11.0760    24.4150     2.1430   -20.4830 
  107.0000    69.2190     9.5690     8.9880    11.3280    24.4450     2.1510   -21.0580 
  107.1250    67.4880     9.5830     8.8880    11.2680    24.5270     2.1560   -21.6780 
  107.2500    65.0710     9.5620     8.7900    11.0510    24.4620     2.1550   -22.2770 
  107.3750    61.8470     9.5000     8.6980    10.6290    24.3750     2.1490   -22.8160 
  107.5000    58.7860     9.3910     8.6270    10.4930    24.2150     2.1400   -23.3080 
  107.6250    57.1880     9.2480     8.5760    10.4640    24.0960     2.1320   -23.7610 
  107.7500    57.0900     9.1250     8.5220    10.3770    24.0510     2.1280   -24.1230 
  107.8750    58.6700     9.0570     8.4450    10.0300    24.0350     2.1270   -24.3350 
  108.0000    61.0190     9.0380     8.3360     9.4710    23.9890     2.1260   -24.2740 
  108.1250    61.8880     9.0240     8.2090     8.9140    23.8680     2.1240   -23.9170 
  108.2500    62.5520     8.9890     8.1020     8.4600    23.7340     2.1230   -23.3310 
  108.3750    64.8270     8.9490     8.0390     8.2330    23.5920     2.1270   -22.6350 
  108.5000    68.0650     8.9410     8.0280     8.0930    23.4750     2.1360   -21.8710 
  108.6250    68.6070     8.9850     8.0680     7.9450    23.3930     2.1460   -21.2310 
  108.7500    66.7110     9.0460     8.1360     7.7970    23.3520     2.1500   -20.6890 
  108.8750    64.9540     9.0740     8.2050     7.7620    23.3530     2.1460   -20.2830 
  109.0000    64.4730     9.0330     8.2460     7.8980    23.3980     2.1370   -19.9370 
  109.1250    65.3890     8.9010     8.2200     7.9730    23.4450     2.1270   -19.6720 
  109.2500    68.0660     8.7200     8.1160     7.8320    23.4630     2.1200   -19.4570 
  109.3750    72.5520     8.5440     7.9440     7.5190    23.4670     2.1180   -19.2620 
  109.5000    76.6870     8.4330     7.7500     7.2220    23.4700     2.1210   -19.0980 
  109.6250    77.4280     8.4500     7.6120     7.3610    23.4940     2.1260   -18.9250 
  109.7500    75.7320     8.5700     7.5840     7.7600    23.6040     2.1300   -18.7560 
  109.8750    73.1240     8.7390     7.6850     8.3270    23.8760     2.1320   -18.6570 
  110.0000    70.3580     8.8690     7.8790     8.6400    24.1940     2.1330   -18.6350 
  110.1250    70.4780     8.8280     8.0550     8.6180    24.4050     2.1340   -18.5910 
  110.2500    73.5040     8.5720     8.0870     8.8750    24.4630     2.1390   -18.4500 
  110.3750    77.1850     8.1110     7.9060     9.3390    24.5200     2.1480   -18.0620 
  110.5000    79.7840     7.5350     7.5320     8.9790    24.6640     2.1610   -17.3660 
  110.6250    81.5750     7.0110     7.0630     7.7180    24.8790     2.1750   -16.2930 
  110.7500    82.7040     6.6710     6.6340     6.6890    25.0350     2.1870   -15.0060 
  110.8750    82.4430     6.5610     6.3110     6.0100    25.1510     2.1990   -13.5930 
  111.0000    83.2630     6.6540     6.1180     5.9190    25.1840     2.2080   -12.1760 
  111.1250    86.5100     6.8730     6.0570     6.2810    25.0780     2.2180   -10.8060 
