~V
VERS. 2.00: Ver 2.00
~W
STRT.M 62.0000:
STOP.M 254.0000:
STEP.M 0.1250:
NULL. -999.2500:
UWI. F10030:
~C
DEPT.M :
DEN.GM/CC :
GR.API :
RML.OHMM :
RI. :
RXO.OHMM :
CALI.CM :
SP.MV :
~A
# ...
  185.7500     1.8890    31.4680     7.3540     6.6590     7.2130    28.3440   -11.6820 
  185.8750     1.9320    30.5330     7.4240     6.7860     7.2550    27.8090   -11.6210 
  186.0000     1.9710    30.5270     7.5300     6.9230     7.3160    27.6330   -11.5720 
  186.1250     1.9860    31.0380     7.5820     6.9910     7.3410    28.1760   -11.5170 
  186.2500     1.9810    32.2560     7.5760     6.9780     7.2840    29.0150   -11.4620 
  186.3750     1.9770    34.2200     7.5480     6.9140     7.3140    29.2020   -11.4170 
  186.5000     1.9960    36.5800     7.5130     6.8520     7.4250    28.1580   -11.3710 
  186.6250     2.0450    38.5200     7.4620     6.8520     7.7560    26.6060   -11.3270 
  186.7500     2.0960    40.6720     7.3930     6.9080     7.6930    25.7290   -11.2880 
  186.8750     2.1240    42.3820     7.3250     6.9800     7.4150    25.6370   -11.2500 
  187.0000     2.1230    42.2400     7.2840     7.0140     7.1390    25.8920   -11.2300 
  187.1250     2.1040    41.9810     7.3280     6.9590     7.1500    26.1860   -11.2530 
  187.2500     2.0820    42.6790     7.4370     6.8330     7.2290    26.6050   -11.2670 
  187.3750     2.0520    42.0460     7.5260     6.6800     7.2890    27.0780   -11.2900 
  187.5000     2.0110    39.1460     7.5440     6.5580     7.2650    27.4890   -11.3220 
  187.6250     1.9690    39.1510     7.5210     6.5280     7.0410    27.6350   -11.3650 
  187.7500     1.9490    43.4190     7.5010     6.5790     6.8720    27.4610   -11.4260 
  187.8750     1.9640    47.7050     7.4790     6.6700     6.8620    27.1340   -11.5100 
  188.0000     2.0040    48.8770     7.4450     6.7370     6.9290    26.9510   -11.5910 
  188.1250     2.0300    47.8730     7.4040     6.7190     7.0590    26.9760   -11.6530 
  188.2500     2.0120    49.1430     7.3790     6.6410     7.2410    27.1420   -11.7220 
  188.3750     1.9460    54.0530     7.4070     6.5710     7.3510    27.5880   -11.7900 
  188.5000     1.8600    60.3760     7.5150     6.5910     7.5020    28.2630   -11.8530 
  188.6250     1.8070    65.0230     7.7160     6.7750     7.4800    28.4470   -11.8970 
  188.7500     1.8110    68.2420     7.9610     7.0620     7.6900    27.7210   -11.9380 
  188.8750     1.8660    70.0570     8.1980     7.3590     8.1150    26.4450   -11.9800 
  189.0000     1.9430    72.5140     8.3800     7.5640     8.4240    25.3560   -12.0360 
  189.1250     2.0110    76.2870     8.4650     7.6020     8.5020    24.8340   -12.0860 
  189.2500     2.0680    78.9840     8.4750     7.5260     8.8490    24.5870   -12.1340 
  189.3750     2.1260    80.6690     8.4280     7.3990     9.4990    24.4520   -12.1760 
  189.5000     2.1970    82.7490     8.3410     7.2770     9.9880    24.3820   -12.2190 
  189.6250     2.2700    83.8810     8.2160     7.1890     9.9270    24.3610   -12.2950 
  189.7500     2.3270    83.6070     8.0660     7.1320     9.7580    24.3500   -12.3750 
  189.8750     2.3580    84.2480     7.9100     7.1060     9.4130    24.3350   -12.4590 
  190.0000     2.3660    85.6070     7.7810     7.1160     8.9630    24.3170   -12.5490 
  190.1250     2.3600    85.3480     7.7320     7.1790     8.5720    24.2920   -12.6630 
  190.2500     2.3510    84.8170     7.7920     7.2910     8.6650    24.2730   -12.8200 
  190.3750     2.3440    84.7910     7.9710     7.4480     9.3680    24.2780   -13.0050 
  190.5000     2.3440    84.3840     8.2480     7.6360    10.2970    24.3120   -13.1900 
  190.6250     2.3500    85.3310     8.5600     7.8300    10.6310    24.3470   -13.3540 
  190.7500     2.3600    88.2400     8.8180     8.0080    11.6520    24.3620   -13.5070 
  190.8750     2.3690    90.1440     8.9720     8.1630    12.9380    24.3580   -13.6690 
  191.0000     2.3710    89.0330     9.0130     8.3000    12.4040    24.3460   -13.8000 
  191.1250     2.3680    87.0960     8.9810     8.4330    11.4260    24.3360   -13.9050 
  191.2500     2.3630    84.1390     8.9630     8.5720    11.1730    24.3270   -13.9710 
  191.3750     2.3600    79.6120     9.0260     8.7240    12.0400    24.3180   -13.9910 
  191.5000     2.3580    75.3760     9.2280     8.9050    13.1420    24.3090   -14.0260 
  191.6250     2.3550    76.1810     9.6330     9.1690    13.2680    24.3050   -14.0300 
  191.7500     2.3530    79.9250    10.1760     9.5260    13.5910    24.3040   -14.0410 
  191.8750     2.3570    81.4120    10.7540     9.9530    14.3230    24.3010   -14.0290 
  192.0000     2.3670    78.7780    11.2360    10.3910    16.4170    24.2870   -14.0320 
  192.1250     2.3790    76.1460    11.5280    10.7610    19.3130    24.2600   -14.0170 
  192.2500     2.3820    75.2290    11.7350    11.0550    19.6220    24.2410   -14.0110 
  192.3750     2.3760    76.0800    11.9520    11.3230    16.3800    24.2470   -14.0180 
  192.5000     2.3680    78.1650    12.1530    11.6340    14.2830    24.2550   -14.0200 
  192.6250     2.3710    78.6460    12.2800    11.9990    14.7280    24.1950   -14.0580 
  192.7500     2.3880    76.8080    12.3990    12.2950    16.0330    24.0680   -14.1020 
  192.8750     2.4090    75.7740    12.5490    12.3570    16.7500    23.9610   -14.1690 
  193.0000     2.4200    78.3650    12.6270    12.0700    15.6070    23.9500   -14.2460 
  193.1250     2.4120    81.0110    12.5360    11.4500    13.2030    24.0020   -14.3550 
  193.2500     2.3950    81.3930    12.3590    10.7920    12.0000    24.0290   -14.4740 
  193.3750     2.3820    81.4260    12.2040    10.3410    11.6800    24.0120   -14.6030 
  193.5000     2.3820    81.5140    12.1720    10.2670    12.1660    23.9700   -14.7640 
  193.6250     2.3980    79.7840    12.3630    10.6760    14.4630    23.9280   -14.8960 
  193.7500     2.4150    76.2840    12.7730    11.3940    18.3980    23.9050   -15.0330 
  193.8750     2.4190    74.2760    13.3520    12.2430    20.3400    23.9220   -15.1340 
  194.0000     2.4030    75.0770    13.9710    13.0510    16.9550    23.9830   -15.2280 
  194.1250     2.3640    75.9350    14.4850    13.7140    16.1650    24.0580   -15.3060 
  194.2500     2.3180    74.1610    14.9800    14.3090    17.6330    24.1160   -15.3750 
  194.3750     2.2750    71.1860    15.6910    14.9800    19.6140    24.1470   -15.4390 
  194.5000     2.2460    68.9840    16.7340    15.8890    21.5440    24.1540   -15.4540 
  194.6250     2.2480    67.6340    18.0340    17.2130    23.9650    24.1380   -15.5120 
  194.7500     2.2870    65.9080    19.7800    18.8920    26.5000    24.0960   -15.5610 
  194.8750     2.3560    63.7020    22.2860    20.8070    29.5120    24.0260   -15.6330 
  195.0000     2.4320    61.5390    24.6600    22.7320    35.4320    23.9790   -15.6980 
  195.1250     2.4720    61.9740    26.1220    24.2350    39.0080    24.1130   -15.7900 
  195.2500     2.4560    65.2650    26.5970    25.0240    39.4090    24.5140   -15.8720 
  195.3750     2.3910    66.8390    26.3100    24.9890    35.2630    24.9470   -15.9550 
  195.5000     2.3060    63.4420    25.5260    24.2970    33.6060    24.9420   -16.0580 
  195.6250     2.2420    59.6970    24.7420    23.3720    32.6910    24.7000   -16.1440 
  195.7500     2.2120    60.3770    24.4350    22.7640    30.9680    24.4870   -16.2440 
  195.8750     2.2120    62.0770    24.8640    22.8200    29.5040    24.4240   -16.3540 
  196.0000     2.2290    60.8680    26.0990    23.7150    30.7600    24.4170   -16.4730 
  196.1250     2.2450    58.0360    28.0820    25.5460    36.7900    24.4220   -16.5850 
  196.2500     2.2530    57.8470    30.3190    27.8800    40.6530    24.4370   -16.7270 
  196.3750     2.2530    60.3710    32.3630    30.2670    42.1810    24.4530   -16.8730 
  196.5000     2.2460    62.7100    33.8150    32.2110    42.8650    24.4600   -17.0170 
  196.6250     2.2390    62.8280    34.3860    33.2300    44.4960    24.4530   -17.1420 
  196.7500     2.2320    62.4380    34.4130    33.5070    44.3100    24.4390   -17.2450 
  196.8750     2.2260    63.9040    34.2770    33.3720    42.6520    24.4250   -17.3400 
