~V
VERS. 2.00: Ver 2.00
~W
STRT.M 57.0000:
STOP.M 296.0000:
STEP.M 0.1250:
NULL. -999.2500:
UWI. F10043:
~C
DEPT.M :
GR.API :
RML.OHMM :
RI. :
RXO.OHMM :
CALI.CM :
DEN.GM/CC :
SP.MV :
~A
   57.0000    57.1840     0.1650     0.1640     3.5290    25.4930     2.4560    23.7790 
   57.1250    60.6180     0.3420     0.2640     4.5180    25.8230     2.5400    19.2400 
   57.2500    65.7340     0.7230     0.5350     6.2650    26.2740     2.5280    14.4900 
   57.3750    71.5550     1.4200     1.1060     7.5670    26.1560     2.4300     9.7630 
   57.5000    76.9620     2.4710     2.0590     8.6280    25.1430     2.2930     5.2060 
   57.6250    80.2950     3.4500     3.2330     8.6920    24.1660     2.1920     0.9690 
   57.7500    83.9610     3.8360     4.1890     7.9760    23.7720     2.1530    -2.8930 
   57.8750    89.8400     3.8290     4.8030     7.2280    23.6060     2.1640    -6.2650 
   58.0000    95.9500     3.8240     5.2180     7.1250    23.2930     2.1980    -9.0390 
   58.1250    98.5260     3.9860     5.5860     7.1660    22.7630     2.2280   -11.0140 
   58.2500    98.2010     4.2290     5.9180     7.1530    22.2870     2.2480   -12.3690 
   58.3750    97.6660     4.4580     6.1650     7.1730    22.0540     2.2600   -13.3670 
   58.5000    97.4610     4.6100     6.3010     7.2130    22.0350     2.2710   -14.1660 
   58.6250    94.5570     4.6650     6.3250     6.9010    22.1510     2.2860   -14.8740 
   58.7500    90.0040     4.6940     6.3090     6.8000    22.2940     2.3060   -15.5400 
   58.8750    90.0550     4.7600     6.3100     6.8780    22.4870     2.3230   -16.1860 
   59.0000    97.3110     4.8940     6.3600     6.8780    22.8310     2.3340   -16.8030 
   59.1250   103.8730     5.0970     6.4740     6.3900    23.2780     2.3300   -17.3800 
   59.2500   101.8410     5.3180     6.6260     6.5850    23.5500     2.3160   -17.9080 
   59.3750    95.9620     5.5130     6.7730     7.5530    23.6350     2.2940   -18.4040 
   59.5000    95.3320     5.6380     6.8550     8.1220    23.6890     2.2710   -18.8350 
   59.6250   101.6420     5.6270     6.7860     7.5640    23.8770     2.2550   -19.1740 
   59.7500   107.0450     5.4890     6.5590     6.6110    24.1980     2.2530   -19.4550 
   59.8750   106.9750     5.2670     6.2160     6.2990    24.4950     2.2670   -19.7170 
   60.0000   104.6790     5.0480     5.8800     6.2460    24.6610     2.2930   -19.9890 
   60.1250   106.0510     5.0000     5.7360     6.0680    24.7140     2.3210   -20.3340 
   60.2500   107.1470     5.2450     5.8390     6.0860    24.7050     2.3410   -20.7790 
   60.3750   101.6300     5.8410     6.1770     6.6200    24.5810     2.3520   -21.3070 
   60.5000    90.1160     6.7300     6.6990     8.0810    24.3010     2.3550   -21.9360 
   60.6250    80.5980     7.7240     7.3370     9.1110    23.9340     2.3480   -22.6520 
   60.7500    76.1170     8.4180     7.9540     9.7360    23.6550     2.3300   -23.3760 
   60.8750    75.3570     8.5530     8.4290     9.7150    23.5500     2.3020   -23.9910 
   61.0000    76.8880     8.3190     8.6670     9.1300    23.5270     2.2640   -24.4380 
   61.1250    78.8130     8.0350     8.6050     8.5200    23.3990     2.2250   -24.6400 
   61.2500    80.7320     7.7210     8.3290     8.0340    23.0800     2.1960   -24.6250 
   61.3750    85.2310     7.2870     7.8800     7.5150    22.8060     2.1870   -24.4030 
   61.5000    92.3900     6.7690     7.2970     7.1140    22.6890     2.1990   -24.0420 
   61.6250   100.7500     6.2810     6.6730     6.7670    22.8410     2.2310   -23.5870 
   61.7500   108.6310     5.8990     6.1530     6.5470    23.2210     2.2680   -23.1350 
   61.8750   112.9800     5.6990     5.8220     6.3070    23.7070     2.2990   -22.7840 
   62.0000   111.3930     5.7390     5.6990     6.1100    24.1530     2.3190   -22.6130 
   62.1250   104.8790     6.0870     5.8110     6.1060    24.3230     2.3240   -22.6840 
   62.2500    96.9630     6.6650     6.1330     6.6400    24.1600     2.3190   -22.9430 
   62.3750    88.6240     7.3690     6.6460     8.0830    23.8350     2.3030   -23.3630 
   62.5000    80.6230     8.0270     7.2520     9.1210    23.6180     2.2800   -23.8650 
   62.6250    74.1280     8.4030     7.7340     9.2360    23.5930     2.2530   -24.3900 
   62.7500    70.0440     8.4600     7.9720     8.8340    23.5810     2.2300   -24.8870 
   62.8750    69.1460     8.2830     7.9860     8.4960    23.4980     2.2150   -25.3300 
   63.0000    71.1960     8.0340     7.8870     8.2870    23.2410     2.2070   -25.6840 
   63.1250    71.9840     7.8820     7.7910     8.1730    23.0110     2.2020   -25.9150 
   63.2500    70.5800     7.8670     7.7350     8.2010    22.8540     2.2000   -26.0380 
   63.3750    69.3860     7.9430     7.7130     8.3070    22.7800     2.2010   -26.0630 
   63.5000    69.0930     8.0250     7.7150     8.4430    22.8180     2.2060   -26.0130 
   63.6250    68.4790     8.0000     7.6930     8.5280    22.9930     2.2130   -25.9170 
   63.7500    67.5010     7.8220     7.5590     8.6460    23.3010     2.2180   -25.7900 
   63.8750    70.4860     7.4930     7.2540     8.5210    23.6290     2.2200   -25.6220 
   64.0000    79.2790     7.0720     6.8220     7.8470    23.9340     2.2200   -25.4270 
   64.1250    88.4310     6.6740     6.4240     7.6290    24.1830     2.2250   -25.2010 
   64.2500    93.6790     6.4120     6.1880     7.1260    24.3750     2.2360   -24.9970 
   64.3750    95.5310     6.3690     6.1440     6.7950    24.4960     2.2510   -24.8570 
   64.5000    95.6300     6.5880     6.2750     6.9120    24.5370     2.2640   -24.8350 
   64.6250    92.1960     7.0670     6.5800     7.5750    24.4960     2.2750   -24.9540 
   64.7500    85.6490     7.6520     6.9990     8.8230    24.4110     2.2900   -25.1890 
   64.8750    78.4530     8.2090     7.4720    10.9910    24.3230     2.3170   -25.5250 
   65.0000    73.2680     8.6210     7.9100    14.8250    24.2000     2.3530   -25.9400 
   65.1250    72.1580     8.7900     8.1880    13.5750    24.0030     2.3840   -26.4360 
   65.2500    72.0380     8.8010     8.2880    10.7600    23.8150     2.3910   -26.9590 
   65.3750    70.9460     8.7630     8.2560     9.2740    23.6810     2.3690   -27.4780 
   65.5000    68.0690     8.7710     8.1840     8.9050    23.5380     2.3230   -27.9420 
   65.6250    65.5550     8.8540     8.1470     8.8510    23.3520     2.2690   -28.3320 
   65.7500    65.1550     8.9440     8.1460     9.0170    23.2930     2.2260   -28.6900 
   65.8750    67.5690     8.9640     8.1330     9.7110    23.4800     2.2040   -29.0370 
   66.0000    71.2780     8.8630     8.0540    10.4870    23.7380     2.2070   -29.3880 
   66.1250    72.3820     8.6630     7.9040    10.1690    23.8290     2.2280   -29.7470 
   66.2500    71.6840     8.4860     7.7710     9.1690    23.7160     2.2460   -30.1120 
   66.3750    69.2270     8.4110     7.7180     9.2300    23.5950     2.2500   -30.4440 
   66.5000    65.8080     8.4520     7.7490     9.7330    23.5410     2.2360   -30.7370 
   66.6250    62.4580     8.5720     7.8250     9.9880    23.5600     2.2160   -30.9690 
   66.7500    60.2350     8.6840     7.8970    10.1530    23.5880     2.2030   -31.1340 
   66.8750    59.3490     8.7280     7.9390    10.3270    23.5930     2.2010   -31.2210 
   67.0000    58.9560     8.6800     7.9200    10.4040    23.5650     2.2050   -31.2320 
   67.1250    59.3780     8.5600     7.8220    10.3240    23.4890     2.2090   -31.1510 
   67.2500    62.0630     8.4400     7.6990    10.2030    23.3840     2.2080   -30.9910 
   67.3750    66.6440     8.3620     7.6040    10.0730    23.2440     2.2020   -30.7800 
   67.5000    69.7260     8.3450     7.5560     9.9810    23.0980     2.1940   -30.5540 
   67.6250    68.6900     8.3870     7.5380    10.1760    22.9920     2.1870   -30.3600 
   67.7500    67.8280     8.4440     7.5280    10.5130    22.9310     2.1840   -30.1910 
   67.8750    69.3160     8.4880     7.5340    10.7000    22.8810     2.1850   -30.0580 
   68.0000    70.3820     8.5120     7.5620    10.5260    22.8030     2.1870   -29.9620 
   68.1250    68.4220     8.5250     7.5910    10.0950    22.6650     2.1890   -29.9150 
