~V
VERS. 2.00: Ver 2.00
~W
STRT.M 50.0000:
STOP.M 307.0000:
STEP.M 0.1250:
NULL. -999.2500:
UWI. F10044:
~C
DEPT.M :
GR.API :
RML.OHMM :
RI. :
RXO.OHMM :
CALI.CM :
DEN.GM/CC :
SP.MV :
~A
# ...
  128.7500    76.1060     5.7650     5.4840     6.6090    23.9080     2.2470    -5.8990 
  128.8750    79.1350     5.7490     5.4930     6.8610    23.9650     2.2640    -5.9720 
  129.0000    82.2480     5.6070     5.3760     6.7670    24.0390     2.2950    -6.0300 
  129.1250    85.2400     5.4120     5.1820     6.3330    24.1190     2.3300    -5.9780 
  129.2500    88.1750     5.2620     5.0030     5.8520    24.1730     2.3540    -5.8810 
  129.3750    90.2850     5.1960     4.8850     5.5860    24.1710     2.3620    -5.8110 
  129.5000    89.1980     5.2050     4.8360     5.6830    24.1150     2.3540    -5.7310 
  129.6250    85.0630     5.2380     4.8340     5.8790    24.0450     2.3380    -5.6170 
  129.7500    81.2050     5.2390     4.8330     5.9260    24.0130     2.3240    -5.5720 
  129.8750    80.1300     5.1980     4.8170     5.6900    24.0250     2.3150    -5.6380 
  130.0000    81.1760     5.1490     4.7900     5.4010    24.0350     2.3090    -5.7800 
  130.1250    80.9060     5.1690     4.7860     5.4170    23.9710     2.3020    -6.0200 
  130.2500    79.0340     5.2960     4.8330     5.6430    23.8660     2.2910    -6.3420 
  130.3750    79.0400     5.5160     4.9410     5.9750    23.7580     2.2770    -6.6590 
  130.5000    80.7350     5.7700     5.0940     6.3190    23.6700     2.2620    -6.9270 
  130.6250    80.7100     5.9640     5.2470     6.6210    23.6290     2.2490    -7.1620 
  130.7500    78.6830     6.0600     5.3540     6.8640    23.6250     2.2410    -7.3790 
  130.8750    75.7680     6.0690     5.3950     7.0660    23.6390     2.2370    -7.5320 
  131.0000    74.5800     6.0330     5.3800     7.0160    23.6520     2.2370    -7.5620 
  131.1250    76.6700     6.0000     5.3360     6.7590    23.6420     2.2380    -7.4660 
  131.2500    78.9120     5.9860     5.2950     6.5280    23.6140     2.2380    -7.3030 
  131.3750    79.5760     5.9730     5.2620     6.5160    23.5730     2.2370    -7.0570 
  131.5000    79.6000     5.9300     5.2230     6.7510    23.5350     2.2390    -6.7080 
  131.6250    79.7200     5.8260     5.1550     6.6710    23.5360     2.2490    -6.3170 
  131.7500    79.5750     5.6770     5.0530     6.2630    23.5780     2.2640    -5.9080 
  131.8750    81.2030     5.5080     4.9280     5.7800    23.6490     2.2830    -5.4670 
  132.0000    84.8360     5.3470     4.8040     5.5340    23.7200     2.3010    -5.0720 
  132.1250    85.3160     5.2250     4.7160     5.4570    23.7480     2.3160    -4.8320 
  132.2500    82.8530     5.1540     4.6780     5.4820    23.7070     2.3290    -4.6300 
  132.3750    83.2370     5.1390     4.6870     5.5410    23.6190     2.3410    -4.4360 
  132.5000    85.5620     5.1720     4.7230     5.5710    23.5280     2.3510    -4.3700 
  132.6250    83.3530     5.2300     4.7560     5.4710    23.4620     2.3570    -4.4220 
  132.7500    78.8940     5.2700     4.7610     5.4970    23.4170     2.3580    -4.4650 
  132.8750    76.7120     5.2570     4.7270     5.5970    23.3820     2.3550    -4.5390 
  133.0000    77.3190     5.1790     4.6560     5.5840    23.3330     2.3480    -4.6630 
  133.1250    77.5420     5.0620     4.5680     5.5810    23.2490     2.3390    -4.7090 
  133.2500    76.4260     4.9890     4.5160     5.6530    23.1490     2.3300    -4.7000 
  133.3750    74.8640     5.0520     4.5580     5.8530    23.0830     2.3240    -4.7230 
  133.5000    73.5980     5.3310     4.7540     6.3260    23.1270     2.3260    -4.7420 
  133.6250    73.6480     5.8920     5.1690     7.2950    23.3110     2.3430    -4.6870 
  133.7500    74.5660     6.6000     5.7260     8.7110    23.5450     2.3730    -4.6420 
  133.8750    73.3350     7.2660     6.3010    10.3940    23.7360     2.4100    -4.6230 
  134.0000    68.5270     7.6750     6.7230    11.5150    23.8360     2.4410    -4.5840 
  134.1250    62.6630     7.6030     6.7860    11.8820    23.8650     2.4480    -4.5230 
  134.2500    60.4910     7.1440     6.5190    11.7300    23.8760     2.4290    -4.5170 
  134.3750    60.8680     6.4780     6.0400     9.8730    23.8750     2.3940    -4.5700 
  134.5000    62.3860     5.8340     5.5270     7.2930    23.8500     2.3560    -4.6390 
  134.6250    65.7180     5.4220     5.1560     6.2020    23.7730     2.3280    -4.7500 
  134.7500    69.1950     5.2450     4.9570     6.0280    23.6690     2.3120    -4.9160 
  134.8750    70.9830     5.2430     4.9000     6.0290    23.5780     2.3050    -5.0600 
  135.0000    71.6860     5.3150     4.9150     5.8760    23.5430     2.3020    -5.1510 
  135.1250    73.0600     5.3410     4.9100     5.5830    23.5790     2.3010    -5.2730 
  135.2500    73.1590     5.2570     4.8240     5.4240    23.6600     2.3050    -5.4290 
  135.3750    72.2030     5.0510     4.6450     5.2510    23.7500     2.3140    -5.5660 
  135.5000    72.7710     4.7530     4.3930     4.9160    23.8030     2.3300    -5.7070 
  135.6250    74.1820     4.4230     4.1100     4.5270    23.8170     2.3490    -5.9910 
  135.7500    75.8670     4.1460     3.8570     4.2730    23.8170     2.3620    -6.3660 
  135.8750    78.6570     3.9900     3.6890     4.2330    23.8200     2.3630    -6.8690 
  136.0000    81.7660     4.0070     3.6620     4.3540    23.8130     2.3480    -7.6050 
  136.1250    81.9890     4.2710     3.8480     4.6290    23.7490     2.3190    -8.5650 
  136.2500    78.5430     4.7470     4.2270     5.1470    23.6150     2.2830    -9.6010 
  136.3750    75.0270     5.3820     4.7620     6.0000    23.4120     2.2490   -10.7330 
  136.5000    72.7430     6.0740     5.3800     7.1680    23.1950     2.2230   -11.9510 
  136.6250    70.1310     6.6600     5.9590     8.3300    23.0770     2.2070   -13.0600 
  136.7500    66.8830     7.0450     6.4050     9.0830    23.0240     2.1990   -14.0260 
  136.8750    64.0230     7.2220     6.6850     9.3960    23.0000     2.1940   -14.8730 
  137.0000    62.1960     7.2570     6.8250     9.5280    22.9890     2.1920   -15.5090 
  137.1250    58.8790     7.2480     6.8750     9.5840    22.9870     2.1940   -15.8450 
  137.2500    57.2930     7.2530     6.8960     9.6970    22.9870     2.1990   -16.0160 
  137.3750    59.4420     7.2630     6.8980     9.8830    22.9870     2.2070   -16.0490 
  137.5000    62.2530     7.2580     6.8730    10.0780    22.9870     2.2160   -15.9360 
  137.6250    61.7300     7.2520     6.8300    10.1140    22.9860     2.2250   -15.7360 
  137.7500    60.5950     7.3010     6.8090     9.9830    22.9860     2.2330   -15.5790 
  137.8750    62.4700     7.4510     6.8510     9.8110    22.9830     2.2390   -15.4490 
  138.0000    65.8620     7.6990     6.9780     9.7390    22.9760     2.2410   -15.3140 
  138.1250    65.4850     7.9750     7.1790     9.8340    22.9600     2.2400   -15.2370 
  138.2500    62.8260     8.1700     7.3810     9.9770    22.9330     2.2350   -15.2280 
  138.3750    61.1820     8.2220     7.5190    10.0230    22.8970     2.2290   -15.1960 
  138.5000    60.7480     8.1180     7.5430     9.9120    22.8600     2.2230   -15.1550 
  138.6250    58.9910     7.8830     7.4190     9.6540    22.8280     2.2210   -15.1820 
  138.7500    57.6730     7.5980     7.2020     9.3990    22.8120     2.2220   -15.1610 
  138.8750    57.9190     7.3110     6.9400     9.2040    22.8130     2.2250   -15.0440 
  139.0000    57.8770     7.0510     6.6770     8.9770    22.8140     2.2260   -14.9410 
  139.1250    57.5710     6.8390     6.4500     8.5180    22.7950     2.2250   -14.8800 
  139.2500    59.6780     6.6660     6.2670     8.0530    22.7630     2.2210   -14.7370 
  139.3750    60.8970     6.5190     6.1260     7.7180    22.7300     2.2170   -14.5930 
  139.5000    59.5530     6.3900     6.0200     7.4520    22.7120     2.2130   -14.4840 
  139.6250    58.7100     6.2880     5.9430     7.2990    22.7080     2.2120   -14.2960 
  139.7500    58.8360     6.2160     5.8820     7.1960    22.7080     2.2120   -14.0590 
  139.8750    58.6100     6.1720     5.8320     7.1350    22.7090     2.2130   -13.8460 
