~V
VERS. 2.00: Ver 2.00
~W
STRT.M 50.0000:
STOP.M 278.0000:
STEP.M 0.1250:
NULL. -999.2500:
UWI. F10031:
~C
DEPT.M :
GR.API :
RML.OHMM :
RI. :
RXO.OHMM :
CALI.CM :
DEN.GM/CC :
SP.MV :
~A
# ...
   61.2500    54.5800     1.5940     0.6970     4.4500    22.9520     2.5060    31.0180 
   61.3750    57.5650     2.7780     1.3120     6.4310    22.8940     2.4070    22.4120 
   61.5000    60.0060     4.0630     2.2290     7.7010    22.8660     2.3180    13.7310 
   61.6250    62.7320     5.0480     3.3620     7.8250    22.8400     2.2650     5.5000 
   61.7500    66.2480     5.5420     4.4630     7.5980    22.8110     2.2430    -1.8210 
   61.8750    69.2140     5.6680     5.3730     7.5350    22.8110     2.2400    -7.8120 
   62.0000    70.4210     5.7200     6.0610     7.6800    22.8460     2.2420   -12.1660 
   62.1250    69.6530     5.9230     6.5740     8.0090    22.8820     2.2390   -14.9150 
   62.2500    67.7300     6.2480     6.9900     8.1330    22.9020     2.2330   -16.8760 
   62.3750    64.8850     6.6090     7.3130     8.1860    22.9190     2.2250   -18.3670 
   62.5000    62.3130     6.9220     7.5250     8.3190    22.9440     2.2170   -19.5140 
   62.6250    61.1160     7.1160     7.5980     8.4350    22.9540     2.2120   -20.3530 
   62.7500    60.8800     7.1980     7.5600     8.5180    22.9470     2.2100   -20.9820 
   62.8750    61.4460     7.1980     7.4410     8.4620    22.9180     2.2100   -21.3930 
   63.0000    63.1950     7.1710     7.2790     8.3630    22.8520     2.2130   -21.6630 
   63.1250    64.4190     7.2040     7.1200     8.2800    22.7070     2.2140   -21.8590 
   63.2500    64.5320     7.3460     6.9970     8.3710    22.4950     2.2150   -22.0450 
   63.3750    64.4170     7.6240     6.9410     8.5900    22.3140     2.2140   -22.2160 
   63.5000    64.6730     8.0570     6.9970     8.7200    22.2590     2.2150   -22.3820 
   63.6250    63.7180     8.7150     7.2570     8.7900    22.3340     2.2200   -22.5470 
   63.7500    61.9800     9.5840     7.7320     9.0400    22.4830     2.2250   -22.7730 
   63.8750    61.4980    10.6070     8.3760     9.6180    22.6530     2.2270   -23.0660 
   64.0000    62.1680    11.6140     9.0620    10.2860    22.7860     2.2250   -23.3730 
   64.1250    62.0340    12.2540     9.5450    11.2310    22.8420     2.2160   -23.6630 
   64.2500    61.0220    12.3270     9.6720    11.8140    22.8560     2.2040   -23.9340 
   64.3750    59.9480    11.8240     9.4100    11.1880    22.8330     2.1920   -24.2040 
   64.5000    60.1860    10.9760     8.8720    10.1420    22.7840     2.1820   -24.4670 
   64.6250    61.5960    10.1510     8.2690     9.4790    22.7390     2.1770   -24.7040 
   64.7500    62.4430     9.5750     7.7850     9.0750    22.7220     2.1770   -24.8810 
   64.8750    62.0030     9.2740     7.4780     8.7430    22.7220     2.1800   -25.0030 
   65.0000    61.5030     9.1660     7.3270     8.5230    22.7240     2.1860   -25.0980 
   65.1250    62.3470     9.1290     7.2770     8.3980    22.7320     2.1920   -25.1330 
   65.2500    63.5640     9.0600     7.2480     8.1900    22.7160     2.1980   -25.0750 
   65.3750    65.4920     8.9420     7.2160     7.9240    22.6740     2.2040   -24.9020 
   65.5000    68.4330     8.8010     7.1820     7.7950    22.6200     2.2110   -24.6580 
   65.6250    70.8540     8.6800     7.1620     7.7960    22.5800     2.2190   -24.3470 
   65.7500    71.6590     8.6000     7.1660     7.7850    22.5520     2.2260   -23.9460 
   65.8750    70.8830     8.5480     7.1830     7.6700    22.5510     2.2290   -23.4420 
   66.0000    69.9730     8.4890     7.1900     7.3990    22.5770     2.2280   -22.8450 
   66.1250    71.0710     8.3560     7.1390     7.2630    22.6380     2.2270   -22.1160 
   66.2500    74.7670     8.1220     7.0080     7.3690    22.7370     2.2300   -21.3020 
   66.3750    79.2720     7.7870     6.7950     7.5370    22.8550     2.2370   -20.4490 
   66.5000    82.7010     7.3920     6.5270     7.3940    22.9610     2.2480   -19.5810 
   66.6250    84.2790     7.0130     6.2570     6.9460    23.0370     2.2580   -18.7690 
   66.7500    84.5380     6.7130     6.0380     6.4710    23.1090     2.2650   -18.0440 
   66.8750    85.4310     6.5160     5.8960     6.1590    23.1690     2.2700   -17.4130 
   67.0000    88.3130     6.4040     5.8280     6.0320    23.1940     2.2760   -16.8890 
   67.1250    92.5230     6.3320     5.8090     5.9760    23.1780     2.2830   -16.5030 
   67.2500    96.0780     6.2430     5.7870     5.8740    23.1470     2.2910   -16.2120 
   67.3750    96.9690     6.1130     5.7310     5.8180    23.1360     2.3000   -15.9920 
   67.5000    95.5750     5.9440     5.6280     5.6060    23.1660     2.3130   -15.8220 
   67.6250    94.7300     5.7570     5.4860     5.3170    23.2610     2.3290   -15.6740 
   67.7500    95.3660     5.5840     5.3360     5.1550    23.4360     2.3450   -15.5360 
   67.8750    97.2310     5.4470     5.1960     5.1120    23.6770     2.3560   -15.4310 
   68.0000    99.4770     5.3520     5.0650     5.1300    23.8850     2.3610   -15.3620 
   68.1250   100.0210     5.2740     4.9220     5.1950    23.9920     2.3620   -15.3400 
   68.2500    98.0590     5.1560     4.7420     5.2330    24.0220     2.3620   -15.3610 
   68.3750    95.9370     4.9680     4.5220     5.2200    24.0270     2.3650   -15.4510 
   68.5000    96.2500     4.7510     4.2980     5.1920    24.0270     2.3690   -15.5990 
   68.6250    97.0390     4.7130     4.1990     5.2820    24.0270     2.3740   -15.7960 
   68.7500    97.3590     5.1430     4.3980     5.9040    24.0270     2.3810   -16.0680 
   68.8750    97.2730     6.3590     5.1250     7.6590    24.0260     2.3960   -16.4000 
   69.0000    94.3810     8.5690     6.5950    11.2860    24.0260     2.4250   -16.7620 
   69.1250    86.2810    11.7750     8.9860    17.5830    24.0240     2.4750   -17.1820 
   69.2500    77.7670    15.1810    11.8160    25.3790    24.0180     2.5360   -17.6860 
   69.3750    72.8850    17.8700    14.4050    32.4350    24.0020     2.5950   -18.2830 
   69.5000    70.7560    18.9600    15.9230    36.6910    23.9660     2.6330   -18.9800 
   69.6250    68.4930    17.8080    15.5470    35.0830    23.8870     2.6290   -19.7610 
   69.7500    65.6850    15.4050    13.8800    28.7140    23.7590     2.5870   -20.5750 
   69.8750    63.6220    12.7860    11.7630    20.0920    23.5520     2.5190   -21.4070 
   70.0000    63.7830    10.7170     9.8870    13.4620    23.2700     2.4430   -22.2290 
   70.1250    66.1170     9.5780     8.6450    10.7180    23.0440     2.3770   -22.9920 
   70.2500    68.0500     9.0890     7.9290     9.7340    22.9660     2.3260   -23.6620 
   70.3750    67.1500     9.0100     7.6160     9.4910    22.9700     2.2870   -24.2240 
   70.5000    64.4680     9.1150     7.5580     9.5020    22.9970     2.2580   -24.6910 
   70.6250    63.9090     9.2300     7.6200     9.5830    23.0520     2.2360   -25.0470 
   70.7500    65.2980     9.2720     7.6830     9.5660    23.0860     2.2230   -25.3060 
   70.8750    67.2640     9.2320     7.7070     9.4250    23.0890     2.2190   -25.4820 
   71.0000    69.3100     9.1310     7.6860     9.2560    23.0670     2.2210   -25.6160 
   71.1250    70.8860     9.0050     7.6340     9.1820    23.0170     2.2260   -25.7670 
   71.2500    71.1690     8.8960     7.5760     9.1860    22.9540     2.2300   -25.9600 
   71.3750    69.5320     8.8300     7.5290     9.2050    22.9250     2.2340   -26.1820 
   71.5000    66.7710     8.8180     7.5060     9.1750    22.9760     2.2380   -26.4050 
   71.6250    64.4240     8.8640     7.5200     9.0290    23.1020     2.2430   -26.6340 
   71.7500    63.6850     8.9500     7.5700     9.0040    23.2090     2.2450   -26.8550 
   71.8750    62.5790     9.0650     7.6510     9.0780    23.2570     2.2420   -27.0730 
   72.0000    59.2300     9.1900     7.7520     9.1660    23.2860     2.2330   -27.2940 
   72.1250    56.2450     9.2920     7.8520     9.2310    23.3500     2.2200   -27.4940 
   72.2500    56.4550     9.3440     7.9280     9.3230    23.4680     2.2080   -27.6440 
   72.3750    58.6160     9.3290     7.9670     9.4600    23.5860     2.1970   -27.7280 
