~V
VERS. 2.00: Ver 2.00
~W
STRT.M 50.0000:
STOP.M 250.0000:
STEP.M 0.1250:
NULL. -999.2500:
UWI. F10033:
~C
DEPT.M :
SP.MV :
GR.API :
RML.OHMM :
RI. :
RXO.OHMM :
CALI.CM :
DEN.GM/CC :
~A
# ...
   61.2500   -16.3610    74.1630     6.9540     6.2090     6.9210    24.7270     2.1440 
   61.3750   -16.6350    72.5310     7.1580     6.3260     7.0160    24.9750     2.1310 
   61.5000   -17.0360    70.2050     7.3490     6.4490     7.1090    25.0590     2.1200 
   61.6250   -17.5890    65.3550     7.5070     6.5550     7.3800    25.1220     2.1140 
   61.7500   -18.2410    60.7130     7.6340     6.6360     7.8930    25.2600     2.1120 
   61.8750   -18.9440    59.1580     7.7310     6.6880     8.1980    25.4080     2.1120 
   62.0000   -19.6190    60.4660     7.7990     6.7160     8.2200    25.5130     2.1130 
   62.1250   -20.2350    61.2700     7.8380     6.7270     8.1680    25.5520     2.1140 
   62.2500   -20.7990    60.0340     7.8500     6.7260     8.2020    25.5450     2.1170 
   62.3750   -21.3050    58.7110     7.8290     6.7140     8.2420    25.5300     2.1200 
   62.5000   -21.7350    57.7370     7.7750     6.6880     8.1090    25.5000     2.1210 
   62.6250   -22.0360    57.5450     7.7210     6.6710     7.9580    25.4990     2.1170 
   62.7500   -22.1680    59.1510     7.7260     6.6990     8.0320    25.5070     2.1100 
   62.8750   -22.1130    61.7090     7.8350     6.8040     8.0170    25.4500     2.1080 
   63.0000   -21.9410    63.6360     8.0560     6.9960     7.9790    25.2740     2.1160 
   63.1250   -21.6910    63.7070     8.3390     7.2450     8.1830    24.9170     2.1370 
   63.2500   -21.3990    62.7790     8.5560     7.4630     8.5440    24.6630     2.1600 
   63.3750   -21.0530    61.4410     8.6000     7.5580     8.5890    24.5530     2.1720 
   63.5000   -20.6350    61.7900     8.4200     7.4700     8.1010    24.5190     2.1700 
   63.6250   -20.1380    65.4500     8.0320     7.1790     7.5280    24.4460     2.1610 
   63.7500   -19.5740    67.9840     7.5730     6.7870     7.1360    24.3520     2.1580 
   63.8750   -18.9270    69.5310     7.1330     6.3730     6.7790    24.2800     2.1670 
   64.0000   -18.1800    72.7500     6.7720     6.0010     6.3110    24.2610     2.1840 
   64.1250   -17.3670    74.9330     6.5300     5.7250     5.9970    24.2820     2.2020 
   64.2500   -16.5560    72.1730     6.3950     5.5510     5.8620    24.3160     2.2170 
   64.3750   -15.7860    68.5610     6.3870     5.4920     5.7920    24.3150     2.2290 
   64.5000   -15.1090    70.7840     6.5280     5.5620     5.7860    24.2530     2.2390 
   64.6250   -14.6030    77.0210     6.8270     5.7730     6.1620    24.1800     2.2460 
   64.7500   -14.2760    78.6260     7.1780     6.0500     6.5930    24.1870     2.2490 
   64.8750   -14.1230    75.6540     7.4670     6.3090     6.9190    24.2780     2.2510 
   65.0000   -14.0810    73.9190     7.5770     6.4550     7.6040    24.4170     2.2520 
   65.1250   -14.0630    76.8740     7.4240     6.3920     7.7310    24.5820     2.2510 
   65.2500   -14.0200    79.9050     7.1320     6.1880     6.6050    24.6810     2.2440 
   65.3750   -13.9650    81.3130     6.8480     5.9370     5.9770    24.6860     2.2330 
   65.5000   -13.9150    83.1670     6.6790     5.7290     5.7970    24.6430     2.2230 
   65.6250   -13.8520    84.3970     6.6660     5.6160     5.9540    24.5990     2.2260 
   65.7500   -13.7980    82.6580     6.6980     5.5560     6.4760    24.5090     2.2400 
   65.8750   -13.7810    80.7360     6.6550     5.4850     6.8030    24.3060     2.2570 
   66.0000   -13.8480    81.4920     6.4950     5.3720     6.3210    24.0950     2.2670 
   66.1250   -14.0290    82.2340     6.3720     5.3020     5.9580    24.0800     2.2650 
   66.2500   -14.2870    81.2540     6.5620     5.4260     6.0160    24.2800     2.2650 
   66.3750   -14.6080    79.5010     7.2940     5.8850     6.5730    24.5500     2.2790 
   66.5000   -14.9810    77.6120     8.6770     6.7760     8.3760    24.8050     2.3080 
   66.6250   -15.4200    74.4730    10.6220     8.1330    12.3010    24.9120     2.3330 
   66.7500   -15.9140    70.5220    12.5010     9.5850    16.0470    24.8650     2.3330 
   66.8750   -16.4750    66.9380    13.6580    10.6410    14.4290    24.7410     2.2990 
   67.0000   -17.0750    63.8860    13.7090    10.9240    11.0310    24.6800     2.2440 
   67.1250   -17.6600    62.3550    12.7820    10.4370     9.6280    24.7040     2.1940 
   67.2500   -18.2110    62.0860    11.6810     9.7330     9.6590    24.7190     2.1640 
   67.3750   -18.7200    62.1720    10.8400     9.1240    10.0140    24.6610     2.1540 
   67.5000   -19.1750    63.1920    10.3900     8.7280     9.9040    24.5400     2.1560 
   67.6250   -19.5440    64.4680    10.2670     8.5430     9.4700    24.4230     2.1590 
   67.7500   -19.8410    63.9650    10.2540     8.4530     9.1350    24.3870     2.1550 
   67.8750   -20.0720    61.5390    10.2380     8.3970     9.0380    24.4280     2.1440 
   68.0000   -20.2460    60.8550    10.1670     8.3430     8.9680    24.5400     2.1300 
   68.1250   -20.3900    64.8040    10.0270     8.2810     8.7720    24.6490     2.1210 
   68.2500   -20.5210    68.9350     9.8700     8.2230     8.7330    24.7630     2.1200 
   68.3750   -20.6530    69.8240     9.7530     8.1950     9.0200    24.9070     2.1280 
   68.5000   -20.7690    68.1170     9.7330     8.2280     9.3530    25.0750     2.1370 
   68.6250   -20.8480    66.4310     9.8330     8.3360     9.1750    25.2260     2.1410 
   68.7500   -20.8320    65.1580     9.9540     8.4510     8.7000    25.2930     2.1380 
   68.8750   -20.6550    64.0510     9.9650     8.4770     8.3380    25.2860     2.1310 
   69.0000   -20.3020    64.9470     9.7470     8.3150     8.0240    25.3490     2.1290 
   69.1250   -19.7540    69.8240     9.1960     7.8730     7.5050    25.2730     2.1400 
   69.2500   -19.0360    77.3640     8.4290     7.2380     6.7460    25.2990     2.1630 
   69.3750   -18.1680    85.2280     7.5850     6.5220     6.0950    25.4280     2.1930 
   69.5000   -17.2030    90.7170     6.8050     5.8430     5.7300    25.5400     2.2230 
   69.6250   -16.1500    93.8170     6.2200     5.3150     5.1130    25.5220     2.2490 
   69.7500   -15.1170    98.1680     5.8470     4.9640     4.9210    25.4290     2.2690 
   69.8750   -14.2510   103.7270     5.6930     4.8020     4.9010    25.3610     2.2810 
   70.0000   -13.6370   108.0150     5.7510     4.8320     5.0660    25.3380     2.2830 
   70.1250   -13.3630   107.4890     6.0470     5.0880     5.3690    25.3180     2.2740 
   70.2500   -13.3980   102.2920     6.5380     5.5480     5.9100    25.2480     2.2570 
   70.3750   -13.6910    93.5580     7.1910     6.2000     6.6780    25.1020     2.2340 
   70.5000   -14.1650    84.8690     7.9350     6.9960     7.3830    24.9550     2.2070 
   70.6250   -14.7810    78.9190     8.6500     7.8280     7.5580    24.8740     2.1710 
   70.7500   -15.4390    73.9880     9.2100     8.5290     7.5360    24.9210     2.1270 
   70.8750   -16.0180    69.4960     9.4940     8.9380     7.5530    25.0540     2.0810 
   71.0000   -16.4250    67.6720     9.4110     8.9370     7.7090    25.2960     2.0490 
   71.1250   -16.5490    68.4020     8.9070     8.4580     7.8060    25.5250     2.0550 
   71.2500   -16.3670    72.0060     8.1670     7.7090     7.5860    25.5570     2.0970 
   71.3750   -15.8730    80.2440     7.3520     6.8600     6.9850    25.4430     2.1630 
   71.5000   -15.1140    92.3310     6.6020     6.0560     5.9290    25.3290     2.2300 
   71.6250   -14.2370   101.3680     5.9990     5.3930     5.3180    25.3010     2.2730 
   71.7500   -13.4040   104.6460     5.5160     4.8710     5.2850    25.3030     2.2840 
   71.8750   -12.6620   102.9830     5.1960     4.5290     5.4450    25.2660     2.2670 
   72.0000   -12.0490    97.3600     5.2130     4.4630     5.6530    25.1400     2.2340 
   72.1250   -11.6740    92.0650     6.0730     4.9540     5.9090    25.0140     2.2140 
   72.2500   -11.5600    91.0410     8.2020     6.2640     7.3640    25.0100     2.2320 
   72.3750   -11.7420    93.8180    12.0890     8.8430    12.4480    25.1550     2.2990 
