~V
VERS. 2.00: Ver 2.00
~W
STRT.M 50.0000:
STOP.M 237.0000:
STEP.M 0.1250:
NULL. -999.2500:
UWI. F10006:
~C
DEPT.M :
GR.API :
RML.OHMM :
RI. :
RXO.OHMM :
CALI.CM :
DEN.GM/CC :
SP.MV :
~A
# ...
  218.7500    86.9720     9.3700     8.8100     8.4830    24.2110     2.3440   -29.8260 
  218.8750    89.4820     9.4470     8.8820     8.4660    24.1900     2.3380   -30.0840 
  219.0000    91.7620     9.4200     8.8720     8.6290    24.1780     2.3280   -30.3190 
  219.1250    93.0570     9.3470     8.8350     8.8020    24.2190     2.3170   -30.5000 
  219.2500    91.3160     9.2660     8.8010     8.9910    24.2320     2.3120   -30.6160 
  219.3750    88.3390     9.1710     8.7630     9.0670    24.2030     2.3160   -30.6690 
  219.5000    87.8000     9.0410     8.6980     8.8780    24.1490     2.3280   -30.6880 
  219.6250    90.3990     8.8530     8.5810     8.5160    24.1150     2.3420   -30.7110 
  219.7500    90.9400     8.6420     8.4330     8.2890    24.1000     2.3490   -30.7690 
  219.8750    89.0400     8.4740     8.3000     7.9720    24.0980     2.3450   -30.8420 
  220.0000    89.1270     8.4330     8.2550     7.7170    24.0940     2.3290   -30.8930 
  220.1250    93.2140     8.6350     8.4110     8.4900    24.0860     2.3070   -30.9400 
  220.2500    98.8220     9.0630     8.7770     9.7440    24.0620     2.2900   -31.0410 
  220.3750   102.2740     9.6490     9.3010    10.5920    24.0280     2.2810   -31.2120 
  220.5000   102.5890    10.2430     9.8520    10.8510    24.0080     2.2800   -31.4030 
  220.6250   102.5760    10.5910    10.1920    10.7680    24.1130     2.2830   -31.5310 
  220.7500   103.1960    10.5680    10.1880    10.4030    24.1570     2.2920   -31.5450 
  220.8750   101.8890    10.1960     9.8350     9.7840    24.0700     2.3060   -31.4590 
  221.0000    98.8860     9.6580     9.2700     8.9640    23.9420     2.3250   -31.3210 
  221.1250    97.6480     9.2830     8.7570     8.0180    23.8160     2.3430   -31.1600 
  221.2500    96.9680     9.3020     8.5260     8.1320    23.7670     2.3550   -31.0050 
  221.3750    95.3140     9.8050     8.7040     9.9430    23.7560     2.3610   -30.8780 
  221.5000    94.8520    10.7270     9.3170    12.6630    23.8000     2.3640   -30.7330 
  221.6250    97.2670    11.8570    10.2950    13.4760    23.8980     2.3690   -30.5670 
  221.7500   100.3790    12.8400    11.3330    13.5590    24.0040     2.3750   -30.4020 
  221.8750   103.6900    13.4280    12.1590    14.2250    24.0520     2.3830   -30.2040 
  222.0000   104.0240    13.5010    12.5610    13.7030    24.0460     2.3890   -29.9490 
  222.1250    98.1370    13.0250    12.4030    12.1590    23.9870     2.3920   -29.5890 
  222.2500    92.5160    12.2390    11.8770    12.5850    23.9570     2.3900   -29.1260 
  222.3750    91.7570    11.3020    11.1400    12.8070    23.9680     2.3840   -28.5630 
  222.5000    93.0130    10.3590    10.3410    11.3580    23.9980     2.3770   -27.9560 
  222.6250    91.5780     9.5680     9.6130     9.8810    23.9230     2.3690   -27.3590 
  222.7500    89.9690     8.9890     9.0250     8.4810    23.8630     2.3620   -26.8010 
  222.8750    88.1720     8.6240     8.5910     7.9120    23.8500     2.3580   -26.3120 
  223.0000    84.5060     8.4180     8.2860     8.2150    23.8800     2.3630   -25.8720 
  223.1250    77.0490     8.2720     8.0500     8.5230    23.8980     2.3840   -25.4780 
  223.2500    67.2930     8.0710     7.8000     7.9950    23.8410     2.4130   -25.1350 
  223.3750    56.1250     7.7750     7.5040     6.9820    23.7630     2.4420   -24.8340 
  223.5000    45.4320     7.4070     7.1740     6.4900    23.7290     2.4610   -24.5820 
  223.6250    38.5270     7.0480     6.8580     6.3250    23.7350     2.4660   -24.3770 
  223.7500    35.2210     6.7760     6.5920     6.2040    23.7120     2.4660   -24.1620 
  223.8750    34.6570     6.6270     6.3880     6.1030    23.6260     2.4670   -23.9110 
  224.0000    34.1440     6.5810     6.2420     6.0220    23.3840     2.4700   -23.6450 
  224.1250    32.5510     6.5810     6.1490     6.0180    22.9010     2.4710   -23.4000 
  224.2500    32.1960     6.5540     6.0890     6.0550    22.4740     2.4700   -23.1430 
  224.3750    32.7060     6.5200     6.0520     6.0440    22.5990     2.4720   -22.8820 
  224.5000    32.9580     6.4850     6.0360     6.0370    23.2600     2.4800   -22.6230 
  224.6250    32.9570     6.4540     6.0380     6.0600    23.4880     2.4930   -22.3530 
  224.7500    33.8560     6.4320     6.0540     5.9980    23.5430     2.5050   -22.0700 
  224.8750    35.2800     6.4230     6.0780     5.9660    23.5500     2.5100   -21.8280 
  225.0000    35.4160     6.4250     6.1090     6.0970    23.6170     2.5070   -21.6320 
  225.1250    34.2670     6.4440     6.1520     6.3770    23.7070     2.5010   -21.4500 
  225.2500    33.3130     6.4860     6.2050     6.4080    23.7940     2.4970   -21.2670 
  225.3750    33.6070     6.5600     6.2590     6.4060    23.8940     2.4960   -21.0620 
  225.5000    34.9940     6.6580     6.2920     6.4750    23.9800     2.4970   -20.7990 
  225.6250    34.9990     6.7490     6.2630     6.4300    23.9710     2.4940   -20.5270 
  225.7500    34.4780     6.7840     6.1760     6.0280    23.8930     2.4860   -20.2970 
  225.8750    35.3860     6.7270     6.0540     5.7360    23.8490     2.4740   -20.0630 
  226.0000    35.7210     6.5590     5.9410     5.6680    23.8680     2.4640   -19.7890 
  226.1250    33.8270     6.4150     5.8760     5.5860    23.8860     2.4570   -19.4510 
  226.2500    33.4390     6.3260     5.8520     5.5070    23.8820     2.4530   -19.0920 
  226.3750    36.2630     6.2860     5.8420     5.4920    23.8420     2.4500   -18.7150 
  226.5000    38.5830     6.2740     5.8190     5.4580    23.7930     2.4450   -18.3710 
  226.6250    37.0080     6.2770     5.7810     5.3530    23.7760     2.4380   -18.0500 
  226.7500    35.6620     6.2900     5.7760     5.2780    23.7920     2.4340   -17.7350 
  226.8750    35.5280     6.3710     5.8590     5.4980    23.8460     2.4380   -17.4650 
  227.0000    35.5280     6.6250     6.0740     6.1910    23.8920     2.4500   -17.2270 
  227.1250    35.5280     7.0620     6.4290     7.0490    23.9050     2.4690   -17.0570 
  227.2500    35.5280     7.5030     6.8120     8.0900    23.8690     2.4810   -16.9510 
  227.3750    35.5280     7.7660     7.0920     9.3840    23.8330     2.4810   -16.9040 
  227.5000    35.5280     7.6590     7.1430     9.3030    23.8010     2.4660   -16.9070 
  227.6250    35.5280     7.0810     6.8640     7.3160    23.7890     2.4410   -16.9380 
  227.7500    35.5280     6.3080     6.3750     5.7320    23.7730     2.4180   -16.9970 
  227.8750    35.5280     5.7280     5.8060     5.0550    23.7670     2.4020   -17.0280 
  228.0000    35.5280     5.3720     5.2770     4.8620    23.7660     2.3930   -17.0870 
  228.1250    35.5280     5.1800     4.8780     4.7610    23.7660     2.3890   -17.1980 
  228.2500    35.5280     5.0600     4.5950     4.5760    23.7660     2.3860   -17.2870 
  228.3750    35.5280     4.9570     4.4010     4.2950    23.7660     2.3820   -17.3630 
  228.5000    35.5280     4.8430     4.2670     4.0710    23.7660     2.3760   -17.3960 
  228.6250    35.5280     4.7270     4.1760     4.0070    23.7660     2.3670   -17.4070 
  228.7500    35.5280     4.6440     4.1200     3.9420    23.7660     2.3600   -17.3880 
  228.8750    35.5280     4.6210     4.1000     3.9370    23.7660     2.3580   -17.3690 
  229.0000    35.5280     4.6640     4.1200     3.9650    23.7660     2.3640   -17.3750 
  229.1250    35.5280     4.7550     4.1770     4.1690    23.7660     2.3760   -17.3650 
  229.2500    35.5280     4.8430     4.2470     4.7130    23.7630     2.3880   -17.3340 
  229.3750    35.5280     4.8870     4.3030     5.3720    23.7520     2.3920   -17.2930 
  229.5000    35.5280     4.8600     4.3180     4.8080    23.7280     2.3890   -17.2800 
  229.6250    35.5280     4.7560     4.2760     4.2570    23.7190     2.3840   -17.2720 
  229.7500    35.5280     4.6180     4.2090     3.9940    23.7170     2.3830   -17.2610 
  229.8750    35.5280     4.4820     4.1490     4.0750    23.7180     2.3870   -17.2450 
