~V
VERS. 2.00: Ver 2.00
~W
STRT.M 60.0000:
STOP.M 217.0000:
STEP.M 0.1250:
NULL. -999.2500:
UWI. F10010:
~C
DEPT.M :
DEN.GM/CC :
GR.API :
RML.OHMM :
RI. :
RXO.OHMM :
CALI.CM :
SP.MV :
~A
# ...
   71.2500     2.1240    64.3280    16.8040    15.0370    15.8910    26.3630   -34.7940 
   71.3750     2.1210    59.6070    16.8020    15.0280    16.2670    26.3470   -34.7710 
   71.5000     2.1050    57.8560    16.6200    14.8560    17.2390    26.3510   -34.8700 
   71.6250     2.0830    61.6150    16.2570    14.5480    17.3240    26.4410   -35.1250 
   71.7500     2.0730    66.3160    15.8120    14.1820    15.3130    26.3800   -35.4190 
   71.8750     2.0830    68.2330    15.3730    13.8140    12.9790    26.0520   -35.7040 
   72.0000     2.1070    67.1090    15.0450    13.5120    12.2760    25.7070   -35.9980 
   72.1250     2.1300    65.1090    14.9560    13.3620    13.1380    25.7160   -36.3240 
   72.2500     2.1450    64.2000    15.0940    13.3880    13.7790    25.8310   -36.6990 
   72.3750     2.1530    63.3670    15.3620    13.5520    13.6420    25.8670   -37.1340 
   72.5000     2.1570    61.2490    15.5490    13.7290    13.2620    25.8140   -37.5710 
   72.6250     2.1570    60.4300    15.3050    13.6770    13.3140    25.7720   -37.9880 
   72.7500     2.1540    64.3050    14.5570    13.2510    13.6870    25.7510   -38.3950 
   72.8750     2.1510    70.7750    13.4070    12.4550    13.3090    25.7360   -38.8380 
   73.0000     2.1550    74.7690    12.0960    11.4190    11.3040    25.6430   -39.3340 
   73.1250     2.1740    75.5140    10.9420    10.3670     9.0100    25.3120   -39.8110 
   73.2500     2.1990    74.4160    10.1160     9.5080     7.8130    24.9410   -40.2090 
   73.3750     2.2190    72.2410     9.6410     8.9140     7.4830    24.7390   -40.4970 
   73.5000     2.2300    70.2510     9.4280     8.5750     7.3970    24.6560   -40.7180 
   73.6250     2.2310    71.0250     9.3050     8.3950     7.4730    24.5700   -40.8980 
   73.7500     2.2350    74.7030     9.0910     8.2070     7.6280    24.5020   -41.0560 
   73.8750     2.2480    78.8510     8.7380     7.9390     7.3560    24.4780   -41.1550 
   74.0000     2.2680    82.5760     8.3020     7.5860     6.6220    24.4400   -41.1560 
   74.1250     2.2850    84.6180     7.9050     7.2360     6.1040    24.4290   -41.0980 
   74.2500     2.2910    83.9180     7.6290     6.9780     6.1770    24.4380   -41.0670 
   74.3750     2.2890    82.4270     7.5110     6.8340     6.4310    24.4660   -41.0590 
   74.5000     2.2830    82.5240     7.5540     6.8080     6.3690    24.4660   -41.0090 
   74.6250     2.2810    85.5620     7.7250     6.8790     6.0890    24.4650   -40.8390 
   74.7500     2.2800    88.4030     7.9050     6.9660     6.1370    24.4290   -40.5870 
   74.8750     2.2790    87.3510     7.9840     6.9940     6.8400    24.4060   -40.3120 
   75.0000     2.2780    83.6200     7.8790     6.8900     7.5020    24.3910   -40.0550 
   75.1250     2.2810    81.8740     7.5950     6.6530     7.2300    24.4060   -39.8020 
   75.2500     2.2940    82.8540     7.3540     6.4250     6.4450    24.4240   -39.4780 
   75.3750     2.3220    84.2130     7.4140     6.3900     5.8360    24.4380   -39.0720 
   75.5000     2.3630    84.3960     8.0060     6.7370     6.1070    24.4050   -38.6320 
   75.6250     2.4020    83.9540     9.4210     7.7020     8.9960    24.3110   -38.2000 
   75.7500     2.4150    81.3590    11.5180     9.2580    14.7180    24.2180   -37.7770 
   75.8750     2.3890    75.1210    13.9980    11.2730    19.0150    24.2090   -37.3310 
   76.0000     2.3280    68.5960    16.3070    13.3640    16.2170    24.3460   -36.8420 
   76.1250     2.2500    67.2320    17.7610    14.9010    12.4690    24.6490   -36.3310 
   76.2500     2.1840    71.2480    18.5160    15.7720    12.4980    24.8980   -35.8280 
   76.3750     2.1520    75.4680    19.1260    16.3270    14.2350    25.0290   -35.3670 
   76.5000     2.1710    75.9690    20.1580    17.0320    15.8730    25.0960   -34.9730 
   76.6250     2.2480    75.0850    21.8520    18.1940    20.9170    24.9860   -34.6790 
   76.7500     2.3470    76.8880    23.5950    19.4940    31.3200    24.5280   -34.4290 
   76.8750     2.4250    80.4510    24.5600    20.3240    37.6810    23.8490   -34.1940 
   77.0000     2.4480    81.8380    24.0940    20.1250    28.0930    23.3180   -34.0020 
   77.1250     2.4010    80.4970    22.1010    18.6940    16.9640    23.1820   -33.8840 
   77.2500     2.3230    78.9660    19.6940    16.8430    12.6570    23.3030   -33.8480 
   77.3750     2.2490    76.6200    17.7400    15.2650    11.4340    23.6870   -33.8950 
   77.5000     2.1990    73.1270    16.7880    14.4090    10.9100    24.3420   -33.9520 
   77.6250     2.1800    68.1520    17.2870    14.6690    12.0350    25.0050   -33.9820 
   77.7500     2.1770    63.3500    19.0010    15.9390    15.6270    25.5520   -34.0330 
   77.8750     2.1800    60.1440    21.6180    18.0650    20.4590    25.8920   -34.1760 
   78.0000     2.1800    59.6730    24.3470    20.5260    23.1410    26.0400   -34.4320 
   78.1250     2.1740    60.5660    25.4690    21.9370    22.9130    25.6960   -34.7590 
   78.2500     2.1650    62.7620    24.0940    21.2820    23.0860    25.1120   -35.1090 
   78.3750     2.1610    68.9140    20.6320    18.6970    22.5680    24.4880   -35.4550 
   78.5000     2.1660    79.1300    16.4670    15.2870    16.6460    24.0900   -35.8350 
   78.6250     2.1830    87.3360    13.0290    12.2480    10.1320    23.8810   -36.2740 
   78.7500     2.2080    89.2710    10.6280     9.9510     7.3950    23.6240   -36.7280 
   78.8750     2.2370    88.8200     9.0830     8.3380     7.1840    23.4400   -37.1280 
   79.0000     2.2690    90.4050     8.1160     7.2530     7.3680    23.3940   -37.3840 
   79.1250     2.2960    94.0830     7.5790     6.6240     6.5820    23.4110   -37.4810 
   79.2500     2.3100    96.2110     7.3060     6.2810     5.7460    23.4230   -37.4870 
   79.3750     2.3050    95.4120     7.2850     6.1790     5.5410    23.4230   -37.4200 
   79.5000     2.2840    93.5290     7.5890     6.3410     6.0110    23.4300   -37.2730 
   79.6250     2.2680    90.7900     8.4290     6.9310     6.7260    23.4870   -37.0190 
   79.7500     2.2740    85.7840     9.8080     7.9980     7.6660    23.5820   -36.6710 
   79.8750     2.3070    78.8490    11.6750     9.5490    10.1950    23.6550   -36.2680 
   80.0000     2.3530    73.5440    13.8330    11.4510    15.8620    23.5950   -35.8800 
   80.1250     2.3790    72.8640    15.8580    13.3660    21.8450    23.6220   -35.5270 
   80.2500     2.3670    71.7500    17.3440    14.8630    20.8660    23.7810   -35.1500 
   80.3750     2.3210    68.6530    18.1280    15.7330    15.9510    24.0230   -34.7360 
   80.5000     2.2600    66.6790    18.3350    16.0360    13.0230    24.2030   -34.3530 
   80.6250     2.2100    67.4220    18.3330    16.0240    13.1670    24.3500   -34.0440 
   80.7500     2.1790    67.8370    18.6020    16.1260    14.0870    24.5170   -33.8090 
   80.8750     2.1550    66.3090    19.4080    16.5770    14.2760    24.7010   -33.6290 
   81.0000     2.1220    66.0130    20.7910    17.4460    14.2380    24.8570   -33.4790 
   81.1250     2.0740    67.8610    22.4720    18.5800    15.8270    24.9150   -33.4050 
   81.2500     2.0380    69.1030    23.7910    19.4730    18.3950    24.8740   -33.4540 
   81.3750     2.0420    69.0680    24.1680    19.6740    21.2390    24.6660   -33.6440 
   81.5000     2.0950    68.5760    23.2200    18.8650    22.8400    24.2030   -33.9170 
   81.6250     2.1780    70.3540    20.7710    16.9070    19.5620    23.7040   -34.1970 
   81.7500     2.2500    74.9830    17.6150    14.4190    15.4340    23.3900   -34.4690 
   81.8750     2.2940    81.3220    14.5280    11.9780    12.6150    23.0320   -34.7450 
   82.0000     2.3110    87.6560    12.1710    10.0730    10.3950    22.6700   -35.0450 
   82.1250     2.3120    90.8240    11.2280     9.1670     8.0290    22.3850   -35.3240 
   82.2500     2.3010    90.0200    11.8600     9.3560     7.7290    22.1950   -35.5480 
   82.3750     2.2720    83.9660    14.3730    10.8870    12.4330    22.3570   -35.7350 
