~V
VERS. 2.00: Ver 2.00
~W
STRT.M 50.0000:
STOP.M 274.0000:
STEP.M 0.1250:
NULL. -999.2500:
UWI. F10029:
~C
DEPT.M :
DEN.GM/CC :
SP.MV :
GR.API :
CALI.CM :
RXO.OHMM :
RI. :
RML.OHMM :
~A
# ...
  173.7500     2.5300   -17.4610    71.3210    22.1710    19.9490    20.6250    22.5060 
  173.8750     2.5090   -17.5570    69.7630    21.9950    20.2990    20.7390    22.6280 
  174.0000     2.4880   -17.7140    66.2390    21.6710    20.7040    20.5130    22.3860 
  174.1250     2.4900   -17.8410    66.0840    21.4370    20.3660    20.0090    21.8460 
  174.2500     2.5060   -17.9000    66.8660    21.4560    19.4660    19.4910    21.2910 
  174.3750     2.5150   -17.9830    65.6040    21.6810    18.5380    19.1350    20.9100 
  174.5000     2.5030   -18.0070    63.6280    21.9110    18.2710    19.0130    20.7790 
  174.6250     2.4770   -17.9780    63.7650    22.0010    19.0160    19.0790    20.8490 
  174.7500     2.4530   -17.9430    64.7380    21.9790    19.9100    19.1220    20.8960 
  174.8750     2.4380   -17.8260    64.7120    21.8620    20.1680    18.9740    20.7370 
  175.0000     2.4320   -17.6410    63.5790    21.6540    19.3160    18.5460    20.2790 
  175.1250     2.4340   -17.4700    62.8730    21.4690    17.5680    17.8610    19.5450 
  175.2500     2.4390   -17.2750    63.4270    21.4570    16.0600    17.1080    18.7380 
  175.3750     2.4430   -17.0660    64.5660    21.6650    15.2730    16.4150    17.9960 
  175.5000     2.4430   -16.9030    65.5870    21.6640    14.9310    15.8620    17.4040 
  175.6250     2.4350   -16.7540    67.6990    21.1340    14.7780    15.5040    17.0200 
  175.7500     2.4230   -16.5920    69.3600    20.4910    14.7200    15.3030    16.8040 
  175.8750     2.4140   -16.4810    66.5140    20.2010    14.7740    15.2420    16.7390 
  176.0000     2.4140   -16.3720    59.5250    20.1480    15.2610    15.3030    16.8040 
  176.1250     2.4190   -16.2140    56.7330    20.1330    16.1900    15.4520    16.9640 
  176.2500     2.4180   -16.1070    61.7890    20.1190    16.3030    15.5950    17.1180 
  176.3750     2.4130   -16.0280    67.0680    20.2010    15.8650    15.6590    17.1850 
  176.5000     2.4160   -15.9090    66.7850    20.3720    15.8260    15.6020    17.1250 
  176.6250     2.4340   -15.8040    66.5190    20.5200    15.7860    15.4620    16.9750 
  176.7500     2.4530   -15.7320    68.5600    20.4040    15.4540    15.3770    16.8840 
  176.8750     2.4580   -15.6560    70.1820    20.2570    14.9930    15.4640    16.9780 
  177.0000     2.4490   -15.6340    70.5940    20.1570    15.1360    15.7850    17.3210 
  177.1250     2.4350   -15.7140    70.4370    20.0960    16.4000    16.3240    17.8980 
  177.2500     2.4230   -15.8020    68.8740    20.0710    18.4240    16.8920    18.5070 
  177.3750     2.4160   -15.8910    67.1450    20.0650    19.4660    17.2810    18.9230 
  177.5000     2.4130   -16.0430    68.6230    20.0640    18.6920    17.3150    18.9600 
  177.6250     2.4130   -16.2320    68.9260    20.0640    17.4920    16.9380    18.5560 
  177.7500     2.4160   -16.4760    66.0060    20.0640    16.6180    16.4140    17.9940 
  177.8750     2.4190   -16.8020    64.7010    20.0640    16.2330    15.9730    17.5220 
  178.0000     2.4180   -17.1290    66.5760    20.0640    16.3270    15.7990    17.3360 
  178.1250     2.4030   -17.4150    70.3840    20.0640    18.2960    16.1150    17.6750 
  178.2500     2.3760   -17.7780    75.0470    20.0650    20.4690    16.9610    18.5800 
  178.3750     2.3460   -18.1920    80.3650    20.0960    21.8830    18.3610    20.0800 
  178.5000     2.3180   -18.5870    84.2480    20.2480    22.6300    20.2330    22.0850 
  178.6250     2.2910   -19.0200    89.1790    20.6910    24.4910    22.3400    24.3430 
  178.7500     2.2660   -19.4590    98.8570    21.3160    28.9270    24.2520    26.3910 
  178.8750     2.2500   -19.8390   106.8940    21.9260    32.6230    25.6680    27.9080 
  179.0000     2.2460   -20.2400   106.9560    22.3400    31.5240    26.5030    28.8020 
  179.1250     2.2540   -20.6940   100.4770    22.4280    28.6350    26.8130    29.1350 
  179.2500     2.2670   -21.0390    98.3610    22.5440    31.0060    26.8020    29.1230 
  179.3750     2.2810   -21.3100   101.3450    22.6000    35.6360    26.4670    28.7640 
  179.5000     2.2910   -21.5700   102.3650    22.5050    37.7170    25.7370    27.9810 
  179.6250     2.2940   -21.7690    99.9350    22.3560    35.9620    24.4960    26.6520 
  179.7500     2.2910   -21.9110    98.9360    22.4440    31.7990    22.9530    24.9990 
  179.8750     2.2870   -22.0440   101.1350    22.7160    26.5950    21.4050    23.3420 
  180.0000     2.2850   -22.0940   103.7350    22.9500    22.3130    20.1980    22.0480 
  180.1250     2.2820   -22.0380   105.3170    23.1250    20.5970    19.6970    21.5110 
  180.2500     2.2740   -22.0550   105.8840    23.2640    20.4100    19.9030    21.7320 
  180.3750     2.2600   -22.0900   102.6570    23.3370    21.0130    20.7880    22.6800 
  180.5000     2.2440   -22.1000    96.6160    23.3660    23.1020    22.2270    24.2220 
  180.6250     2.2320   -22.1350    97.0970    23.3960    27.8610    23.9750    26.0940 
  180.7500     2.2290   -22.1460   103.2960    23.4250    32.8750    25.5580    27.7890 
  180.8750     2.2330   -22.1520   105.6490    23.4080    35.5930    26.5900    28.8950 
  181.0000     2.2440   -22.2040    99.6940    23.3490    35.8230    26.8460    29.1700 
  181.1250     2.2550   -22.2530    92.2130    23.2810    34.0760    26.2770    28.5600 
  181.2500     2.2600   -22.2440    91.5630    23.2540    32.0550    25.3160    27.5300 
  181.3750     2.2590   -22.2210    96.0270    23.2390    30.5930    24.2830    26.4240 
  181.5000     2.2540   -22.1610    99.9850    23.1940    29.1500    23.4150    25.4940 
  181.6250     2.2490   -22.0680    98.7260    23.0990    27.1200    22.8920    24.9340 
  181.7500     2.2470   -22.0580    94.8210    23.0290    25.5870    22.6880    24.7150 
  181.8750     2.2480   -22.0700    92.7780    22.9980    25.1190    22.7530    24.7850 
  182.0000     2.2480   -22.0270    94.8250    22.9540    25.0880    22.9960    25.0460 
  182.1250     2.2420   -22.0090    99.3540    22.9030    25.2470    23.3180    25.3900 
  182.2500     2.2360   -22.0000   102.0130    22.8840    25.8330    23.6270    25.7210 
  182.3750     2.2490   -21.9860   100.6790    22.9540    26.7330    23.8810    25.9930 
  182.5000     2.2910   -22.0210    96.6360    23.1000    27.2400    24.0400    26.1630 
  182.6250     2.3470   -22.0640    92.0330    23.0980    26.4700    24.0010    26.1210 
  182.7500     2.3840   -21.9970    88.2690    22.7360    25.2850    23.6850    25.7840 
  182.8750     2.3940   -21.8750    87.3290    22.0150    24.3420    23.0060    25.0560 
  183.0000     2.3830   -21.7650    89.7660    21.2140    23.4770    21.9350    23.9090 
  183.1250     2.3650   -21.6120    93.0800    20.6860    22.2530    20.5110    22.3830 
  183.2500     2.3450   -21.4660    93.8560    20.5850    21.0400    18.9640    20.7260 
  183.3750     2.3150   -21.3330    95.1660    20.8580    20.0090    17.4690    19.1250 
  183.5000     2.2680   -21.1430    98.8120    21.3480    19.0970    16.1770    17.7410 
  183.6250     2.2150   -20.8450   102.1970    21.9610    18.4080    15.2430    16.7400 
  183.7500     2.1910   -20.5940   101.5830    22.4030    17.8460    14.6460    16.1000 
  183.8750     2.2100   -20.3100   100.2730    22.6550    17.3510    14.3570    15.7920 
  184.0000     2.2480   -19.9470   102.0470    22.6860    17.0000    14.3090    15.7390 
  184.1250     2.2750   -19.5580   104.6880    22.5030    16.8900    14.3480    15.7810 
  184.2500     2.2920   -19.0260   104.3240    22.3130    16.8720    14.1980    15.6210 
  184.3750     2.3130   -18.3610   103.5440    22.2720    16.5980    13.6100    14.9910 
  184.5000     2.3360   -17.6660   108.5350    22.3640    15.7540    12.4700    13.7700 
  184.6250     2.3460   -16.9930   115.3440    22.4910    13.6970    10.8810    12.0680 
  184.7500     2.3420   -16.2810   113.3100    22.5210    10.5930     9.2650    10.3370 
  184.8750     2.3320   -15.6140   102.3330    22.5900     7.5510     7.9000     8.8740 
