~V
VERS. 2.00: Ver 2.00
~W
STRT.M 50.0000:
STOP.M 237.0000:
STEP.M 0.1250:
NULL. -999.2500:
UWI. F10006:
~C
DEPT.M :
GR.API :
RML.OHMM :
RI. :
RXO.OHMM :
CALI.CM :
DEN.GM/CC :
SP.MV :
~A
# ...
  207.5000   102.7450    11.7890     9.5930    10.3370    23.5710     2.3840   -34.4020 
  207.6250   102.0940    12.3000     9.9140    11.7620    23.6760     2.3910   -34.8500 
  207.7500    97.3870    12.5290    10.1860    10.7220    23.7430     2.3860   -35.1940 
  207.8750    93.2460    12.3640    10.2220     8.9790    23.7030     2.3720   -35.4560 
  208.0000    91.5050    11.9390    10.0490     8.0730    23.6500     2.3540   -35.6510 
  208.1250    89.7370    11.5330     9.8580     8.4350    23.7200     2.3380   -35.7920 
  208.2500    86.6000    11.3470     9.8240     9.2930    23.8310     2.3300   -35.9000 
  208.3750    85.6570    11.4110     9.9770    10.3080    23.9470     2.3320   -35.9660 
  208.5000    90.1380    11.6020    10.2330    11.6240    24.0460     2.3390   -35.9900 
  208.6250    97.9970    11.7490    10.4180    11.1910    24.0730     2.3430   -35.9590 
  208.7500   102.3690    11.7740    10.4120     9.7200    24.0610     2.3430   -35.9180 
  208.8750   101.1680    11.6870    10.1990     9.1060    24.0480     2.3420   -35.8740 
  209.0000    96.3720    11.3710     9.8410     9.3090    24.0510     2.3440   -35.8230 
  209.1250    91.6260    10.8360     9.4420     9.4540    24.0910     2.3480   -35.7470 
  209.2500    88.6870    10.4670     9.1010     9.4670    24.1640     2.3510   -35.6810 
  209.3750    88.2750    10.3180     8.8670     9.5030    24.2350     2.3500   -35.6420 
  209.5000    90.5990    10.2970     8.7510     9.5210    24.2510     2.3470   -35.6430 
  209.6250    93.0280    10.2730     8.7320     9.6200    24.2270     2.3440   -35.7140 
  209.7500    93.0420    10.1690     8.7350     9.7790    24.2330     2.3430   -35.8370 
  209.8750    91.0210     9.9830     8.7140     9.7670    24.2520     2.3460   -35.9920 
  210.0000    88.8480     9.7500     8.6550     9.7420    24.2510     2.3510   -36.1470 
  210.1250    88.5490     9.5350     8.5830     9.5990    24.2420     2.3540   -36.2530 
  210.2500    89.4900     9.4590     8.5380     9.4610    24.2150     2.3540   -36.3070 
  210.3750    91.8120     9.4710     8.5300     9.3330    24.1580     2.3530   -36.3160 
  210.5000    92.2950     9.5130     8.5460     9.5090    24.1150     2.3530   -36.2720 
  210.6250    87.9140     9.5230     8.5440     9.3690    24.0990     2.3600   -36.1690 
  210.7500    82.4110     9.4650     8.4970     9.2960    24.0970     2.3710   -36.0390 
  210.8750    79.0990     9.3370     8.3980     8.7430    24.0920     2.3780   -35.8860 
  211.0000    79.4360     9.1660     8.2620     8.2650    24.0840     2.3770   -35.7390 
  211.1250    82.2610     9.0080     8.1200     8.2730    24.1010     2.3640   -35.6370 
  211.2500    83.7400     8.9010     7.9970     8.6070    24.1170     2.3460   -35.5600 
  211.3750    82.6650     8.8470     7.8950     8.8300    24.1140     2.3330   -35.4970 
  211.5000    80.0200     8.8240     7.8020     8.7920    24.1050     2.3290   -35.4430 
  211.6250    80.2670     8.7960     7.7020     8.3810    24.0880     2.3380   -35.4060 
  211.7500    83.5470     8.7440     7.6000     7.9290    24.0610     2.3510   -35.3740 
  211.8750    87.7280     8.6760     7.5180     7.7280    24.0320     2.3600   -35.3660 
  212.0000    89.8070     8.6180     7.4770     7.8110    24.0200     2.3590   -35.3850 
  212.1250    87.7350     8.6020     7.5000     7.8150    23.9700     2.3480   -35.4370 
  212.2500    86.0620     8.6380     7.5710     7.7770    23.8480     2.3320   -35.5120 
  212.3750    87.0320     8.7220     7.6740     7.8960    23.7310     2.3180   -35.6110 
  212.5000    89.0700     8.8430     7.7860     8.1910    23.7030     2.3100   -35.7310 
  212.6250    90.4370     8.9830     7.8780     8.6420    23.7470     2.3110   -35.8440 
  212.7500    90.7220     9.1150     7.9430     8.7980    23.8060     2.3220   -35.9370 
  212.8750    90.2060     9.2150     7.9780     8.7780    23.8870     2.3380   -35.9830 
  213.0000    89.4830     9.2580     7.9860     8.7470    23.9820     2.3580   -35.9900 
  213.1250    88.4990     9.2190     7.9580     8.6460    23.9920     2.3770   -35.9410 
  213.2500    88.2600     9.1240     7.9020     8.4850    23.9240     2.3880   -35.8700 
  213.3750    89.4030     9.0130     7.8360     8.5260    23.8410     2.3890   -35.8080 
  213.5000    92.2000     8.9370     7.7900     8.6810    23.8050     2.3790   -35.7980 
  213.6250    94.1870     8.9550     7.8080     8.9340    23.8520     2.3580   -35.8730 
  213.7500    93.1300     9.0550     7.8890     9.1780    23.9570     2.3310   -36.0170 
  213.8750    91.0470     9.2000     8.0060     9.3560    24.1000     2.3030   -36.2110 
  214.0000    89.1050     9.3340     8.1130     9.3140    24.2110     2.2810   -36.4060 
  214.1250    88.6810     9.3990     8.1560     9.1420    24.2390     2.2760   -36.5760 
  214.2500    90.2550     9.4010     8.1400     8.8420    24.2020     2.2880   -36.7040 
  214.3750    92.3850     9.3720     8.0950     8.5610    24.1380     2.3110   -36.7720 
  214.5000    91.2750     9.3510     8.0620     8.3560    24.1100     2.3320   -36.7820 
  214.6250    84.6960     9.3590     8.0700     8.8370    24.1380     2.3370   -36.7570 
  214.7500    79.6130     9.3840     8.1010     9.2710    24.1850     2.3290   -36.7130 
  214.8750    79.4750     9.4210     8.1450     9.0930    24.2000     2.3180   -36.6520 
  215.0000    82.5220     9.4950     8.2230     8.6040    24.1940     2.3160   -36.5960 
  215.1250    85.0250     9.6880     8.4170     8.1520    24.1360     2.3320   -36.6050 
  215.2500    87.3770    10.0410     8.7880     8.9650    24.1120     2.3580   -36.7110 
  215.3750    89.3440    10.5520     9.3640    11.3860    24.1140     2.3790   -36.9080 
  215.5000    90.0380    11.1450    10.0950    13.5750    24.1490     2.3840   -37.1370 
  215.6250    92.0510    11.6540    10.8190    13.5210    24.2220     2.3630   -37.2950 
  215.7500    96.0460    11.9420    11.3430    12.5840    24.2580     2.3270   -37.3460 
  215.8750    98.7760    11.9540    11.5570    11.6730    24.2630     2.2890   -37.2920 
  216.0000    97.6580    11.7270    11.4600    11.2140    24.2740     2.2610   -37.1160 
  216.1250    94.5390    11.3750    11.1430    11.2100    24.3070     2.2550   -36.7700 
  216.2500    93.9800    11.0680    10.8010    11.0210    24.3070     2.2680   -36.2720 
  216.3750    96.3110    10.9060    10.5550    11.0570    24.2740     2.2960   -35.6270 
  216.5000    98.1730    10.9550    10.4890    11.5150    24.2330     2.3310   -34.8610 
  216.6250    95.4240    11.4500    10.7380    13.0100    24.2200     2.3670   -34.0350 
  216.7500    90.8390    12.5300    11.3830    15.2990    24.1890     2.4010   -33.1900 
  216.8750    88.5190    14.2740    12.5880    17.6720    24.0900     2.4370   -32.3460 
  217.0000    88.1330    16.7490    14.5390    20.3360    24.0370     2.4800   -31.5380 
  217.1250    87.4780    20.0950    17.4570    26.9060    24.0460     2.5320   -30.7970 
  217.2500    86.0510    23.6490    20.8270    37.7250    24.0920     2.5820   -30.1360 
  217.3750    84.9450    26.2210    23.6640    46.5830    24.1040     2.6140   -29.5520 
  217.5000    85.4410    26.4960    24.6740    44.4310    24.1020     2.6150   -29.0570 
  217.6250    88.2770    23.6170    22.7690    33.5450    24.1000     2.5810   -28.6550 
  217.7500    89.9410    19.1990    19.1850    19.8390    24.1020     2.5300   -28.3690 
  217.8750    87.3550    14.7790    15.2740    11.6850    24.1060     2.4760   -28.2340 
  218.0000    83.7840    11.3800    12.0210     8.4940    24.1170     2.4310   -28.2550 
  218.1250    84.5240     9.4950     9.9620     8.1990    24.1380     2.3970   -28.4370 
  218.2500    86.5420     8.6680     8.8310     8.6400    24.1520     2.3730   -28.6840 
  218.3750    86.6090     8.5520     8.4010     8.7980    24.1790     2.3560   -28.9580 
  218.5000    84.8820     8.8110     8.4210     8.6220    24.2150     2.3480   -29.2470 
  218.6250    84.9430     9.1470     8.6350     8.5440    24.2200     2.3460   -29.5440 
