~V
VERS. 2.00: Ver 2.00
~W
STRT.M 55.0000:
STOP.M 308.0000:
STEP.M 0.1250:
NULL. -999.2500:
UWI. F10053:
~C
DEPT.M :
GR.API :
RML.OHMM :
RI. :
RXO.OHMM :
CALI.CM :
DEN.GM/CC :
SP.MV :
~A
# ...
  268.7500    54.1970    10.1020    10.5860    11.3330    24.0410     2.4840    -4.0840 
  268.8750    52.5150     7.6250     8.4000     6.5720    23.9700     2.4500    -3.7790 
  269.0000    53.5930     6.7980     7.3400     5.6410    23.9380     2.4290    -3.5000 
  269.1250    54.3670     6.8000     7.1080     5.6630    23.9440     2.4150    -3.1380 
  269.2500    54.9870     6.9510     7.2210     5.8530    23.9620     2.4000    -2.7380 
  269.3750    53.5470     7.0100     7.3420     5.9890    23.9740     2.3780    -2.3850 
  269.5000    50.5150     6.8270     7.1880     5.9440    23.9680     2.3470    -2.0780 
  269.6250    49.9090     6.3770     6.6500     5.3840    23.9430     2.3190    -1.8420 
  269.7500    52.1890     5.8390     5.9930     4.6230    23.9320     2.3110    -1.6610 
  269.8750    55.0290     5.3770     5.4610     4.1230    23.9300     2.3320    -1.5330 
  270.0000    58.9780     5.1360     5.2100     3.9950    23.9320     2.3760    -1.5070 
  270.1250    65.2270     5.2650     5.3510     5.2060    23.9650     2.4180    -1.5670 
  270.2500    72.2370     5.7030     5.7980     8.4830    24.0750     2.4380    -1.6740 
  270.3750    77.7680     6.3400     6.4550    11.2070    24.2490     2.4310    -1.7860 
  270.5000    82.2200     7.0010     7.1530    10.1660    24.4020     2.4100    -1.9880 
  270.6250    85.9840     7.4810     7.6510     8.0530    24.4540     2.3890    -2.1950 
  270.7500    88.8400     7.7220     7.8610     7.4670    24.4650     2.3730    -2.4270 
  270.8750    90.9030     7.7470     7.8030     7.6740    24.4630     2.3580    -2.6450 
  271.0000    93.2040     7.6250     7.5750     8.0570    24.4580     2.3410    -2.7380 
  271.1250    96.8590     7.4260     7.3030     7.4020    24.4650     2.3220    -2.7970 
  271.2500   100.1890     7.2200     7.0670     7.1190    24.4700     2.3080    -2.8370 
  271.3750   102.2450     7.0440     6.8720     7.0280    24.4600     2.3010    -2.8530 
  271.5000   103.3810     6.9350     6.7150     7.2140    24.4430     2.2990    -2.8270 
  271.6250   104.2260     6.9300     6.6090     7.3950    24.4250     2.3020    -2.8190 
  271.7500   103.3390     7.0060     6.5590     7.3420    24.4640     2.3080    -2.7380 
  271.8750    99.5430     7.1400     6.5920     6.9400    24.5010     2.3170    -2.6220 
  272.0000    94.6300     7.3100     6.7320     6.8650    24.5140     2.3280    -2.5450 
  272.1250    94.5720     7.5130     6.9630     7.1090    24.4810     2.3390    -2.4650 
  272.2500    99.3330     7.7410     7.1810     7.3540    24.4630     2.3490    -2.3880 
  272.3750   103.7800     7.9760     7.3120     7.6920    24.4530     2.3590    -2.3260 
  272.5000   101.6720     8.1780     7.3290     8.0330    24.4430     2.3680    -2.2060 
  272.6250    94.9750     8.2750     7.2460     7.7530    24.4290     2.3740    -2.1000 
  272.7500    92.0920     8.2450     7.1280     7.4410    24.4180     2.3740    -2.0230 
  272.8750    94.6800     8.0960     6.9980     7.8510    24.3910     2.3690    -1.9170 
  273.0000    98.3800     7.8880     6.8560     8.3640    24.3900     2.3610    -1.7640 
  273.1250    96.7470     7.7380     6.6970     7.6040    24.3840     2.3540    -1.6690 
  273.2500    92.5340     7.7280     6.5420     6.6800    24.3870     2.3490    -1.6510 
  273.3750    91.0900     7.8620     6.4140     6.3940    24.4100     2.3440    -1.6430 
  273.5000    95.3640     8.0550     6.3130     6.6110    24.4410     2.3360    -1.7380 
  273.6250   103.4160     8.1600     6.2280     6.5080    24.4390     2.3270    -1.9010 
  273.7500   106.5690     8.1120     6.1450     6.4400    24.3900     2.3200    -2.0420 
  273.8750   102.7770     7.9450     6.0690     6.3920    24.3220     2.3220    -2.1980 
  274.0000    97.1560     7.7650     6.0120     6.2320    24.2670     2.3330    -2.4110 
  274.1250    96.4560     7.6960     6.0110     6.1790    24.2490     2.3490    -2.5780 
  274.2500    99.0810     7.7490     6.0650     6.5710    24.2500     2.3610    -2.6290 
  274.3750    99.9330     7.8800     6.1580     7.2460    24.2740     2.3660    -2.6900 
  274.5000    98.3830     8.0340     6.2650     7.7060    24.2960     2.3670    -2.7190 
  274.6250    97.1780     8.1890     6.4020     7.2160    24.3070     2.3730    -2.6450 
  274.7500    97.2410     8.3540     6.5790     6.9160    24.3110     2.3860    -2.6100 
  274.8750    96.9090     8.5250     6.7720     6.8780    24.3130     2.4000    -2.5650 
  275.0000    95.3590     8.6560     6.9180     7.1430    24.3090     2.4070    -2.4810 
  275.1250    93.6320     8.6100     6.8920     7.4250    24.2990     2.3970    -2.4430 
  275.2500    91.9550     8.3150     6.6550     7.2240    24.2650     2.3770    -2.4560 
  275.3750    90.7540     7.7800     6.2600     6.3660    24.1910     2.3530    -2.4780 
  275.5000    89.4460     7.1320     5.8440     5.5410    24.1020     2.3310    -2.5200 
  275.6250    87.1130     6.6130     5.5570     5.0100    24.0610     2.3180    -2.6140 
  275.7500    85.7450     6.3660     5.4280     4.7520    24.0610     2.3110    -2.6130 
  275.8750    87.1600     6.3880     5.4390     4.6440    24.1080     2.3080    -2.6060 
  276.0000    90.0380     6.5560     5.5350     4.6210    24.1850     2.3050    -2.6350 
  276.1250    91.9350     6.6740     5.6270     4.7410    24.2460     2.3010    -2.5890 
  276.2500    92.7060     6.6340     5.6480     4.9080    24.2500     2.2980    -2.4720 
  276.3750    92.9530     6.4620     5.5780     4.8670    24.2240     2.2990    -2.3400 
  276.5000    92.6710     6.2750     5.4440     4.5810    24.2430     2.3100    -2.2190 
  276.6250    90.7620     6.2410     5.3160     4.3950    24.3420     2.3330    -2.0620 
  276.7500    85.6820     6.3940     5.2710     4.4580    24.4130     2.3570    -1.9460 
  276.8750    79.8180     6.6730     5.3320     4.8640    24.3820     2.3730    -1.9030 
  277.0000    78.4400     6.9690     5.4780     5.4950    24.3250     2.3740    -1.8600 
  277.1250    81.2650     7.1770     5.6570     5.8260    24.2960     2.3570    -1.8450 
  277.2500    81.5860     7.3070     5.8170     5.3720    24.2890     2.3320    -2.0230 
  277.3750    79.0700     7.4120     5.9450     5.0640    24.2620     2.3080    -2.2920 
  277.5000    77.0970     7.5290     6.0470     5.1810    24.1660     2.2900    -2.5520 
  277.6250    76.7320     7.6110     6.1200     5.7610    24.0250     2.2790    -2.8610 
  277.7500    76.7000     7.5780     6.1310     6.0090    23.9540     2.2720    -3.1160 
  277.8750    77.3680     7.4000     6.0350     5.8990    23.9620     2.2690    -3.2890 
  278.0000    79.0590     7.1330     5.8270     5.5080    23.9830     2.2710    -3.4560 
  278.1250    82.5890     6.8890     5.5890     4.8540    23.9940     2.2760    -3.5920 
  278.2500    86.0240     6.7210     5.4410     4.4370    23.9870     2.2810    -3.6640 
  278.3750    87.0450     6.6050     5.4290     4.3550    23.9290     2.2850    -3.6540 
  278.5000    85.9510     6.5050     5.5340     4.5910    23.8060     2.2880    -3.6410 
  278.6250    84.0370     6.4400     5.7050     4.9640    23.7350     2.2910    -3.5880 
  278.7500    81.8110     6.4740     5.8810     5.0750    23.7020     2.2950    -3.6380 
  278.8750    79.0040     6.6470     6.0580     5.1100    23.7160     2.3010    -3.7310 
  279.0000    77.5960     6.9350     6.2580     5.4550    23.7950     2.3060    -3.7180 
  279.1250    76.2110     7.2610     6.5020     5.9310    23.8570     2.3100    -3.7360 
  279.2500    72.0610     7.5620     6.7430     6.0130    23.8770     2.3100    -3.7090 
  279.3750    68.7780     7.8410     6.9270     5.9670    23.7880     2.3080    -3.6910 
  279.5000    69.7860     8.1070     7.0220     5.8950    23.5780     2.3040    -3.7250 
  279.6250    72.3180     8.3040     7.0030     5.8930    23.4410     2.3000    -3.7580 
  279.7500    72.4530     8.3410     6.9190     5.8980    23.3790     2.2950    -3.7120 
  279.8750    72.6360     8.1460     6.8060     5.9500    23.3560     2.2890    -3.6650 
