~V
VERS. 2.00: Ver 2.00
~W
STRT.M 50.0000:
STOP.M 325.0000:
STEP.M 0.1250:
NULL. -999.2500:
UWI. F10039:
~C
DEPT.M :
GR.API :
RML.OHMM :
RI. :
RXO.OHMM :
CALI.CM :
DEN.GM/CC :
SP.MV :
~A
# ...
  185.0000    63.5620    15.0280    13.5030    10.8090    22.3980     2.2490   -25.1300 
  185.1250    61.8360    14.5040    13.2800    12.2320    22.9720     2.2630   -24.9680 
  185.2500    65.9960    13.5640    12.7530    12.2710    23.3270     2.2940   -24.8340 
  185.3750    74.2400    12.2700    11.8440    10.8230    23.5270     2.3350   -24.7270 
  185.5000    82.3040    10.7970    10.6200     9.5750    23.6570     2.3720   -24.6170 
  185.6250    88.7190     9.4190     9.3100     7.7230    23.7610     2.3950   -24.5060 
  185.7500    92.4310     8.3380     8.2060     6.6540    23.8680     2.4040   -24.3980 
  185.8750    92.2130     7.6470     7.4760     6.7050    23.8830     2.4020   -24.2990 
  186.0000    89.7110     7.3440     7.1650     7.3760    23.7160     2.3970   -24.2030 
  186.1250    89.0010     7.3580     7.2270     7.3690    23.4960     2.3950   -24.1070 
  186.2500    91.7900     7.4500     7.4000     6.9290    23.4090     2.3950   -24.0050 
  186.3750    96.0750     7.4510     7.4910     6.8600    23.4430     2.3970   -23.8890 
  186.5000    99.9940     7.2740     7.3900     7.0630    23.4390     2.3990   -23.7700 
  186.6250   100.7030     6.9450     7.1130     6.5990    23.5050     2.4010   -23.6600 
  186.7500    98.8030     6.6360     6.8360     6.0200    23.7880     2.4010   -23.5630 
  186.8750    98.0090     6.4670     6.6850     5.7970    24.1210     2.3970   -23.4830 
  187.0000    98.5510     6.4880     6.7130     5.9640    24.2810     2.3890   -23.4230 
  187.1250    98.6190     6.6740     6.8910     6.4430    24.3480     2.3790   -23.4000 
  187.2500    97.4860     6.8900     7.0760     6.7560    24.4640     2.3740   -23.4040 
  187.3750    96.9710     7.0370     7.1610     6.9030    24.5880     2.3780   -23.4460 
  187.5000    97.6990     7.0660     7.0950     7.0620    24.5670     2.3900   -23.5330 
  187.6250    99.6730     6.9790     6.9030     6.9410    24.4510     2.4020   -23.6640 
  187.7500   101.5350     6.8800     6.7050     6.8470    24.3890     2.4050   -23.8320 
  187.8750   102.2070     6.8710     6.6020     7.2880    24.3750     2.3930   -24.0460 
  188.0000   101.5990     7.0570     6.6740     8.4900    24.3150     2.3690   -24.3210 
  188.1250    97.5720     7.6050     7.0250     9.8180    24.1250     2.3370   -24.6610 
  188.2500    89.2410     8.5430     7.6710    10.5720    23.8530     2.3070   -25.0470 
  188.3750    81.5730     9.8570     8.6370    13.0110    23.5930     2.2840   -25.4560 
  188.5000    79.4250    11.4060     9.8770    15.0540    23.4480     2.2720   -25.8650 
  188.6250    79.8570    12.8880    11.2250    14.7370    23.3880     2.2760   -26.2730 
  188.7500    77.5500    14.0660    12.4220    13.8200    23.3610     2.2930   -26.6650 
  188.8750    74.8460    14.9400    13.3450    13.7150    23.3330     2.3160   -27.0120 
  189.0000    74.4880    15.7110    14.0420    13.7860    23.3130     2.3350   -27.3060 
  189.1250    74.5360    16.7350    14.7550    13.9770    23.2970     2.3370   -27.5380 
  189.2500    74.1100    18.1580    15.7470    15.1640    23.2670     2.3230   -27.7310 
  189.3750    73.8120    19.9300    17.1190    17.1680    23.2220     2.3000   -27.9000 
  189.5000    72.5890    21.8490    18.7860    18.8620    23.1820     2.2800   -28.0450 
  189.6250    69.5120    23.5900    20.4590    20.3150    23.1500     2.2690   -28.1630 
  189.7500    67.4670    24.9280    21.8050    21.4620    23.1160     2.2650   -28.2320 
  189.8750    68.2970    25.7370    22.6280    22.1700    23.0570     2.2630   -28.2590 
  190.0000    69.7480    25.9720    22.8800    23.0460    23.0030     2.2570   -28.2410 
  190.1250    69.9380    25.5800    22.5690    23.9700    23.0730     2.2420   -28.1490 
  190.2500    70.5860    24.7750    21.9520    23.5410    23.1950     2.2280   -27.9910 
  190.3750    72.7110    23.8150    21.2680    21.2930    23.2150     2.2280   -27.7590 
  190.5000    74.7360    23.2310    20.8530    19.5200    23.1820     2.2630   -27.4600 
  190.6250    73.6070    23.8180    21.2270    18.7020    23.2020     2.3490   -27.0830 
  190.7500    71.1010    25.6010    22.4750    19.7880    23.3460     2.4580   -26.6760 
  190.8750    68.2390    27.8600    24.3220    26.7810    23.6150     2.5520   -26.2410 
  191.0000    64.1410    29.5490    25.9200    45.2970    23.8980     2.5920   -25.7940 
  191.1250    62.6000    28.8430    25.6730    55.4630    23.9820     2.5570   -25.3560 
  191.2500    66.4240    25.4480    23.1850    33.9460    23.8750     2.4830   -24.9400 
  191.3750    75.5210    20.2950    19.1170    14.4250    23.7690     2.4070   -24.5650 
  191.5000    85.5370    15.0160    14.7510     8.4100    23.8080     2.3590   -24.2380 
  191.6250    92.2150    11.1200    11.3020     7.5630    24.0010     2.3470   -24.0100 
  191.7500    95.7520     8.6880     8.9370     7.1550    24.1370     2.3530   -23.8570 
  191.8750    98.1020     7.4070     7.5010     6.3120    24.1500     2.3610   -23.7870 
  192.0000   100.6690     6.8820     6.7520     5.5540    24.0370     2.3640   -23.7930 
  192.1250   101.2720     6.8840     6.5300     5.8740    23.7890     2.3620   -23.8730 
  192.2500   100.1660     7.1340     6.5960     6.3290    23.4680     2.3590   -23.9860 
  192.3750    99.5620     7.4350     6.8560     6.5370    23.2650     2.3560   -24.1120 
  192.5000    98.2470     7.6840     7.2380     6.4320    23.1970     2.3530   -24.2450 
  192.6250    93.6040     7.9300     7.6710     6.5890    23.1820     2.3520   -24.3320 
  192.7500    88.2160     8.2340     8.0740     6.8170    23.1660     2.3550   -24.3710 
  192.8750    86.8340     8.5520     8.3990     6.9080    23.1590     2.3610   -24.3490 
  193.0000    89.7320     8.8180     8.6220     6.6880    23.1730     2.3670   -24.2580 
  193.1250    93.6850     8.9270     8.7250     6.7560    23.1790     2.3650   -24.1020 
  193.2500    94.6560     8.9490     8.7470     6.9410    23.1900     2.3520   -23.9130 
  193.3750    91.9830     8.8800     8.7170     7.1130    23.2000     2.3320   -23.7010 
  193.5000    87.9090     8.7790     8.6540     7.1460    23.1670     2.3130   -23.4710 
  193.6250    85.5110     8.6740     8.5310     7.4150    23.0550     2.3110   -23.2500 
  193.7500    85.5510     8.5220     8.3100     7.6260    22.8490     2.3310   -23.0530 
  193.8750    88.0420     8.1910     7.9620     6.9780    22.8770     2.3660   -22.8790 
  194.0000    91.5710     7.5760     7.5160     5.8580    23.2220     2.4010   -22.7390 
  194.1250    93.1020     7.0550     7.0740     5.2710    23.6920     2.4130   -22.6320 
  194.2500    92.0930     6.8120     6.7610     5.5250    24.0260     2.4030   -22.5500 
  194.3750    89.9090     7.0070     6.6980     6.6010    23.9840     2.3890   -22.4770 
  194.5000    86.6930     7.7610     7.0210     8.4090    23.6740     2.3920   -22.4100 
  194.6250    81.1980     9.3500     8.0230     9.4650    23.4050     2.4330   -22.3340 
  194.7500    75.0570    11.8010     9.8380    11.5210    23.4210     2.5000   -22.2450 
  194.8750    71.1150    15.2310    12.6620    18.7300    23.6880     2.5700   -22.1520 
  195.0000    68.0320    19.6760    16.6010    32.5840    23.9400     2.6260   -22.0500 
  195.1250    62.3650    24.9810    21.6240    42.1650    24.0270     2.6510   -21.9470 
  195.2500    56.3250    30.3170    26.9420    44.2310    24.0350     2.6510   -21.8460 
  195.3750    53.7940    34.8260    31.6900    44.3080    24.0120     2.6360   -21.7590 
  195.5000    55.2140    37.8040    35.0470    44.6030    23.9730     2.6140   -21.6910 
  195.6250    56.0610    38.8340    36.3640    43.7810    23.9250     2.5950   -21.6620 
  195.7500    53.9160    38.7380    36.3440    44.9210    23.9370     2.5890   -21.6630 
  195.8750    50.7100    38.1940    35.6970    44.1930    23.8910     2.5980   -21.6880 
  196.0000    49.6030    37.6730    35.0300    38.3910    23.7680     2.6180   -21.7340 
  196.1250    52.5780    37.3810    34.6980    35.5160    23.6890     2.6360   -21.7810 
