~V
VERS. 2.00: Ver 2.00
~W
STRT.M 50.0000:
STOP.M 216.0000:
STEP.M 0.1250:
NULL. -999.2500:
UWI. F10015:
~C
DEPT.M :
GR.API :
RML.OHMM :
RI. :
RXO.OHMM :
CALI.CM :
DEN.GM/CC :
SP.MV :
~A
# ...
   95.0000    87.5230     9.9000     8.4120     7.7850    24.8980     2.2980    -8.9060 
   95.1250    91.5490     8.9520     7.5950     7.0400    24.8780     2.3030    -8.9460 
   95.2500    92.4620     8.1010     6.7970     7.1640    24.8680     2.3040    -8.9480 
   95.3750    90.8780     7.4090     6.1390     6.7730    24.8610     2.3080    -8.8190 
   95.5000    89.2660     7.0030     5.7390     6.2260    24.8400     2.3230    -8.6470 
   95.6250    87.5540     7.0230     5.6620     5.8590    24.8090     2.3540    -8.5040 
   95.7500    84.8030     7.7570     6.0760     6.1660    24.7550     2.3990    -8.4710 
   95.8750    80.3210     9.4180     7.1290     7.8680    24.6600     2.4520    -8.5880 
   96.0000    74.7870    11.9260     8.8220    11.9860    24.4980     2.4930    -8.7930 
   96.1250    69.5710    14.9150    11.1910    19.8650    24.2580     2.4730    -9.2150 
   96.2500    65.1980    17.0660    13.2010    20.0050    24.0960     2.4130    -9.8150 
   96.3750    63.1470    17.6050    14.1060    16.2330    24.0180     2.3370   -10.5950 
   96.5000    63.3200    16.7790    13.9310    12.7070    23.9820     2.2730   -11.4810 
   96.6250    64.0900    15.3500    13.1210    12.0990    23.9460     2.2370   -12.4100 
   96.7500    62.3530    14.0830    12.1910    13.7680    23.9270     2.2330   -13.3920 
   96.8750    58.1660    13.4150    11.5570    14.8010    23.9600     2.2330   -14.3090 
   97.0000    55.9380    13.1210    11.1720    13.1720    24.1120     2.2180   -15.1870 
   97.1250    56.0710    12.9800    10.9160    11.5410    24.4010     2.1950   -15.9600 
   97.2500    56.6520    12.8850    10.7330    10.9100    24.8080     2.1690   -16.5860 
   97.3750    55.5140    12.8060    10.6050    11.1380    25.2460     2.1470   -17.0710 
   97.5000    52.3000    12.7520    10.5320    11.4420    25.5360     2.1300   -17.4800 
   97.6250    51.5860    12.7150    10.5340    11.6390    25.5670     2.1190   -17.7190 
   97.7500    52.5910    12.6330    10.5410    11.8220    25.5250     2.1110   -17.8560 
   97.8750    53.7880    12.4960    10.5320    11.8110    25.4570     2.1060   -17.9130 
   98.0000    54.6720    12.3290    10.5100    11.6700    25.4030     2.1070   -17.9130 
   98.1250    55.2550    12.1740    10.4950    11.5190    25.3820     2.1110   -17.8790 
   98.2500    55.5630    12.0640    10.5120    11.3500    25.3820     2.1200   -17.8260 
   98.3750    56.2400    12.0220    10.5870    11.4070    25.3820     2.1280   -17.7480 
   98.5000    53.9780    12.0460    10.7280    11.7350    25.3820     2.1310   -17.6360 
   98.6250    50.3970    12.1190    10.9160    11.9020    25.3820     2.1270   -17.5190 
   98.7500    48.9250    12.2020    11.1090    11.7710    25.3820     2.1190   -17.3440 
   98.8750    51.8500    12.2310    11.2420    11.4520    25.3820     2.1090   -17.0430 
   99.0000    57.3580    12.1080    11.2240    11.2550    25.3820     2.1040   -16.6270 
   99.1250    62.0160    11.5640    10.7840    11.0890    25.3820     2.1210   -15.9270 
   99.2500    67.4670    10.7530    10.0700    10.4010    25.3820     2.1560   -14.9950 
   99.3750    74.3970     9.7730     9.1610     8.9550    25.3820     2.2080   -13.8560 
   99.5000    82.0910     8.7650     8.1840     7.3370    25.3840     2.2670   -12.6040 
   99.6250    88.8890     7.8660     7.2650     6.2540    25.3980     2.3200   -11.3530 
   99.7500    92.6320     7.1670     6.4940     5.8210    25.4400     2.3570   -10.1660 
   99.8750    93.1200     6.6250     5.8770     5.6380    25.5120     2.3770    -9.0780 
  100.0000    91.1520     6.1550     5.3830     5.5540    25.5640     2.3830    -8.1570 
  100.1250    88.4450     5.7920     5.0280     5.5450    25.5900     2.3830    -7.4090 
  100.2500    86.5170     5.7340     4.9290     5.6270    25.5980     2.3860    -6.8880 
  100.3750    85.5780     6.2230     5.2280     5.8940    25.5960     2.4040    -6.6180 
  100.5000    83.4160     7.4280     6.0180     6.5630    25.5950     2.4430    -6.5190 
  100.6250    76.1630    10.0340     7.9100    11.0600    25.5950     2.4940    -6.6850 
  100.7500    68.0270    13.2880    10.5380    23.6800    25.5950     2.5170    -7.0390 
  100.8750    61.7540    16.2430    13.2980    33.3730    25.6060     2.4920    -7.5650 
  101.0000    58.3470    18.0420    15.3820    31.8340    25.6430     2.4230    -8.2260 
  101.1250    57.0950    18.1630    16.1290    20.1490    25.7150     2.3350    -8.9860 
  101.2500    55.6090    16.6810    15.3840    15.4400    25.8110     2.2560    -9.8380 
  101.3750    52.6390    15.1990    14.3640    14.8960    25.8710     2.2120   -10.6850 
  101.5000    51.5620    14.5530    13.8010    15.1920    25.8900     2.1910   -11.4210 
  101.6250    51.6400    14.5840    13.6860    15.7990    25.8940     2.1790   -12.0320 
  101.7500    52.0170    15.0660    13.9260    16.1250    25.8940     2.1700   -12.4550 
  101.8750    52.5360    15.7250    14.3550    15.8790    25.8940     2.1620   -12.6610 
  102.0000    54.5620    16.2650    14.7380    15.4460    25.8940     2.1570   -12.7410 
  102.1250    54.8740    16.4240    14.8540    15.5350    25.8940     2.1500   -12.6400 
  102.2500    52.2770    16.3380    14.7810    15.3490    25.8940     2.1380   -12.4990 
  102.3750    50.3490    16.0340    14.5370    14.9830    25.8600     2.1230   -12.2930 
  102.5000    50.6980    15.5970    14.1840    14.3530    25.7120     2.1130   -12.0470 
  102.6250    52.7680    15.1350    13.8040    13.4720    25.3610     2.1130   -11.7830 
  102.7500    53.6360    14.7450    13.4700    12.7290    24.7490     2.1290   -11.4830 
  102.8750    53.4940    14.5040    13.2500    12.5000    24.4200     2.1480   -11.2300 
  103.0000    53.8690    14.3840    13.1340    12.3460    24.5360     2.1630   -11.0280 
  103.1250    54.3370    14.3330    13.0810    12.4860    24.7590     2.1730   -10.8440 
  103.2500    55.0770    14.3340    13.0720    12.7990    24.9060     2.1790   -10.6640 
  103.3750    56.3720    14.3850    13.0990    12.9660    24.9380     2.1830   -10.4940 
  103.5000    58.1020    14.4820    13.1510    12.6220    24.9380     2.1830   -10.3660 
  103.6250    59.0100    14.6420    13.2300    12.6770    24.9380     2.1750   -10.2180 
  103.7500    59.0350    14.7910    13.2910    13.0930    24.9380     2.1670   -10.1050 
  103.8750    58.4700    14.8490    13.2790    13.1130    24.9380     2.1610    -9.9800 
  104.0000    57.8380    14.7740    13.1700    12.6630    24.9380     2.1600    -9.7930 
  104.1250    57.5980    14.5660    12.9670    12.0550    24.9380     2.1590    -9.5300 
  104.2500    57.8600    14.2760    12.7060    11.6820    24.9380     2.1530    -9.2510 
  104.3750    58.2460    14.2530    12.6280    11.6370    24.9140     2.1410    -8.9120 
  104.5000    59.8060    15.0020    13.0970    11.5170    24.8310     2.1430    -8.5180 
  104.6250    61.5190    16.5560    14.1770    11.3490    24.7380     2.1700    -8.0550 
  104.7500    61.9910    18.7400    15.8310    11.7330    24.6850     2.2300    -7.4990 
  104.8750    60.8280    21.0450    17.7590    13.3540    24.6880     2.3180    -6.8580 
  105.0000    59.9930    22.5090    19.2350    16.5000    24.7010     2.4150    -6.2050 
  105.1250    62.8010    21.0380    18.4400    19.4120    24.6560     2.4820    -5.5990 
  105.2500    66.7210    18.1580    16.3790    16.3300    24.6020     2.5130    -4.9970 
  105.3750    71.0780    14.9650    13.8990    12.4330    24.5560     2.5030    -4.4080 
  105.5000    74.4390    12.2300    11.6440     9.8010    24.5150     2.4630    -3.8890 
  105.6250    75.5090    10.4110    10.0330     8.6450    24.4670     2.4120    -3.4870 
  105.7500    74.0350     9.6680     9.2330     8.5460    24.4070     2.3660    -3.1750 
  105.8750    75.7980     9.5850     9.0250     8.7870    24.3710     2.3420    -2.9440 
  106.0000    78.2310     9.6600     9.0630     8.5810    24.3590     2.3360    -2.7610 
  106.1250    80.3150     9.6760     9.1260     8.2150    24.3570     2.3400    -2.6040 
