~V
VERS. 2.00: Ver 2.00
~W
STRT.M 62.0000:
STOP.M 254.0000:
STEP.M 0.1250:
NULL. -999.2500:
UWI. F10030:
~C
DEPT.M :
DEN.GM/CC :
GR.API :
RML.OHMM :
RI. :
RXO.OHMM :
CALI.CM :
SP.MV :
~A
# ...
  163.2500     2.5300    55.2860    30.0110    28.2060    27.6430    22.7810   -16.6580 
  163.3750     2.5410    52.5810    28.6950    27.2290    25.5950    22.9160   -16.5470 
  163.5000     2.5290    48.7230    27.9720    26.7340    25.3410    23.0610   -16.4630 
  163.6250     2.5020    47.3900    28.2840    27.1020    27.8210    23.2180   -16.4190 
  163.7500     2.4790    48.0800    29.4860    28.2700    30.9570    23.3590   -16.3900 
  163.8750     2.4730    48.7740    31.2890    30.0460    31.0130    23.4930   -16.3880 
  164.0000     2.4870    48.7210    33.1890    32.0120    31.2390    23.6030   -16.3710 
  164.1250     2.5140    47.4870    34.4330    33.4600    33.5730    23.6660   -16.4000 
  164.2500     2.5370    46.5610    34.6730    33.9830    35.7990    23.7000   -16.4140 
  164.3750     2.5460    47.4720    33.9320    33.5350    38.0820    23.7190   -16.4600 
  164.5000     2.5370    49.8130    32.5720    32.4040    36.9320    23.7230   -16.4880 
  164.6250     2.5170    50.6970    31.1710    31.0680    33.8200    23.6780   -16.4880 
  164.7500     2.4950    49.4890    30.1810    29.9790    31.2120    23.5740   -16.5270 
  164.8750     2.4770    47.8120    29.7560    29.3270    31.0650    23.4400   -16.5260 
  165.0000     2.4670    47.3650    29.8680    29.1540    32.5660    23.3370   -16.5180 
  165.1250     2.4640    48.3070    30.4520    29.4750    32.9470    23.3340   -16.4760 
  165.2500     2.4680    48.7920    31.3190    30.1350    32.2010    23.4220   -16.3870 
  165.3750     2.4800    48.2980    32.4100    31.0780    31.6310    23.5470   -16.2760 
  165.5000     2.5010    47.0720    33.6910    32.2650    31.9320    23.6400   -16.2010 
  165.6250     2.5270    46.6290    35.0900    33.6530    34.6970    23.6650   -16.1300 
  165.7500     2.5500    47.2190    36.3850    35.0380    37.8250    23.6700   -16.0490 
  165.8750     2.5660    49.2480    37.3210    36.1710    41.3210    23.6950   -16.0090 
  166.0000     2.5740    53.2950    37.6650    36.7780    42.9490    23.7570   -15.9820 
  166.1250     2.5780    55.9740    37.1780    36.5410    45.1070    23.8420   -16.0150 
  166.2500     2.5850    55.4030    36.0310    35.5730    46.2290    23.9090   -16.0860 
  166.3750     2.5980    53.5930    34.3890    34.0350    43.8170    23.9380   -16.1830 
  166.5000     2.6140    52.5460    32.4750    32.1840    40.5950    23.9040   -16.2870 
  166.6250     2.6290    51.3740    30.5710    30.3410    36.6840    23.7780   -16.4050 
  166.7500     2.6400    48.7350    28.9310    28.7690    33.6470    23.6170   -16.5440 
  166.8750     2.6440    46.7590    27.7100    27.6030    29.0690    23.5150   -16.6640 
  167.0000     2.6380    48.3400    26.9710    26.8860    24.7910    23.5460   -16.7880 
  167.1250     2.6180    52.5640    26.7470    26.6500    25.3120    23.6140   -16.8610 
  167.2500     2.5850    54.9840    26.8210    26.7150    28.0700    23.6420   -16.9100 
  167.3750     2.5430    55.3810    26.9870    26.9080    30.6410    23.5030   -16.9220 
  167.5000     2.4990    55.9880    26.9900    26.9930    30.5800    23.2130   -16.8800 
  167.6250     2.4620    56.0800    26.5230    26.6550    29.6190    23.0290   -16.8480 
  167.7500     2.4350    54.2240    25.6170    25.8690    28.6260    23.1390   -16.7940 
  167.8750     2.4190    53.3350    24.4590    24.7800    26.3670    23.4600   -16.7500 
  168.0000     2.4100    55.2920    23.3660    23.6710    23.5850    23.7860   -16.7390 
  168.1250     2.4030    56.5430    22.7560    22.9210    22.6350    23.8940   -16.7670 
  168.2500     2.3970    55.7200    22.7530    22.6810    25.0130    23.7890   -16.8070 
  168.3750     2.3940    55.0710    23.3300    22.9660    27.5280    23.5500   -16.8780 
  168.5000     2.3970    54.6170    24.2980    23.6510    28.5740    23.3250   -16.9590 
  168.6250     2.4080    53.6840    25.3220    24.4780    29.5700    23.2290   -16.9950 
  168.7500     2.4210    53.9300    26.0610    25.1090    30.7300    23.2460   -17.0480 
  168.8750     2.4320    55.9180    26.3640    25.3530    30.5920    23.3130   -17.1060 
  169.0000     2.4380    57.0300    26.2770    25.1910    29.8700    23.3750   -17.1240 
  169.1250     2.4410    55.6650    26.0050    24.7690    30.0040    23.4000   -17.1240 
  169.2500     2.4460    53.0160    25.8410    24.3790    30.2550    23.4060   -17.0940 
  169.3750     2.4590    51.3180    25.9380    24.1840    29.7800    23.4110   -17.0310 
  169.5000     2.4780    51.9830    26.3200    24.2240    30.2320    23.4290   -16.9840 
  169.6250     2.5040    53.7190    26.8380    24.3880    30.4940    23.4690   -16.9230 
  169.7500     2.5310    54.8910    27.1390    24.4020    30.7300    23.5160   -16.8380 
  169.8750     2.5510    54.1360    26.9150    24.0460    28.7160    23.5520   -16.7250 
  170.0000     2.5590    52.5870    25.9990    23.2160    26.1140    23.5700   -16.5880 
  170.1250     2.5470    53.4220    24.3990    21.9260    24.3420    23.5700   -16.3770 
  170.2500     2.5250    55.5370    22.5740    20.4760    24.6880    23.5660   -16.1820 
  170.3750     2.5050    55.3690    20.9000    19.1030    27.2550    23.5790   -15.9780 
  170.5000     2.4930    52.7730    19.6520    17.9980    24.5870    23.6380   -15.7400 
  170.6250     2.4930    53.0330    18.9750    17.3190    21.4850    23.7400   -15.5430 
  170.7500     2.4960    55.1730    18.5110    16.9710    20.5380    23.8170   -15.3030 
  170.8750     2.4950    56.0760    17.9700    16.8350    19.6090    23.8320   -15.0570 
  171.0000     2.4870    56.8580    17.5770    16.7690    17.7960    23.7970   -14.7890 
  171.1250     2.4750    58.7500    17.3660    16.6620    17.4260    23.7750   -14.5540 
  171.2500     2.4640    58.9370    17.2830    16.5180    16.9000    23.8260   -14.3400 
  171.3750     2.4580    57.2020    17.3130    16.3980    17.6700    23.9560   -14.1170 
  171.5000     2.4580    54.6410    17.5240    16.3600    19.2820    24.1000   -13.9530 
  171.6250     2.4680    52.1580    17.9000    16.4170    21.0430    24.1830   -13.7850 
  171.7500     2.4880    51.2200    18.2850    16.4940    21.2270    24.1820   -13.6290 
  171.8750     2.5130    52.7010    18.5520    16.5160    20.1410    24.1000   -13.5100 
  172.0000     2.5350    54.5790    18.6120    16.4290    18.4260    23.9770   -13.4090 
  172.1250     2.5360    54.1900    18.4010    16.1870    16.6820    23.9250   -13.3100 
  172.2500     2.5110    53.7760    17.9890    15.8230    16.9450    24.0010   -13.2110 
  172.3750     2.4660    54.8540    17.4280    15.3600    18.0240    24.1390   -13.1260 
  172.5000     2.4180    55.7100    16.7790    14.8290    18.8410    24.2410   -13.0490 
  172.6250     2.3870    54.9190    16.1330    14.2960    17.7050    24.2900   -12.9710 
  172.7500     2.3780    53.4170    15.5920    13.8590    16.7330    24.3240   -12.9240 
  172.8750     2.3860    52.7730    15.2390    13.6080    16.3560    24.3550   -12.8630 
  173.0000     2.4050    52.6810    15.1470    13.6100    16.0460    24.3710   -12.7990 
  173.1250     2.4280    50.5060    15.4470    13.9710    17.5880    24.3690   -12.7840 
  173.2500     2.4460    46.5860    16.1180    14.6540    19.0090    24.3620   -12.7780 
  173.3750     2.4580    44.8910    17.0910    15.5980    19.2530    24.3620   -12.7940 
  173.5000     2.4660    48.3150    18.1340    16.6130    19.5560    24.3680   -12.8230 
  173.6250     2.4790    53.3230    18.4170    17.2300    22.0720    24.3590   -12.8690 
  173.7500     2.4930    54.9410    17.4290    17.0420    26.2320    24.3380   -12.9120 
  173.8750     2.4970    54.1400    15.4220    15.8710    25.6980    24.3210   -12.9500 
  174.0000     2.4760    54.0550    13.0590    13.9260    19.3630    24.3210   -13.0070 
  174.1250     2.4250    54.7170    10.9490    11.7270    13.9090    24.3710   -13.0430 
  174.2500     2.3610    55.9990     9.4330     9.8180    10.2730    24.5540   -13.0430 
  174.3750     2.3050    57.0860     8.5260     8.4150     8.4520    24.8940   -13.0480 
