~V
VERS. 2.00: Ver 2.00
~W
STRT.M 55.0000:
STOP.M 292.0000:
STEP.M 0.1250:
NULL. -999.2500:
UWI. F10078:
~C
DEPT.M :
GR.API :
RML.OHMM :
RI. :
RXO.OHMM :
CALI.CM :
DEN.GM/CC :
SP.MV :
~A
# ...
  246.2500    63.1300    40.1470    35.4580    41.6420    23.8810     2.2520    -3.3810 
  246.3750    58.9460    42.4490    37.5180    44.8850    23.9030     2.2300    -3.5980 
  246.5000    56.5030    44.3290    39.4020    46.3180    23.9050     2.2140    -3.8210 
  246.6250    57.4510    45.5420    40.8190    46.4630    23.8970     2.2090    -4.0500 
  246.7500    58.8250    46.3370    41.8410    46.7850    23.8680     2.2130    -4.2110 
  246.8750    61.1740    46.9760    42.6240    48.2700    23.8340     2.2200    -4.4050 
  247.0000    63.7240    47.6380    43.3330    50.2630    23.8200     2.2260    -4.6390 
  247.1250    62.9660    48.3010    44.0360    51.9340    23.8300     2.2280    -4.8070 
  247.2500    60.9360    48.7700    44.6560    52.9400    23.8520     2.2250    -5.0110 
  247.3750    61.2690    48.8260    45.0360    53.4080    23.8690     2.2190    -5.2800 
  247.5000    63.6750    48.2900    44.9820    53.7360    23.8750     2.2140    -5.4870 
  247.6250    64.4060    46.9560    44.2430    53.4170    23.8750     2.2130    -5.6660 
  247.7500    64.1580    45.0150    42.9200    52.2840    23.8750     2.2160    -5.8870 
  247.8750    64.5210    42.6720    41.1780    49.7480    23.8750     2.2220    -6.0670 
  248.0000    64.1070    40.2110    39.2660    45.9230    23.8750     2.2260    -6.2010 
  248.1250    61.7790    37.9980    37.4720    42.0290    23.8750     2.2250    -6.3720 
  248.2500    60.5000    36.2260    35.9460    39.4120    23.8750     2.2180    -6.4970 
  248.3750    60.7520    34.9530    34.7340    38.3640    23.8730     2.2110    -6.5770 
  248.5000    60.7020    34.1360    33.8360    37.6340    23.8700     2.2070    -6.7200 
  248.6250    60.2550    33.7090    33.2860    36.7780    23.8620     2.2110    -6.9290 
  248.7500    63.0030    33.5040    33.0040    35.8910    23.8480     2.2190    -7.1260 
  248.8750    67.5430    33.4550    32.9400    35.3100    23.8320     2.2280    -7.3780 
  249.0000    69.6920    33.5020    33.0100    35.2660    23.8280     2.2330    -7.6600 
  249.1250    68.0840    33.5550    33.0950    35.5950    23.8220     2.2350    -7.8630 
  249.2500    65.6960    33.5340    33.0870    35.8350    23.8050     2.2330    -8.0540 
  249.3750    62.8860    33.4830    32.9780    35.7930    23.7700     2.2320    -8.2210 
  249.5000    59.5010    33.6340    32.9170    35.5700    23.7200     2.2340    -8.3250 
  249.6250    58.2980    34.6280    33.3890    35.6110    23.6590     2.2380    -8.4000 
  249.7500    57.6410    37.0060    34.9080    36.6950    23.6330     2.2420    -8.4470 
  249.8750    56.3240    41.2410    37.9750    40.0550    23.6580     2.2400    -8.4300 
  250.0000    55.4900    47.4390    42.8350    47.0820    23.7170     2.2330    -8.4470 
  250.1250    56.9630    55.1640    49.3580    57.8180    23.7490     2.2250    -8.6060 
  250.2500    57.3740    62.7430    56.1630    69.0640    23.7250     2.2200    -8.7830 
  250.3750    56.1110    68.5850    61.8220    76.8700    23.6580     2.2210    -8.9780 
  250.5000    57.3400    71.4710    65.0840    78.1660    23.5960     2.2270    -9.2280 
  250.6250    60.6600    70.7350    65.0710    73.6120    23.5550     2.2320    -9.4090 
  250.7500    60.2500    68.0170    63.0290    67.9100    23.5010     2.2350    -9.5580 
  250.8750    56.7290    64.6970    60.1240    63.0800    23.4160     2.2370    -9.7350 
  251.0000    54.8910    61.7800    57.3050    59.7900    23.3280     2.2390    -9.8630 
  251.1250    58.1850    59.8300    55.1880    56.6930    23.3000     2.2410    -9.8890 
  251.2500    61.1020    58.6810    53.7760    53.4600    23.3330     2.2420    -9.9150 
  251.3750    60.3490    58.1470    52.9810    51.4730    23.4040     2.2390    -9.9690 
  251.5000    56.9040    57.9940    52.6450    52.0040    23.4840     2.2310    -9.9670 
  251.6250    55.4820    57.9580    52.5970    54.1870    23.5580     2.2210    -9.9640 
  251.7500    57.5860    57.7860    52.5910    54.9250    23.5950     2.2120   -10.0010 
  251.8750    59.0910    57.3690    52.4900    55.4250    23.6130     2.2070    -9.9780 
  252.0000    57.9320    56.7160    52.2240    55.7960    23.6030     2.2080    -9.9360 
  252.1250    58.4400    55.9610    51.7890    55.3140    23.5610     2.2110    -9.9260 
  252.2500    61.4480    55.3120    51.3040    54.2420    23.5190     2.2150    -9.8970 
  252.3750    62.5040    54.8970    50.8700    52.4620    23.4890     2.2190    -9.8630 
  252.5000    59.1490    54.7530    50.5590    49.4790    23.4610     2.2240    -9.8390 
  252.6250    57.0140    54.8250    50.4030    47.4690    23.4300     2.2290    -9.7880 
  252.7500    57.7860    54.8980    50.3150    46.8090    23.4070     2.2320    -9.7290 
  252.8750    57.5380    54.7910    50.1970    47.0580    23.3960     2.2310    -9.6970 
  253.0000    54.9810    54.3900    49.9650    47.6930    23.4040     2.2270    -9.6070 
  253.1250    54.7840    53.6670    49.5830    48.2080    23.4300     2.2230    -9.4540 
  253.2500    57.1450    52.8410    49.1660    48.2370    23.4590     2.2200    -9.3350 
  253.3750    58.6200    52.1170    48.8420    47.8920    23.4600     2.2210    -9.1980 
  253.5000    58.1960    51.6280    48.6810    47.4610    23.4270     2.2250    -9.0820 
  253.6250    57.1820    51.3040    48.5830    47.2020    23.3730     2.2300    -9.0530 
  253.7500    56.1200    50.7300    48.2120    47.2730    23.3470     2.2360    -8.9750 
  253.8750    55.0300    49.4310    47.1880    47.0080    23.3200     2.2420    -8.8740 
  254.0000    55.0950    47.0790    45.2570    45.6090    23.2790     2.2450    -8.8500 
  254.1250    56.2950    43.6740    42.4050    41.9130    23.2190     2.2450    -8.8260 
  254.2500    57.0510    40.0390    39.2770    36.3190    23.1170     2.2430    -8.7190 
  254.3750    57.3590    36.8890    36.4180    30.5320    22.9820     2.2410    -8.6120 
  254.5000    56.2430    34.6800    34.2010    26.9980    22.8780     2.2420    -8.5020 
  254.6250    53.8700    33.5490    32.8310    27.3540    22.8050     2.2480    -8.3430 
  254.7500    53.6530    32.9110    31.9910    28.5300    22.7700     2.2570    -8.2550 
  254.8750    56.6300    32.3100    31.3970    28.6670    22.8100     2.2640    -8.2350 
  255.0000    61.0820    31.4530    30.7930    27.4670    22.9370     2.2630    -8.2150 
  255.1250    64.1240    30.2710    30.0080    25.6980    23.0290     2.2540    -8.2900 
  255.2500    63.7350    29.0180    29.1080    24.8520    23.0440     2.2430    -8.5050 
  255.3750    60.3800    27.9410    28.2450    24.4770    23.0270     2.2340    -8.7570 
  255.5000    57.6560    27.2200    27.5860    24.0560    22.9730     2.2300    -9.0760 
  255.6250    58.5970    26.9780    27.2880    23.1400    22.8720     2.2300    -9.4820 
  255.7500    60.3100    27.0690    27.3000    22.7780    22.7280     2.2330    -9.8480 
  255.8750    60.1360    27.3790    27.5620    23.2320    22.5560     2.2370   -10.1960 
  256.0000    59.3710    27.8260    28.0100    25.0220    22.4380     2.2440   -10.5410 
  256.1250    59.4320    28.4570    28.6280    26.9620    22.4520     2.2550   -10.8230 
  256.2500    60.3490    29.3810    29.4110    27.2080    22.5170     2.2680   -11.0660 
  256.3750    60.6300    30.7520    30.4300    25.6830    22.4750     2.2800   -11.2580 
  256.5000    59.7500    32.6550    31.7790    25.1400    22.2960     2.2870   -11.2910 
  256.6250    58.7890    35.1010    33.5780    27.4580    22.2880     2.2860   -11.1620 
  256.7500    58.7160    37.7870    35.7060    31.2420    22.4690     2.2790   -11.0230 
  256.8750    58.3490    40.4560    37.9900    35.6900    22.7750     2.2690   -10.8110 
  257.0000    57.1440    42.8830    40.1840    39.9200    23.0760     2.2570   -10.5160 
  257.1250    57.1160    44.8480    41.9720    43.2830    23.3410     2.2470   -10.1970 
  257.2500    58.2280    46.3800    43.2690    45.6530    23.5540     2.2400    -9.7900 
  257.3750    58.3920    47.5010    44.0750    47.1200    23.6790     2.2370    -9.3230 
