~V
VERS. 2.00: Ver 2.00
~W
STRT.M 50.0000:
STOP.M 266.0000:
STEP.M 0.1250:
NULL. -999.2500:
UWI. F10057:
~C
DEPT.M :
GR.API :
RML.OHMM :
RI. :
RXO.OHMM :
CALI.CM :
DEN.GM/CC :
SP.MV :
~A
# ...
  117.5000    84.0780     6.6020     6.0550     6.6130    23.8530     2.3350    -4.4410 
  117.6250    85.3810     6.5780     5.9950     6.2040    23.5250     2.3450    -4.4070 
  117.7500    85.2330     6.6000     5.9760     5.6310    23.1380     2.3530    -4.3900 
  117.8750    85.2820     6.6770     5.9930     5.2790    22.8470     2.3570    -4.4380 
  118.0000    86.1680     6.7940     6.0320     5.2580    22.7570     2.3550    -4.4920 
  118.1250    86.1390     6.8950     6.0610     5.6390    22.8280     2.3440    -4.5080 
  118.2500    84.2050     6.8940     6.0250     6.1560    22.9690     2.3300    -4.5090 
  118.3750    82.8440     6.7390     5.8870     6.2920    23.1790     2.3190    -4.5370 
  118.5000    85.2580     6.4700     5.6670     5.9980    23.3630     2.3170    -4.6410 
  118.6250    90.1730     6.2860     5.4920     5.8270    23.3420     2.3220    -4.8260 
  118.7500    91.9750     6.4360     5.5340     6.1800    23.1790     2.3280    -5.0270 
  118.8750    89.5300     7.1430     5.9580     6.9250    23.0410     2.3340    -5.2320 
  119.0000    84.6220     8.5630     6.8920     7.8970    23.0220     2.3460    -5.5100 
  119.1250    81.0010    10.7990     8.4740    10.2090    23.0630     2.3680    -5.8950 
  119.2500    79.1480    13.3520    10.4330    15.4350    23.1390     2.3910    -6.2950 
  119.3750    78.0420    15.5140    12.3150    22.5210    23.2770     2.3990    -6.6590 
  119.5000    76.2020    16.5480    13.5200    23.3020    23.4430     2.3820    -6.9950 
  119.6250    74.3480    16.0880    13.5850    17.3350    23.4720     2.3400    -7.3530 
  119.7500    72.8380    15.0100    13.0050    13.5540    23.3250     2.2960    -7.7010 
  119.8750    70.8700    14.0330    12.2970    12.4850    23.1450     2.2680    -8.0000 
  120.0000    68.9450    13.5540    11.8110    12.6300    23.1380     2.2630    -8.2240 
  120.1250    70.1040    13.6510    11.7140    12.8940    23.3960     2.2810    -8.3610 
  120.2500    71.7690    13.9780    11.8370    13.2600    23.7300     2.3060    -8.4760 
  120.3750    70.4820    14.2610    12.0060    13.7570    23.9440     2.3250    -8.5910 
  120.5000    66.4490    14.3060    12.0590    14.0660    23.9530     2.3300    -8.6540 
  120.6250    62.1910    14.0130    11.8930    13.9920    23.8280     2.3140    -8.6260 
  120.7500    60.1990    13.5460    11.5830    13.9130    23.7260     2.2880    -8.5390 
  120.8750    63.1220    13.1380    11.2800    14.0300    23.6930     2.2620    -8.4120 
  121.0000    69.9990    13.0560    11.1830    14.0000    23.6770     2.2440    -8.2600 
  121.1250    74.8830    13.5620    11.5090    13.3500    23.5800     2.2430    -8.0830 
  121.2500    74.1320    14.5140    12.1810    12.7980    23.3940     2.2640    -7.8760 
  121.3750    70.5380    15.6300    13.0330    13.9930    23.2750     2.3030    -7.6600 
  121.5000    68.3930    16.4770    13.7610    18.6760    23.4340     2.3410    -7.4440 
  121.6250    68.2510    16.5330    13.9710    24.9850    23.8210     2.3520    -7.2390 
  121.7500    68.1090    15.9340    13.6860    24.5320    24.0550     2.3320    -7.0510 
  121.8750    67.0880    15.0580    13.1230    18.9400    24.0190     2.2950    -6.8870 
  122.0000    64.9040    14.2550    12.5160    15.0500    23.8780     2.2640    -6.7200 
  122.1250    61.6740    13.6110    11.9630    14.4850    23.8070     2.2540    -6.5100 
  122.2500    59.1800    12.8960    11.3700    14.9130    23.8190     2.2520    -6.2660 
  122.3750    59.9510    11.9040    10.6180    16.2130    23.9770     2.2470    -5.9400 
  122.5000    64.2030    10.6170     9.6810    18.1760    24.2500     2.2370    -5.5930 
  122.6250    70.5310     9.3160     8.7160    16.1240    24.4060     2.2330    -5.2370 
  122.7500    75.6130     8.3740     7.9600    11.3610    24.3170     2.2390    -4.8770 
  122.8750    77.7420     7.9630     7.5530     8.2630    24.0290     2.2500    -4.5450 
  123.0000    77.4800     8.0650     7.5230     8.1980    23.6500     2.2570    -4.2400 
  123.1250    76.8730     8.5250     7.8220    10.0770    23.2760     2.2550    -3.9830 
  123.2500    76.9760     8.9640     8.1810    11.1400    23.0180     2.2540    -3.7650 
  123.3750    78.3200     9.0850     8.3570    10.9420    22.8930     2.2610    -3.6070 
  123.5000    81.3920     8.7420     8.1680     9.9280    22.8730     2.2780    -3.4740 
  123.6250    86.7310     8.0000     7.5830     8.2140    22.9520     2.2990    -3.3610 
  123.7500    90.7530     7.1890     6.8580     6.6570    23.0680     2.3170    -3.2820 
  123.8750    90.6210     6.4770     6.1610     5.9710    23.1430     2.3290    -3.2450 
  124.0000    87.6310     5.9450     5.5920     6.0090    23.1420     2.3380    -3.2380 
  124.1250    85.5090     5.6830     5.2510     6.2180    23.1100     2.3490    -3.2720 
  124.2500    85.7800     5.6900     5.1380     6.4310    23.1420     2.3660    -3.3550 
  124.3750    86.5720     5.9910     5.2680     6.4500    23.3040     2.3820    -3.5340 
  124.5000    85.5310     6.6040     5.6500     6.3020    23.5820     2.3880    -3.8080 
  124.6250    81.5330     7.5480     6.3160     7.3280    23.7490     2.3680    -4.1300 
  124.7500    74.8100     8.6360     7.1510     9.8700    23.6260     2.3250    -4.4650 
  124.8750    68.2840     9.6510     8.0160    12.2650    23.2970     2.2700    -4.7720 
  125.0000    64.9030    10.3660     8.7240    12.4960    22.9860     2.2180    -5.0430 
  125.1250    65.8910    10.5680     9.0450    11.6300    22.7850     2.1860    -5.2600 
  125.2500    68.5230    10.3890     9.0070    11.0730    22.6010     2.1740    -5.4190 
  125.3750    71.4530    10.0150     8.7450    10.5470    22.4430     2.1770    -5.5050 
  125.5000    73.8180     9.6280     8.4200    10.1370    22.3830     2.1870    -5.5030 
  125.6250    73.6380     9.3550     8.1710     9.7460    22.4270     2.1970    -5.3920 
  125.7500    71.5470     9.2820     8.0700     9.6160    22.5070     2.2010    -5.1990 
  125.8750    69.3260     9.5770     8.2190    10.0370    22.5960     2.2030    -4.9550 
  126.0000    66.8530    10.4310     8.7460    10.7630    22.6950     2.2100    -4.6810 
  126.1250    64.1320    11.9920     9.8050    11.5380    22.8110     2.2410    -4.4150 
  126.2500    63.2740    13.8400    11.1600    13.8450    22.9250     2.3040    -4.1150 
  126.3750    65.2980    15.2920    12.3650    20.2930    23.0130     2.3890    -3.7690 
  126.5000    68.9480    15.5130    12.7790    31.2780    23.1390     2.4700    -3.3960 
  126.6250    74.4610    13.9160    11.8440    31.1930    23.4400     2.5050    -3.0380 
  126.7500    81.7550    11.4900    10.1620    19.4520    23.8160     2.4870    -2.7470 
  126.8750    87.8160     9.1770     8.3960    10.8090    24.1160     2.4320    -2.5290 
  127.0000    89.5220     7.5290     6.9900     7.4220    24.3140     2.3690    -2.3660 
  127.1250    87.6450     6.7970     6.2050     7.0470    24.4730     2.3270    -2.2330 
  127.2500    85.6100     6.7130     5.9400     7.1820    24.5790     2.3100    -2.1360 
  127.3750    83.2990     7.0590     6.0840     7.1720    24.6010     2.3070    -2.0710 
  127.5000    81.0400     7.5740     6.4530     7.0720    24.5290     2.3070    -2.0330 
  127.6250    81.8630     7.9540     6.8080     7.4890    24.2950     2.2970    -2.0230 
  127.7500    85.6190     8.0220     6.9520     8.5420    24.0510     2.2780    -1.9880 
  127.8750    88.7000     7.7570     6.8330     9.1680    24.0360     2.2570    -1.8850 
  128.0000    90.2200     7.3010     6.5380     8.4580    24.2920     2.2430    -1.7420 
  128.1250    91.7490     6.9160     6.2570     7.1440    24.5600     2.2480    -1.5900 
  128.2500    92.8680     6.7830     6.1370     6.5790    24.6580     2.2720    -1.4510 
  128.3750    92.0480     6.9440     6.2170     7.4940    24.6550     2.3040    -1.3110 
  128.5000    89.6430     7.3170     6.4540     9.5130    24.6270     2.3300    -1.1770 
  128.6250    88.8770     7.6710     6.7080    10.3100    24.5720     2.3360    -1.0710 
