~V
VERS. 2.00: Ver 2.00
~W
STRT.M 55.0000:
STOP.M 181.0000:
STEP.M 0.1250:
NULL. -999.2500:
UWI. F10008:
~C
DEPT.M :
SP.MV :
GR.API :
RML.OHMM :
RI. :
RXO.OHMM :
CALI.CM :
DEN.GM/CC :
~A
# ...
   66.2500    -4.2430    80.9860     9.3880     8.7800     9.7690    23.9640     2.3010 
   66.3750    -4.4410    79.0360    10.1020     9.1750    10.4010    23.9620     2.2930 
   66.5000    -4.6150    78.5110    10.7780     9.6540    11.5330    23.9230     2.2980 
   66.6250    -4.7310    79.7860    10.9600     9.8420    10.9450    24.0230     2.3060 
   66.7500    -4.8400    80.9890    10.5350     9.5810    10.4180    24.2840     2.3070 
   66.8750    -4.9290    81.5090     9.6550     8.9520     9.7310    24.5410     2.3010 
   67.0000    -4.9440    82.6580     8.7120     8.2310     9.2270    24.6740     2.2910 
   67.1250    -4.8400    85.1190     8.2670     7.7970     8.4840    24.6520     2.2910 
   67.2500    -4.6830    85.8270     8.5560     7.8170     7.7320    24.6230     2.3010 
   67.3750    -4.5400    85.1890     9.5960     8.3450     8.1200    24.6210     2.3130 
   67.5000    -4.4610    83.1050    11.1570     9.3070    10.5640    24.7070     2.3090 
   67.6250    -4.3790    78.4280    12.6100    10.3990    15.9690    24.8960     2.2760 
   67.7500    -4.1420    74.1660    13.2180    11.0720    17.4170    24.9550     2.2290 
   67.8750    -3.8200    72.7870    12.7280    11.0300    13.7130    24.8180     2.1870 
   68.0000    -3.5680    73.8550    11.5120    10.4120    10.8380    24.6580     2.1670 
   68.1250    -3.3990    74.9870    10.2830     9.6310    10.4920    24.6200     2.1770 
   68.2500    -3.2530    78.3740     9.4570     9.0080    10.2630    24.7190     2.2040 
   68.3750    -3.0710    84.1300     9.0310     8.5990     9.6510    24.9150     2.2400 
   68.5000    -2.8560    89.0830     8.8170     8.3330     9.8650    25.2230     2.2820 
   68.6250    -2.6600    90.7750     8.6050     8.0930    10.6510    25.7360     2.3250 
   68.7500    -2.5010    89.9720     8.3770     7.8390     9.3210    26.3380     2.3590 
   68.8750    -2.3860    86.5150     8.2860     7.6380     7.7420    26.0810     2.3720 
   69.0000    -2.2990    83.7320     8.4620     7.5730     7.4370    25.2000     2.3620 
   69.1250    -2.2240    84.0790     8.9100     7.6800     7.9810    24.8180     2.3380 
   69.2500    -2.1380    83.3730     9.3780     7.8480     9.0240    24.7150     2.3210 
   69.3750    -2.0020    78.8850     9.5970     7.9430    10.6140    24.6750     2.3240 
   69.5000    -1.8230    74.8010     9.3740     7.8440    12.3330    24.6350     2.3460 
   69.6250    -1.7390    76.9110     8.8120     7.5610    10.3930    24.6330     2.3700 
   69.7500    -1.7420    80.6630     8.4560     7.3730     9.0590    24.6400     2.3790 
   69.8750    -1.7860    81.1150     8.7770     7.5570     9.0550    24.6310     2.3680 
   70.0000    -1.8490    77.7400    10.1140     8.3630    11.0570    24.6620     2.3380 
   70.1250    -1.9770    73.3990    12.9180    10.2180    15.6410    24.7330     2.2950 
   70.2500    -2.1680    69.6530    17.0390    13.1930    24.6890    24.7360     2.2460 
   70.3750    -2.4250    65.7110    22.0730    17.1580    34.6430    24.7230     2.1960 
   70.5000    -2.6890    61.8850    26.8000    21.2830    36.1820    24.8700     2.1500 
   70.6250    -2.8550    59.6240    28.6600    23.5250    30.9960    25.2210     2.1110 
   70.7500    -3.0210    58.4440    26.8510    22.8920    29.0730    25.2840     2.0800 
   70.8750    -3.1820    57.9950    22.3660    19.8860    27.7730    25.1860     2.0610 
   71.0000    -3.3200    60.8790    17.1580    15.9360    22.1930    25.0350     2.0590 
   71.1250    -3.3700    69.5400    12.9410    12.4430    14.3200    24.8660     2.0860 
   71.2500    -3.3300    78.6260    10.8530     9.8710     9.3500    24.7020     2.1340 
   71.3750    -3.2390    84.9560     9.9640     8.2080     8.0300    24.6340     2.1900 
   71.5000    -3.1590    88.5920     9.3060     7.3100     7.9160    24.6180     2.2380 
   71.6250    -3.1640    89.4660     9.4440     7.0830     7.8260    24.6320     2.2630 
   71.7500    -3.1820    87.7830     9.8580     7.2230     8.0120    24.6470     2.2680 
   71.8750    -3.2010    85.4410    10.2660     7.5310     8.2510    24.6480     2.2610 
   72.0000    -3.2060    84.4730    10.5370     7.8460     7.9140    24.8610     2.2500 
   72.1250    -3.1900    84.0520    10.6690     8.0880     8.1210    25.5100     2.2410 
   72.2500    -3.1750    83.0720    10.7690     8.2810     8.4410    26.2680     2.2350 
   72.3750    -3.1700    82.8400    10.8660     8.4230     9.3090    26.3780     2.2320 
   72.5000    -3.2260    84.3860    10.9190     8.4900     9.3600    26.1000     2.2300 
   72.6250    -3.2040    85.5830    10.8290     8.4450     9.4380    25.8160     2.2270 
   72.7500    -3.0810    84.5810    10.5960     8.3210     9.3770    25.0940     2.2260 
   72.8750    -2.9440    82.3750    10.3060     8.1840     9.8610    24.7850     2.2270 
   73.0000    -2.8360    80.2620    10.1240     8.1240    10.0820    24.7700     2.2350 
   73.1250    -2.7690    79.7880    10.2760     8.2590    10.6970    24.8020     2.2460 
   73.2500    -2.7020    81.2480    10.7710     8.5940    10.3010    24.8120     2.2510 
   73.3750    -2.6300    83.0240    11.4920     9.0980    10.7910    24.7960     2.2420 
   73.5000    -2.5410    82.7340    12.2240     9.6840    11.8880    24.7490     2.2200 
   73.6250    -2.4670    80.4880    12.6780    10.1840    13.0770    24.7000     2.1990 
   73.7500    -2.4030    79.4450    12.7500    10.4480    12.5600    24.6730     2.2020 
   73.8750    -2.3340    80.0620    12.4560    10.4060    12.0300    24.6350     2.2320 
   74.0000    -2.2320    80.4270    11.9150    10.0740    11.6520    24.5930     2.2750 
   74.1250    -2.0560    79.3160    11.2380     9.5110    10.6250    24.6000     2.3000 
   74.2500    -1.8630    79.0850    10.4860     8.8600     9.9430    24.6230     2.2960 
   74.3750    -1.7200    82.0120     9.6610     8.2160     9.3520    24.6340     2.2750 
   74.5000    -1.5540    88.9960     8.8650     7.6820     8.3520    24.6210     2.2540 
   74.6250    -1.3530    95.4230     8.3790     7.4040     7.6440    24.6010     2.2530 
   74.7500    -1.1980    96.6530     8.3910     7.4210     7.6880    24.6010     2.2640 
   74.8750    -1.0790    91.9130     9.0050     7.7630     8.5760    24.6190     2.2720 
   75.0000    -0.9900    84.0630    10.1550     8.4180    10.4350    24.8000     2.2680 
   75.1250    -0.9930    79.5660    11.5250     9.2790    12.6930    25.4590     2.2490 
   75.2500    -1.0940    78.0440    12.5630    10.0180    12.7350    26.0830     2.2230 
   75.3750    -1.2050    75.8780    12.8860    10.3300    11.9580    25.5970     2.1970 
   75.5000    -1.2990    74.0760    12.3890    10.0640    12.3140    24.8950     2.1780 
   75.6250    -1.3630    77.9220    11.2860     9.3180    11.8780    24.5910     2.1730 
   75.7500    -1.3590    84.1820    10.2180     8.5410    10.2690    24.5710     2.1810 
   75.8750    -1.3210    85.7010     9.6320     8.0390     9.0590    24.5050     2.1990 
   76.0000    -1.2850    81.4500     9.8160     8.0090     8.8220    24.5000     2.2210 
   76.1250    -1.2180    77.5270    11.1360     8.7170    11.2060    24.6030     2.2350 
   76.2500    -1.0610    74.8600    13.5590    10.2260    16.4240    24.5970     2.2340 
   76.3750    -0.8980    70.3590    17.0680    12.6340    21.6750    24.5900     2.2200 
   76.5000    -0.8150    63.9440    21.3900    15.8690    25.0630    24.5990     2.1990 
   76.6250    -0.8070    60.9270    25.8430    19.5520    29.0410    24.8160     2.1770 
   76.7500    -0.8460    62.1770    29.4980    22.8860    33.0740    25.1090     2.1590 
   76.8750    -0.8990    62.7840    31.7420    25.2620    35.6940    25.1200     2.1440 
   77.0000    -0.9360    59.3700    32.4100    26.3740    35.0670    25.0300     2.1340 
   77.1250    -1.0020    56.1890    31.5730    26.0740    33.4740    25.0850     2.1380 
   77.2500    -1.1410    58.1350    29.9020    24.8650    31.8140    25.0000     2.1590 
   77.3750    -1.2350    62.5680    27.8200    23.1420    29.9310    24.8340     2.1950 
