~V
VERS. 2.00: Ver 2.00
~W
STRT.M 56.0000:
STOP.M 261.0000:
STEP.M 0.1250:
NULL. -999.2500:
UWI. F10028:
~C
DEPT.M :
GR.API :
RML.OHMM :
RI. :
RXO.OHMM :
CALI.CM :
DEN.GM/CC :
SP.MV :
~A
# ...
   89.7500    71.5830     9.3030     7.4350     9.4150    24.0400     2.1530   -10.9780 
   89.8750    72.0110     9.1730     7.3830     9.5680    24.1520     2.1560   -11.1030 
   90.0000    72.3860     9.2280     7.4580     9.6050    24.2560     2.1410   -11.2620 
   90.1250    72.6010     9.6590     7.7950     9.6000    24.3340     2.1170   -11.3740 
   90.2500    73.1940    10.4470     8.3910     9.7090    24.4560     2.1140   -11.4550 
   90.3750    72.1460    11.4670     9.1770    10.4600    24.6170     2.1520   -11.5450 
   90.5000    69.0190    12.4390     9.9710    13.2780    24.6910     2.2250   -11.6720 
   90.6250    65.8410    12.8820    10.4260    17.2610    24.6390     2.2950   -11.8740 
   90.7500    64.1600    12.6330    10.3820    16.4170    24.5590     2.3210   -12.1400 
   90.8750    63.0450    11.8290     9.9000    11.7510    24.5300     2.2950   -12.4490 
   91.0000    61.4090    10.8170     9.1970     9.4520    24.5600     2.2330   -12.8450 
   91.1250    61.1090     9.9810     8.5330     9.2180    24.5840     2.1660   -13.2900 
   91.2500    62.3210     9.4720     8.0540     9.0630    24.5250     2.1140   -13.6590 
   91.3750    64.7970     9.3070     7.8120     9.0080    24.3700     2.0750   -13.9280 
   91.5000    66.7230     9.4460     7.8190     8.9240    24.2130     2.0510   -14.1090 
   91.6250    66.5240     9.8820     8.1070     8.6960    24.2420     2.0580   -14.2290 
   91.7500    65.8990    10.5130     8.6070     8.9200    24.3240     2.1090   -14.2850 
   91.8750    65.0910    11.2170     9.2360    10.6500    24.3730     2.1990   -14.3160 
   92.0000    63.5260    11.7880     9.8400    15.5750    24.3930     2.2990   -14.3280 
   92.1250    61.3120    11.9320    10.1560    22.9490    24.3900     2.3610   -14.3400 
   92.2500    59.4940    11.6460    10.1010    19.3780    24.4250     2.3600   -14.4010 
   92.3750    57.6140    11.0860     9.7430    11.3570    24.5320     2.3060   -14.5330 
   92.5000    56.1660    10.4920     9.2600     8.1830    24.6320     2.2260   -14.6700 
   92.6250    57.7740    10.0550     8.8220     7.8110    24.6120     2.1530   -14.6870 
   92.7500    61.5750     9.7170     8.4570     8.0430    24.6160     2.0990   -14.5580 
   92.8750    64.0310     9.3810     8.1300     8.5490    24.6460     2.0620   -14.3020 
   93.0000    64.0810     9.0660     7.8540     8.8740    24.6540     2.0450   -13.8670 
   93.1250    66.0330     9.0260     7.7700     8.6880    24.6940     2.0660   -13.1190 
   93.2500    70.5630     9.4410     7.9720     8.0630    24.6410     2.1300   -12.0900 
   93.3750    74.1540    10.3300     8.4890     7.8880    24.4570     2.2300   -10.8210 
   93.5000    73.5820    11.4580     9.2080     9.9360    24.2880     2.3420    -9.4650 
   93.6250    72.2680    12.1680     9.7430    16.0060    24.1770     2.4200    -8.1920 
   93.7500    75.4120    11.9310     9.6940    17.5350    24.1260     2.4390    -7.0640 
   93.8750    81.4130    10.7450     8.9850    12.1610    24.0950     2.4030    -6.0550 
   94.0000    87.4330     9.1280     7.9060     8.2860    24.0660     2.3380    -5.1970 
   94.1250    90.5240     7.7790     6.8940     7.0930    24.0580     2.2820    -4.6300 
   94.2500    91.2480     6.9900     6.1870     6.8930    24.0320     2.2540    -4.3160 
   94.3750    91.9650     6.7560     5.8310     6.7040    23.9990     2.2510    -4.1870 
   94.5000    93.7610     6.9220     5.7730     6.3770    23.9750     2.2550    -4.1140 
   94.6250    93.6220     7.2780     5.9110     6.0950    23.9020     2.2480    -4.0780 
   94.7500    89.6900     7.6010     6.0870     6.4310    23.7760     2.2240    -4.1330 
   94.8750    86.4330     7.7830     6.2220     6.9910    23.5570     2.1900    -4.2470 
   95.0000    86.5600     7.7780     6.2720     7.2360    23.2680     2.1540    -4.3270 
   95.1250    86.8840     7.6190     6.2340     7.0950    22.9930     2.1240    -4.3440 
   95.2500    85.8150     7.5170     6.2070     7.2050    22.7160     2.1010    -4.4050 
   95.3750    84.8490     7.6870     6.3110     7.4850    22.3180     2.0900    -4.5770 
   95.5000    84.9570     8.2560     6.6340     7.9190    21.9480     2.1020    -4.8490 
   95.6250    84.1150     9.2040     7.1980     8.4260    21.6980     2.1480    -5.0960 
   95.7500    81.7060    10.1330     7.7930     9.3010    21.4400     2.2130    -5.1520 
   95.8750    79.1070    10.5970     8.1420    10.5620    21.1690     2.2720    -5.0020 
   96.0000    79.0960    10.2830     8.0110    10.5450    20.9100     2.3020    -4.7990 
   96.1250    82.7580     9.2360     7.3720     8.4570    20.7300     2.2920    -4.6400 
   96.2500    86.0440     8.0820     6.5980     6.9520    20.7450     2.2630    -4.4840 
   96.3750    86.9050     7.2130     5.9400     6.3770    20.9490     2.2360    -4.2900 
   96.5000    85.9210     6.7950     5.5290     6.2770    21.2520     2.2250    -4.0410 
   96.6250    85.6730     6.8510     5.4380     6.4130    21.6280     2.2310    -3.7530 
   96.7500    85.2930     7.1320     5.5560     6.5050    21.9590     2.2390    -3.4930 
   96.8750    83.7190     7.4740     5.7930     6.5420    22.1630     2.2400    -3.3430 
   97.0000    81.6900     7.8040     6.0730     6.7310    22.2380     2.2330    -3.2990 
   97.1250    81.8320     8.1390     6.3630     6.9640    22.2600     2.2160    -3.3010 
   97.2500    84.5950     8.4660     6.6290     6.9970    22.2980     2.1980    -3.2540 
   97.3750    87.2540     8.6680     6.7970     7.0070    22.3600     2.1850    -3.1620 
   97.5000    87.8300     8.5730     6.7670     7.1650    22.4870     2.1840    -3.0750 
   97.6250    88.0830     8.0320     6.4390     7.0670    22.6190     2.2020    -2.9460 
   97.7500    91.6680     7.2590     5.9350     6.4550    22.7350     2.2320    -2.7600 
   97.8750    97.9160     6.5240     5.4100     5.5540    22.8390     2.2680    -2.5240 
   98.0000   101.6430     6.0510     5.0020     5.1120    22.8880     2.3030    -2.2380 
   98.1250    96.3820     5.9860     4.8200     5.3210    22.9230     2.3270    -1.9010 
   98.2500    88.3030     6.2050     4.8320     6.1400    23.0120     2.3410    -1.5870 
   98.3750    85.4610     6.5710     4.9920     6.8450    23.1450     2.3450    -1.3690 
   98.5000    87.7690     6.9460     5.2280     6.5240    23.2510     2.3370    -1.2780 
   98.6250    89.0650     7.2050     5.4540     6.3170    23.2710     2.3210    -1.3190 
   98.7500    86.2570     7.3380     5.6180     6.3620    23.2030     2.3020    -1.4720 
   98.8750    82.0370     7.3650     5.7120     6.5540    23.1040     2.2860    -1.7000 
   99.0000    80.5360     7.3180     5.7450     6.9580    23.0450     2.2750    -1.9520 
   99.1250    82.9980     7.2350     5.7320     7.0630    23.0450     2.2670    -2.1920 
   99.2500    85.5360     7.1840     5.7170     6.7820    23.0430     2.2610    -2.4430 
   99.3750    85.1280     7.2250     5.7400     6.5870    23.0470     2.2570    -2.6900 
   99.5000    83.9510     7.3830     5.8290     6.6270    23.0820     2.2560    -2.9230 
   99.6250    84.0500     7.6230     5.9800     6.7000    23.1440     2.2560    -3.1720 
   99.7500    84.6740     7.8410     6.1320     6.8650    23.2120     2.2530    -3.4170 
   99.8750    85.9510     7.9470     6.2240     7.2680    23.3020     2.2460    -3.5910 
  100.0000    87.8500     7.8770     6.2080     7.5590    23.4870     2.2360    -3.6530 
  100.1250    88.3820     7.6000     6.0630     7.1630    23.7360     2.2270    -3.5880 
  100.2500    88.5150     7.2420     5.8620     6.5170    23.9530     2.2260    -3.4340 
  100.3750    88.7580     6.9390     5.6850     6.3230    24.1570     2.2320    -3.1740 
  100.5000    87.9490     6.8160     5.6040     6.3700    24.2940     2.2430    -2.7880 
  100.6250    84.9020     6.9710     5.6870     6.2820    24.2990     2.2520    -2.3520 
  100.7500    80.9880     7.2930     5.8920     6.1870    24.2680     2.2530    -1.9260 
  100.8750    77.8810     7.6140     6.1330     6.3860    24.2850     2.2440    -1.5940 
