~V
VERS. 2.00: Ver 2.00
~W
STRT.M 64.0000:
STOP.M 308.0000:
STEP.M 0.1250:
NULL. -999.2500:
UWI. F10040:
~C
DEPT.M :
GR.API :
RML.OHMM :
RI. :
RXO.OHMM :
CALI.CM :
DEN.GM/CC :
SP.MV :
~A
# ...
   75.2500    84.7260     6.6970     5.4730     5.9030    23.9410     2.3150    -4.4950 
   75.3750    83.8150     6.6050     5.4760     6.4070    23.9670     2.3280    -4.5590 
   75.5000    80.6490     6.8110     5.6440     7.7360    24.0100     2.3170    -4.6200 
   75.6250    77.3000     7.2860     5.9860     9.0060    24.0880     2.2880    -4.5940 
   75.7500    76.2090     7.7620     6.3510     9.1930    24.1940     2.2590    -4.4590 
   75.8750    77.9020     7.9830     6.5690     8.5640    24.3170     2.2460    -4.2130 
   76.0000    81.3340     7.7790     6.4940     7.4040    24.4370     2.2540    -3.8940 
   76.1250    87.5130     7.1290     6.0540     6.1010    24.6110     2.2830    -3.5340 
   76.2500    96.0050     6.3310     5.4330     4.9020    24.7690     2.3180    -3.1040 
   76.3750   104.6390     5.6080     4.7980     4.3210    24.8730     2.3510    -2.5910 
   76.5000   111.9040     5.0940     4.2790     4.1510    24.9490     2.3750    -2.0810 
   76.6250   114.6180     4.8840     3.9840     4.2020    24.9600     2.3870    -1.7230 
   76.7500   113.7380     4.9320     3.9120     4.4980    24.8600     2.3870    -1.5380 
   76.8750   109.1730     5.2290     4.0730     4.7470    24.6850     2.3730    -1.5090 
   77.0000   100.7160     5.7650     4.4630     5.1810    24.5100     2.3440    -1.6480 
   77.1250    88.8350     6.5220     5.0710     6.2290    24.3340     2.3050    -1.9870 
   77.2500    78.0280     7.3350     5.7620     7.4140    24.1620     2.2700    -2.4660 
   77.3750    73.3320     8.0210     6.3860     7.9470    23.9900     2.2460    -2.9820 
   77.5000    73.8740     8.3930     6.7810     7.9090    23.7740     2.2370    -3.3870 
   77.6250    76.6550     8.2740     6.7890     7.3680    23.6570     2.2440    -3.6240 
   77.7500    80.9810     7.8110     6.5020     6.5740    23.6630     2.2580    -3.7380 
   77.8750    85.6070     7.1990     6.0500     5.9900    23.8130     2.2760    -3.7700 
   78.0000    89.7140     6.6410     5.5850     5.5670    24.0530     2.2960    -3.7410 
   78.1250    92.7070     6.3090     5.2530     5.4930    24.3410     2.3130    -3.7280 
   78.2500    93.7380     6.2110     5.1020     5.6600    24.6650     2.3220    -3.7780 
   78.3750    90.6910     6.3290     5.1480     6.1000    24.8560     2.3210    -3.9340 
   78.5000    82.0660     6.6280     5.3760     6.8260    24.8990     2.3140    -4.2300 
   78.6250    72.0650     7.0690     5.7570     7.4030    24.8740     2.3060    -4.6660 
   78.7500    66.7070     7.5430     6.1780     7.7490    24.8810     2.2990    -5.1240 
   78.8750    66.7120     7.9440     6.5390     7.6970    24.9360     2.2900    -5.5130 
   79.0000    69.2750     8.1680     6.7480     7.4800    25.0360     2.2800    -5.8040 
   79.1250    71.4420     8.1200     6.7180     7.2950    25.0590     2.2740    -5.9080 
   79.2500    72.8600     7.8650     6.5040     6.9380    24.9910     2.2780    -5.8140 
   79.3750    74.1430     7.4860     6.1850     6.4060    24.8390     2.2930    -5.5500 
   79.5000    75.7870     7.0840     5.8520     6.0560    24.6690     2.3110    -5.2000 
   79.6250    80.0870     6.7810     5.6010     6.2230    24.6380     2.3240    -4.8800 
   79.7500    85.1510     6.6540     5.4750     6.6570    24.6390     2.3280    -4.6600 
   79.8750    87.1560     6.7610     5.5070     6.9130    24.6360     2.3280    -4.5960 
   80.0000    83.9740     7.1480     5.7310     7.1220    24.6360     2.3280    -4.7120 
   80.1250    76.6590     7.9120     6.2270     7.5870    24.6300     2.3260    -4.9700 
   80.2500    68.1540     9.0160     6.9860     8.5540    24.5720     2.3200    -5.3680 
   80.3750    62.0530    10.3990     7.9800     9.3700    24.5240     2.3110    -5.9170 
   80.5000    61.1460    11.8660     9.0910     9.8430    24.4810     2.3030    -6.5190 
   80.6250    64.5940    12.9810    10.0390     9.9990    24.1930     2.3010    -7.0620 
   80.7500    66.7690    13.4160    10.5730     9.5590    23.5960     2.2990    -7.5740 
   80.8750    65.7450    13.0630    10.5750     8.9100    22.9180     2.2900    -8.0410 
   81.0000    64.3660    12.1180    10.1160     8.4820    22.4970     2.2700    -8.4530 
   81.1250    65.4360    10.9860     9.4030     8.5960    22.4020     2.2440    -8.8240 
   81.2500    69.0860    10.0580     8.7150     8.5830    22.6010     2.2250    -9.1280 
   81.3750    72.8240     9.4680     8.1760     8.6570    22.8960     2.2190    -9.3720 
   81.5000    74.3570     9.1960     7.8210     8.9840    23.2400     2.2260    -9.5950 
   81.6250    74.6270     9.1490     7.6400    10.4400    23.4630     2.2380    -9.8190 
   81.7500    73.0570     9.1560     7.5450    12.7600    23.5380     2.2430   -10.0190 
   81.8750    69.3980     9.1420     7.4820    12.8150    23.5550     2.2360   -10.2370 
   82.0000    67.0100     9.0870     7.4210     9.9430    23.5910     2.2170   -10.4610 
   82.1250    69.5480     9.0190     7.3640     8.5880    23.5700     2.1910   -10.7090 
   82.2500    72.6080     8.9790     7.3300     8.4480    23.4570     2.1670   -11.0020 
   82.3750    72.1920     8.9730     7.3310     8.6570    23.3760     2.1500   -11.3130 
   82.5000    68.4140     8.9820     7.3660     8.7220    23.4930     2.1440   -11.6700 
   82.6250    64.1390     8.9670     7.4120     8.9300    23.6890     2.1510   -12.0010 
   82.7500    61.9360     8.9220     7.4390     9.1590    23.8100     2.1630   -12.3170 
   82.8750    62.0050     8.8650     7.4300     9.1400    23.9880     2.1760   -12.5920 
   83.0000    62.3530     8.8260     7.3920     8.8540    24.1880     2.1840   -12.8230 
   83.1250    62.3880     8.8380     7.3490     8.5760    24.2860     2.1820   -13.0040 
   83.2500    63.6450     8.9100     7.3370     8.4760    24.2400     2.1690   -13.1320 
   83.3750    65.8760     9.0520     7.3810     8.5690    24.1340     2.1550   -13.2050 
   83.5000    66.5930     9.2640     7.4940     8.6430    24.0930     2.1570   -13.2200 
   83.6250    66.5100     9.5210     7.6600     8.8680    24.2300     2.1960   -13.2250 
   83.7500    67.1000     9.7510     7.8140     9.0370    24.4240     2.2610   -13.2230 
   83.8750    66.9310     9.8830     7.8970     8.9400    24.5850     2.3270   -13.2540 
   84.0000    65.2910     9.8510     7.8650     8.5690    24.6150     2.3650   -13.2870 
   84.1250    62.8160     9.6040     7.7000     8.3450    24.5310     2.3540   -13.3820 
   84.2500    61.9530     9.2350     7.4710     8.0920    24.6830     2.3140   -13.5220 
   84.3750    63.2230     8.8540     7.2430     7.8570    24.8720     2.2690   -13.6950 
   84.5000    63.9790     8.5660     7.0670     7.6160    25.0210     2.2350   -13.9220 
   84.6250    63.5190     8.4640     6.9820     7.7410    25.1250     2.2190   -14.1970 
   84.7500    63.4780     8.5010     6.9740     8.1200    25.0840     2.2130   -14.4500 
   84.8750    64.0050     8.5980     7.0150     8.4000    24.9500     2.2130   -14.6440 
   85.0000    65.2140     8.6740     7.0770     8.4810    25.0440     2.2160   -14.8010 
   85.1250    66.2330     8.6720     7.1290     8.4620    25.0540     2.2200   -14.8800 
   85.2500    66.5850     8.6120     7.1590     8.4850    25.0440     2.2220   -14.9050 
   85.3750    65.8910     8.5330     7.1680     8.5380    24.9920     2.2190   -14.9020 
   85.5000    65.3750     8.4810     7.1630     8.4770    24.8710     2.2120   -14.8250 
   85.6250    64.5950     8.4940     7.1580     8.2990    24.8780     2.2030   -14.6650 
   85.7500    62.2780     8.5460     7.1650     8.3120    24.9590     2.1960   -14.4590 
   85.8750    60.5610     8.6050     7.1790     8.4180    24.8380     2.1930   -14.2120 
   86.0000    61.7220     8.6410     7.1930     8.5670    24.7620     2.1940   -13.9340 
   86.1250    63.4200     8.6380     7.1940     8.5970    24.9580     2.1940   -13.6140 
   86.2500    63.1380     8.6120     7.1770     8.5980    24.9580     2.1910   -13.2510 
   86.3750    62.3540     8.5710     7.1390     8.5530    24.7790     2.1870   -12.8510 
