~V
VERS. 2.00: Ver 2.00
~W
STRT.M 56.0000:
STOP.M 261.0000:
STEP.M 0.1250:
NULL. -999.2500:
UWI. F10028:
~C
DEPT.M :
GR.API :
RML.OHMM :
RI. :
RXO.OHMM :
CALI.CM :
DEN.GM/CC :
SP.MV :
~A
# ...
  112.2500    73.7010     7.0400     5.6010     7.4570    24.4610     2.2830    -2.4740 
  112.3750    77.5390     7.0320     5.6050     7.0030    24.4130     2.2980    -2.6510 
  112.5000    80.2090     7.3650     5.8310     7.0630    24.3780     2.3050    -2.9230 
  112.6250    76.9260     8.3610     6.4930     7.9220    24.3860     2.2990    -3.2800 
  112.7500    69.8100    10.0270     7.6410    10.2080    24.4460     2.2860    -3.6530 
  112.8750    63.9960    12.2030     9.2460    15.6640    24.5510     2.2690    -4.0140 
  113.0000    62.2480    14.3800    11.0260    27.1430    24.6410     2.2510    -4.3610 
  113.1250    65.1780    15.5380    12.2400    38.6090    24.5570     2.2290    -4.7260 
  113.2500    69.5840    15.3280    12.4550    30.7040    24.2490     2.2010    -5.1720 
  113.3750    72.6060    14.1250    11.8190    17.0620    23.7620     2.1700    -5.6600 
  113.5000    73.1000    12.6700    10.8290    10.7440    23.1200     2.1430    -6.1180 
  113.6250    71.2500    11.5670     9.9240     9.3370    22.4660     2.1300    -6.4750 
  113.7500    68.2080    10.8430     9.2190     9.1420    22.0940     2.1320    -6.7470 
  113.8750    65.2840    10.3240     8.6550     9.2740    22.1320     2.1480    -6.9440 
  114.0000    64.0620     9.8110     8.1330     9.3780    22.5360     2.1730    -7.0330 
  114.1250    67.4420     9.2050     7.5970     8.4040    23.1330     2.2040    -6.9240 
  114.2500    72.6370     8.6270     7.1030     7.4490    23.6600     2.2320    -6.6970 
  114.3750    75.0650     8.2290     6.7450     7.1880    24.1020     2.2520    -6.4480 
  114.5000    72.4730     8.1060     6.5950     7.5460    24.4100     2.2590    -6.2360 
  114.6250    68.4420     8.3090     6.7190     7.6690    24.5360     2.2510    -6.1570 
  114.7500    67.3650     8.7210     7.0410     8.1020    24.6270     2.2350    -6.2250 
  114.8750    69.0040     9.2190     7.4690     8.9040    24.7420     2.2180    -6.3930 
  115.0000    69.8810     9.6430     7.8760     9.5900    24.8350     2.2060    -6.6290 
  115.1250    68.9820     9.7920     8.0960     9.8840    24.8530     2.2010    -6.9420 
  115.2500    67.7790     9.6380     8.0940     9.7930    24.8240     2.1950    -7.2520 
  115.3750    67.0920     9.2510     7.9020     9.2320    24.7740     2.1870    -7.4740 
  115.5000    67.8420     8.7840     7.6100     8.8100    24.7410     2.1780    -7.5610 
  115.6250    69.5070     8.4040     7.3150     8.4030    24.6830     2.1770    -7.4280 
  115.7500    70.3900     8.1670     7.0780     8.0610    24.5490     2.1880    -7.1260 
  115.8750    71.4630     8.0610     6.9060     8.1490    24.3800     2.2060    -6.7650 
  116.0000    74.1870     8.0410     6.7840     8.4180    24.2990     2.2230    -6.3710 
  116.1250    76.3780     8.0560     6.6760     8.1560    24.2880     2.2290    -5.9740 
  116.2500    75.8450     8.0430     6.5450     7.8780    24.2800     2.2270    -5.5850 
  116.3750    75.1710     7.9430     6.3620     7.4400    24.2590     2.2270    -5.1790 
  116.5000    76.6940     7.6840     6.0970     6.7440    24.2420     2.2340    -4.7590 
  116.6250    77.5190     7.1760     5.7090     6.6510    24.2610     2.2540    -4.3310 
  116.7500    76.5100     6.5160     5.2530     6.4360    24.2530     2.2800    -3.8860 
  116.8750    76.5100     5.9190     4.8530     6.0740    24.2290     2.3080    -3.4030 
  117.0000    79.0400     5.6730     4.6720     5.7120    24.2060     2.3400    -2.9850 
  117.1250    81.9450     6.1490     4.9370     5.4880    24.1790     2.3780    -2.7480 
  117.2500    81.2860     7.3650     5.6980     6.5370    24.1940     2.4150    -2.6840 
  117.3750    76.3550     9.2260     6.9690    11.1300    24.2670     2.4360    -2.7980 
  117.5000    69.5090    11.3140     8.5660    22.5870    24.3450     2.4250    -3.1250 
  117.6250    65.5710    12.6070     9.8170    25.8310    24.3320     2.3720    -3.6940 
  117.7500    65.3800    12.4950    10.1050    18.2030    24.2740     2.3010    -4.3720 
  117.8750    64.4320    11.1940     9.4270    11.8910    24.2080     2.2370    -5.1050 
  118.0000    60.2900     9.4700     8.2700     9.6970    24.1860     2.2010    -5.7760 
  118.1250    58.5230     8.0690     7.1680     9.2620    24.2290     2.2040    -6.2140 
  118.2500    63.1660     7.1680     6.3420     8.5070    24.3220     2.2300    -6.3760 
  118.3750    72.1080     6.7150     5.8150     7.2150    24.4250     2.2630    -6.3030 
  118.5000    80.0110     6.6190     5.5630     6.2280    24.5410     2.2890    -6.0560 
  118.6250    83.4370     6.8530     5.5960     6.3430    24.6170     2.3010    -5.6650 
  118.7500    82.5500     7.2850     5.8260     7.4080    24.6790     2.2980    -5.2110 
  118.8750    77.0830     7.7740     6.1640     8.4860    24.7310     2.2840    -4.7540 
  119.0000    70.4540     8.1350     6.4820     9.7910    24.7740     2.2630    -4.3660 
  119.1250    67.4920     8.1710     6.6210     8.4620    24.7780     2.2430    -4.0280 
  119.2500    70.2020     7.9510     6.5750     7.4950    24.7610     2.2300    -3.6810 
  119.3750    74.6740     7.6100     6.4110     6.9840    24.7460     2.2260    -3.3260 
  119.5000    75.5790     7.2700     6.2130     6.7660    24.7520     2.2290    -2.8950 
  119.6250    73.5490     7.0050     6.0390     6.9180    24.7810     2.2390    -2.3500 
  119.7500    76.0220     6.8100     5.8960     6.6820    24.8130     2.2530    -1.7890 
  119.8750    83.4350     6.6890     5.7870     6.2950    24.8450     2.2710    -1.2150 
  120.0000    89.5030     6.6510     5.7180     6.0160    24.8610     2.2890    -0.6040 
  120.1250    91.0600     6.7230     5.7110     5.9440    24.8560     2.2990    -0.0540 
  120.2500    90.7830     6.8610     5.7490     5.8980    24.8350     2.2990     0.3420 
  120.3750    88.6350     7.0030     5.7940     6.1420    24.8210     2.2920     0.6120 
  120.5000    83.7580     7.0600     5.7870     6.5090    24.8260     2.2870     0.7890 
  120.6250    79.0700     6.9160     5.6520     6.4360    24.8270     2.2900     0.8900 
  120.7500    79.1260     6.5970     5.4030     6.0650    24.8310     2.2970     0.9680 
  120.8750    83.1850     6.2360     5.1270     5.8760    24.8470     2.2990     1.0170 
  121.0000    86.7390     6.0840     4.9810     5.7360    24.8580     2.2930     1.0020 
  121.1250    83.8180     6.5050     5.2060     5.7690    24.8760     2.2880     0.9140 
  121.2500    77.8550     7.5500     5.8670     6.1960    24.9140     2.3020     0.8170 
  121.3750    74.7820     9.1070     6.9530     7.9260    24.9050     2.3400     0.7620 
  121.5000    74.5070    10.7560     8.2440    12.5460    24.8040     2.3910     0.7490 
  121.6250    72.9900    11.5420     9.0680    20.0450    24.7000     2.4250     0.7130 
  121.7500    69.9700    11.0320     8.9580    16.9560    24.6540     2.4220     0.6170 
  121.8750    68.6030     9.5880     8.0710     9.8650    24.6600     2.3830     0.4710 
  122.0000    71.2600     7.9950     6.9490     6.7770    24.6150     2.3270     0.3280 
  122.1250    77.6890     6.9010     6.0700     6.3460    24.4160     2.2840     0.2270 
  122.2500    83.0390     6.3420     5.5340     6.2670    24.0800     2.2630     0.1460 
  122.3750    84.5070     6.1830     5.3010     6.2010    23.7900     2.2630     0.0770 
  122.5000    83.4410     6.2350     5.2680     6.0640    23.7500     2.2750     0.0140 
  122.6250    82.1560     6.3570     5.3390     5.9380    24.0500     2.2900    -0.0210 
  122.7500    81.2110     6.5050     5.4460     5.8860    24.4190     2.3000    -0.0140 
  122.8750    81.3770     6.6810     5.5810     6.3670    24.6580     2.3010     0.0220 
  123.0000    82.2850     6.8620     5.7330     7.4000    24.7360     2.2950     0.0750 
  123.1250    82.1190     6.9870     5.8710     7.3050    24.7440     2.2830     0.1430 
  123.2500    81.0460     7.0320     5.9690     6.9680    24.7590     2.2720     0.2330 
  123.3750    80.4230     7.0080     6.0070     6.4940    24.7710     2.2600     0.3100 
