~V
VERS. 2.00: Ver 2.00
~W
STRT.M 50.0000:
STOP.M 307.0000:
STEP.M 0.1250:
NULL. -999.2500:
UWI. F10044:
~C
DEPT.M :
GR.API :
RML.OHMM :
RI. :
RXO.OHMM :
CALI.CM :
DEN.GM/CC :
SP.MV :
~A
# ...
  297.5000    29.6820     4.3740     3.4940     3.9110    23.9490     2.3960    -6.5670 
  297.6250    29.6820     4.4160     3.5310     4.0190    23.9400     2.3870    -6.6210 
  297.7500    29.6820     4.4990     3.6000     4.1460    23.9360     2.3820    -6.7110 
  297.8750    29.6820     4.6440     3.7140     4.2510    23.9430     2.3820    -6.7780 
  298.0000    29.6820     4.8430     3.8790     4.4430    23.9550     2.3860    -6.8050 
  298.1250    29.6820     5.0640     4.0810     4.7960    23.9510     2.3920    -6.8480 
  298.2500    29.6820     5.2460     4.2670     5.1980    23.9230     2.3980    -6.8790 
  298.3750    29.6820     5.3370     4.3800     5.5020    23.8690     2.4020    -6.9090 
  298.5000    29.6820     5.2970     4.3730     5.5580    23.7980     2.4000    -6.9270 
  298.6250    29.6820     5.1040     4.2250     5.2060    23.7420     2.3940    -6.9150 
  298.7500    29.6820     4.8340     4.0050     4.4490    23.7420     2.3860    -6.8910 
  298.8750    29.6820     4.5610     3.7780     4.0180    23.8010     2.3800    -6.8850 
  299.0000    29.6820     4.3480     3.5950     3.8240    23.8870     2.3780    -6.8480 
  299.1250    29.6820     4.2340     3.4850     3.8050    23.9360     2.3810    -6.7980 
  299.2500    29.6820     4.1880     3.4290     3.7810    23.9670     2.3830    -6.7840 
  299.3750    29.6820     4.1780     3.4070     3.7400    23.9990     2.3820    -6.7520 
  299.5000    29.6820     4.1790     3.4020     3.7260    24.0250     2.3790    -6.7440 
  299.6250    29.6820     4.1810     3.4050     3.8360    24.0370     2.3740    -6.7500 
  299.7500    29.6820     4.1790     3.4100     4.0130    24.0380     2.3680    -6.7570 
  299.8750    29.6820     4.1790     3.4130     4.1940    24.0210     2.3640    -6.7720 
  300.0000    29.6820     4.1790     3.4130     4.2780    23.9750     2.3600    -6.8120 
  300.1250    29.6820     4.1790     3.4080     4.2700    23.8760     2.3580    -6.8710 
  300.2500    29.6820     4.1790     3.4010     4.2480    23.7510     2.3580    -6.9430 
  300.3750    29.6820     4.1790     3.3950     4.2470    23.6360     2.3580    -7.0420 
  300.5000    29.6820     4.1790     3.3910     4.2750    23.5780     2.3600    -7.1170 
  300.6250    29.6820     4.1790     3.3880     4.3840    23.5920     2.3640    -7.1960 
  300.7500    29.6820     4.1790     3.3840     4.5330    23.6710     2.3680    -7.2850 
  300.8750    29.6820     4.1790     3.3820     4.7170    23.7910     2.3670    -7.3460 
  301.0000    29.6820     4.1790     3.3810     4.9090    23.9340     2.3540    -7.3670 
  301.1250    29.6820     4.1790     3.3860     4.9880    24.0930     2.3250    -7.4280 
  301.2500    29.6820     4.1790     3.3930     4.9410    24.2820     2.2910    -7.4650 
  301.3750    29.6820     4.1790     3.3990     4.7900    24.4910     2.2670    -7.4550 
  301.5000    29.6820     4.1790     3.4020     4.5470    24.6600     2.2650    -7.4460 
  301.6250    29.6820     4.1790     3.4040     4.2770    24.6620     2.2890    -7.4690 
  301.7500    29.6820     4.1790     3.4060     4.0780    24.4300     2.3250    -7.4680 
  301.8750    29.6820     4.1790     3.4090     3.9740    24.1540     2.3580    -7.4340 
  302.0000    29.6820     4.1790     3.4140     3.9260    23.9610     2.3790    -7.4280 
  302.1250    29.6820     4.1790     3.4170     3.9330    23.8900     2.3860    -7.4170 
  302.2500    29.6820     4.1790     3.4180     3.9370    23.8610     2.3860    -7.3790 
  302.3750    29.6820     4.1790     3.4180     3.9080    23.8600     2.3840    -7.3230 
  302.5000    29.6820     4.1790     3.4180     3.8410    23.8760     2.3820    -7.2940 
  302.6250    29.6820     4.1790     3.4180     3.7900    23.8790     2.3800    -7.2620 
  302.7500    29.6820     4.1790     3.4180     3.8000    23.8600     2.3780    -7.2230 
  302.8750    29.6820     4.1790     3.4180     3.9280    23.8130     2.3760    -7.1810 
  303.0000    29.6820     4.1790     3.4180     4.1610    23.7360     2.3740    -7.1410 
  303.1250    29.6820     4.1790     3.4180     4.4490    23.6390     2.3740    -7.0790 
  303.2500    29.6820     4.1790     3.4180     4.6430    23.5670     2.3750    -7.0280 
  303.3750    29.6820     4.1790     3.4180     4.6390    23.5640     2.3790    -6.9920 
  303.5000    29.6820     4.1790     3.4180     4.4390    23.6370     2.3850    -6.9270 
  303.6250    29.6820     4.1790     3.4180     4.1610    23.7480     2.3890    -6.8920 
  303.7500    29.6820     4.1790     3.4180     4.0690    23.8470     2.3840    -6.8760 
  303.8750    29.6820     4.1790     3.4180     3.9890    23.8580     2.3540    -6.8950 
  304.0000    29.6820     4.1790     3.4180     3.8210    23.6370     2.2890    -6.9340 
  304.1250    29.6820     4.1790     3.4180     3.7610    22.8520     2.1770    -6.9550 
  304.2500    29.6820     4.1790     3.4180     3.7580    21.4450     2.0350    -6.9920 
  304.3750    29.6820     4.1790     3.4180     3.7890    19.4260     1.8910    -7.0330 
  304.5000    29.6820     4.1790     3.4180     3.8170    17.1400     1.7680    -7.0430 
  304.6250    29.6820     4.1790     3.4180     3.8250    15.7940     1.6860    -7.0430 
  304.7500    29.6820     4.1790     3.4180     3.8270    15.3430     1.6360  -999.2500 
  304.8750    29.6820     4.1790     3.4180     3.8270    15.2830     1.6110  -999.2500 
  305.0000    29.6820     4.1790     3.4180     3.8280    15.2830     1.6030  -999.2500 
  305.1250    29.6820     4.1790     3.4180     3.8270    15.2830     1.6020  -999.2500 
  305.2500    29.6820     4.1790     3.4180     3.8270    15.2830     1.6020  -999.2500 
  305.3750    29.6820     4.1790     3.4180     3.8270    15.2830     1.6010  -999.2500 
  305.5000    29.6820     4.1790     3.4180     3.8280    15.2830     1.6000  -999.2500 
  305.6250    29.6820     4.1790     3.4180     3.8280    15.2830     1.5990  -999.2500 
  305.7500    29.6820     4.1790     3.4180     3.8280    15.2830     1.5980  -999.2500 
  305.8750    29.6820     4.1790     3.4180     3.8280    15.2830     1.5970  -999.2500 
  306.0000    29.6820     4.1800     3.4180     3.8280    15.2830     1.5960  -999.2500 
  306.1250    29.6820     4.1790     3.4180     3.8280    15.2820     1.5960  -999.2500 
  306.2500    29.6820     4.1730     3.4180     3.8290    15.2820     1.5960  -999.2500 
  306.3750    29.6820     4.1700     3.4180     3.8290    15.2810     1.5960  -999.2500 
  306.5000    29.6820     4.1690     3.4180     3.8290    15.2780  -999.2500  -999.2500 
  306.6250    29.6820     4.2040     3.4180     3.8300    15.2760  -999.2500  -999.2500 
  306.7500    29.6820     4.2620     3.4180     3.8300    15.2740  -999.2500  -999.2500 
  306.8750    29.6820     4.3490     3.4180     3.8300    15.2730  -999.2500  -999.2500 
  307.0000    29.6820     4.4530     3.4180     3.8310    15.2730  -999.2500  -999.2500 
