~V
VERS. 2.00: Ver 2.00
~W
STRT.M 55.0000:
STOP.M 310.0000:
STEP.M 0.1250:
NULL. -999.2500:
UWI. F10049:
~C
DEPT.M :
GR.API :
RML.OHMM :
RI. :
RXO.OHMM :
CALI.CM :
DEN.GM/CC :
SP.MV :
~A
# ...
   88.7500    86.7490     8.3590     6.2240     6.4340    24.6980     2.2410    -4.1930 
   88.8750    79.3440     9.1980     6.8460     7.5110    24.3880     2.2170    -5.3500 
   89.0000    73.9010     9.9030     7.4190     7.9600    24.2230     2.1900    -6.6910 
   89.1250    71.1550    10.2880     7.7870     8.0200    24.3200     2.1630    -8.0130 
   89.2500    72.7770    10.3510     7.8950     8.1220    24.5520     2.1430    -9.2450 
   89.3750    78.4330    10.1430     7.7610     8.1780    24.7410     2.1340   -10.2160 
   89.5000    84.8530     9.7620     7.4790     8.2200    24.8530     2.1380   -10.7530 
   89.6250    87.8810     9.3240     7.1840     7.9530    24.9280     2.1550   -10.8150 
   89.7500    85.6850     8.9360     6.9740     7.3220    24.9810     2.1740   -10.5880 
   89.8750    80.6760     8.6430     6.8740     6.7130    25.0010     2.1850   -10.3160 
   90.0000    77.5750     8.4510     6.8500     6.8300    24.9260     2.1840    -9.9600 
   90.1250    79.5370     8.3290     6.8320     7.6400    24.7720     2.1720    -9.5580 
   90.2500    83.9860     8.2350     6.7830     7.8640    24.6630     2.1620    -9.1610 
   90.3750    88.6030     8.1880     6.7220     7.1450    24.6210     2.1620    -8.8860 
   90.5000    90.5240     8.2590     6.7050     6.0410    24.6040     2.1700    -8.8730 
   90.6250    86.6070     8.5630     6.8120     6.4380    24.5750     2.1770    -9.1800 
   90.7500    79.5610     9.0580     7.0470     7.4970    24.5510     2.1760    -9.6050 
   90.8750    74.5350     9.5970     7.3530     8.6810    24.5380     2.1710    -9.8480 
   91.0000    76.9150     9.9300     7.6050     9.3630    24.5900     2.1700    -9.8530 
   91.1250    86.1680     9.7310     7.5860     9.2490    24.7510     2.1850    -9.5810 
   91.2500    92.5150     9.0470     7.2320     8.4000    24.8850     2.2130    -9.1750 
   91.3750    93.5130     8.1060     6.6270     6.8710    24.9390     2.2450    -8.6030 
   91.5000    93.3960     7.2520     5.9730     5.7460    24.9530     2.2720    -7.9600 
   91.6250    95.2290     6.8760     5.5150     5.3800    24.9830     2.2890    -7.2030 
   91.7500    94.7470     7.0290     5.3550     5.3170    25.0120     2.2970    -6.4630 
   91.8750    88.4900     7.6410     5.5340     5.5550    24.9290     2.2980    -6.0700 
   92.0000    79.2080     8.5450     6.0420     6.5390    24.5630     2.2900    -6.0800 
   92.1250    71.9160     9.5060     6.8140     8.0950    23.9270     2.2680    -6.6150 
   92.2500    68.1390    10.3130     7.6410     8.8980    23.3050     2.2360    -7.5870 
   92.3750    65.6990    10.8800     8.3720     9.3510    22.9230     2.2020    -8.9820 
   92.5000    63.6360    11.2120     8.9040     9.9050    22.7480     2.1740   -10.6450 
   92.6250    64.5130    11.3130     9.1640    10.0880    22.7870     2.1550   -12.2880 
   92.7500    68.3240    11.2130     9.1960    10.0360    23.0330     2.1410   -13.6970 
   92.8750    71.8560    10.8860     9.0120    10.0220    23.3670     2.1280   -14.5760 
   93.0000    74.2940    10.3390     8.6410    10.2060    23.6410     2.1160   -14.9560 
   93.1250    77.8120     9.6650     8.1390     9.9990    23.7790     2.1150   -14.7190 
   93.2500    81.7670     9.0670     7.6480     8.8550    23.8340     2.1250   -14.2140 
   93.3750    82.2800     8.6930     7.2810     7.8280    23.7620     2.1430   -13.6630 
   93.5000    78.6990     8.6200     7.1100     8.0300    23.5880     2.1570   -13.1970 
   93.6250    75.1210     8.8860     7.1820     8.8240    23.3450     2.1570   -12.9970 
   93.7500    73.4630     9.3750     7.4340     9.1950    23.1540     2.1490   -13.1730 
   93.8750    71.3010    10.0000     7.8230     9.3360    23.1220     2.1440   -13.8430 
   94.0000    67.6330    10.6620     8.2870    10.0610    23.2710     2.1450   -14.9620 
   94.1250    64.4790    11.2160     8.7370    10.9340    23.6400     2.1430   -16.5050 
   94.2500    62.8710    11.5600     9.0810    11.6960    24.2460     2.1240   -18.0670 
   94.3750    61.3980    11.6380     9.2460    12.7870    24.9640     2.0820   -19.4340 
   94.5000    60.2610    11.4590     9.1930    15.1410    25.6490     2.0320   -20.4810 
   94.6250    61.7700    11.0890     8.9530    12.6250    25.9150     2.0010   -21.2780 
   94.7500    64.2560    10.6980     8.6740    11.2920    25.5260     2.0010   -21.7370 
   94.8750    65.8960    10.4020     8.4460    10.4750    24.9460     2.0300   -21.8780 
   95.0000    66.6870    10.2760     8.3150    10.0360    24.5120     2.0700   -21.8510 
   95.1250    66.4700    10.3410     8.3090    10.2840    24.2610     2.1020   -21.7200 
   95.2500    66.2080    10.4920     8.3860    10.4620    24.1710     2.1200   -21.5750 
   95.3750    67.9190    10.6330     8.4980    10.4020    24.2000     2.1280   -21.3200 
   95.5000    71.5750    10.6920     8.5870    10.2220    24.2500     2.1310   -20.9910 
   95.6250    71.4900    10.6330     8.5890     9.8640    24.2220     2.1330   -20.5580 
   95.7500    69.1860    10.4960     8.4950     9.6320    24.2050     2.1310   -20.0950 
   95.8750    69.7320    10.3010     8.3110     9.7880    24.3060     2.1250   -19.6170 
   96.0000    74.3360    10.0400     8.0570     9.5600    24.4460     2.1140   -18.9570 
   96.1250    79.1990     9.6980     7.7710     8.9400    24.4530     2.1050   -18.1600 
   96.2500    81.7430     9.3360     7.5160     8.8210    24.3930     2.1030   -17.3150 
   96.3750    80.7290     9.0510     7.3480     8.9500    24.3630     2.1110   -16.5820 
   96.5000    76.2820     8.9530     7.3240     8.5960    24.3770     2.1270   -16.0030 
   96.6250    73.0570     9.1450     7.4880     8.3120    24.4190     2.1470   -15.6420 
   96.7500    73.1870     9.5340     7.7700     8.8580    24.4180     2.1660   -15.4290 
   96.8750    72.9480     9.9940     8.0930     9.7790    24.3700     2.1780   -15.3770 
   97.0000    69.6010    10.3950     8.3800    10.5460    24.2880     2.1800   -15.5330 
   97.1250    66.9030    10.6410     8.5670    10.6240    24.2470     2.1710   -15.9060 
   97.2500    68.4550    10.7640     8.6620    10.3500    24.2220     2.1610   -16.3250 
   97.3750    72.7390    10.8000     8.6770     9.8870    24.1810     2.1530   -16.7400 
   97.5000    76.5230    10.7510     8.6140     9.6570    24.1140     2.1490   -17.0770 
   97.6250    77.8440    10.5700     8.4530    10.0800    24.1520     2.1470   -17.3070 
   97.7500    76.6020    10.2840     8.2360    10.1620    24.2700     2.1430   -17.4670 
   97.8750    73.5650     9.9720     8.0180     9.7510    24.4100     2.1410   -17.5300 
   98.0000    71.1020     9.7520     7.8550     9.4380    24.5060     2.1470   -17.6010 
   98.1250    69.4220     9.7490     7.8060     9.2560    24.5340     2.1680   -17.6680 
   98.2500    67.5360     9.9080     7.8630     9.5760    24.5290     2.1930   -17.8160 
   98.3750    65.0730    10.1220     8.0060     9.7420    24.5260     2.2100   -18.0090 
   98.5000    63.9420    10.2780     8.1990     9.8480    24.5410     2.2070   -18.3190 
   98.6250    65.2010    10.3330     8.4000    10.2380    24.5390     2.1840   -18.6650 
   98.7500    66.4290    10.3710     8.5850    10.4220    24.5270     2.1550   -18.9870 
   98.8750    67.2150    10.4470     8.7430    10.4770    24.5570     2.1350   -19.2290 
   99.0000    68.7240    10.5340     8.8560    10.4910    24.6590     2.1270   -19.2120 
   99.1250    73.1520    10.4530     8.8430    10.2050    24.7380     2.1330   -18.7910 
   99.2500    79.5670    10.0630     8.6400     9.8040    24.7700     2.1450   -17.8730 
   99.3750    87.5290     9.3390     8.2070     9.4500    24.8360     2.1630   -16.4860 
   99.5000    96.2540     8.4120     7.5770     8.5290    25.0160     2.1840   -14.5860 
   99.6250   102.3270     7.5570     6.8630     6.7550    25.1900     2.2080   -12.3460 
   99.7500   104.7480     6.9770     6.2220     5.6850    25.2930     2.2300   -10.0480 
   99.8750   103.6140     6.7230     5.7330     5.2900    25.2940     2.2470    -7.8360 
