~V
VERS. 2.00: Ver 2.00
~W
STRT.M 51.0000:
STOP.M 242.0000:
STEP.M 0.1250:
NULL. -999.2500:
UWI. F10056:
~C
DEPT.M :
GR.API :
RML.OHMM :
RI. :
RXO.OHMM :
CALI.CM :
SP.MV :
DEN.GM/CC :
~A
# ...
   96.0000    69.8480     8.7220     6.8880     8.3110    24.3020   -11.2790     2.1500 
   96.1250    70.0960     8.7830     6.9240     8.3680    24.3020   -11.3450     2.1470 
   96.2500    66.2620     8.8130     6.9500     8.0650    24.1880   -11.3980     2.1440 
   96.3750    62.5330     8.8000     6.9510     8.0170    23.9230   -11.4810     2.1410 
   96.5000    63.5210     8.7540     6.9270     8.1380    23.6720   -11.6310     2.1410 
   96.6250    66.8100     8.6910     6.8860     8.2070    23.8750   -11.6690     2.1480 
   96.7500    66.1600     8.6250     6.8460     8.0730    24.2030   -11.5470     2.1580 
   96.8750    62.0620     8.5540     6.8120     7.8470    24.3670   -11.3590     2.1670 
   97.0000    60.0810     8.4880     6.7960     7.7310    24.3970   -11.1300     2.1720 
   97.1250    64.0610     8.4640     6.8250     7.9540    24.4000   -10.9120     2.1730 
   97.2500    66.7930     8.5090     6.9140     8.1810    24.3990   -10.8290     2.1760 
   97.3750    64.0310     8.6260     7.0590     8.3070    24.4000   -10.8570     2.1810 
   97.5000    59.3990     8.7750     7.2320     8.4800    24.3990   -10.9060     2.1880 
   97.6250    58.1270     8.8620     7.3630     8.8000    24.4010   -11.0150     2.1960 
   97.7500    58.3480     8.8090     7.3900     8.7610    24.3940   -11.0860     2.2020 
   97.8750    58.9710     8.5800     7.2760     8.3640    24.3840   -11.0100     2.2050 
   98.0000    62.4790     8.1810     7.0230     7.7420    24.3990   -10.7370     2.2070 
   98.1250    68.4470     7.6500     6.6510     6.8560    24.4370   -10.2360     2.2100 
   98.2500    74.0180     7.0770     6.2280     6.5170    24.4590    -9.4230     2.2150 
   98.3750    79.7280     6.5110     5.7960     6.5300    24.4930    -8.2440     2.2220 
   98.5000    86.3160     6.0020     5.3950     6.3080    24.5760    -6.8480     2.2340 
   98.6250    92.0170     5.6320     5.0850     5.6660    24.7030    -5.3090     2.2500 
   98.7500    94.1820     5.4290     4.8930     5.0850    24.7820    -3.8400     2.2680 
   98.8750    94.9230     5.4100     4.8320     4.8300    24.8160    -2.5950     2.2840 
   99.0000    96.6300     5.5580     4.8960     4.8970    24.7820    -1.5980     2.2930 
   99.1250    96.2640     5.8180     5.0610     5.4150    24.7580    -0.7880     2.2900 
   99.2500    92.1960     6.0470     5.2350     5.7570    24.7930    -0.2260     2.2800 
   99.3750    88.5710     6.1370     5.3390     5.4540    24.9110     0.0880     2.2700 
   99.5000    90.4440     6.0310     5.3220     5.3310    25.0460     0.2250     2.2680 
   99.6250    96.2600     5.7450     5.1750     5.5230    25.0910     0.1590     2.2770 
   99.7500    99.4820     5.4560     5.0060     5.3860    25.0720     0.0450     2.2890 
   99.8750    98.6110     5.3630     4.9390     4.9380    25.0220    -0.0070     2.2980 
  100.0000    95.4850     5.6240     5.0920     4.7770    24.9480     0.0080     2.3070 
  100.1250    90.0430     6.3210     5.5510     5.3250    24.8900    -0.0330     2.3290 
  100.2500    83.9300     7.2150     6.1980     6.4480    24.8070    -0.0190     2.3650 
  100.3750    79.7550     7.9950     6.8430     8.5250    24.6950    -0.0260     2.4060 
  100.5000    79.8740     8.3100     7.2190    10.6380    24.5490    -0.0460     2.4330 
  100.6250    85.4600     7.9080     7.0730     9.2560    24.4480    -0.0260     2.4260 
  100.7500    91.5790     7.1550     6.5990     6.3540    24.4010    -0.0190     2.3920 
  100.8750    94.1090     6.4260     6.0490     5.4020    24.4210    -0.1190     2.3440 
  101.0000    91.5700     5.9630     5.6160     5.4520    24.4660    -0.2560     2.2940 
  101.1250    87.7280     5.8530     5.4050     5.6930    24.5020    -0.3770     2.2570 
  101.2500    86.2480     5.9450     5.3590     5.8300    24.5070    -0.5410     2.2380 
  101.3750    86.0210     6.1290     5.4190     5.8150    24.4850    -0.6750     2.2420 
  101.5000    86.8160     6.3470     5.5290     5.9490    24.4660    -0.7510     2.2700 
  101.6250    88.2070     6.5870     5.6560     6.2160    24.4730    -0.7850     2.3100 
  101.7500    88.4380     6.8070     5.7660     6.5340    24.5060    -0.8560     2.3370 
  101.8750    88.1740     6.9310     5.8220     7.1680    24.5600    -0.9020     2.3380 
  102.0000    89.5080     6.9160     5.8110     7.5300    24.6150    -0.9000     2.3130 
  102.1250    91.2190     6.8450     5.7980     6.9580    24.6500    -0.8370     2.2830 
  102.2500    89.5360     6.9690     5.9280     6.5580    24.5990    -0.8390     2.2790 
  102.3750    85.4080     7.5660     6.3710     7.2520    24.5090    -0.8560     2.3140 
  102.5000    81.1400     8.9400     7.3250     9.3350    24.4560    -0.9680     2.3830 
  102.6250    75.9650    11.5990     9.1980    13.4070    24.4260    -1.1470     2.4700 
  102.7500    70.4770    15.4920    12.0850    18.9590    24.3850    -1.3000     2.5540 
  102.8750    67.0840    20.2080    15.8390    25.2610    24.3430    -1.4880     2.6240 
  103.0000    67.4590    24.4610    19.5720    31.7240    24.3200    -1.8010     2.6690 
  103.1250    69.6940    25.6030    21.0930    42.2480    24.2970    -2.2720     2.6700 
  103.2500    72.4010    23.1810    19.6800    43.4440    24.2680    -2.8140     2.6230 
  103.3750    74.1670    18.6610    16.3440    27.1820    24.2730    -3.5130     2.5340 
  103.5000    72.3730    14.0910    12.7190    12.8250    24.3170    -4.2870     2.4210 
  103.6250    68.1240    11.0260     9.9630     8.8670    24.3670    -5.1170     2.3110 
  103.7500    67.2650     9.5520     8.1230     7.5140    24.4180    -5.9300     2.2260 
  103.8750    71.2240     8.6050     7.0460     7.2030    24.5460    -6.6870     2.1710 
  104.0000    74.3020     8.3470     6.5310     7.3110    24.7320    -7.4040     2.1430 
  104.1250    72.7660     8.4500     6.4060     7.3450    24.7940    -8.1050     2.1310 
  104.2500    70.6320     8.5750     6.4230     7.4700    24.8820    -8.7720     2.1220 
  104.3750    70.5910     8.6070     6.4740     7.3320    25.1110    -9.3580     2.1130 
  104.5000    73.5900     8.5380     6.5120     7.1540    25.3650    -9.8360     2.1040 
  104.6250    76.6230     8.4130     6.5320     7.1510    25.4720   -10.2120     2.1020 
  104.7500    78.1440     8.3030     6.5550     7.3910    25.3820   -10.5680     2.1090 
  104.8750    78.4100     8.2520     6.6010     7.6900    25.2390   -10.8830     2.1200 
  105.0000    78.0830     8.2980     6.6890     7.4110    25.1370   -11.0830     2.1330 
  105.1250    75.4780     8.4800     6.8430     7.4920    25.0770   -11.2500     2.1430 
  105.2500    72.3450     8.7560     7.0440     7.5830    25.0250   -11.3600     2.1490 
  105.3750    71.8760     9.0420     7.2490     7.6170    25.0040   -11.4350     2.1490 
  105.5000    71.4890     9.2090     7.3770     7.5530    25.0250   -11.4210     2.1450 
  105.6250    67.1010     9.0760     7.3060     7.5880    25.0310   -11.1350     2.1450 
  105.7500    65.3560     8.6510     7.0260     7.5610    24.9850   -10.5510     2.1550 
  105.8750    70.9560     8.0290     6.5890     7.1250    24.9300    -9.7070     2.1790 
  106.0000    79.3620     7.3750     6.1010     6.2820    24.9070    -8.7720     2.2130 
  106.1250    82.5030     6.9040     5.7090     5.7110    24.9070    -7.7920     2.2440 
  106.2500    81.4750     6.7090     5.4920     5.5960    24.9040    -6.8620     2.2610 
  106.3750    79.2730     6.8090     5.4780     5.8330    24.8820    -6.0640     2.2610 
  106.5000    75.6210     7.1500     5.6510     6.0850    24.8180    -5.4870     2.2480 
  106.6250    71.4230     7.5860     5.9460     6.4400    24.7250    -5.2750     2.2270 
  106.7500    68.9850     7.8860     6.2050     6.7950    24.6700    -5.3310     2.2090 
  106.8750    71.4760     7.9000     6.3040     7.0550    24.6590    -5.4830     2.2000 
  107.0000    78.3390     7.5900     6.1830     7.1020    24.6930    -5.5340     2.2040 
  107.1250    85.9140     7.0340     5.8550     6.6590    24.7610    -5.3430     2.2240 
