~V
VERS. 2.00: Ver 2.00
~W
STRT.M 50.0000:
STOP.M 255.0000:
STEP.M 0.1250:
NULL. -999.2500:
UWI. F10005:
~C
DEPT.M :
SP.MV :
GR.API :
RML.OHMM :
RI. :
RXO.OHMM :
CALI.CM :
DEN.GM/CC :
~A
# ...
  162.5000    -8.7990    45.0520    33.1720    30.8370    32.3660    23.4580     2.6490 
  162.6250    -8.8900    47.1930    32.9890    30.4970    28.5240    23.5510     2.6510 
  162.7500    -9.0030    48.6390    33.3320    30.5540    27.7860    23.6880     2.6510 
  162.8750    -9.0900    47.3620    34.4810    31.2680    29.5880    23.7840     2.6530 
  163.0000    -9.1560    46.3370    36.4110    32.6860    35.0680    23.8400     2.6560 
  163.1250    -9.2900    46.8480    38.5570    34.4760    36.1730    23.8850     2.6590 
  163.2500    -9.3760    47.4240    39.9300    35.8470    36.0860    23.9290     2.6600 
  163.3750    -9.4090    48.0950    39.9850    36.2700    35.0150    23.9420     2.6580 
  163.5000    -9.4200    49.7710    38.8810    35.7200    33.5140    23.8880     2.6510 
  163.6250    -9.3940    51.2330    37.3870    34.6660    29.2710    23.7610     2.6410 
  163.7500    -9.4010    50.6560    36.3540    33.8190    27.3630    23.6530     2.6320 
  163.8750    -9.4280    48.4670    36.0580    33.4880    29.4280    23.6480     2.6280 
  164.0000    -9.4690    47.2340    36.3640    33.6770    35.6450    23.7510     2.6290 
  164.1250    -9.4850    47.8240    36.8830    34.1690    39.1640    23.9320     2.6340 
  164.2500    -9.5020    48.6740    37.1650    34.5620    39.5830    24.0980     2.6350 
  164.3750    -9.4960    47.9180    36.9700    34.5970    38.0620    24.1810     2.6290 
  164.5000    -9.4970    47.2130    36.2250    34.1700    37.3560    24.1730     2.6170 
  164.6250    -9.5440    48.0810    34.9590    33.2890    39.8740    24.1240     2.6030 
  164.7500    -9.6120    49.3660    33.3550    32.1210    37.2540    24.0750     2.5880 
  164.8750    -9.7340    50.8560    31.4560    30.6740    32.6740    24.0300     2.5700 
  165.0000    -9.8810    52.4530    29.4220    29.0040    28.9430    23.9860     2.5430 
  165.1250   -10.1070    52.5250    27.7560    27.4260    26.8500    23.9760     2.5070 
  165.2500   -10.3460    50.7710    26.9070    26.3610    26.6170    24.0150     2.4800 
  165.3750   -10.6300    48.8760    27.0940    26.0710    26.4970    24.0700     2.4780 
  165.5000   -10.8210    49.0200    28.2270    26.5730    26.7190    24.0890     2.5110 
  165.6250   -10.9140    49.9070    29.7920    27.5760    28.3570    24.0680     2.5640 
  165.7500   -10.9140    50.4040    30.8280    28.3370    34.6980    24.0430     2.6020 
  165.8750   -10.8150    49.9040    30.7300    28.3420    37.2800    24.0380     2.6040 
  166.0000   -10.6390    49.3230    29.5110    27.5080    30.9020    24.0530     2.5710 
  166.1250   -10.3200    50.8210    27.8140    26.2180    24.7510    24.0270     2.5320 
  166.2500    -9.9530    52.4120    26.5540    25.1450    23.3690    23.9080     2.5170 
  166.3750    -9.5450    52.5430    26.1810    24.6750    26.7400    23.6910     2.5340 
  166.5000    -9.2170    51.3990    26.7490    24.9590    32.5460    23.4370     2.5690 
  166.6250    -8.9850    50.4720    28.0410    25.9960    35.5560    23.2490     2.5960 
  166.7500    -8.8290    49.8880    29.4940    27.3930    34.4570    23.1740     2.6020 
  166.8750    -8.8060    49.0620    30.6510    28.7590    33.9200    23.2190     2.5880 
  167.0000    -8.8710    48.4650    30.9730    29.5450    33.8260    23.3510     2.5660 
  167.1250    -9.0350    48.7060    29.7470    28.9280    32.4960    23.4910     2.5510 
  167.2500    -9.2500    49.0000    27.2100    26.9380    32.5520    23.5430     2.5440 
  167.3750    -9.5130    48.9460    23.9040    23.9990    29.1010    23.4830     2.5380 
  167.5000    -9.7550    49.3000    20.5670    20.8180    22.1530    23.3650     2.5280 
  167.6250    -9.9650    50.5720    17.9520    18.1680    15.4330    23.3330     2.5100 
  167.7500   -10.1620    50.6920    16.1870    16.2780    14.5710    23.4510     2.4900 
  167.8750   -10.2430    48.6360    15.1760    15.1140    16.0280    23.6970     2.4730 
  168.0000   -10.2710    47.3060    14.7050    14.5110    15.9670    23.9830     2.4620 
  168.1250   -10.2580    49.7220    14.5350    14.2790    14.4470    24.1770     2.4620 
  168.2500   -10.2360    52.1650    14.3910    14.1440    13.7940    24.2770     2.4700 
  168.3750   -10.1310    51.5790    14.1950    13.9980    14.2370    24.3240     2.4840 
  168.5000    -9.9750    49.2040    14.0090    13.8500    14.4570    24.3450     2.4960 
  168.6250    -9.8370    49.2860    14.0410    13.8450    14.3200    24.3530     2.4990 
  168.7500    -9.6640    49.6310    14.4240    14.1130    14.2670    24.3520     2.4930 
  168.8750    -9.5700    48.0530    15.2460    14.7560    14.2640    24.3260     2.4820 
  169.0000    -9.4970    46.1260    16.5530    15.8420    15.3660    24.2720     2.4730 
  169.1250    -9.4540    46.6900    18.3430    17.4140    17.8730    24.2230     2.4710 
  169.2500    -9.4040    49.2700    20.2670    19.1800    20.8710    24.2000     2.4760 
  169.3750    -9.4020    51.4010    21.8950    20.7570    23.6500    24.2010     2.4840 
  169.5000    -9.4530    52.9120    22.8030    21.7180    22.9660    24.2160     2.4940 
  169.6250    -9.5000    53.3020    22.6400    21.6430    23.1570    24.2510     2.5000 
  169.7500    -9.6150    52.1190    21.7280    20.7540    21.4050    24.3040     2.4990 
  169.8750    -9.7760    51.0670    20.4060    19.3700    19.0530    24.3650     2.4890 
  170.0000    -9.9360    51.4830    19.0060    17.8600    17.3420    24.4000     2.4730 
  170.1250   -10.0560    53.7270    17.7820    16.5490    16.1880    24.3660     2.4570 
  170.2500   -10.1620    56.2510    16.8400    15.5630    14.6960    24.2940     2.4490 
  170.3750   -10.2550    57.6100    16.2800    14.9570    13.9050    24.2190     2.4520 
  170.5000   -10.2930    57.4170    16.1550    14.7350    14.4650    24.1540     2.4630 
  170.6250   -10.3310    55.0110    16.4550    14.8910    15.3810    24.1130     2.4760 
  170.7500   -10.3510    53.5660    16.9350    15.2580    16.3080    24.1180     2.4830 
  170.8750   -10.2730    55.0160    17.4060    15.7170    17.4040    24.1680     2.4830 
  171.0000   -10.1950    57.7790    17.7560    16.1580    18.2710    24.2320     2.4760 
  171.1250   -10.1370    58.9650    18.0100    16.5250    17.1400    24.2510     2.4670 
  171.2500   -10.0820    59.9970    18.3050    16.8490    16.7740    24.2070     2.4580 
  171.3750   -10.0430    61.9330    18.6670    17.1400    17.1110    24.1210     2.4480 
  171.5000   -10.0020    63.2530    18.9940    17.3690    17.5860    24.0220     2.4370 
  171.6250    -9.9340    62.2750    19.0700    17.4340    18.1430    23.9190     2.4250 
  171.7500    -9.8020    61.4060    18.8390    17.2890    17.7780    23.8160     2.4140 
  171.8750    -9.6820    61.0460    18.3990    16.9570    16.9210    23.7370     2.4080 
  172.0000    -9.5300    60.2360    17.9960    16.5700    16.1130    23.7020     2.4100 
  172.1250    -9.3320    59.4860    17.9020    16.3170    15.9540    23.6980     2.4150 
  172.2500    -9.1510    59.5090    18.0630    16.2550    16.2690    23.7010     2.4170 
  172.3750    -8.9530    59.1820    18.3020    16.3380    16.2340    23.6940     2.4140 
  172.5000    -8.8210    58.3440    18.4390    16.4680    16.7740    23.6630     2.4080 
  172.6250    -8.7270    59.1310    18.4390    16.5910    18.6100    23.5960     2.4020 
  172.7500    -8.6670    61.3890    18.5440    16.7940    19.1260    23.5070     2.4010 
  172.8750    -8.5920    62.0020    19.0140    17.2240    18.5200    23.4300     2.4090 
  173.0000    -8.5360    60.2470    19.9500    17.9750    18.7500    23.4110     2.4220 
  173.1250    -8.5510    58.6670    21.1710    19.0040    21.7590    23.4640     2.4360 
  173.2500    -8.6020    60.3780    22.1910    19.9970    25.9150    23.5330     2.4410 
  173.3750    -8.7510    63.7050    22.6530    20.6620    27.4120    23.5890     2.4330 
  173.5000    -8.9530    65.3920    22.4810    20.8320    24.9730    23.6450     2.4160 
  173.6250    -9.1960    66.2170    21.9090    20.5390    21.9610    23.7130     2.3970 
