~V
VERS. 2.00: Ver 2.00
~W
STRT.M 62.0000:
STOP.M 254.0000:
STEP.M 0.1250:
NULL. -999.2500:
UWI. F10030:
~C
DEPT.M :
DEN.GM/CC :
GR.API :
RML.OHMM :
RI. :
RXO.OHMM :
CALI.CM :
SP.MV :
~A
# ...
   95.7500     2.2340    71.1310    10.7100     8.9790    11.0310    21.8690   -20.7170 
   95.8750     2.2030    70.5850    10.2430     8.5060    12.3030    22.0100   -20.4520 
   96.0000     2.2020    76.2600     9.6460     7.8360    13.1340    22.4760   -20.1190 
   96.1250     2.2220    84.0030     9.0330     7.0970    11.1910    23.1040   -19.7770 
   96.2500     2.2440    86.0010     8.4610     6.4130     8.1430    23.6950   -19.4480 
   96.3750     2.2570    83.0240     7.9180     5.8370     6.7750    24.1160   -19.2050 
   96.5000     2.2630    79.9890     7.3830     5.3830     6.6090    24.2790   -19.0690 
   96.6250     2.2650    79.4080     6.9270     5.1010     7.0690    24.2100   -19.0300 
   96.7500     2.2690    78.6390     6.7530     5.0500     7.2180    24.0560   -19.1030 
   96.8750     2.2800    76.8210     7.1460     5.3660     6.9700    23.9110   -19.2680 
   97.0000     2.3070    74.7810     8.3660     6.2120     6.7820    23.7970   -19.4730 
   97.1250     2.3570    72.8370    10.6290     7.8170     7.8220    23.7520   -19.6650 
   97.2500     2.4130    70.2640    13.3440     9.9180    13.5860    23.7820   -19.7870 
   97.3750     2.4490    67.9060    15.5750    11.9260    33.2810    23.8350   -19.8130 
   97.5000     2.4420    69.8420    16.2520    12.9700    60.2350    23.8000   -19.7720 
   97.6250     2.3880    77.4420    14.6930    12.2710    47.7180    23.6110   -19.6150 
   97.7500     2.3220    86.5720    12.0870    10.5300    22.6830    23.3970   -19.3540 
   97.8750     2.2710    93.1190     9.5620     8.5720    11.9960    23.2780   -19.0790 
   98.0000     2.2500    96.2230     7.8240     6.9940     8.0420    23.2630   -18.7650 
   98.1250     2.2520    98.6390     7.1540     6.1020     7.3660    23.2920   -18.4580 
   98.2500     2.2610   100.8090     7.1480     5.7270     7.1500    23.3300   -18.1940 
   98.3750     2.2680   101.9030     7.4910     5.7290     6.8170    23.3750   -17.9440 
   98.5000     2.2700   100.1460     7.9020     5.9560     6.7480    23.4060   -17.7400 
   98.6250     2.2680    96.7880     8.1440     6.2680     7.0140    23.3680   -17.5810 
   98.7500     2.2640    95.5120     8.1710     6.5390     6.9050    23.2870   -17.4500 
   98.8750     2.2590    96.9160     8.0250     6.7150     6.5020    23.2080   -17.3140 
   99.0000     2.2550    99.8890     7.7930     6.7830     6.0900    23.1740   -17.1600 
   99.1250     2.2510    97.4830     7.5680     6.7490     6.1360    23.2560   -16.9950 
   99.2500     2.2490    91.9010     7.4080     6.6690     7.1790    23.4950   -16.8310 
   99.3750     2.2470    89.4520     7.3320     6.5810     8.6030    23.8760   -16.6660 
   99.5000     2.2450    93.4100     7.3370     6.5120     9.2550    24.2570   -16.5440 
   99.6250     2.2390    97.9140     7.4060     6.4720     7.8090    24.4530   -16.4940 
   99.7500     2.2250    96.4210     7.4950     6.4410     7.2370    24.6100   -16.4530 
   99.8750     2.2040    90.4500     7.5750     6.4020     7.1620    24.9570   -16.4620 
  100.0000     2.1810    85.6190     7.6230     6.3480     7.3390    25.3930   -16.5080 
  100.1250     2.1690    87.0350     7.6290     6.2910     7.3810    25.5150   -16.5670 
  100.2500     2.1730    92.4730     7.6120     6.2580     7.1340    25.0050   -16.6880 
  100.3750     2.1920    96.8300     7.5950     6.2690     6.7590    24.4030   -16.8310 
  100.5000     2.2210    96.9520     7.5860     6.3210     6.5650    24.0070   -16.9590 
  100.6250     2.2510    93.7610     7.5690     6.3930     6.4950    23.8280   -17.1590 
  100.7500     2.2760    91.5870     7.5230     6.4540     6.4080    23.8140   -17.4110 
  100.8750     2.2920    90.6720     7.4550     6.5010     6.3860    23.9330   -17.6720 
  101.0000     2.2960    90.3490     7.3990     6.5430     6.4790    24.0800   -18.0220 
  101.1250     2.2870    90.4200     7.4060     6.5880     6.5160    24.1240   -18.4050 
  101.2500     2.2710    91.2330     7.4720     6.6250     6.4540    24.0800   -18.7690 
  101.3750     2.2550    93.6890     7.5660     6.6380     6.3880    24.0100   -19.2070 
  101.5000     2.2440    96.5600     7.6590     6.6240     6.3910    23.9420   -19.6700 
  101.6250     2.2430    99.0420     7.7530     6.6100     6.3870    23.8590   -20.1000 
  101.7500     2.2500    98.3140     7.8890     6.6320     6.4480    23.7560   -20.5760 
  101.8750     2.2600    94.2410     8.1060     6.7060     6.7860    23.6560   -21.0480 
  102.0000     2.2670    88.4750     8.4120     6.8210     7.5110    23.5800   -21.4890 
  102.1250     2.2650    83.5400     8.7620     6.9520     8.4000    23.5270   -21.9640 
  102.2500     2.2470    79.2170     9.0710     7.0730     9.6560    23.4620   -22.4140 
  102.3750     2.2130    75.2580     9.3050     7.1920    10.3040    23.3640   -22.8180 
  102.5000     2.1710    73.3410     9.4990     7.3490    10.2710    23.2420   -23.1920 
  102.6250     2.1450    75.9130     9.7580     7.6140    10.3730    23.0910   -23.5290 
  102.7500     2.1560    79.4260    10.1470     7.9990    10.5860    22.9210   -23.8640 
  102.8750     2.2130    80.8330    10.6440     8.4780    10.0910    22.8070   -24.2110 
  103.0000     2.2980    80.5580    11.1450     8.9760     9.4370    22.8500   -24.5900 
  103.1250     2.3680    79.1420    11.3670     9.3490     9.4970    23.0960   -25.0390 
  103.2500     2.3900    75.7380    11.1830     9.5060    11.1080    23.3960   -25.5360 
  103.3750     2.3600    69.8310    10.7230     9.4280    13.8510    23.6230   -26.0560 
  103.5000     2.3000    66.1980    10.2930     9.1770    16.6690    23.7610   -26.6230 
  103.6250     2.2450    67.3880    10.0670     8.8620    14.6120    23.8380   -27.1740 
  103.7500     2.2130    67.8300     9.9250     8.5890    12.6200    23.8450   -27.6420 
  103.8750     2.2010    65.5290     9.7710     8.3880    11.6650    23.7110   -28.0690 
  104.0000     2.1960    64.1630     9.5760     8.2390    11.6670    23.4190   -28.3620 
  104.1250     2.1830    67.8530     9.3650     8.1060    11.8050    23.0860   -28.4800 
  104.2500     2.1600    72.1050     9.1700     7.9720    11.7190    22.8860   -28.5390 
  104.3750     2.1330    74.3090     9.0000     7.8580    11.2500    22.8820   -28.4890 
  104.5000     2.1140    74.6200     8.8690     7.7870    10.7380    23.0100   -28.3500 
  104.6250     2.1130    73.1750     8.8100     7.7900    10.6580    23.1310   -28.2020 
  104.7500     2.1260    71.7650     8.8100     7.8590    10.7340    23.1880   -28.0090 
  104.8750     2.1410    71.1420     8.8460     7.9820    11.0630    23.2110   -27.7830 
  105.0000     2.1470    71.6690     8.9110     8.1340    12.4440    23.2480   -27.5630 
  105.1250     2.1380    72.1570     9.0160     8.2730    16.2480    23.3000   -27.2990 
  105.2500     2.1190    70.7340     9.1580     8.3660    18.4970    23.2970   -26.9990 
  105.3750     2.0980    68.4920     9.3260     8.4030    14.2490    23.1880   -26.6620 
  105.5000     2.0850    67.0730     9.5060     8.4050    10.7370    23.0150   -26.2570 
  105.6250     2.0810    67.5030     9.6850     8.4300     9.9280    22.9010   -25.7550 
  105.7500     2.0840    67.0990     9.8790     8.5260    10.1550    22.8950   -25.1470 
  105.8750     2.0910    65.1280    10.1650     8.7010    10.5570    22.9700   -24.4100 
  106.0000     2.1090    65.6800    10.5000     8.9060    10.9330    23.0910   -23.5350 
  106.1250     2.1510    70.0850    10.6780     9.0120    11.0180    23.2470   -22.5340 
  106.2500     2.2120    75.5710    10.5480     8.9100    10.9790    23.4420   -21.4690 
  106.3750     2.2760    80.2340    10.0670     8.5440    10.6440    23.7120   -20.3950 
  106.5000     2.3230    83.0140     9.3280     7.9490     9.5440    24.1160   -19.3730 
  106.6250     2.3330    84.9050     8.5330     7.2400     7.8920    24.5110   -18.4800 
  106.7500     2.3170    86.8230     7.8770     6.5900     7.2890    24.6980   -17.7370 
  106.8750     2.2950    90.4990     7.4310     6.0920     7.1500    24.6360   -17.1270 
