~V
VERS. 2.00: Ver 2.00
~W
STRT.M 51.0000:
STOP.M 313.0000:
STEP.M 0.1250:
NULL. -999.2500:
UWI. F10047:
~C
DEPT.M :
SP.MV :
GR.API :
RML.OHMM :
RI. :
RXO.OHMM :
CALI.CM :
DEN.GM/CC :
~A
# ...
   62.2500   -26.7570    65.2780     8.7920     7.0790     9.8140    25.1250     2.1190 
   62.3750   -27.2390    63.9630     8.5740     6.8880     9.3710    25.0910     2.1280 
   62.5000   -27.5320    63.6480     8.3470     6.7020     9.1250    25.0800     2.1380 
   62.6250   -27.6320    62.7810     8.2040     6.5720     8.9810    25.0820     2.1460 
   62.7500   -27.6640    62.0470     8.1580     6.5100     8.9700    25.0830     2.1470 
   62.8750   -27.6910    61.4010     8.1920     6.5130     9.2310    25.0830     2.1440 
   63.0000   -27.6910    60.5690     8.2890     6.5700     9.5480    25.0830     2.1420 
   63.1250   -27.6390    60.0970     8.4530     6.6760     9.5470    25.0830     2.1440 
   63.2500   -27.5570    60.5130     8.6700     6.8120     9.4330    25.0830     2.1470 
   63.3750   -27.4540    60.6080     8.9140     6.9590     9.2920    25.0830     2.1450 
   63.5000   -27.4060    59.7550     9.1330     7.0880     9.1700    25.0830     2.1370 
   63.6250   -27.4170    60.7340     9.2330     7.1410     8.9820    25.0830     2.1260 
   63.7500   -27.3590    62.9850     9.1740     7.0960     8.9160    25.0830     2.1170 
   63.8750   -27.2350    63.7090     8.9630     6.9530     8.9170    25.0830     2.1140 
   64.0000   -27.1090    60.9820     8.6660     6.7450     8.9230    25.0830     2.1140 
   64.1250   -27.0100    58.0060     8.3930     6.5330     8.9490    25.0830     2.1130 
   64.2500   -26.8620    58.4860     8.2490     6.3850     8.9510    25.0830     2.1110 
   64.3750   -26.7130    61.0310     8.3010     6.3460     8.9640    25.0830     2.1110 
   64.5000   -26.5270    62.4740     8.5560     6.4350     9.0160    25.0830     2.1190 
   64.6250   -26.2370    61.7710     8.9740     6.6470     9.0540    25.0850     2.1400 
   64.7500   -25.8780    61.4890     9.4120     6.9020     9.3640    25.1060     2.1680 
   64.8750   -25.3720    62.4370     9.7240     7.1140    10.2010    25.1640     2.1940 
   65.0000   -24.6700    63.7630     9.7700     7.1860    11.1260    25.2500     2.2110 
   65.1250   -23.7430    66.1150     9.4340     7.0210    10.0350    25.2910     2.2160 
   65.2500   -22.6570    69.5520     8.8780     6.6890     8.8360    25.3020     2.2160 
   65.3750   -21.4140    73.6430     8.2780     6.2870     7.9380    25.3050     2.2190 
   65.5000   -20.0450    79.4470     7.7960     5.9140     6.9130    25.2930     2.2270 
   65.6250   -18.6670    86.4930     7.5630     5.6570     6.1530    25.2220     2.2420 
   65.7500   -17.4190    90.4770     7.5240     5.5070     5.9250    25.1300     2.2580 
   65.8750   -16.3730    89.5110     7.5780     5.4260     5.9680    25.1700     2.2720 
   66.0000   -15.5070    86.5400     7.6080     5.3600     5.7030    25.3730     2.2800 
   66.1250   -14.8760    86.6830     7.5130     5.2670     5.4840    25.4750     2.2760 
   66.2500   -14.5520    88.5340     7.3210     5.1510     5.2680    25.4760     2.2650 
   66.3750   -14.5940    90.3090     7.1130     5.0400     5.1700    25.4160     2.2490 
   66.5000   -15.0460    92.3040     7.0090     4.9840     5.2030    25.2850     2.2340 
   66.6250   -15.8360    93.6820     7.1530     5.0500     5.6090    24.9840     2.2250 
   66.7500   -16.6770    91.5070     7.5230     5.2380     6.2670    24.5700     2.2260 
   66.8750   -17.5280    85.4510     8.0430     5.5250     6.9070    24.2000     2.2330 
   67.0000   -18.4240    80.0610     8.5830     5.8550     7.5380    23.9760     2.2410 
   67.1250   -19.3480    78.4890     8.9550     6.1290     8.1780    23.8730     2.2420 
   67.2500   -20.1820    77.5460     9.0930     6.2830     8.2100    23.7240     2.2350 
   67.3750   -20.8340    74.4270     9.0450     6.3200     7.5810    23.5210     2.2230 
   67.5000   -21.2700    69.5150     8.9580     6.3010     7.1740    23.3740     2.2130 
   67.6250   -21.5100    66.4510     9.0330     6.3310     7.2930    23.3300     2.2110 
   67.7500   -21.6760    64.7650     9.3220     6.4590     7.5240    23.3240     2.2160 
   67.8750   -21.7850    63.6750     9.7690     6.6770     7.7650    23.3330     2.2210 
   68.0000   -21.8520    63.0780    10.2160     6.9170     7.8230    23.3710     2.2210 
   68.1250   -21.8680    62.0660    10.4050     7.0400     7.6380    23.4580     2.2090 
   68.2500   -21.8270    60.8860    10.2530     6.9730     7.2940    23.5270     2.1890 
   68.3750   -21.7570    61.4890     9.8170     6.7230     6.8840    23.5520     2.1680 
   68.5000   -21.6650    64.2250     9.2630     6.3670     6.6540    23.5550     2.1500 
   68.6250   -21.5790    65.3820     8.7940     6.0130     6.6890    23.5680     2.1390 
   68.7500   -21.5580    63.7650     8.4880     5.7370     6.9460    23.6190     2.1310 
   68.8750   -21.6030    63.0900     8.3230     5.5560     7.3970    23.7480     2.1250 
   69.0000   -21.6270    63.4210     8.2120     5.4510     7.8990    23.9850     2.1160 
   69.1250   -21.5750    60.8510     8.0840     5.3970     8.2330    24.3130     2.1060 
   69.2500   -21.5250    57.3900     8.0270     5.4060     8.3750    24.6100     2.1050 
   69.3750   -21.3930    56.7010     8.2480     5.5570     8.3980    24.7920     2.1280 
   69.5000   -21.0720    58.4170     8.9510     5.9420     8.3810    24.8550     2.1860 
   69.6250   -20.4240    59.2200    10.2860     6.6570     8.4880    24.8610     2.2750 
   69.7500   -19.4350    58.5240    11.9000     7.5690     8.8330    24.8610     2.3600 
   69.8750   -18.1830    58.7810    13.2100     8.3980     9.4590    24.8610     2.4080 
   70.0000   -16.8370    60.8610    13.4870     8.7200    10.1870    24.8760     2.4060 
   70.1250   -15.5200    65.9780    12.1980     8.1420     9.3280    24.9310     2.3620 
   70.2500   -14.2410    73.6340    10.1720     7.0710     8.3500    25.0150     2.3140 
   70.3750   -13.1400    80.0960     8.2520     5.9700     7.1050    25.0670     2.2820 
   70.5000   -12.4040    83.1160     6.9990     5.1550     5.4610    25.0630     2.2680 
   70.6250   -12.2330    82.5830     6.7420     4.8320     4.8990    24.9960     2.2640 
   70.7500   -12.4750    79.5340     7.2460     4.9370     5.2620    24.8870     2.2520 
   70.8750   -12.9390    75.3730     8.2990     5.4120     6.4550    24.8230     2.2280 
   71.0000   -13.4640    71.7570     9.5910     6.1360     7.4840    24.8200     2.1970 
   71.1250   -13.9020    69.4290    10.6250     6.8660     7.9680    24.8460     2.1740 
   71.2500   -14.2030    67.5010    11.0360     7.3170     8.0680    24.8450     2.1730 
   71.3750   -14.3470    68.8360    10.7460     7.3620     7.8480    24.8200     2.1950 
   71.5000   -14.2880    76.4560     9.9910     7.0680     7.2830    24.8000     2.2280 
   71.6250   -14.0090    85.0450     9.1900     6.6440     6.5540    24.7890     2.2520 
   71.7500   -13.6670    86.8550     8.6610     6.3040     6.4060    24.7440     2.2530 
   71.8750   -13.3910    81.5050     8.4920     6.1330     6.7040    24.6080     2.2320 
   72.0000   -13.2060    74.9320     8.6590     6.1560     8.1830    24.3980     2.1970 
   72.1250   -13.1600    73.0050     9.0960     6.3790     9.9020    24.2560     2.1600 
   72.2500   -13.2770    73.0180     9.6250     6.7130     9.9230    24.1950     2.1280 
   72.3750   -13.4470    72.1500    10.1440     7.0880     8.9090    24.1310     2.1060 
   72.5000   -13.5410    70.6200    10.6110     7.4470     8.3650    24.0140     2.0960 
   72.6250   -13.3930    70.8200    11.0060     7.7400     8.0670    23.8250     2.1010 
   72.7500   -13.0330    70.9870    11.2770     7.9290     7.7670    23.7270     2.1160 
   72.8750   -12.4920    71.9040    11.2970     7.9430     7.5520    23.7310     2.1390 
   73.0000   -11.7940    77.0360    10.9420     7.7150     7.4900    23.8590     2.1670 
   73.1250   -10.9300    82.4890    10.1580     7.2110     7.2670    24.1710     2.2020 
   73.2500    -9.9040    82.0520     9.1990     6.5780     6.5540    24.5490     2.2390 
   73.3750    -8.8700    79.0000     8.2810     5.9450     5.5090    24.9360     2.2720 
