~V
VERS. 2.00: Ver 2.00
~W
STRT.M 55.0000:
STOP.M 279.0000:
STEP.M 0.1250:
NULL. -999.2500:
UWI. F10072:
~C
DEPT.M :
GR.API :
RML.OHMM :
RI. :
RXO.OHMM :
CALI.CM :
DEN.GM/CC :
SP.MV :
~A
# ...
  268.7500    90.5740     8.3210     7.6020     8.4340    24.4280     2.2530   -21.4200 
  268.8750    90.5740     7.9330     7.3000     8.2420    24.4060     2.2720   -21.0240 
  269.0000    90.5740     7.6350     7.0540     8.0080    24.3930     2.2910   -20.6750 
  269.1250    90.5740     7.4980     6.9200     7.9290    24.3930     2.3090   -20.3440 
  269.2500    90.5740     7.5120     6.8890     7.8920    24.3930     2.3250   -20.1380 
  269.3750    90.5740     7.6700     6.9440     7.8830    24.3890     2.3340   -20.0620 
  269.5000    90.5740     7.9420     7.0740     8.0830    24.3870     2.3300   -20.1850 
  269.6250    90.5740     8.2450     7.2980     8.4100    24.4240     2.3080   -20.3910 
  269.7500    90.5740     8.4690     7.5580     9.0760    24.5140     2.2770   -20.5270 
  269.8750    90.5740     8.5690     7.7500     9.4520    24.5630     2.2540   -20.4770 
  270.0000    90.5740     8.5440     7.7710     9.2860    24.4680     2.2500   -20.0980 
  270.1250    90.5740     8.3680     7.5510     8.0700    24.1250     2.2750   -19.3220 
  270.2500    90.5740     8.0570     7.1870     7.2940    23.9480     2.3150   -18.3320 
  270.3750    90.5740     7.6460     6.7740     7.3160    23.8560     2.3560   -17.1960 
  270.5000    90.5740     7.2280     6.4090     7.1290    23.8180     2.3870   -15.9550 
  270.6250    90.5740     6.9780     6.1690     6.6300    23.8030     2.3990   -14.8240 
  270.7500    90.5740     6.9830     6.0650     6.2550    23.7890     2.3970   -13.9480 
  270.8750    90.5740     7.2560     6.1240     6.4620    23.7660     2.3850   -13.4840 
  271.0000    90.5740     7.7310     6.3660     7.4070    23.7800     2.3680   -13.5250 
  271.1250    90.5740     8.2740     6.8070     9.0430    23.8470     2.3530   -13.9680 
  271.2500    90.5740     8.7300     7.3600    10.0350    23.9170     2.3430   -14.4680 
  271.3750    90.5740     9.0030     7.9250    10.2400    23.9600     2.3360   -14.9780 
  271.5000    90.5740     9.0670     8.3380     9.9450    23.9840     2.3300   -15.4380 
  271.6250    90.5740     8.9580     8.4050     9.9590    23.9830     2.3250   -15.7390 
  271.7500    90.5740     8.8070     8.1980     9.5500    23.9660     2.3250   -15.8540 
  271.8750    90.5740     8.7000     7.8560     8.8140    23.9480     2.3320   -15.7690 
  272.0000    90.5740     8.6720     7.5420     8.0220    23.9370     2.3460   -15.5260 
  272.1250    90.5740     8.7330     7.4120     7.9340    23.9350     2.3600   -15.2970 
  272.2500    90.5740     8.8450     7.4680     8.6080    23.9360     2.3670   -15.3070 
  272.3750    90.5740     8.9490     7.6680     9.6250    23.9480     2.3640   -15.5040 
  272.5000    90.5740     8.9730     7.9350    10.6290    23.9680     2.3540   -15.7940 
  272.6250    90.5740     8.8550     8.1750    11.0700    23.9750     2.3450   -16.1210 
  272.7500    90.5740     8.6550     8.3230    10.9470    24.0010     2.3400   -16.5430 
  272.8750    90.5740     8.4540     8.3780    10.5250    24.0780     2.3390   -16.9890 
  273.0000    90.5740     8.3300     8.3850    10.1870    24.1480     2.3420   -17.4390 
  273.1250    90.5740     8.3480     8.3980    10.1300    24.1580     2.3440   -17.8250 
  273.2500    90.5740     8.4780     8.4450    10.5580    24.1350     2.3440   -18.0870 
  273.3750    90.5740     8.6880     8.5200    12.8180    24.1120     2.3430   -18.2980 
  273.5000    90.5740     8.9380     8.6040    20.3240    24.0790     2.3430   -18.5200 
  273.6250    90.5740     9.1710     8.6760    31.1450    23.9730     2.3430   -18.7380 
  273.7500    90.5740     9.3420     8.7270    26.7560    23.9120     2.3430   -18.9190 
  273.8750    90.5740     9.4340     8.7570    18.0340    23.9050     2.3380   -19.0550 
  274.0000    90.5740     9.4670     8.7690    13.8450    23.9260     2.3300   -19.1510 
  274.1250    90.5740     9.4710     8.7690    12.0210    23.9310     2.3240   -19.2380 
  274.2500    90.5740     9.4710     8.7690     9.4780    23.9260     2.3240   -19.3020 
  274.3750    90.5740     9.4710     8.7690     7.7320    23.9250     2.3320   -19.3710 
  274.5000    90.5740     9.4710     8.7690     7.4640    23.9250     2.3410   -19.4060 
  274.6250    90.5740     9.4710     8.7690     8.1500    23.9340     2.3440   -19.4260 
  274.7500    90.5740     9.4710     8.7690     8.6320    23.9550     2.3410   -19.4870 
  274.8750    90.5740     9.4710     8.7690     8.7080    23.9760     2.3290   -19.5670 
  275.0000    90.5740     9.4710     8.7690     9.0100    23.9850     2.3130   -19.6610 
  275.1250    90.5740     9.4710     8.7690     9.5490    23.9760     2.2940   -19.7450 
  275.2500    90.5740     9.4710     8.7690    10.4280    23.9570     2.2790   -19.8390 
  275.3750    90.5740     9.4710     8.7690    11.3220    23.9460     2.2680   -19.8830 
  275.5000    90.5740     9.4710     8.7690    11.4150    23.9550     2.2660   -19.9830 
  275.6250    90.5740     9.4710     8.7690     9.7190    23.9750     2.2730   -20.1230 
  275.7500    90.5740     9.4710     8.7690     9.1420    23.9830     2.2840   -20.2820 
  275.8750    90.5740     9.4710     8.7690     9.3210    23.9880     2.2950   -20.5070 
  276.0000    90.5740     9.4710     8.7690    10.0220    24.0010     2.3030   -20.7290 
  276.1250    90.5740     9.4710     8.7690    11.0450    24.0260     2.3080   -20.9690 
  276.2500    90.5740     9.4710     8.7690    12.4670    24.0390     2.3150   -21.2090 
  276.3750    90.5740     9.4710     8.7690    13.1090    24.0430     2.3260   -21.4640 
  276.5000    90.5740     9.4710     8.7690    12.8660    24.0500     2.3360   -21.6750 
  276.6250    90.5740     9.4710     8.7690    12.8100    24.1560     2.3380   -21.8570 
  276.7500    90.5740     9.4710     8.7690    13.7370    24.5940     2.3310   -21.8570 
  276.8750    90.5740     9.4710     8.7690    15.1560    25.2350     2.3230   -21.8570 
  277.0000    90.5740     9.4710     8.7690    15.6360    24.7720     2.3240  -999.2500 
  277.1250    90.5740     9.4710     8.7690    15.5470    24.2660     2.3380  -999.2500 
  277.2500    90.5740     9.4710     8.7690    15.4430    23.9640     2.3560  -999.2500 
  277.3750    90.5740     9.4710     8.7690    15.4410    23.8960     2.3640  -999.2500 
  277.5000    90.5740     9.4710     8.7690    15.4510    23.7570     2.3570  -999.2500 
  277.6250    90.5740     9.4710     8.7690    15.7330    23.6150     2.3330  -999.2500 
  277.7500    90.5740     9.4710     8.7690    13.8500    23.4240     2.2980  -999.2500 
  277.8750    90.5740     9.4710     8.7690    11.2800    23.1240     2.2430  -999.2500 
  278.0000    90.5740     9.4710     8.7690     8.8760    21.9480     2.1580  -999.2500 
  278.1250    90.5740     9.4710     8.7690     6.9150    18.8570     2.0380  -999.2500 
  278.2500    90.5740     9.4710     8.7690     5.4020    14.7170     1.9050  -999.2500 
  278.3750    90.5740     9.4710     8.7690     4.8460    12.4470     1.7870  -999.2500 
  278.5000    90.5740     9.4710     8.7690     4.7540    11.8770     1.7050  -999.2500 
  278.6250    90.5740     9.4710     8.7690     4.7540    11.8770     1.6690  -999.2500 
  278.7500    90.5740     9.4710     8.7690     4.7560    11.8770     1.6590  -999.2500 
  278.8750    90.5740     9.4710     8.7690     4.7570    11.8770     1.6630  -999.2500 
  279.0000    90.5740     9.4830     8.7690     4.7570    11.8770     1.6660  -999.2500 
