~V
VERS. 2.00: Ver 2.00
~W
STRT.M 57.0000:
STOP.M 208.0000:
STEP.M 0.1250:
NULL. -999.2500:
UWI. F10012:
~C
DEPT.M :
DEN.GM/CC :
SP.MV :
GR.API :
CALI.CM :
RXO.OHMM :
RI. :
RML.OHMM :
~A
# ...
  158.2500     2.1480   -20.9500    71.9870    24.5310    40.6370    37.3440    38.9840 
  158.3750     2.1430   -20.8760    71.3340    24.5440    39.5490    36.8200    38.6010 
  158.5000     2.1420   -20.8190    74.0540    24.5430    39.1760    36.0470    37.9940 
  158.6250     2.1470   -20.7610    77.3420    24.5640    38.9920    35.1810    37.2240 
  158.7500     2.1510   -20.7610    79.2320    24.5980    37.7350    34.5200    36.5670 
  158.8750     2.1490   -20.7840    79.3800    24.6330    36.0020    34.2520    36.2370 
  159.0000     2.1510   -20.7830    80.2840    24.6420    35.2390    34.4130    36.3150 
  159.1250     2.1610   -20.7430    80.6220    24.6130    36.5210    34.8930    36.7560 
  159.2500     2.1730   -20.7060    78.9510    24.5550    38.9210    35.3310    37.2470 
  159.3750     2.1770   -20.7060    77.8290    24.4650    40.6150    35.4140    37.4780 
  159.5000     2.1750   -20.7770    79.0060    24.3910    39.9230    34.9440    37.2040 
  159.6250     2.1750   -20.9400    81.1310    24.3860    37.4470    33.9180    36.3190 
  159.7500     2.1750   -21.0600    81.5570    24.4220    35.3100    32.7570    35.1750 
  159.8750     2.1690   -21.1210    81.5680    24.4410    34.4560    31.8150    34.1140 
  160.0000     2.1580   -21.1670    80.1370    24.4410    34.4550    31.3470    33.4310 
  160.1250     2.1500   -21.2370    76.5600    24.4230    34.9580    31.5250    33.3820 
  160.2500     2.1460   -21.3710    74.8660    24.3800    35.5750    32.1580    33.8460 
  160.3750     2.1440   -21.5560    76.4050    24.3290    36.2690    33.0820    34.6800 
  160.5000     2.1390   -21.7100    77.7550    24.3080    37.4420    34.1310    35.7090 
  160.6250     2.1340   -21.8120    77.7850    24.3050    38.7960    35.1500    36.7340 
  160.7500     2.1320   -21.8990    78.9310    24.3070    39.9100    36.0330    37.5920 
  160.8750     2.1410   -22.0230    82.4950    24.3060    40.6070    36.7290    38.2130 
  161.0000     2.1640   -22.2040    84.3790    24.3050    41.0720    37.2520    38.6350 
  161.1250     2.1950   -22.4390    83.6290    24.3040    41.1320    37.7060    38.9960 
  161.2500     2.2240   -22.6340    81.4060    24.2940    40.7280    38.2410    39.4550 
  161.3750     2.2380   -22.7330    79.2590    24.2630    40.6060    38.9120    40.0610 
  161.5000     2.2310   -22.7830    76.9780    24.2240    41.3540    39.6750    40.7700 
  161.6250     2.2030   -22.8280    74.3030    24.2220    42.7010    40.3890    41.4520 
  161.7500     2.1650   -22.9120    73.2030    24.2490    43.1640    40.9470    41.9800 
  161.8750     2.1380   -22.9950    74.9480    24.2870    42.5570    41.3610    42.3340 
  162.0000     2.1310   -23.0030    76.5410    24.3000    41.9200    41.7830    42.6320 
  162.1250     2.1390   -22.9310    76.9040    24.3020    42.4510    42.5260    43.1740 
  162.2500     2.1480   -22.8140    77.3080    24.3010    44.1320    43.7650    44.2070 
  162.3750     2.1500   -22.7190    77.2120    24.3000    46.6140    45.5660    45.8650 
  162.5000     2.1470   -22.6860    76.9920    24.2860    49.7970    47.8350    48.0980 
  162.6250     2.1450   -22.7090    77.4310    24.2440    52.5940    50.2870    50.6420 
  162.7500     2.1440   -22.7770    77.3120    24.1980    54.9140    52.5140    53.0320 
  162.8750     2.1360   -22.8690    75.3530    24.1900    56.6830    54.2710    54.9730 
  163.0000     2.1270   -22.9600    73.7970    24.2150    57.6970    55.4900    56.3410 
  163.1250     2.1310   -23.0950    74.7500    24.2270    58.4370    56.2740    57.1710 
  163.2500     2.1520   -23.3450    75.2460    24.2280    58.7490    57.0100    57.8320 
  163.3750     2.1720   -23.6590    73.7670    24.2060    58.5710    57.9910    58.6210 
  163.5000     2.1720   -23.9360    72.7230    24.1650    57.9680    59.4000    59.7540 
  163.6250     2.1620   -24.1360    73.4130    24.1270    59.4910    61.3040    61.3700 
  163.7500     2.1700   -24.3120    75.6590    24.1290    62.8280    63.4700    63.3310 
  163.8750     2.2160   -24.5010    77.7550    24.1040    66.8340    65.7800    65.5900 
  164.0000     2.2820   -24.7350    78.7030    24.0870    69.6900    68.2820    68.2190 
  164.1250     2.3430   -24.9810    77.5630    24.0800    70.3400    71.2260    71.4770 
  164.2500     2.3730   -25.1500    74.5290    24.0770    71.9390    74.6710    75.3570 
  164.3750     2.3670   -25.2650    71.7000    24.0730    81.1660    78.6770    79.9040 
  164.5000     2.3560   -25.3450    71.1660    24.0710    95.7790    83.3430    85.1790 
  164.6250     2.3700   -25.4230    73.4510    24.0770   100.8370    88.8310    91.1320 
  164.7500     2.4150   -25.4950    75.6070    24.0840    92.7800    94.6860    97.0200 
  164.8750     2.4810   -25.5120    74.3560    24.1120    87.5560    99.3380   101.4980 
  165.0000     2.5360   -25.4250    70.6620    24.1580   102.8610    98.3620   101.7040 
  165.1250     2.5520   -25.2110    68.5420    24.1520   121.8510    84.0010    91.3910 
  165.2500     2.5140   -24.9610    71.8390    24.0570   112.7420    61.3010    71.4080 
  165.3750     2.4300   -24.7020    81.0240    23.8650    77.6950    39.6340    48.4510 
  165.5000     2.3480   -24.4490    90.7330    23.7680    43.7090    24.1870    29.7770 
  165.6250     2.2960   -24.1790    95.2870    23.7810    22.7360    15.5920    18.7150 
  165.7500     2.2780   -23.7960    92.7550    23.8770    11.7990    10.8520    12.5630 
  165.8750     2.2810   -23.3580    89.9810    24.0370     7.7750     8.5500     9.4690 
  166.0000     2.2880   -22.9970    92.5240    24.1450     7.4640     7.7530     8.1560 
  166.1250     2.3000   -22.7790    98.3450    24.2290     8.0470     7.9600     8.0550 
  166.2500     2.3190   -22.6580   104.5430    24.3100     8.4090     8.5980     8.5030 
  166.3750     2.3380   -22.5930   109.4470    24.4250     8.5630     9.3710     9.0830 
  166.5000     2.3460   -22.5580   113.2530    24.5220     8.6190    10.0510     9.4700 
  166.6250     2.3400   -22.5410   114.7720    24.4510     8.7270    10.4260     9.5910 
  166.7500     2.3240   -22.6310   116.1460    24.3460     9.0090    10.5590     9.5370 
  166.8750     2.3140   -22.8400   121.7570    24.2860     9.5130    10.4590     9.3130 
  167.0000     2.3260   -23.0400   129.1970    24.1580     9.9320    10.1250     8.9180 
  167.1250     2.3590   -23.1540   134.7630    23.7360     9.9510     9.6580     8.4790 
  167.2500     2.3940   -23.2320   134.3070    22.9570     9.7230     9.3240     8.2780 
  167.3750     2.4000   -23.3280   125.2580    22.5490     9.7420     9.3610     8.5790 
  167.5000     2.3740   -23.5150   112.4210    22.6920    10.8450     9.9670     9.5980 
  167.6250     2.3320   -23.7880   100.5900    23.2590    15.1740    11.4440    11.6050 
  167.7500     2.2930   -24.0280    93.3340    23.9360    21.6270    13.7450    14.3730 
  167.8750     2.2660   -24.1900    91.4450    24.3490    26.6480    16.7310    17.5690 
  168.0000     2.2440   -24.3510    92.5530    24.4690    28.1380    19.9960    20.6840 
  168.1250     2.2270   -24.5710    93.9580    24.4520    28.6120    22.8800    23.1610 
  168.2500     2.2190   -24.8180    92.1560    24.4060    29.9400    25.1130    25.0260 
  168.3750     2.2260   -25.0330    87.3940    24.3550    32.1270    26.7900    26.5000 
  168.5000     2.2420   -25.1500    83.4040    24.3160    34.8580    27.7690    28.0990 
  168.6250     2.2570   -25.1720    80.6650    24.3000    37.6490    28.8640    29.1360 
  168.7500     2.2630   -25.2140    79.9400    24.2960    39.7570    29.9370    30.1240 
  168.8750     2.2560   -25.3490    81.1240    24.2970    40.8320    31.3680    31.4340 
  169.0000     2.2390   -25.5280    81.5160    24.2970    41.9600    33.7160    33.6060 
  169.1250     2.2210   -25.6990    79.1860    24.2980    47.1790    37.8420    37.6500 
  169.2500     2.2140   -25.7940    75.9720    24.2980    63.6020    43.7700    43.8070 
  169.3750     2.2190   -25.8610    74.5290    24.2970    84.2530    51.1260    51.8140 
