~V
VERS. 2.00: Ver 2.00
~W
STRT.M 64.0000:
STOP.M 308.0000:
STEP.M 0.1250:
NULL. -999.2500:
UWI. F10040:
~C
DEPT.M :
GR.API :
RML.OHMM :
RI. :
RXO.OHMM :
CALI.CM :
DEN.GM/CC :
SP.MV :
~A
   64.0000    80.5620     1.3080     2.1600     7.2830    23.8810     2.1570    29.4370 
   64.1250    75.2960     5.2550     3.2390     7.8690    23.8300     2.0520    21.2520 
   64.2500    67.8410     5.9470     4.4000     8.6540    23.7240     1.9810    14.2640 
   64.3750    63.0730     6.6420     5.6040     9.8840    23.6280     1.9580     8.7220 
   64.5000    62.6280     7.5230     6.8300    13.0700    23.6470     1.9820     4.7060 
   64.6250    63.9950     8.5730     7.9580    18.7490    23.7450     2.0240     2.0740 
   64.7500    64.4470     9.4770     8.7850    16.7950    23.8060     2.0460     0.0850 
   64.8750    63.4590     9.9370     9.1350    11.9130    23.7960     2.0340    -1.5000 
   65.0000    62.2930     9.8400     8.9910     9.7340    23.7470     1.9980    -2.8140 
   65.1250    62.2420     9.3190     8.5000     9.4930    23.6670     1.9680    -3.8420 
   65.2500    61.8290     8.7770     7.9760     9.5580    23.6250     1.9590    -4.6940 
   65.3750    61.8040     8.4340     7.5770     9.6090    23.6270     1.9690    -5.3760 
   65.5000    65.1080     8.3720     7.3610     9.5920    23.6470     1.9860    -5.9140 
   65.6250    68.8980     8.5960     7.3240     9.5480    23.6730     2.0030    -6.4010 
   65.7500    69.9610     8.9620     7.3880     9.4770    23.6850     2.0280    -6.8300 
   65.8750    68.9380     9.3580     7.5170     9.5140    23.6640     2.0730    -7.1940 
   66.0000    67.3850     9.6830     7.6860     9.9920    23.5870     2.1400    -7.5070 
   66.1250    65.5900     9.8370     7.8620    10.8590    23.5200     2.2150    -7.8670 
   66.2500    63.7980     9.8320     7.9940    11.2760    23.5390     2.2670    -8.2890 
   66.3750    63.8870     9.7050     8.0410    10.7290    23.6750     2.2800    -8.7920 
   66.5000    64.4260     9.5150     7.9900    10.3020    23.8400     2.2570    -9.3140 
   66.6250    63.0070     9.3160     7.8630    10.2910    23.9880     2.2160    -9.7720 
   66.7500    62.4090     9.1480     7.7320    10.3840    24.0180     2.1830   -10.1710 
   66.8750    64.0000     9.0410     7.6430    10.4520    23.9730     2.1650   -10.4750 
   67.0000    65.9220     9.0250     7.6170    10.4510    23.8880     2.1610   -10.6990 
   67.1250    64.4110     9.1110     7.6610    10.2320    23.8350     2.1670   -10.8250 
   67.2500    61.4000     9.2430     7.7370    10.1240    23.8080     2.1780   -10.8120 
   67.3750    60.0050     9.3650     7.8190    10.3270    23.7150     2.1920   -10.6350 
   67.5000    60.6790     9.4060     7.8780    10.6410    23.5310     2.2020   -10.3760 
   67.6250    62.9030     9.2710     7.8490    10.4990    23.6030     2.2080    -9.9940 
   67.7500    65.9480     8.9600     7.6940    10.1170    23.7380     2.2130    -9.4540 
   67.8750    69.5490     8.5080     7.3950     9.7380    23.7670     2.2240    -8.8270 
   68.0000    74.8600     7.9950     6.9880     8.9840    23.7030     2.2450    -8.0750 
   68.1250    82.5550     7.5300     6.5460     7.4490    23.5600     2.2720    -7.1780 
   68.2500    88.2000     7.1600     6.1460     5.9100    23.9330     2.2940    -6.2900 
   68.3750    88.2300     6.8670     5.8150     5.6890    24.4010     2.3080    -5.4840 
   68.5000    85.8210     6.6060     5.5460     6.2480    24.5210     2.3160    -4.7120 
   68.6250    87.7790     6.3320     5.3160     6.1540    24.3770     2.3240    -4.0410 
   68.7500    91.8490     6.0460     5.1010     5.3690    24.5360     2.3350    -3.5580 
   68.8750    93.9220     5.7950     4.9050     4.7750    24.8230     2.3440    -3.2730 
   69.0000    94.7680     5.6440     4.7560     4.6280    24.9750     2.3470    -3.2100 
   69.1250    94.4060     5.6650     4.7070     5.1040    24.9670     2.3420    -3.4090 
   69.2500    92.6370     5.8390     4.7750     5.8210    24.9430     2.3360    -3.7660 
   69.3750    91.5320     6.1430     4.9690     6.2000    24.9400     2.3320    -4.2050 
   69.5000    93.0980     6.5390     5.2730     6.3230    24.9890     2.3300    -4.7120 
   69.6250    92.3530     7.0050     5.6630     6.6000    25.0060     2.3260    -5.3380 
   69.7500    85.9900     7.5110     6.0930     8.0220    24.9460     2.3140    -6.0910 
   69.8750    78.0260     8.0260     6.5400    11.0550    24.7190     2.2940    -6.9140 
   70.0000    72.1190     8.4890     6.9760    13.2230    24.3010     2.2700    -7.7330 
   70.1250    67.6040     8.8090     7.3440    11.2730    23.8860     2.2500    -8.5040 
   70.2500    64.0600     8.9750     7.6040    10.0980    23.8030     2.2370    -9.1670 
   70.3750    62.3230     9.0170     7.7390     9.8780    24.0340     2.2320    -9.7080 
   70.5000    64.2190     8.9970     7.7620    10.0730    24.3320     2.2300   -10.1500 
   70.6250    68.4230     8.9660     7.6890     9.9950    24.5200     2.2280   -10.4340 
   70.7500    70.4280     8.9030     7.5410     9.6440    24.6110     2.2240   -10.4710 
   70.8750    68.9260     8.7360     7.3010     9.2890    24.6400     2.2210   -10.2280 
   71.0000    68.2000     8.3960     6.9500     8.7550    24.5770     2.2200    -9.7840 
   71.1250    73.4630     7.8490     6.4840     7.6710    24.4490     2.2280    -9.1710 
   71.2500    80.6200     7.2360     5.9830     6.4090    24.3690     2.2410    -8.4690 
   71.3750    84.8330     6.7200     5.5410     5.8010    24.4250     2.2580    -7.7530 
   71.5000    86.2700     6.4590     5.2560     5.7130    24.5390     2.2790    -7.0920 
   71.6250    85.4360     6.6010     5.2540     6.0330    24.6880     2.3040    -6.5700 
   71.7500    82.0910     7.0670     5.5200     7.3090    24.8040     2.3270    -6.2260 
   71.8750    76.8890     7.7290     5.9900     9.6490    24.7750     2.3400    -6.0640 
   72.0000    72.6190     8.3660     6.5190    11.7380    24.5650     2.3340    -5.9940 
   72.1250    71.0630     8.6590     6.8600    10.4820    24.2590     2.3100    -5.9370 
   72.2500    73.5740     8.5150     6.8890     8.7070    24.3420     2.2840    -5.8590 
   72.3750    79.6760     8.0080     6.6130     7.4630    24.7340     2.2700    -5.7310 
   72.5000    85.5500     7.3420     6.1520     6.4550    25.1520     2.2710    -5.4810 
   72.6250    86.2170     6.7640     5.6700     5.9210    25.3420     2.2830    -5.0370 
   72.7500    85.0220     6.3720     5.2830     5.8520    25.3780     2.2940    -4.4650 
   72.8750    86.4590     6.1450     5.0120     5.7510    25.3570     2.3000    -3.8330 
   73.0000    90.0130     6.0180     4.8460     5.4700    25.3280     2.3040    -3.2470 
   73.1250    91.5710     5.9530     4.7770     5.2850    25.2720     2.3120    -2.7980 
   73.2500    91.2860     5.9490     4.7840     5.2300    25.1930     2.3210    -2.4510 
   73.3750    90.1610     6.0440     4.8690     5.4220    25.0870     2.3290    -2.2450 
   73.5000    89.7780     6.2590     5.0310     5.8720    25.0030     2.3280    -2.2340 
   73.6250    87.8250     6.5650     5.2520     6.1840    24.9510     2.3100    -2.4020 
   73.7500    83.9120     6.8460     5.4660     6.5760    24.9350     2.2850    -2.6490 
   73.8750    80.1420     7.0040     5.6110     7.1210    24.9530     2.2640    -2.9460 
   74.0000    80.5920     6.9890     5.6370     7.0730    24.9600     2.2590    -3.2350 
   74.1250    83.7090     6.8250     5.5270     6.4870    24.8650     2.2730    -3.4270 
   74.2500    83.0010     6.6520     5.3650     5.6940    24.7200     2.2910    -3.6100 
   74.3750    79.9330     6.5800     5.2380     5.6030    24.6330     2.3010    -3.8070 
   74.5000    78.9180     6.6750     5.2170     6.1100    24.5860     2.2980    -3.9490 
   74.6250    78.7190     6.9380     5.3350     6.7940    24.4950     2.2810    -4.0470 
   74.7500    75.5350     7.2190     5.5070     7.4370    24.3550     2.2620    -4.1410 
   74.8750    72.5820     7.3660     5.6390     7.9640    24.1960     2.2530    -4.2400 
   75.0000    75.4350     7.2820     5.6610     7.7550    24.0670     2.2610    -4.3270 
   75.1250    81.6920     6.9860     5.5690     6.7310    23.9840     2.2880    -4.4130 
