~V
VERS. 2.00: Ver 2.00
~W
STRT.M 50.0000:
STOP.M 293.0000:
STEP.M 0.1250:
NULL. -999.2500:
UWI. F10045:
~C
DEPT.M :
DEN.GM/CC :
SP.MV :
GR.API :
CALI.CM :
RXO.OHMM :
RI. :
RML.OHMM :
~A
# ...
  140.0000     2.2350   -12.6330   113.1790    23.4260     5.8940     4.8540     5.6020 
  140.1250     2.2500   -12.6880   112.2320    23.4620     5.6690     4.8020     5.5900 
  140.2500     2.2760   -12.8100   111.1750    23.5030     5.5140     4.7470     5.5310 
  140.3750     2.3030   -12.9410   110.7010    23.5510     5.3720     4.7200     5.4820 
  140.5000     2.3170   -13.1150   109.2880    23.6130     5.2840     4.7410     5.5050 
  140.6250     2.3140   -13.3380   107.7660    23.6820     5.4080     4.8240     5.6550 
  140.7500     2.3010   -13.5940   107.4340    23.6080     5.8150     4.9300     5.8790 
  140.8750     2.2890   -13.8450   106.5640    23.3890     6.4160     5.0040     6.0640 
  141.0000     2.2870   -14.1950   105.2420    23.2020     6.8450     4.9910     6.0880 
  141.1250     2.2980   -14.6690   103.6110    23.1620     6.8730     4.8990     5.9330 
  141.2500     2.3180   -15.2440   105.2630    23.1990     6.6570     4.8500     5.8160 
  141.3750     2.3400   -15.9790   111.9350    23.2240     6.4810     4.9650     5.9340 
  141.5000     2.3540   -16.8050   118.2310    23.2060     6.7970     5.3260     6.4070 
  141.6250     2.3390   -17.8030   117.1770    23.1300     8.7590     5.9760     7.2870 
  141.7500     2.2940   -18.8640   113.0870    23.0560    11.8200     6.7500     8.3220 
  141.8750     2.2290   -19.9440   111.4960    23.0390    13.1360     7.4310     9.1730 
  142.0000     2.1650   -20.9050   108.9200    23.0540    11.5580     7.8220     9.5310 
  142.1250     2.1200   -21.7010   100.2600    23.0790     9.5920     7.8280     9.3100 
  142.2500     2.0970   -22.3350    91.2240    23.1050     8.8490     7.6500     8.8840 
  142.3750     2.0950   -22.7590    84.8280    23.1140     8.6320     7.4480     8.5250 
  142.5000     2.1040   -22.9970    80.9580    23.1160     8.4500     7.3150     8.3680 
  142.6250     2.1140   -23.0580    79.7320    23.0870     8.2840     7.2610     8.4010 
  142.7500     2.1180   -23.0580    82.7070    22.9910     8.1550     7.2220     8.4630 
  142.8750     2.1190   -22.9760    87.9910    22.8280     8.0780     7.1710     8.4860 
  143.0000     2.1250   -22.8990    91.5260    22.6680     8.1140     7.1130     8.4830 
  143.1250     2.1370   -22.8250    89.3280    22.5940     8.3870     7.0730     8.5010 
  143.2500     2.1430   -22.7470    84.8390    22.5790     8.7670     7.0980     8.5790 
  143.3750     2.1440   -22.6920    84.9190    22.6420     9.1110     7.2580     8.7760 
  143.5000     2.1550   -22.6250    90.1220    22.7800     9.3700     7.6430     9.1780 
  143.6250     2.2050   -22.5590    90.7490    22.9970     9.5740     8.3860     9.9660 
  143.7500     2.2920   -22.4970    84.2580    23.2030     9.7190     9.4400    11.1780 
  143.8750     2.3810   -22.4980    78.3370    23.3180     9.7880    10.6780    12.7390 
  144.0000     2.4230   -22.5330    79.5040    23.2950     9.8350    11.8160    14.2790 
  144.1250     2.3850   -22.6100    83.8550    23.2160     9.9600    12.3390    14.9740 
  144.2500     2.3120   -22.6980    86.8420    23.2010    10.0990    12.1110    14.5380 
  144.3750     2.2490   -22.7640    86.9130    23.2770    10.1700    11.3060    13.2860 
  144.5000     2.2090   -22.8570    84.0870    23.4510    10.1900    10.2820    11.8340 
  144.6250     2.1810   -22.9160    79.6310    23.5790    10.2770     9.3980    10.7350 
  144.7500     2.1510   -22.9700    76.3970    23.6490    10.4050     8.7960    10.1100 
  144.8750     2.1260   -22.9910    76.1620    23.6790    10.5000     8.4910     9.9290 
  145.0000     2.1140   -22.9300    78.9160    23.6880    10.5420     8.4240    10.0930 
  145.1250     2.1170   -22.7870    82.7080    23.6850    10.5170     8.5080    10.4720 
  145.2500     2.1180   -22.5580    85.0230    23.6730    10.4650     8.6030    10.8330 
  145.3750     2.1090   -22.2420    85.9500    23.6470    10.3960     8.6210    10.9950 
  145.5000     2.0970   -21.8440    84.6660    23.6210    10.3210     8.5110    10.8260 
  145.6250     2.0970   -21.3880    79.9160    23.5850    10.1840     8.2780    10.3240 
  145.7500     2.1130   -20.8860    76.1580    23.5350     9.8660     8.0230     9.7610 
  145.8750     2.1350   -20.3250    77.1540    23.5010     9.3580     7.8310     9.3570 
  146.0000     2.1520   -19.6850    80.5150    23.4920     8.8950     7.7500     9.2440 
  146.1250     2.1550   -18.9530    84.4550    23.5000     8.9200     7.7700     9.4460 
  146.2500     2.1550   -18.2210    88.3890    23.5130     9.2810     7.7790     9.7250 
  146.3750     2.1670   -17.4750    89.0930    23.5330     9.6830     7.6650     9.8090 
  146.5000     2.1950   -16.7690    87.6190    23.5800     9.6750     7.3500     9.4770 
  146.6250     2.2260   -16.1440    90.9350    23.6790     8.7500     6.8270     8.6850 
  146.7500     2.2470   -15.5340    99.6850    23.7550     7.6690     6.2540     7.7680 
  146.8750     2.2580   -14.9830   107.6380    23.8140     7.0110     5.7620     6.9970 
  147.0000     2.2620   -14.5360   113.6970    23.8750     6.6520     5.4440     6.5440 
  147.1250     2.2570   -14.1700   118.4550    23.9450     6.3420     5.3490     6.4890 
  147.2500     2.2440   -13.8290   118.4970    24.0010     6.4670     5.3800     6.6460 
  147.3750     2.2270   -13.5650   111.9200    24.0230     6.8050     5.4280     6.8400 
  147.5000     2.2210   -13.2740   104.8530    24.0150     6.8860     5.3930     6.9100 
  147.6250     2.2370   -12.9610   109.4690    24.0550     6.5220     5.2220     6.7540 
  147.7500     2.2670   -12.6970   120.3570    24.1660     5.9490     4.9890     6.4750 
  147.8750     2.2940   -12.4240   126.5720    24.2790     5.4610     4.7770     6.2040 
  148.0000     2.3060   -12.2060   126.4570    24.3300     5.2270     4.6580     6.0600 
  148.1250     2.3010   -12.0400   127.2490    24.2970     5.2290     4.6820     6.1140 
  148.2500     2.2890   -11.9620   127.4080    24.2510     5.3750     4.8000     6.2750 
  148.3750     2.2820   -11.9350   121.0410    24.2120     5.5850     4.9470     6.4410 
  148.5000     2.2820   -11.9930   111.4740    24.1780     5.8200     5.0570     6.5180 
  148.6250     2.2920   -12.0190   109.3810    24.1110     5.9000     5.0730     6.4520 
  148.7500     2.3030   -12.0230   114.6390    24.0230     5.8040     5.0210     6.3170 
  148.8750     2.3150   -12.0640   119.8680    23.9880     5.6610     4.9630     6.2100 
  149.0000     2.3350   -12.0900   120.5390    24.0200     5.7080     4.9580     6.2070 
  149.1250     2.3680   -12.1090   117.8240    24.0370     6.1540     5.0450     6.3390 
  149.2500     2.3960   -12.0960   114.7260    24.0200     6.6800     5.1760     6.5180 
  149.3750     2.3960   -12.1390   111.4950    23.9830     7.3950     5.2800     6.6320 
  149.5000     2.3640   -12.1690   108.7310    23.9340     7.5700     5.2790     6.5750 
  149.6250     2.3220   -12.2580   109.9940    23.8940     6.8750     5.1300     6.3130 
  149.7500     2.2950   -12.3280   113.0750    23.8730     5.8440     4.9090     5.9850 
  149.8750     2.2820   -12.3340   114.7850    23.8680     5.3520     4.6910     5.6990 
  150.0000     2.2720   -12.3220   114.1350    23.8610     5.2690     4.5290     5.5070 
  150.1250     2.2650   -12.3080   113.5530    23.8420     5.3550     4.4690     5.4330 
  150.2500     2.2710   -12.3160   115.0090    23.8210     5.4030     4.4830     5.4230 
  150.3750     2.2870   -12.2590   117.2680    23.8260     5.3410     4.5330     5.4320 
  150.5000     2.2990   -12.1880   118.9440    23.8510     5.2770     4.5790     5.4420 
  150.6250     2.2980   -12.1500   122.2710    23.8650     5.3230     4.5990     5.4620 
  150.7500     2.2850   -12.1330   127.0420    23.8810     5.3440     4.5990     5.4950 
  150.8750     2.2700   -12.1800   128.9670    23.9060     5.2260     4.5940     5.5450 
  151.0000     2.2600   -12.2550   126.4850    23.9000     5.1510     4.6020     5.6250 
  151.1250     2.2610   -12.3370   120.2830    23.8310     5.2810     4.6380     5.7530 
