~V
VERS. 2.00: Ver 2.00
~W
STRT.M 55.0000:
STOP.M 297.0000:
STEP.M 0.1250:
NULL. -999.2500:
UWI. F10076:
~C
DEPT.M :
DEN.GM/CC :
SP.MV :
GR.API :
CALI.CM :
RXO.OHMM :
RI. :
RML.OHMM :
~A
# ...
   66.2500     1.7340    44.6520    42.5000    26.1480     2.8600     0.0630     0.2570 
   66.3750     1.6500    38.2500    42.2470    26.8020     4.5480     0.1310     0.3280 
   66.5000     1.6660    32.0860    43.3590    28.0910     5.5140     0.3140     0.5080 
   66.6250     1.7780    26.4950    46.1680    28.8500     5.4810     0.7940     0.9510 
   66.7500     1.8690    21.3770    47.8340    28.1440     5.2180     1.7140     1.8510 
   66.8750     1.9040    16.6350    48.0110    26.3150     5.5380     3.1350     3.3680 
   67.0000     1.9020    12.2980    48.9720    24.7660     6.1970     4.8160     5.1420 
   67.1250     1.8570     8.7000    51.2350    24.4160     6.4770     6.1750     6.1720 
   67.2500     1.7550     5.8290    52.3360    25.1100     6.2380     7.0080     6.5150 
   67.3750     1.6170     3.6110    52.5900    26.7690     5.9270     7.4540     6.6160 
   67.5000     1.5040     1.9950    55.1200    28.7060     6.0230     7.6910     6.6930 
   67.6250     1.4860     0.8970    59.8480    29.5090     6.3690     7.7550     6.7190 
   67.7500     1.5590     0.2320    63.1920    29.7040     6.5200     7.6430     6.6220 
   67.8750     1.6980    -0.0120    65.7940    29.6840     6.1120     7.3630     6.3990 
   68.0000     1.8600     0.0120    72.2900    29.4220     5.2980     6.9820     6.1290 
   68.1250     2.0010     0.2150    85.5880    28.4980     4.6630     6.6110     5.9190 
   68.2500     2.1040     0.4240    98.3890    27.1910     4.5370     6.3290     5.8080 
   68.3750     2.1580     0.5920   104.1820    26.5070     4.5770     6.1550     5.7960 
   68.5000     2.1580     0.6830   102.2680    26.7220     4.4930     6.0730     5.8580 
   68.6250     2.1020     0.7050    96.4250    27.6040     4.3530     6.0540     5.9580 
   68.7500     2.0380     0.6130    91.8590    28.4240     4.2160     6.0590     6.0660 
   68.8750     2.0100     0.4120    91.5710    28.5970     4.2470     6.0800     6.1840 
   69.0000     2.0400     0.1100    96.2400    27.4870     4.5770     6.1240     6.3270 
   69.1250     2.1080    -0.3660   101.6880    25.8250     5.0620     6.2130     6.5140 
   69.2500     2.1720    -0.8940   103.6620    24.9030     5.3460     6.3440     6.7410 
   69.3750     2.2120    -1.4940   101.9660    24.6460     5.4070     6.5160     7.0060 
   69.5000     2.2280    -2.2330    98.5580    24.6440     5.4540     6.7270     7.3120 
   69.6250     2.2260    -3.0800    95.8370    24.6400     5.6210     6.9840     7.6780 
   69.7500     2.2140    -4.0530    93.6690    24.6310     5.9460     7.2720     8.0940 
   69.8750     2.1950    -5.1270    90.1120    24.7070     6.4160     7.5760     8.5250 
   70.0000     2.1670    -6.1000    84.2360    24.9380     6.9250     7.8680     8.9140 
   70.1250     2.1320    -6.9050    78.7560    25.1300     7.3280     8.1060     9.2060 
   70.2500     2.0960    -7.5580    75.3540    25.2160     7.4500     8.2770     9.4140 
   70.3750     2.0740    -8.0500    72.7980    25.2200     7.4350     8.3710     9.5390 
   70.5000     2.0800    -8.2720    71.0680    25.2530     7.3600     8.3670     9.5570 
   70.6250     2.1150    -8.1560    72.6110    25.3990     7.2950     8.2230     9.4170 
   70.7500     2.1480    -7.7990    77.5120    25.4590     7.2140     7.9720     9.1600 
   70.8750     2.1650    -7.2590    83.7750    25.3380     6.9920     7.6540     8.8440 
   71.0000     2.1730    -6.6860    89.8560    25.3050     6.4470     7.3240     8.5400 
   71.1250     2.1820    -6.0420    93.6900    25.3910     5.9710     7.0470     8.3160 
   71.2500     2.1840    -5.3830    95.1660    25.3970     5.8790     6.8550     8.1840 
   71.3750     2.1740    -4.7150    95.3660    25.2950     5.9810     6.7570     8.1370 
   71.5000     2.1640    -4.1660    96.2430    25.1950     5.8200     6.7280     8.1380 
   71.6250     2.1650    -3.8290    97.4460    25.1990     5.5170     6.7160     8.1220 
   71.7500     2.1680    -3.5560    97.0130    25.2270     5.5600     6.6630     8.0330 
   71.8750     2.1690    -3.2830    97.7300    25.2460     5.7330     6.5410     7.8570 
   72.0000     2.1790    -3.0130   102.6990    25.2570     5.6040     6.3630     7.6240 
   72.1250     2.2060    -2.8650   109.9740    25.2660     5.1500     6.1840     7.4240 
   72.2500     2.2300    -2.8460   113.7800    25.2320     4.8600     6.0750     7.3420 
   72.3750     2.2350    -2.9580   115.3280    25.1430     4.8150     6.0740     7.4220 
   72.5000     2.2140    -3.1660   115.3260    24.9750     5.0060     6.1960     7.6700 
   72.6250     2.1760    -3.4280   110.2060    24.7510     5.4620     6.4160     8.0470 
   72.7500     2.1440    -3.7550   101.0020    24.6440     5.9330     6.6340     8.4090 
   72.8750     2.1290    -4.1400    94.5100    24.6850     6.0560     6.7700     8.6410 
   73.0000     2.1330    -4.5200    95.5520    24.8510     5.8380     6.7850     8.6980 
   73.1250     2.1470    -4.8270   101.3200    24.9660     5.5770     6.6910     8.6110 
   73.2500     2.1690    -5.0810   105.7540    24.9990     5.4970     6.5670     8.4940 
   73.3750     2.1950    -5.2810   107.3330    25.1040     5.4010     6.4730     8.4210 
   73.5000     2.2080    -5.4780   106.3120    25.2040     5.3620     6.4560     8.4430 
   73.6250     2.1840    -5.7080   105.8660    25.2440     5.3770     6.5520     8.5980 
   73.7500     2.1470    -5.8960   104.7420    25.2580     5.5130     6.7360     8.8610 
   73.8750     2.1320    -6.0510   101.3950    25.2810     5.6130     6.9770     9.1940 
   74.0000     2.1510    -6.2280    95.3110    25.2080     5.7340     7.2170     9.5020 
   74.1250     2.1720    -6.3650    87.3590    24.9410     5.8530     7.3380     9.6010 
   74.2500     2.1680    -6.3680    81.3690    24.6070     6.0020     7.2730     9.4320 
   74.3750     2.1520    -6.2070    81.3210    24.5210     5.6990     7.0140     9.0380 
   74.5000     2.1480    -5.7890    87.9570    24.6970     5.1600     6.6110     8.5240 
   74.6250     2.1630    -5.1590    97.2450    25.0740     4.8860     6.1470     8.0160 
   74.7500     2.1850    -4.5510   104.4600    25.3630     4.8400     5.7110     7.5970 
   74.8750     2.2090    -3.9240   109.6050    25.5300     4.7030     5.3410     7.2900 
   75.0000     2.2310    -3.2330   112.8630    25.5870     4.3990     5.0490     7.0770 
   75.1250     2.2410    -2.6250   115.6920    25.5700     4.1940     4.8400     6.9230 
   75.2500     2.2410    -2.2020   119.1050    25.5030     4.0640     4.6770     6.7580 
   75.3750     2.2360    -1.9720   120.5730    25.3960     4.0280     4.5340     6.5540 
   75.5000     2.2340    -1.9820   119.9460    25.3030     3.9670     4.4060     6.3480 
   75.6250     2.2350    -2.2220   122.1180    25.2200     3.9170     4.3450     6.2790 
   75.7500     2.2350    -2.6380   127.5060    25.1540     3.8990     4.4110     6.4470 
   75.8750     2.2270    -3.2560   129.7820    25.1020     4.0990     4.6530     6.8930 
   76.0000     2.2010    -3.9950   123.2420    25.0460     4.8780     5.0780     7.5700 
   76.1250     2.1620    -4.7340   109.1900    24.9710     6.1170     5.6170     8.2930 
   76.2500     2.1320    -5.3830    95.7740    24.9490     6.8930     6.0790     8.7940 
   76.3750     2.1250    -5.9870    88.6920    24.9490     6.8350     6.3200     8.9320 
   76.5000     2.1370    -6.5270    89.7020    24.9070     6.2020     6.3090     8.7570 
   76.6250     2.1580    -6.9890    98.4930    24.6920     5.5360     6.1340     8.4730 
   76.7500     2.1740    -7.3810   108.5370    24.5450     5.3240     5.9730     8.2980 
   76.8750     2.1780    -7.6720   112.4920    24.5580     5.6010     5.9120     8.3040 
   77.0000     2.1670    -7.8690   105.7220    24.7150     5.8920     5.9680     8.4730 
   77.1250     2.1510    -8.0860    93.0350    24.9570     5.9650     6.1170     8.7390 
   77.2500     2.1480    -8.3480    85.7100    25.1570     5.8940     6.2880     9.0030 
   77.3750     2.1600    -8.6150    85.5070    25.2380     6.0270     6.4350     9.2050 
