~V
VERS. 2.00: Ver 2.00
~W
STRT.M 50.0000:
STOP.M 325.0000:
STEP.M 0.1250:
NULL. -999.2500:
UWI. F10039:
~C
DEPT.M :
GR.API :
RML.OHMM :
RI. :
RXO.OHMM :
CALI.CM :
DEN.GM/CC :
SP.MV :
~A
# ...
  241.2500    62.9580    32.7230    33.1300    34.3110    24.4200     2.3450   -16.9560 
  241.3750    59.1250    34.1180    34.5100    35.0140    24.3810     2.3390   -16.9660 
  241.5000    59.6350    35.3090    35.5600    38.1410    24.3180     2.3280   -16.9770 
  241.6250    62.6700    35.8390    35.9520    41.6110    24.3040     2.3200   -16.9970 
  241.7500    64.6520    35.4110    35.5310    40.3990    24.3520     2.3170   -17.0260 
  241.8750    64.8280    33.8910    34.1990    37.1860    24.4140     2.3160   -17.0600 
  242.0000    63.3920    31.5010    32.1150    33.6830    24.4340     2.3110   -17.1000 
  242.1250    62.5230    28.8390    29.7180    28.4750    24.4150     2.3030   -17.1490 
  242.2500    63.2740    26.6460    27.6140    24.4900    24.4070     2.2940   -17.1880 
  242.3750    64.6000    25.3200    26.1460    22.5060    24.4030     2.2910   -17.2190 
  242.5000    65.6360    25.1700    25.4400    24.7610    24.3720     2.2960   -17.2650 
  242.6250    65.6110    26.3170    25.5240    28.1410    24.3240     2.3100   -17.2910 
  242.7500    65.3620    28.0270    26.0660    30.4090    24.2950     2.3240   -17.3170 
  242.8750    64.8400    29.2670    26.8410    29.3580    24.2700     2.3300   -17.3380 
  243.0000    65.0200    29.9660    27.6640    26.7390    24.2420     2.3240   -17.3630 
  243.1250    65.8320    30.3680    28.4250    26.2670    24.2060     2.3060   -17.4000 
  243.2500    65.6710    30.7560    29.1080    27.6810    24.1490     2.2870   -17.4580 
  243.3750    64.5760    31.2370    29.6780    30.5310    24.0510     2.2730   -17.5300 
  243.5000    63.7710    31.7440    30.0460    32.5020    23.9900     2.2690   -17.5950 
  243.6250    63.5270    32.0130    30.0280    31.9870    24.0720     2.2810   -17.6670 
  243.7500    64.4020    31.9000    29.6370    31.0590    24.1760     2.3070   -17.7360 
  243.8750    67.2450    31.4180    28.9760    30.4530    24.2130     2.3430   -17.8050 
  244.0000    71.7920    30.7210    28.2320    29.9180    24.2060     2.3810   -17.8770 
  244.1250    73.4550    30.0290    27.6210    28.6370    24.1760     2.4040   -17.9380 
  244.2500    70.1650    29.5070    27.2210    29.0930    24.1260     2.4050   -17.9870 
  244.3750    65.6640    29.2430    27.0320    31.3880    24.0520     2.3830   -18.0260 
  244.5000    64.7460    29.2850    27.0180    30.1380    23.9790     2.3480   -18.0420 
  244.6250    67.5650    29.6950    27.1770    29.1240    23.9240     2.3130   -18.0510 
  244.7500    70.2450    30.3750    27.5040    29.7550    23.8750     2.2880   -18.0570 
  244.8750    72.6530    31.2470    28.0340    30.9030    23.8190     2.2750   -18.0730 
  245.0000    75.5640    32.2170    28.7860    32.8540    23.7500     2.2710   -18.0910 
  245.1250    76.3950    33.1680    29.7260    34.8380    23.7200     2.2720   -18.1080 
  245.2500    74.2630    33.9560    30.6590    36.2030    23.8390     2.2710   -18.1130 
  245.3750    72.1520    34.4120    31.3660    36.1120    24.0800     2.2700   -18.1130 
  245.5000    74.0520    34.3920    31.6420    34.9760    24.2450     2.2710   -18.1220 
  245.6250    78.8260    33.7800    31.3030    34.0430    24.2650     2.2850   -18.1240 
  245.7500    79.4650    32.7830    30.5180    32.6470    24.1940     2.3130   -18.1130 
  245.8750    74.1640    31.5910    29.4790    30.8910    24.0300     2.3510   -18.0800 
  246.0000    67.5580    30.4020    28.4200    29.8770    23.8110     2.3880   -18.0310 
  246.1250    65.6910    29.4340    27.6190    28.8930    23.5550     2.4130   -17.9730 
  246.2500    67.9220    28.7540    27.1650    27.2290    23.4170     2.4240   -17.9150 
  246.3750    70.5370    28.2930    26.9800    25.2840    23.3710     2.4240   -17.8530 
  246.5000    70.4810    27.7770    26.7690    25.5450    23.3520     2.4180   -17.7870 
  246.6250    69.1470    26.6320    25.9200    26.9660    23.3790     2.4120   -17.7060 
  246.7500    68.5640    24.5860    24.1080    24.8540    23.4680     2.4070   -17.6200 
  246.8750    68.7270    21.7030    21.3530    18.6390    23.5610     2.4090   -17.5100 
  247.0000    69.4590    18.4320    18.0750    13.2530    23.5590     2.4190   -17.3790 
  247.1250    71.9790    15.5130    15.0060    11.3310    23.5270     2.4360   -17.2370 
  247.2500    75.6390    13.4030    12.6790    10.7360    23.6850     2.4480   -17.1010 
  247.3750    77.8980    12.2730    11.3300    10.6560    23.8530     2.4480   -16.9790 
  247.5000    78.4060    12.1120    11.0100    11.0120    23.9170     2.4320   -16.8730 
  247.6250    78.4650    12.9340    11.7620    13.0100    23.9110     2.4020   -16.8180 
  247.7500    76.8040    14.3470    13.1660    16.1890    23.9330     2.3740   -16.7840 
  247.8750    72.8490    16.0030    14.8390    19.2470    23.9510     2.3550   -16.7830 
  248.0000    68.1770    17.4960    16.3430    20.0260    23.9410     2.3470   -16.8060 
  248.1250    67.0150    18.4370    17.2730    19.4990    23.8940     2.3460   -16.8380 
  248.2500    69.0400    18.9190    17.7300    18.2300    23.8050     2.3520   -16.8550 
  248.3750    70.9720    19.1840    17.9640    17.5500    23.7020     2.3660   -16.8540 
  248.5000    70.6640    19.5000    18.2390    19.4720    23.6120     2.3950   -16.8550 
  248.6250    68.7570    20.0370    18.7090    23.7600    23.5340     2.4310   -16.8550 
  248.7500    67.8110    20.7210    19.2870    24.9960    23.4710     2.4560   -16.8340 
  248.8750    68.0250    21.4680    19.8690    23.6410    23.4490     2.4540   -16.7940 
  249.0000    67.9280    22.2530    20.4160    22.6850    23.5320     2.4250   -16.7460 
  249.1250    66.1880    23.1270    21.0040    23.6240    23.6950     2.3830   -16.7150 
  249.2500    62.5430    24.0860    21.7250    25.5290    23.8550     2.3530   -16.7090 
  249.3750    59.4040    25.0340    22.5680    28.9260    23.9170     2.3420   -16.7220 
  249.5000    59.0880    25.7520    23.3690    32.0940    23.8450     2.3480   -16.7280 
  249.6250    62.5040    25.8190    23.7050    28.9640    23.7570     2.3550   -16.7080 
  249.7500    65.8060    25.0920    23.3020    26.1050    23.7720     2.3560   -16.6950 
  249.8750    67.2790    23.5870    22.0800    23.7340    23.7880     2.3520   -16.6900 
  250.0000    67.6920    21.5670    20.2480    20.9570    23.7530     2.3470   -16.6860 
  250.1250    70.5120    19.5320    18.2770    18.3870    23.7620     2.3440   -16.6630 
  250.2500    75.2500    17.9960    16.7050    16.8830    23.8490     2.3410   -16.6250 
  250.3750    76.9530    17.2650    15.8470    15.4420    23.9380     2.3370   -16.5780 
  250.5000    73.4540    17.4770    15.8580    16.0880    23.9860     2.3320   -16.5210 
  250.6250    68.8470    18.7300    16.8750    19.3890    24.0120     2.3260   -16.4280 
  250.7500    67.7280    20.6350    18.5560    23.4720    24.0490     2.3210   -16.3050 
  250.8750    68.1070    22.8220    20.5530    26.2340    24.0780     2.3190   -16.1490 
  251.0000    66.6590    24.8240    22.4060    27.3760    24.0130     2.3200   -15.9850 
  251.1250    63.9980    26.0600    23.5610    28.6800    23.8960     2.3240   -15.8350 
  251.2500    62.4330    26.4610    23.9780    27.6060    23.7830     2.3280   -15.6890 
  251.3750    64.1060    26.2230    23.8630    26.5130    23.7310     2.3280   -15.5520 
  251.5000    67.5450    25.7440    23.5610    25.4430    23.6810     2.3250   -15.4240 
  251.6250    67.8190    25.4910    23.3930    23.8790    23.5880     2.3180   -15.3430 
  251.7500    64.0910    25.6520    23.4580    23.7140    23.4780     2.3120   -15.3110 
  251.8750    60.2580    26.2150    23.7470    25.6830    23.4340     2.3070   -15.3340 
  252.0000    59.8810    27.0650    24.2390    26.8100    23.4980     2.3040   -15.4000 
  252.1250    63.5020    28.0960    24.9650    28.8870    23.5550     2.3020   -15.4840 
  252.2500    67.8880    29.2170    25.8960    29.5280    23.5360     2.3010   -15.5890 
  252.3750    71.0620    30.4080    26.9970    30.2360    23.5100     2.3000   -15.7040 
