~V
VERS. 2.00: Ver 2.00
~W
STRT.M 57.0000:
STOP.M 296.0000:
STEP.M 0.1250:
NULL. -999.2500:
UWI. F10043:
~C
DEPT.M :
GR.API :
RML.OHMM :
RI. :
RXO.OHMM :
CALI.CM :
DEN.GM/CC :
SP.MV :
~A
# ...
   68.2500    67.0610     8.5450     7.5960     9.8970    22.5620     2.1900   -29.9190 
   68.3750    66.5880     8.5700     7.5840    10.1270    22.5580     2.1950   -29.9880 
   68.5000    66.4930     8.5870     7.5730    10.4630    22.6570     2.2020   -30.0960 
   68.6250    66.6050     8.5790     7.5610    10.4620    22.7910     2.2090   -30.2180 
   68.7500    66.6260     8.5480     7.5290    10.2830    22.8600     2.2100   -30.3710 
   68.8750    66.3550     8.5100     7.4870    10.2800    22.9040     2.2060   -30.5240 
   69.0000    64.7790     8.4890     7.4670    10.4050    22.9520     2.1990   -30.6820 
   69.1250    62.1410     8.4960     7.4840    10.5270    23.0500     2.1940   -30.7920 
   69.2500    59.4960     8.5130     7.4930    10.5460    23.1850     2.1920   -30.8650 
   69.3750    59.4390     8.5100     7.4520    10.4950    23.3400     2.1910   -30.8750 
   69.5000    62.2630     8.4670     7.3610    10.3920    23.4540     2.1900   -30.8170 
   69.6250    64.7270     8.3880     7.2620    10.1440    23.5130     2.1920   -30.7020 
   69.7500    67.1160     8.3080     7.1800     9.7460    23.5320     2.1930   -30.5140 
   69.8750    70.0460     8.2520     7.1060     9.4170    23.5370     2.1930   -30.2760 
   70.0000    72.3140     8.2370     7.0450     9.3860    23.5370     2.1910   -30.0050 
   70.1250    72.0510     8.2640     7.0470     9.5530    23.5240     2.1900   -29.7710 
   70.2500    71.1580     8.3010     7.1170     9.7930    23.4730     2.1940   -29.5620 
   70.3750    70.8080     8.3250     7.1980     9.7580    23.3720     2.2030   -29.3760 
   70.5000    70.3170     8.3290     7.2140     9.4730    23.2550     2.2110   -29.2240 
   70.6250    70.1540     8.3250     7.1470     9.2580    23.2070     2.2120   -29.1240 
   70.7500    70.2460     8.3270     7.0830     9.3010    23.1950     2.2060   -29.0710 
   70.8750    69.4530     8.3300     7.0770     9.3470    23.1890     2.1970   -29.0680 
   71.0000    68.6040     8.3240     7.1140     9.4600    23.1740     2.1920   -29.0770 
   71.1250    69.4980     8.3020     7.1180     9.6690    23.1220     2.1920   -29.0710 
   71.2500    70.5390     8.2750     7.0720     9.8170    23.0590     2.1950   -29.0740 
   71.3750    68.1840     8.2470     7.0170     9.8690    22.9950     2.1980   -29.0910 
   71.5000    63.2630     8.2080     6.9880     9.8120    22.9300     2.1990   -29.1010 
   71.6250    61.2060     8.1270     6.9550    10.0300    22.8420     2.1960   -29.0390 
   71.7500    63.4370     8.0010     6.8520    10.4250    22.5800     2.1880   -28.9210 
   71.8750    67.8380     7.8460     6.6800    10.5540    22.0640     2.1800   -28.7490 
   72.0000    70.3570     7.6940     6.5160    10.2200    21.4960     2.1760   -28.5400 
   72.1250    69.7320     7.5940     6.4590     9.8130    21.2360     2.1820   -28.3030 
   72.2500    68.7650     7.5630     6.4910     9.8120    21.2130     2.1960   -28.0120 
   72.3750    69.2110     7.5980     6.5360     9.8930    21.3040     2.2130   -27.6660 
   72.5000    70.2760     7.6770     6.5420    10.2190    21.4480     2.2270   -27.2640 
   72.6250    69.1720     7.7410     6.5150    10.4060    21.5880     2.2350   -26.8260 
   72.7500    66.9870     7.7330     6.4830     9.9900    21.7360     2.2360   -26.3240 
   72.8750    66.2930     7.6290     6.4290     9.2420    21.9700     2.2360   -25.7540 
   73.0000    68.3980     7.4350     6.3220     8.6930    22.3440     2.2380   -25.0850 
   73.1250    72.7070     7.1740     6.1480     8.3670    22.8350     2.2480   -24.3130 
   73.2500    78.0500     6.9140     5.9650     7.8270    23.3040     2.2600   -23.5050 
   73.3750    83.2670     6.7200     5.8240     7.3980    23.6130     2.2690   -22.7140 
   73.5000    86.2870     6.6440     5.7540     7.2010    23.7630     2.2720   -21.9850 
   73.6250    86.6020     6.7180     5.7730     6.9540    23.8860     2.2670   -21.3810 
   73.7500    87.8940     6.8870     5.8760     7.0730    23.9420     2.2600   -20.8950 
   73.8750    89.9270     7.0850     6.0510     7.7660    23.8780     2.2530   -20.5060 
   74.0000    88.4300     7.2300     6.2300     8.2260    23.9360     2.2470   -20.2090 
   74.1250    83.9420     7.2410     6.2930     7.7250    24.2660     2.2460   -19.9830 
   74.2500    83.9960     7.1370     6.2340     7.3250    24.5840     2.2490   -19.8210 
   74.3750    89.6630     6.9580     6.1100     7.4750    24.6660     2.2570   -19.7100 
   74.5000    95.2650     6.7480     5.9830     7.2550    24.8030     2.2690   -19.6290 
   74.6250    96.4210     6.5710     5.8790     6.6330    24.9800     2.2820   -19.5430 
   74.7500    93.9800     6.4810     5.7990     6.2930    25.0770     2.2910   -19.4950 
   74.8750    89.8640     6.5130     5.7770     6.3290    25.1010     2.2920   -19.5240 
   75.0000    88.7520     6.6740     5.8540     6.4390    25.0790     2.2840   -19.6720 
   75.1250    92.2830     6.9440     6.0420     6.4830    24.8760     2.2700   -19.9660 
   75.2500    92.1480     7.2270     6.2510     6.9510    24.4550     2.2580   -20.3610 
   75.3750    85.4100     7.4350     6.4070     7.7900    24.0050     2.2510   -20.8020 
   75.5000    79.3610     7.5090     6.4870     8.1700    23.7560     2.2500   -21.2520 
   75.6250    79.8930     7.4450     6.5210     7.9440    23.6490     2.2500   -21.6810 
   75.7500    81.1740     7.3560     6.5610     7.6660    23.5710     2.2470   -22.0890 
   75.8750    79.4680     7.3580     6.6460     7.9090    23.5250     2.2410   -22.4500 
   76.0000    75.5870     7.5510     6.8230     8.3450    23.5640     2.2340   -22.7420 
   76.1250    71.5680     7.9700     7.1310     9.0090    23.6980     2.2260   -22.9310 
   76.2500    67.5130     8.4240     7.4680     9.3270    23.8490     2.2170   -22.9640 
   76.3750    64.6370     8.6780     7.6760     9.5840    23.9720     2.2090   -22.8290 
   76.5000    66.5010     8.5460     7.6220     9.9200    24.0040     2.2120   -22.5280 
   76.6250    76.0840     7.9710     7.2550     9.4530    23.9970     2.2430   -22.0280 
   76.7500    87.5960     7.2480     6.7460     7.8820    24.1450     2.2970   -21.3650 
   76.8750    96.9970     6.6430     6.2480     6.3110    24.5080     2.3570   -20.6070 
   77.0000   103.3330     6.3230     5.8860     5.7770    24.8630     2.3990   -19.8000 
   77.1250   105.2600     6.3510     5.7640     6.1210    24.9640     2.4020   -19.0020 
   77.2500   102.6820     6.5570     5.8320     6.5250    24.9020     2.3780   -18.2830 
   77.3750   100.1240     6.7800     6.0020     6.8070    24.7650     2.3500   -17.6880 
   77.5000    99.5920     6.8780     6.1560     6.6720    24.6820     2.3330   -17.2420 
   77.6250    98.7790     6.7950     6.2010     6.3480    24.7090     2.3370   -16.9740 
   77.7500    97.8500     6.6590     6.1830     6.2580    24.7850     2.3500   -16.8700 
   77.8750    97.3610     6.5820     6.1720     6.4160    24.9020     2.3630   -16.8810 
   78.0000    98.2330     6.6160     6.2270     6.7410    25.1000     2.3710   -16.9740 
   78.1250    99.5180     6.7600     6.3950     7.0530    25.4080     2.3670   -17.1160 
   78.2500    98.8240     6.9490     6.6460     7.1960    25.6700     2.3550   -17.2790 
   78.3750    95.0550     7.1670     6.9380     7.2200    25.7500     2.3380   -17.4560 
   78.5000    89.9750     7.4370     7.2380     7.3350    25.6230     2.3150   -17.6700 
   78.6250    88.1990     7.7990     7.5460     7.6540    25.3390     2.2890   -17.9760 
   78.7500    87.2060     8.2190     7.8690     7.8710    24.9740     2.2660   -18.2890 
   78.8750    84.2170     8.6170     8.1640     8.4450    24.5630     2.2560   -18.5930 
   79.0000    80.8530     8.8650     8.3170     9.5210    24.1220     2.2640   -18.8600 
   79.1250    81.2440     8.7580     8.1480     9.6040    23.8380     2.2910   -19.0780 
   79.2500    84.9600     8.2900     7.6830     8.5650    23.7540     2.3210   -19.2840 
   79.3750    88.9290     7.5920     7.0500     7.8390    23.8090     2.3410   -19.4900 
