~V
VERS. 2.00: Ver 2.00
~W
STRT.M 55.0000:
STOP.M 247.0000:
STEP.M 0.1250:
NULL. -999.2500:
UWI. F10032:
~C
DEPT.M :
GR.API :
RML.OHMM :
RI. :
RXO.OHMM :
CALI.CM :
DEN.GM/CC :
SP.MV :
~A
# ...
   66.2500    67.4030     9.2310     7.6610    10.8210    24.1560     2.1360   -27.2560 
   66.3750    67.0430     9.2360     7.6170    10.5770    24.0540     2.1430   -26.5190 
   66.5000    67.8430     9.2720     7.6310    10.3320    24.0050     2.1550   -25.6930 
   66.6250    67.8790     9.2700     7.6260    10.0030    23.8830     2.1640   -24.7230 
   66.7500    68.3700     9.1750     7.5640     9.6870    23.6670     2.1670   -23.6210 
   66.8750    69.8140     8.9350     7.4370     9.5470    23.4320     2.1680   -22.4320 
   67.0000    73.4510     8.5240     7.2130     9.3250    23.4810     2.1740   -21.1890 
   67.1250    79.8820     7.9910     6.8770     8.5500    23.8640     2.1910   -19.9650 
   67.2500    85.6570     7.5170     6.5350     7.2880    24.2730     2.2150   -18.8360 
   67.3750    86.9120     7.2480     6.2880     6.4180    24.3530     2.2340   -17.8580 
   67.5000    84.8410     7.2540     6.1880     6.1810    24.4370     2.2400   -17.0390 
   67.6250    83.7280     7.5320     6.2700     6.6850    24.5330     2.2280   -16.3880 
   67.7500    84.4930     7.8810     6.4630     7.3500    24.4860     2.2110   -15.8640 
   67.8750    85.5010     8.1040     6.6490     7.6130    24.4590     2.1990   -15.4760 
   68.0000    85.5920     8.0450     6.6830     7.4750    24.5600     2.1980   -15.2560 
   68.1250    85.5530     7.6330     6.4680     6.7200    24.7270     2.2090   -15.1620 
   68.2500    87.7820     7.0380     6.1110     6.2050    24.8250     2.2240   -15.0950 
   68.3750    92.4610     6.4230     5.7110     5.9740    24.8550     2.2380   -15.0730 
   68.5000    95.7700     5.9500     5.3710     5.8540    24.8500     2.2510   -15.1340 
   68.6250    95.2290     5.7940     5.2360     5.6020    24.8000     2.2590   -15.3160 
   68.7500    93.7390     5.9780     5.3420     5.6760    24.6710     2.2600   -15.6260 
   68.8750    92.9470     6.5100     5.6870     6.1980    24.4460     2.2520   -16.0270 
   69.0000    89.4560     7.3400     6.2520     7.1140    24.1070     2.2340   -16.4340 
   69.1250    84.3760     8.3280     7.0020     8.4350    23.8070     2.2110   -16.7850 
   69.2500    82.9520     9.2050     7.7430     9.2700    23.6390     2.1910   -17.0750 
   69.3750    83.8720     9.7490     8.2560     9.5870    23.5960     2.1790   -17.2280 
   69.5000    82.6910     9.8030     8.3930     9.4230    23.6180     2.1770   -17.1670 
   69.6250    79.1860     9.2590     8.0750     8.8660    23.6880     2.1860   -16.8290 
   69.7500    79.7590     8.3310     7.4490     8.2330    23.7840     2.2020   -16.2730 
   69.8750    85.8220     7.2300     6.6600     7.7220    23.9400     2.2220   -15.5870 
   70.0000    94.9350     6.2250     5.9180     6.8420    24.2290     2.2420   -14.8780 
   70.1250   101.5580     5.6810     5.4650     6.2020    24.5200     2.2530   -14.2080 
   70.2500   103.2130     5.7390     5.3670     5.5630    24.6750     2.2540   -13.5990 
   70.3750   101.7780     6.4650     5.6700     5.7430    24.7000     2.2500   -13.0860 
   70.5000    97.8110     7.7690     6.3790     8.0240    24.6560     2.2530   -12.7050 
   70.6250    91.3700     9.2670     7.3570    11.7750    24.6020     2.2790   -12.5190 
   70.7500    87.2530    10.2370     8.1300    12.6820    24.5500     2.3230   -12.5250 
   70.8750    89.4770    10.1720     8.2780    10.5280    24.4350     2.3690   -12.6270 
   71.0000    97.1500     9.0750     7.7020     9.3130    24.2330     2.4000   -12.7290 
   71.1250   104.7590     7.4970     6.7030     7.5600    24.2980     2.4010   -12.8360 
   71.2500   110.1980     6.1790     5.7990     6.0590    24.5560     2.3820   -12.9980 
   71.3750   113.7280     5.4400     5.2280     5.4930    24.7610     2.3550   -13.2380 
   71.5000   115.3420     5.4020     5.0930     5.5890    24.8000     2.3330   -13.5530 
   71.6250   113.5820     6.2700     5.5510     6.4090    24.7070     2.3270   -13.9150 
   71.7500   107.7520     7.9890     6.6210     8.0510    24.5960     2.3430   -14.3160 
   71.8750    97.1750    10.5120     8.3870    10.4280    24.5200     2.3820   -14.8550 
   72.0000    83.7710    13.4840    10.7410    14.7910    24.4710     2.4400   -15.5920 
   72.1250    74.2000    15.8960    13.0290    22.8680    24.4000     2.5070   -16.5010 
   72.2500    72.0370    16.7790    14.2940    27.1100    24.3160     2.5600   -17.5080 
   72.3750    73.9820    15.9140    14.1470    26.6000    24.1680     2.5810   -18.6030 
   72.5000    75.3590    13.9650    12.9560    22.0950    23.9880     2.5590   -19.7790 
   72.6250    74.1640    11.9960    11.4190    16.1640    23.8140     2.4920   -21.0180 
   72.7500    71.6190    10.6150    10.0830    12.2740    23.7020     2.4080   -22.1990 
   72.8750    68.5400     9.8710     9.1040    11.2060    23.6360     2.3290   -23.2150 
   73.0000    66.5480     9.6170     8.4900    11.2850    23.7020     2.2700   -24.0150 
   73.1250    66.7870     9.7150     8.2540    11.1830    23.8560     2.2350   -24.6050 
   73.2500    67.3690     9.9510     8.2840    10.8920    24.0900     2.2120   -25.0250 
   73.3750    67.3290    10.2150     8.4700    10.7410    24.4190     2.1920   -25.2610 
   73.5000    66.6890    10.4460     8.6760    10.5760    25.1040     2.1690   -25.3090 
   73.6250    67.3460    10.5850     8.8000    10.4830    24.2900     2.1440   -25.1710 
   73.7500    69.9210    10.5990     8.8400    10.8710    23.7910     2.1230   -24.9670 
   73.8750    72.2450    10.5010     8.7960    12.2330    23.5900     2.1120   -24.7810 
   74.0000    72.0610    10.3700     8.6850    14.4980    23.5860     2.1170   -24.6620 
   74.1250    71.2600    10.2950     8.5700    13.7900    23.5850     2.1350   -24.6040 
   74.2500    72.7350    10.2900     8.5070    12.5060    23.5680     2.1550   -24.5520 
   74.3750    75.2170    10.3170     8.4880    11.8860    23.5130     2.1670   -24.4680 
   74.5000    76.6340    10.3080     8.4780    11.5880    23.4120     2.1660   -24.3570 
   74.6250    76.4340    10.2000     8.4400    11.5800    23.3630     2.1600   -24.2830 
   74.7500    75.9710    10.0510     8.3700    11.4440    23.3490     2.1570   -24.2560 
   74.8750    74.4340     9.9440     8.2770    11.3800    23.3490     2.1590   -24.2060 
   75.0000    72.0820     9.9260     8.1890    11.4020    23.3490     2.1620   -24.0940 
   75.1250    71.5780    10.0010     8.1570    11.5290    23.3490     2.1620   -23.9350 
   75.2500    73.3120    10.1050     8.1770    11.6430    23.3490     2.1580   -23.8010 
   75.3750    73.8630    10.1760     8.2120    11.6890    23.3490     2.1560   -23.7540 
   75.5000    71.9440    10.1600     8.2270    11.7400    23.3490     2.1580   -23.8260 
   75.6250    69.7750    10.0350     8.1960    11.5410    23.3490     2.1660   -23.9450 
   75.7500    69.8560     9.8680     8.1190    11.2330    23.3490     2.1750   -24.0610 
   75.8750    71.4470     9.7250     8.0160    10.8840    23.3490     2.1830   -24.2360 
   76.0000    72.2870     9.6720     7.9480    10.5550    23.3490     2.1880   -24.5150 
   76.1250    72.3070     9.7680     7.9660    10.6460    23.3480     2.1880   -24.8720 
   76.2500    71.9020     9.9670     8.0360    11.0030    23.3430     2.1860   -25.2140 
   76.3750    70.6610    10.2020     8.1460    11.4120    23.3260     2.1830   -25.5100 
   76.5000    67.9930    10.3990     8.3070    11.7260    23.2990     2.1800   -25.7360 
   76.6250    65.5410    10.4850     8.4800    11.8130    23.2850     2.1790   -25.9210 
   76.7500    66.3500    10.4690     8.5910    11.5960    23.2690     2.1800   -26.1080 
   76.8750    69.1620    10.3920     8.6240    11.5710    23.2340     2.1840   -26.2590 
   77.0000    69.5040    10.3090     8.6090    11.8310    23.1890     2.1860   -26.3340 
   77.1250    65.6650    10.2740     8.5680    11.9320    23.1700     2.1800   -26.3110 
   77.2500    61.1920    10.2940     8.5400    12.0020    23.1700     2.1650   -26.2550 
   77.3750    60.1170    10.3530     8.5650    12.1710    23.1820     2.1430   -26.2030 
