~V
VERS. 2.00: Ver 2.00
~W
STRT.M 60.0000:
STOP.M 245.0000:
STEP.M 0.1250:
NULL. -999.2500:
UWI. F10050:
~C
DEPT.M :
SP.MV :
GR.API :
RML.OHMM :
RI. :
RXO.OHMM :
CALI.CM :
DEN.GM/CC :
~A
# ...
  195.0000   -15.4340    52.4060   154.2660   137.2670    91.3270    23.8980     2.1900 
  195.1250   -15.3780    51.1270   148.8810   132.7190    90.9990    23.8980     2.1980 
  195.2500   -15.3180    51.4080   144.1040   128.5900    92.0800    23.8980     2.2040 
  195.3750   -15.2900    54.4810   140.2020   125.1370    92.0550    23.8980     2.2050 
  195.5000   -15.2810    56.3300   137.3260   122.4550    89.5620    23.8980     2.2000 
  195.6250   -15.2610    54.3340   135.7670   120.8160    86.5940    23.8850     2.1950 
  195.7500   -15.2440    53.8880   135.0610   119.9320    84.4850    23.8440     2.1930 
  195.8750   -15.2960    56.4600   134.4610   119.2250    84.3350    23.7800     2.1920 
  196.0000   -15.3170    58.5940   133.0350   117.8760    87.7690    23.7410     2.1880 
  196.1250   -15.2940    56.6880   130.2150   115.2330    92.2360    23.7310     2.1830 
  196.2500   -15.3050    54.2900   127.0520   112.0280    87.8190    23.7310     2.1870 
  196.3750   -15.3240    54.3680   125.0570   109.5000    78.8900    23.7310     2.2040 
  196.5000   -15.3290    56.3860   125.8150   109.0990    70.4260    23.7260     2.2280 
  196.6250   -15.3380    57.9460   131.2630   112.7190    67.4420    23.7060     2.2430 
  196.7500   -15.3620    58.5460   140.8480   120.1050    73.5580    23.7070     2.2410 
  196.8750   -15.3220    58.9470   152.8940   129.9870    87.0770    23.7860     2.2250 
  197.0000   -15.2850    59.6840   163.2700   139.1770   102.4700    23.8470     2.2030 
  197.1250   -15.3050    60.3940   163.6280   141.3460   104.4080    23.8270     2.1830 
  197.2500   -15.2940    61.1430   151.6250   133.8810   102.3660    23.7610     2.1680 
  197.3750   -15.2650    61.2860   130.7590   118.1720    98.2350    23.7180     2.1660 
  197.5000   -15.2420    59.2410   107.7270    98.9220    83.1000    23.6730     2.1790 
  197.6250   -15.2330    56.5150    88.4550    81.5670    61.5940    23.6340     2.2050 
  197.7500   -15.1960    56.6510    74.1550    68.2950    48.7560    23.6800     2.2260 
  197.8750   -15.1360    58.6820    64.4830    59.2170    45.1610    23.8220     2.2350 
  198.0000   -15.0830    61.1570    55.7290    51.1260    44.2340    24.0470     2.2340 
  198.1250   -15.0140    60.8110    53.6790    49.4850    45.8670    24.0000     2.2320 
  198.2500   -14.9390    60.2400    52.2120    48.4960    48.2370    23.8670     2.2350 
  198.3750   -14.8690    60.0860    50.7560    47.5430    49.5360    23.7870     2.2390 
  198.5000   -14.8080    60.7240    48.9920    46.2630    47.6840    23.8670     2.2360 
  198.6250   -14.7400    60.1100    46.7770    44.4810    42.9320    23.9520     2.2290 
  198.7500   -14.6820    58.8240    44.2840    42.3550    41.0690    23.9940     2.2250 
  198.8750   -14.6330    58.9460    40.5270    40.0340    38.8910    24.0380     2.2270 
  199.0000   -14.5510    59.7470    37.7900    37.6800    34.7210    24.1330     2.2300 
  199.1250   -14.4970    58.0980    35.8050    35.4660    32.3570    24.2070     2.2260 
  199.2500   -14.4890    54.9130    34.0920    33.4510    31.0490    24.2180     2.2190 
  199.3750   -14.4310    54.5490    32.5380    31.6300    29.1950    24.1210     2.2180 
  199.5000   -14.3610    58.7120    30.9930    29.9270    27.6000    23.9010     2.2310 
  199.6250   -14.3030    62.3990    29.3390    28.2290    27.0230    23.6830     2.2570 
  199.7500   -14.2080    61.6120    27.6930    26.5380    26.2100    23.5810     2.2870 
  199.8750   -14.1040    60.1860    26.3470    25.0440    24.8720    23.5550     2.3110 
  200.0000   -14.0180    61.8080    25.7040    24.0840    23.1940    23.5440     2.3220 
  200.1250   -13.8600    64.6800    26.4160    24.2650    22.6920    23.5160     2.3140 
  200.2500   -13.6460    65.1820    28.6520    25.8090    24.1770    23.4930     2.3050 
  200.3750   -13.4640    64.4760    33.8170    28.9100    28.1540    23.5160     2.3140 
  200.5000   -13.2790    62.5520    39.9090    33.5090    36.2530    23.5920     2.3540 
  200.6250   -13.0880    59.5750    46.4800    39.0400    54.2680    23.6330     2.4050 
  200.7500   -12.9340    58.1260    52.0700    43.9510    65.6800    23.6710     2.4250 
  200.8750   -12.8260    59.0940    55.2850    47.0220    53.2220    23.7310     2.3950 
  201.0000   -12.7660    59.1900    56.0910    48.0260    43.1150    23.7920     2.3300 
  201.1250   -12.7460    57.0850    55.9230    47.8720    42.2920    23.8140     2.2670 
  201.2500   -12.7810    55.1780    56.5250    48.0510    43.7640    23.8140     2.2330 
  201.3750   -12.8480    54.0830    58.4780    49.1850    44.6010    23.8120     2.2260 
  201.5000   -12.9360    55.1040    61.6320    51.2740    44.8730    23.8120     2.2300 
  201.6250   -13.0580    59.6990    65.3640    53.8660    46.2150    23.8170     2.2310 
  201.7500   -13.1680    63.0110    68.9220    56.3350    49.3290    23.8210     2.2250 
  201.8750   -13.2460    60.9190    72.1320    58.5160    52.9200    23.8260     2.2170 
  202.0000   -13.2840    54.5430    75.1710    60.5270    54.8180    23.8370     2.2110 
  202.1250   -13.3460    52.2570    78.4760    62.7200    55.0710    23.8600     2.2090 
  202.2500   -13.3720    54.4590    82.3880    65.4280    56.7760    23.8850     2.2090 
  202.3750   -13.3110    56.1470    87.0730    68.8810    59.9750    23.8960     2.2070 
  202.5000   -13.2280    55.1330    92.4770    73.1490    64.5930    23.8970     2.2030 
  202.6250   -13.1150    55.6930    98.4260    78.2190    70.1740    23.8580     2.1980 
  202.7500   -12.9590    59.0140   104.8240    83.8990    75.1240    23.7690     2.1910 
  202.8750   -12.7810    60.2980   112.2930    90.5620    79.3800    23.6790     2.1790 
  203.0000   -12.5930    58.9180   121.9790    99.1940    83.9660    23.6420     2.1620 
  203.1250   -12.3410    59.8310   134.8070   111.3910    90.9230    23.6350     2.1540 
  203.2500   -12.0680    63.4930   145.9930   124.9260   106.2180    23.6000     2.1800 
  203.3750   -11.8360    67.5420   143.6780   132.5050   139.3050    23.5260     2.2630 
  203.5000   -11.5910    68.9590   117.1480   122.6530   186.9750    23.4650     2.4100 
  203.6250   -11.3420    66.3930    76.9040    90.4190   188.1390    23.4140     2.5810 
  203.7500   -11.1450    63.3230    45.2460    55.8540   130.7260    23.3380     2.6920 
  203.8750   -10.9760    62.0660    25.8090    31.1050    53.7360    23.1850     2.7030 
  204.0000   -10.8340    61.7160    15.1910    17.1820    17.6280    22.9440     2.6420 
  204.1250   -10.7670    57.4560    10.2020    10.9880     8.4520    22.8410     2.5500 
  204.2500   -10.7420    51.7860     7.6330     7.8960     6.2960    22.8290     2.4640 
  204.3750   -10.7590    49.4990     6.4060     6.3560     5.7310    22.8320     2.3980 
  204.5000   -10.8270    51.5780     5.9370     5.6770     5.3730    22.7610     2.3520 
  204.6250   -10.9550    56.1480     5.9520     5.5880     5.2740    22.6510     2.3290 
  204.7500   -11.1110    61.1270     6.2350     5.8110     5.2970    22.7140     2.3240 
  204.8750   -11.3030    66.7210     6.7460     6.2580     5.6160    23.0890     2.3340 
  205.0000   -11.5290    73.1860     7.4410     6.8730     6.4100    23.4690     2.3530 
  205.1250   -11.7680    80.7410     8.1940     7.5720     7.6270    23.6140     2.3680 
  205.2500   -12.0100    87.6660     8.8350     8.2140     8.7110    23.6330     2.3730 
  205.3750   -12.2620    92.4010     9.3280     8.7270     9.7490    23.6230     2.3660 
  205.5000   -12.5530    95.6970     9.8150     9.1520    10.5950    23.5910     2.3570 
  205.6250   -12.8130    98.7050    10.7050     9.7060    10.4190    23.5240     2.3630 
  205.7500   -13.0350    99.1270    12.5860    10.6590    11.4630    23.4520     2.3910 
  205.8750   -13.2620    95.2810    15.4170    12.2820    15.3800    23.3630     2.4310 
  206.0000   -13.4800    88.2280    18.3400    14.8220    24.4300    23.3070     2.4590 
  206.1250   -13.6770    80.9460    21.9960    18.5880    33.9250    23.4580     2.4570 
