~V
VERS. 2.00: Ver 2.00
~W
STRT.M 50.0000:
STOP.M 293.0000:
STEP.M 0.1250:
NULL. -999.2500:
UWI. F10045:
~C
DEPT.M :
DEN.GM/CC :
SP.MV :
GR.API :
CALI.CM :
RXO.OHMM :
RI. :
RML.OHMM :
~A
# ...
  162.5000     2.1280   -22.0210    81.9950    23.0840    10.9060     9.0550    10.2840 
  162.6250     2.1170   -21.7330    82.0920    22.9490    10.6070     8.8670    10.1210 
  162.7500     2.1170   -21.4290    84.3230    22.8010    10.3350     8.7080    10.0340 
  162.8750     2.1300   -21.0480    87.1690    22.6730    10.1930     8.5750     9.9300 
  163.0000     2.1510   -20.5880    91.8670    22.6170    10.1720     8.4510     9.7270 
  163.1250     2.1630   -20.0720    95.3280    22.6280    10.1350     8.3450     9.4450 
  163.2500     2.1600   -19.4960    93.8420    22.6700     9.9040     8.3020     9.2500 
  163.3750     2.1530   -18.8090    89.6850    22.7340     9.4630     8.3900     9.2830 
  163.5000     2.1540   -18.0800    87.8330    22.8340     8.9490     8.6390     9.5720 
  163.6250     2.1730   -17.3740    94.2400    22.9740     8.8100     8.9720     9.9680 
  163.7500     2.2090   -16.6900   100.9310    23.1630     9.2780     9.1550    10.1310 
  163.8750     2.2560   -16.0550   105.8410    23.3930     9.6100     8.9730     9.8040 
  164.0000     2.3030   -15.5000   108.4560    23.5580     8.8920     8.3620     8.9550 
  164.1250     2.3300   -15.0400   108.2800    23.6110     7.3690     7.4850     7.8910 
  164.2500     2.3290   -14.7010   108.3840    23.6290     6.2660     6.6810     7.0380 
  164.3750     2.3060   -14.4770   110.5670    23.6570     5.9170     6.1190     6.5510 
  164.5000     2.2750   -14.3410   115.6840    23.6600     6.0420     5.8570     6.3960 
  164.6250     2.2520   -14.2540   117.0490    23.5920     6.3790     5.9060     6.4370 
  164.7500     2.2420   -14.1550   111.3060    23.4850     6.6550     6.1050     6.4620 
  164.8750     2.2430   -14.0560   105.2900    23.4280     6.7930     6.3140     6.3820 
  165.0000     2.2480   -13.9140   104.6610    23.4100     6.8460     6.4120     6.2010 
  165.1250     2.2550   -13.7510   107.7570    23.3940     6.9700     6.3210     5.9770 
  165.2500     2.2670   -13.5760   110.8870    23.4080     6.8530     6.1010     5.7420 
  165.3750     2.2800   -13.3960   114.4440    23.5040     6.4810     5.8280     5.5000 
  165.5000     2.2840   -13.1760   117.5720    23.6980     6.0400     5.5770     5.2770 
  165.6250     2.2860   -12.9850   117.0340    23.9330     5.8310     5.4080     5.1270 
  165.7500     2.2930   -12.8470   114.1410    24.1490     5.7790     5.3290     5.0750 
  165.8750     2.2980   -12.6850   113.8010    24.2340     5.9330     5.3350     5.1140 
  166.0000     2.2900   -12.5900   116.4500    24.2520     6.1500     5.4080     5.2030 
  166.1250     2.2740   -12.5540   115.7210    24.2720     6.2280     5.5110     5.2890 
  166.2500     2.2670   -12.4840   110.6950    24.2990     6.1690     5.5940     5.3320 
  166.3750     2.2660   -12.4180   105.6190    24.3050     6.1340     5.6350     5.3310 
  166.5000     2.2630   -12.4260   105.3200    24.2920     6.1530     5.6260     5.3050 
  166.6250     2.2590   -12.4290   108.7490    24.2480     6.1630     5.5770     5.2880 
  166.7500     2.2640   -12.4500   111.5010    24.1710     6.0890     5.5190     5.3040 
  166.8750     2.2760   -12.5400   114.0850    24.0380     5.9070     5.4650     5.3390 
  167.0000     2.2870   -12.6090   116.0940    23.9020     5.7470     5.4130     5.3550 
  167.1250     2.2910   -12.6710   117.6520    23.8070     5.8520     5.3530     5.3140 
  167.2500     2.2920   -12.7700   117.2260    23.7430     6.0800     5.2690     5.1960 
  167.3750     2.2960   -12.8510   114.1360    23.7320     6.1770     5.1630     4.9980 
  167.5000     2.3110   -12.9320   111.4810    23.8480     6.1070     5.0870     4.8030 
  167.6250     2.3540   -13.0650   111.8500    23.9890     6.2350     5.2040     4.8650 
  167.7500     2.4200   -13.1610   113.3710    24.0270     6.6700     5.6440     5.3860 
  167.8750     2.4810   -13.2710   112.4670    23.9330     7.7110     6.4970     6.4810 
  168.0000     2.5040   -13.4380   109.7680    23.8210    10.5220     7.7540     8.9930 
  168.1250     2.4670   -13.5680   105.8780    23.7730    16.9730     9.1450    10.7360 
  168.2500     2.4030   -13.7280    99.5790    23.7680    21.8910    10.0420    11.5830 
  168.3750     2.3450   -13.9480    95.2120    23.7220    20.3640    10.0380    11.0180 
  168.5000     2.3100   -14.1210    97.1920    23.5700    14.2030     9.3110     9.5070 
  168.6250     2.2920   -14.2250   104.5550    23.3340     9.8690     8.4800     8.1690 
  168.7500     2.2690   -14.3230   108.1090    23.1330     8.9440     8.0410     7.6150 
  168.8750     2.2270   -14.3010   105.7610    22.9510    10.2360     8.1680     7.9200 
  169.0000     2.1770   -14.2070   101.1030    22.8030    12.0920     8.8880     8.9610 
  169.1250     2.1450   -14.0970    94.9780    22.7420    12.8750    10.1710    10.5230 
  169.2500     2.1350   -13.8810    88.9400    22.7380    13.1990    11.7000    12.1560 
  169.3750     2.1310   -13.6320    84.1990    22.8070    13.9620    13.2460    13.5840 
  169.5000     2.1250   -13.4380    81.2870    22.9810    15.0590    14.6510    14.6710 
  169.6250     2.1170   -13.2280    79.9990    23.1710    16.3200    15.8110    15.3480 
  169.7500     2.1170   -13.0420    78.3820    23.2290    17.5750    16.7300    15.7630 
  169.8750     2.1250   -12.9750    78.2720    23.2020    18.4270    17.3850    16.0330 
  170.0000     2.1330   -12.9320    79.4870    23.1760    18.4860    17.7750    16.2540 
  170.1250     2.1300   -12.9150    79.9400    23.1810    18.1410    17.9530    16.5000 
  170.2500     2.1180   -13.0020    77.7830    23.2010    18.0160    18.0450    16.7710 
  170.3750     2.1110   -13.0750    73.6330    23.2020    17.9340    18.0630    16.9650 
  170.5000     2.1170   -13.1330    70.8290    23.1380    17.6260    17.9430    16.9170 
  170.6250     2.1310   -13.2600    70.5600    22.9820    16.7800    17.5600    16.4370 
  170.7500     2.1430   -13.3470    74.9110    22.8520    15.9090    16.9520    15.6500 
  170.8750     2.1490   -13.4150    83.8500    22.8240    14.7400    16.2280    14.7810 
  171.0000     2.1520   -13.5540    91.6130    22.8950    13.6000    15.5710    14.1200 
  171.1250     2.1600   -13.6460    90.1000    23.0290    13.0530    15.2300    13.9580 
  171.2500     2.1720   -13.6820    84.4470    23.1730    13.3260    15.2610    14.2100 
  171.3750     2.1790   -13.7330    80.9590    23.3060    13.9850    15.6540    14.7330 
  171.5000     2.1770   -13.7070    80.1130    23.4490    14.7100    16.3240    15.3940 
  171.6250     2.1660   -13.6270    78.3180    23.5820    15.4250    17.1310    16.0990 
  171.7500     2.1580   -13.6060    76.8480    23.7310    15.9520    17.8850    16.7470 
  171.8750     2.1540   -13.5480    77.0730    23.8080    16.2970    18.4680    17.2390 
  172.0000     2.1520   -13.4260    78.9990    23.7980    16.6730    18.7990    17.4830 
  172.1250     2.1490   -13.3360    79.4570    23.7570    17.2600    18.7670    17.3590 
  172.2500     2.1460   -13.1910    80.9900    23.7370    17.2260    18.4360    16.9210 
  172.3750     2.1390   -13.0190    87.5800    23.7230    16.2350    17.9200    16.2960 
  172.5000     2.1240   -12.8950    95.8820    23.6990    14.8540    17.4090    15.7070 
  172.6250     2.0990   -12.7660    96.1690    23.6910    14.2160    17.1500    15.4370 
  172.7500     2.0810   -12.5660    88.3110    23.7030    14.5570    17.2200    15.5480 
  172.8750     2.0770   -12.3980    80.8660    23.7140    15.4350    17.6060    15.9930 
  173.0000     2.0830   -12.2490    78.8240    23.7000    16.4420    18.2060    16.6210 
  173.1250     2.0930   -12.1270    79.6830    23.6500    17.2010    18.7990    17.1850 
  173.2500     2.1050   -12.1270    78.5910    23.6300    17.4380    19.1340    17.4650 
  173.3750     2.1150   -12.1500    74.8630    23.6410    17.1560    19.0860    17.3420 
  173.5000     2.1150   -12.1700    73.8520    23.6820    16.3420    18.6930    16.8390 
  173.6250     2.1070   -12.2030    78.8290    23.7090    15.0660    18.1370    16.1060 
