~V
VERS. 2.00: Ver 2.00
~W
STRT.M 50.0000:
STOP.M 286.0000:
STEP.M 0.1250:
NULL. -999.2500:
UWI. F10036:
~C
DEPT.M :
GR.API :
RML.OHMM :
RI. :
RXO.OHMM :
CALI.CM :
DEN.GM/CC :
SP.MV :
~A
# ...
  275.0000    27.9920     5.1260     4.4680     4.9310    24.0980     2.3330    -9.7000 
  275.1250    27.9920     5.1760     4.5140     4.8880    24.1290     2.3230    -9.6580 
  275.2500    27.9920     5.1550     4.5160     4.5890    24.1540     2.3220    -9.6680 
  275.3750    27.9920     5.1000     4.4960     4.3270    24.1350     2.3310    -9.7390 
  275.5000    27.9920     5.0740     4.4990     4.3080    24.1050     2.3420    -9.8620 
  275.6250    27.9920     5.1480     4.5710     4.4750    24.1020     2.3480    -9.9750 
  275.7500    27.9920     5.3000     4.7020     4.9130    24.1150     2.3470   -10.0800 
  275.8750    27.9920     5.4700     4.8520     5.3520    24.1160     2.3410   -10.1840 
  276.0000    27.9920     5.5770     4.9600     5.4570    24.1200     2.3340   -10.2800 
  276.1250    27.9920     5.5500     4.9630     5.1640    24.1080     2.3290   -10.3200 
  276.2500    27.9920     5.4230     4.8780     4.6900    24.1080     2.3250   -10.3230 
  276.3750    27.9920     5.2590     4.7480     4.3090    24.1310     2.3200   -10.3260 
  276.5000    27.9920     5.1290     4.6260     4.1670    24.2590     2.3170   -10.3260 
  276.6250    27.9920     5.0960     4.5720     4.2030    24.4310     2.3200   -10.3670 
  276.7500    27.9920     5.1540     4.5930     4.3280    24.3710     2.3310   -10.4100 
  276.8750    27.9920     5.2750     4.6760     4.6300    23.9170     2.3450   -10.4280 
  277.0000    27.9920     5.4110     4.7830     4.9730    23.4150     2.3550   -10.4590 
  277.1250    27.9920     5.4870     4.8490     5.1830    23.3540     2.3550   -10.5350 
  277.2500    27.9920     5.4600     4.8290     4.9840    23.6040     2.3480   -10.6040 
  277.3750    27.9920     5.3150     4.7080     4.5500    23.7760     2.3400   -10.6520 
  277.5000    27.9920     5.0790     4.5090     4.2010    23.8930     2.3400   -10.6970 
  277.6250    27.9920     4.8110     4.2830     4.2480    23.8800     2.3480   -10.6280 
  277.7500    27.9920     4.5960     4.0990     4.4120    23.9350     2.3530   -10.4740 
  277.8750    27.9920     4.5080     4.0180     4.4610    23.9780     2.3480   -10.3200 
  278.0000    27.9920     4.6120     4.0980     4.4220    23.8430     2.3360   -10.2220 
  278.1250    27.9920     4.9790     4.4090     4.4680    23.5290     2.3290   -10.1550 
  278.2500    27.9920     5.5310     4.9010     5.3140    23.2860     2.3380   -10.0850 
  278.3750    27.9920     6.1360     5.4760     6.8120    23.2290     2.3660    -9.9940 
  278.5000    27.9920     6.5820     5.9520     8.0640    23.2620     2.4030    -9.8620 
  278.6250    27.9920     6.5880     6.0590     6.8050    23.3170     2.4320    -9.7650 
  278.7500    27.9920     6.2040     5.7970     5.5130    23.4470     2.4410    -9.6740 
  278.8750    27.9920     5.6140     5.3040     4.6960    23.5990     2.4230    -9.5560 
  279.0000    27.9920     5.0350     4.7710     4.3360    23.7270     2.3820    -9.3980 
  279.1250    27.9920     4.6420     4.3590     4.1720    23.7890     2.3330    -9.1420 
  279.2500    27.9920     4.4330     4.1000     4.0210    23.8920     2.2970    -8.8650 
  279.3750    27.9920     4.3580     3.9770     3.8820    23.8390     2.2860    -8.6580 
  279.5000    27.9920     4.3550     3.9460     3.8530    23.6270     2.2930    -8.5000 
  279.6250    27.9920     4.3780     3.9630     3.8820    23.5140     2.3030    -8.4240 
  279.7500    27.9920     4.4000     3.9860     3.8710    23.5140     2.2960    -8.3780 
  279.8750    27.9920     4.4170     4.0010     3.8170    23.5180     2.2720    -8.3490 
  280.0000    27.9920     4.4270     4.0060     3.7820    23.5060     2.2420    -8.3030 
  280.1250    27.9920     4.4330     4.0060     3.7410    23.5160     2.2220    -8.2890 
  280.2500    27.9920     4.4360     4.0050     3.6390    23.5610     2.2190    -8.2850 
  280.3750    27.9920     4.4360     4.0050     3.5710    23.6080     2.2340    -8.2160 
  280.5000    27.9920     4.4360     4.0040     3.6160    23.6320     2.2560    -8.1690 
  280.6250    27.9920     4.4360     4.0040     3.6830    23.6370     2.2710    -8.1520 
  280.7500    27.9920     4.4360     4.0040     3.6430    23.6300     2.2740    -8.1660 
  280.8750    27.9920     4.4360     4.0040     3.6270    23.6260     2.2660    -8.2330 
  281.0000    27.9920     4.4360     4.0040     3.6440    23.6250     2.2580    -8.3490 
  281.1250    27.9920     4.4360     4.0040     4.0210    23.6060     2.2650    -8.5180 
  281.2500    27.9920     4.4360     4.0040     5.1620    23.5610     2.2880    -8.7080 
  281.3750    27.9920     4.4360     4.0040     6.9220    23.5160     2.3190    -8.9070 
  281.5000    27.9920     4.4360     4.0040     8.5960    23.5060     2.3480    -9.0620 
  281.6250    27.9920     4.4360     4.0040     9.1350    23.5390     2.3640    -9.0850 
  281.7500    27.9920     4.4360     4.0040     9.2250    23.5890     2.3670    -9.0390 
  281.8750    27.9920     4.4360     4.0040     8.6110    23.6430     2.3620    -8.9450 
  282.0000    27.9920     4.4360     4.0040     7.4540    23.7370     2.3520    -8.8070 
  282.1250    27.9920     4.4360     4.0040     5.9810    23.8600     2.3360    -8.6290 
  282.2500    27.9920     4.4360     4.0040     5.3510    23.8040     2.3190    -8.4650 
  282.3750    27.9920     4.4360     4.0040     5.9560    23.6300     2.3030    -8.3490 
  282.5000    27.9920     4.4360     4.0040     7.3580    23.5160     2.2910    -8.2560 
  282.6250    27.9920     4.4360     4.0040     8.4840    23.4530     2.2850    -8.2560 
  282.7500    27.9920     4.4360     4.0040     7.8400    23.3480     2.2850    -8.2560 
  282.8750    27.9920     4.4360     4.0040     7.3540    23.2270     2.2900  -999.2500 
  283.0000    27.9920     4.4360     4.0040     6.7600    23.1540     2.2970  -999.2500 
  283.1250    27.9920     4.4360     4.0040     6.2010    23.1140     2.3030  -999.2500 
  283.2500    27.9920     4.4360     4.0040     4.9080    23.0930     2.2990  -999.2500 
  283.3750    27.9920     4.4360     4.0040     4.3950    23.0790     2.2760  -999.2500 
  283.5000    27.9920     4.4360     4.0040     4.4550    23.0540     2.2250  -999.2500 
  283.6250    27.9920     4.4360     4.0040     4.8870    23.0400     2.1380  -999.2500 
  283.7500    27.9920     4.4360     4.0040     4.9660    23.0630     2.0280  -999.2500 
  283.8750    27.9920     4.4360     4.0040     4.5350    23.0710     1.9090  -999.2500 
  284.0000    27.9920     4.4360     4.0040     4.0850    22.9390     1.7930  -999.2500 
  284.1250    27.9920     4.4360     4.0040     4.0820    21.8480     1.6970  -999.2500 
  284.2500    27.9920     4.4360     4.0040     4.2940    19.9190     1.6230  -999.2500 
  284.3750    27.9920     4.4360     4.0040     4.5760    17.0930     1.5710  -999.2500 
  284.5000    27.9920     4.4360     4.0040     4.7170    14.2860     1.5370  -999.2500 
  284.6250    27.9920     4.4360     4.0040     4.7340    12.4730     1.5210  -999.2500 
  284.7500    27.9920     4.4360     4.0040     4.7340    11.8620     1.5140  -999.2500 
  284.8750    27.9920     4.4360     4.0040     4.7350    11.7520     1.5130  -999.2500 
  285.0000    27.9920     4.4360     4.0040     4.7360    11.7520     1.5130  -999.2500 
  285.1250    27.9920     4.4360     4.0040     4.7360    11.7520     1.5130  -999.2500 
  285.2500    27.9920     4.4360     4.0040     4.7350    11.7520     1.5140  -999.2500 
  285.3750    27.9920     4.4360     4.0040     4.7360    11.7520     1.5100  -999.2500 
  285.5000  -999.2500  -999.2500  -999.2500  -999.2500  -999.2500     1.4850  -999.2500 
  285.6250  -999.2500  -999.2500  -999.2500  -999.2500  -999.2500     1.4500  -999.2500 
  285.7500  -999.2500  -999.2500  -999.2500  -999.2500  -999.2500     1.4390  -999.2500 
  285.8750  -999.2500  -999.2500  -999.2500  -999.2500  -999.2500     1.1230  -999.2500 
  286.0000  -999.2500  -999.2500  -999.2500  -999.2500  -999.2500     0.4320  -999.2500 
