~V
VERS. 2.00: Ver 2.00
~W
STRT.M 50.0000:
STOP.M 325.0000:
STEP.M 0.1250:
NULL. -999.2500:
UWI. F10039:
~C
DEPT.M :
GR.API :
RML.OHMM :
RI. :
RXO.OHMM :
CALI.CM :
DEN.GM/CC :
SP.MV :
~A
# ...
   72.5000    71.5110     9.8410     8.7260     9.7030    22.5890     2.2240   -30.0650 
   72.6250    72.1050     9.7100     8.6760    10.1330    22.9820     2.2240   -29.4590 
   72.7500    76.7660     9.3970     8.4950    10.1030    23.4890     2.2330   -28.7800 
   72.8750    82.7430     8.8440     8.0760     9.1760    23.7870     2.2600   -28.0550 
   73.0000    87.8280     8.1300     7.4320     7.5380    23.8550     2.3000   -27.3250 
   73.1250    92.0440     7.4740     6.7220     6.2260    23.8640     2.3390   -26.6550 
   73.2500    94.7610     7.0690     6.1700     5.8440    23.7140     2.3590   -26.0680 
   73.3750    93.8330     6.9830     5.9070     6.2340    23.3040     2.3580   -25.5530 
   73.5000    88.1650     7.1710     5.9650     7.1280    22.7630     2.3440   -25.1030 
   73.6250    83.1880     7.4920     6.2850     7.9420    22.4080     2.3320   -24.7080 
   73.7500    83.8520     7.7370     6.6460     8.0330    22.4310     2.3310   -24.3620 
   73.8750    89.6960     7.7970     6.8850     7.1610    22.8400     2.3400   -24.0980 
   74.0000    95.7720     7.6670     6.9120     6.1390    23.4260     2.3530   -23.9140 
   74.1250    97.7430     7.4330     6.7130     5.6570    23.8800     2.3600   -23.7960 
   74.2500    97.6690     7.2130     6.4020     5.6400    24.0730     2.3620   -23.7370 
   74.3750    97.0330     7.0290     6.0520     5.7560    24.0880     2.3660   -23.7420 
   74.5000    96.8690     6.8400     5.7120     5.8950    24.0530     2.3750   -23.8230 
   74.6250    95.7050     6.5780     5.4200     5.8110    24.0230     2.3870   -24.0480 
   74.7500    94.1960     6.2790     5.1990     5.6280    23.9990     2.3860   -24.4180 
   74.8750    93.1150     6.0580     5.0830     5.3690    23.9320     2.3630   -24.9110 
   75.0000    92.3070     6.0840     5.1210     5.3540    23.7130     2.3240   -25.5010 
   75.1250    89.7180     6.5810     5.4260     6.1960    23.2550     2.3010   -26.1520 
   75.2500    84.4200     7.5300     6.0250     7.9530    22.7670     2.3210   -26.7740 
   75.3750    77.9310     8.8160     6.9180     9.4380    22.4640     2.3810   -27.3330 
   75.5000    72.0560    10.1690     7.9940     9.9700    22.2890     2.4460   -27.8090 
   75.6250    68.6740    11.0880     8.9360    10.6040    22.4220     2.4620   -28.1130 
   75.7500    69.3860    11.2930     9.4230    11.1890    22.6500     2.4220   -28.2360 
   75.8750    74.1260    10.7760     9.3080    10.7490    22.7280     2.3480   -28.1220 
   76.0000    79.6290     9.7920     8.6800     9.8030    22.5680     2.2820   -27.7480 
   76.1250    86.4000     8.7270     7.7730     8.8040    22.4400     2.2600   -27.1470 
   76.2500    96.3950     7.8720     6.8940     7.7290    22.4440     2.2710   -26.4730 
   76.3750   104.9480     7.3290     6.1950     6.9300    22.5190     2.2930   -25.8030 
   76.5000   108.0760     7.1110     5.7490     6.5170    22.6050     2.3080   -25.1790 
   76.6250   106.1630     7.2040     5.6040     6.4160    22.6630     2.3070   -24.6300 
   76.7500   104.0630     7.4450     5.6600     6.7740    22.5910     2.3030   -24.1630 
   76.8750   102.9840     7.6950     5.8270     7.2120    22.3550     2.3040   -23.7970 
   77.0000   104.8760     7.8230     6.0130     7.2660    22.0080     2.3160   -23.5200 
   77.1250   110.8390     7.7630     6.1430     6.6640    22.0310     2.3360   -23.3370 
   77.2500   116.0270     7.6540     6.2330     6.2280    22.4120     2.3590   -23.2210 
   77.3750   116.9050     7.6530     6.3340     6.2200    22.9160     2.3800   -23.1510 
   77.5000   112.2760     7.8690     6.4920     7.3070    23.2320     2.3970   -23.1110 
   77.6250   105.1870     8.3130     6.7250     9.8700    23.2140     2.4020   -23.0940 
   77.7500   102.0210     8.7730     6.9750    11.2920    23.0170     2.3960   -23.0870 
   77.8750   103.5840     9.0380     7.1610     9.2630    22.9150     2.3790   -23.0840 
   78.0000   105.6490     8.9720     7.2130     7.3210    23.0320     2.3560   -23.1300 
   78.1250   104.1440     8.5780     7.1050     7.2590    22.9370     2.3340   -23.2350 
   78.2500   101.9510     8.1340     6.9480     7.5010    22.6030     2.3180   -23.3410 
   78.3750   100.1640     7.8630     6.8630     7.3560    22.4810     2.3140   -23.4090 
   78.5000    97.7360     7.9010     6.9360     6.9590    22.7860     2.3270   -23.4480 
   78.6250    93.6120     8.2820     7.1990     7.8010    23.2440     2.3550   -23.4430 
   78.7500    89.7530     8.7880     7.5220     9.7500    23.6060     2.3850   -23.3990 
   78.8750    88.3010     9.2070     7.7710    10.7600    23.8860     2.4020   -23.3320 
   79.0000    88.8390     9.3660     7.8410     8.6480    24.0330     2.3990   -23.2470 
   79.1250    90.5970     9.1810     7.6990     7.4080    24.0560     2.3770   -23.1600 
   79.2500    92.9690     8.8410     7.4870     6.9500    24.0230     2.3540   -23.0970 
   79.3750    94.5980     8.5340     7.3310     7.1290    23.9860     2.3360   -23.0900 
   79.5000    96.3050     8.4050     7.3030     7.5920    23.9810     2.3260   -23.1190 
   79.6250    97.2900     8.5060     7.4000     8.2320    23.9800     2.3190   -23.2010 
   79.7500    94.8450     8.6800     7.4950     8.3530    23.9920     2.3130   -23.3570 
   79.8750    91.3000     8.7630     7.4720     7.6660    24.0340     2.3100   -23.6090 
   80.0000    91.1210     8.6380     7.2570     7.0110    24.0920     2.3110   -23.9500 
   80.1250    97.9210     8.2760     6.8550     6.9230    24.1290     2.3140   -24.3750 
   80.2500   105.5410     7.8920     6.4470     6.8500    24.1110     2.3150   -24.8710 
   80.3750   109.6460     7.7820     6.2490     6.9210    24.0640     2.3180   -25.4730 
   80.5000   108.8500     8.3200     6.5040     7.3330    23.9500     2.3340   -26.2080 
   80.6250   100.0260    10.1290     7.6140     9.2250    23.7500     2.3820   -27.1120 
   80.7500    85.2460    13.3190     9.6860    14.6960    23.6620     2.4630   -28.1400 
   80.8750    70.3230    17.7020    12.7190    27.7580    23.7680     2.5590   -29.2510 
   81.0000    61.8250    22.2910    16.2070    47.8510    23.9160     2.6380   -30.4080 
   81.1250    61.4030    24.7410    18.6300    52.0950    23.8750     2.6570   -31.5810 
   81.2500    62.7980    23.8430    18.8290    37.7500    23.6530     2.6140   -32.7090 
   81.3750    62.8660    20.1640    16.8540    22.2160    23.3880     2.5230   -33.7220 
   81.5000    62.1690    15.5790    13.8280    13.6340    23.2380     2.4160   -34.5530 
   81.6250    60.4950    12.0190    11.1050    11.0590    23.2110     2.3250   -35.1570 
   81.7500    58.4970     9.8610     9.1950    10.3200    23.2040     2.2630   -35.5630 
   81.8750    57.5470     8.8360     8.0540    10.1520    23.1870     2.2260   -35.7770 
   82.0000    59.8620     8.5330     7.4720    10.1080    23.1290     2.2070   -35.8170 
   82.1250    63.8740     8.6240     7.2570    10.0960    23.0180     2.2010   -35.6520 
   82.2500    65.4440     8.8060     7.1860    10.1120    22.8670     2.2020   -35.3650 
   82.3750    65.0570     8.9770     7.1840    10.0250    22.7700     2.2060   -34.9870 
   82.5000    65.4830     9.0980     7.2240     9.7840    22.7390     2.2130   -34.5600 
   82.6250    66.9730     9.1510     7.3010     9.6310    22.7340     2.2180   -34.1070 
   82.7500    68.3950     9.1450     7.3970     9.5800    22.7100     2.2190   -33.6410 
   82.8750    70.4700     9.0820     7.4880     9.5580    22.6530     2.2170   -33.2220 
   83.0000    72.5340     8.9840     7.5480     9.4180    22.5830     2.2100   -32.8510 
   83.1250    71.3150     8.9000     7.5500     9.2650    22.5620     2.2030   -32.5450 
   83.2500    68.4460     8.8790     7.4970     9.2030    22.5960     2.1960   -32.2990 
   83.3750    67.9540     8.9340     7.3920     9.3210    22.6690     2.1910   -32.1080 
   83.5000    70.8720     9.0210     7.2470     9.4650    22.8130     2.1910   -31.9730 
   83.6250    73.5130     9.0400     7.0820     9.6830    22.9620     2.1960   -31.8830 
