~V
VERS. 2.00: Ver 2.00
~W
STRT.M 50.0000:
STOP.M 221.0000:
STEP.M 0.1250:
NULL. -999.2500:
UWI. F10024:
~C
DEPT.M :
GR.API :
RML.OHMM :
RI. :
RXO.OHMM :
CALI.CM :
DEN.GM/CC :
SP.MV :
~A
# ...
  106.2500    93.8680     8.0680     7.5730     8.3550    23.0530     2.2290    -4.1930 
  106.3750    89.0720     8.4260     8.1340     8.6020    23.0060     2.2260    -4.4460 
  106.5000    82.9600     9.0270     8.8530     9.6300    22.9420     2.2110    -4.6390 
  106.6250    76.8680     9.8330     9.6290    10.7590    22.9780     2.1770    -4.7620 
  106.7500    74.0950    10.7810    10.2440    11.0410    23.1680     2.1350    -4.8160 
  106.8750    76.2300    11.2570    10.4890    10.8520    23.3870     2.0990    -4.7500 
  107.0000    80.6330    11.7890    10.2650    10.7300    23.4780     2.0820    -4.6330 
  107.1250    84.4850    10.8150     9.6340     9.7300    23.4650     2.0970    -4.4250 
  107.2500    89.1600     9.8750     8.8870     8.0810    23.5700     2.1320    -4.1870 
  107.3750    95.1160     9.1310     8.1870     7.1690    23.8410     2.1760    -3.9490 
  107.5000    98.6550     8.6280     7.6100     7.3430    24.1010     2.2150    -3.7230 
  107.6250    97.4200     8.3880     7.2180     7.8460    24.1910     2.2390    -3.5600 
  107.7500    94.5720     8.3820     7.0200     7.8350    24.1880     2.2500    -3.4360 
  107.8750    92.0930     8.6590     7.0620     7.5040    24.1410     2.2510    -3.4000 
  108.0000    89.1740     9.2520     7.3910     7.6990    24.0280     2.2480    -3.4300 
  108.1250    85.1530    10.1690     8.0720     8.7280    23.8060     2.2480    -3.5110 
  108.2500    81.2060    11.2760     9.0370    10.4420    23.6390     2.2560    -3.6410 
  108.3750    77.4220    12.5280    10.2710    13.0560    23.6120     2.2710    -3.7660 
  108.5000    74.4090    13.9620    11.7720    15.5340    23.6520     2.2900    -3.9310 
  108.6250    75.5170    15.8410    13.6530    16.1150    23.6690     2.3140    -4.1030 
  108.7500    77.8880    18.4020    16.0320    18.6100    23.6740     2.3520    -4.2850 
  108.8750    77.2110    21.8090    19.0880    30.0100    23.7000     2.4070    -4.4890 
  109.0000    72.4980    25.8920    22.8170    48.0900    23.7140     2.4650    -4.6690 
  109.1250    69.7140    29.8140    26.6840    55.6360    23.6180     2.4850    -4.8800 
  109.2500    70.1530    32.4270    29.5720    46.5530    23.5210     2.4480    -5.0660 
  109.3750    70.5350    33.1260    30.6970    40.7850    23.4740     2.3620    -5.2520 
  109.5000    69.5550    32.2770    30.1820    36.8300    23.4950     2.2600    -5.4260 
  109.6250    69.4600    31.0310    28.9880    33.1090    23.5420     2.1850    -5.5800 
  109.7500    70.5820    30.4100    28.1870    30.7960    23.5640     2.1490    -5.7530 
  109.8750    71.2380    30.6470    28.1240    30.9200    23.5840     2.1420    -5.8840 
  110.0000    70.1120    31.6120    28.8170    33.2550    23.6130     2.1460    -6.0300 
  110.1250    67.8430    33.0270    30.1720    34.7850    23.6300     2.1480    -6.1320 
  110.2500    64.8870    34.3930    31.7410    36.1840    23.6540     2.1460    -6.2260 
  110.3750    63.8960    35.3260    33.1090    36.9810    23.6870     2.1420    -6.3000 
  110.5000    65.5960    35.5750    33.8980    37.2330    23.7040     2.1390    -6.3480 
  110.6250    66.9550    35.1040    33.8500    36.8200    23.7040     2.1390    -6.3950 
  110.7500    65.2420    34.4090    33.3370    36.1960    23.7040     2.1420    -6.3840 
  110.8750    62.4860    33.9390    32.7750    34.7380    23.7100     2.1440    -6.3870 
  111.0000    62.3430    34.0490    32.5700    33.0450    23.7400     2.1460    -6.3720 
  111.1250    65.1880    35.0440    33.1420    32.9460    23.8010     2.1460    -6.3310 
  111.2500    67.8340    36.7260    34.4830    37.0450    23.8360     2.1430    -6.3020 
  111.3750    68.4980    38.7980    36.4350    41.9000    23.8280     2.1360    -6.2640 
  111.5000    67.0010    40.8080    38.5920    43.9650    23.8180     2.1260    -6.2440 
  111.6250    64.2370    42.1490    40.2570    42.8080    23.8030     2.1170    -6.2480 
  111.7500    62.0260    42.6470    41.0380    42.2200    23.7550     2.1120    -6.2740 
  111.8750    62.3100    42.4000    40.9390    41.6000    23.6720     2.1110    -6.3050 
  112.0000    64.7850    41.7240    40.3070    40.0500    23.5950     2.1140    -6.3350 
  112.1250    65.9060    41.0250    39.6480    39.5040    23.5510     2.1190    -6.3750 
  112.2500    64.1570    40.6040    39.2770    39.5010    23.5240     2.1230    -6.4180 
  112.3750    61.2490    40.6130    39.2550    39.4440    23.5290     2.1230    -6.4470 
  112.5000    58.5600    41.1020    39.5390    39.6660    23.5650     2.1190    -6.4700 
  112.6250    58.1170    41.9530    39.9840    40.0590    23.6400     2.1180    -6.4760 
  112.7500    61.5500    42.6190    40.2270    40.3070    23.7280     2.1270    -6.4880 
  112.8750    66.1490    42.4630    39.8250    39.7110    23.8080     2.1470    -6.5140 
  113.0000    67.2220    40.9720    38.3930    40.0320    23.7880     2.1680    -6.5190 
  113.1250    64.7340    37.9880    35.7920    38.5990    23.6070     2.1780    -6.5410 
  113.2500    65.6350    34.4800    32.7690    33.3230    23.3610     2.1750    -6.5520 
  113.3750    69.8960    31.3540    30.0370    25.4570    23.0610     2.1630    -6.5580 
  113.5000    72.9460    29.3260    28.1550    20.2850    22.7770     2.1520    -6.5670 
  113.6250    72.4600    28.9500    27.5830    19.6520    22.6200     2.1490    -6.5200 
  113.7500    71.8500    29.7860    28.0570    20.7320    22.5700     2.1510    -6.4700 
  113.8750    70.7230    31.2450    29.2090    22.8730    22.5390     2.1520    -6.4150 
  114.0000    67.2910    32.4900    30.4060    27.0320    22.4770     2.1510    -6.3600 
  114.1250    64.1250    32.5160    30.7230    35.5150    22.3950     2.1460    -6.3060 
  114.2500    64.9410    31.3840    29.9820    41.1720    22.3440     2.1400    -6.2290 
  114.3750    67.3830    29.7380    28.5870    36.8920    22.3200     2.1350    -6.1690 
  114.5000    67.6190    28.4170    27.2230    29.6950    22.3210     2.1300    -6.0790 
  114.6250    64.5280    28.0390    26.4970    27.3350    22.3560     2.1290    -5.9940 
  114.7500    63.4360    28.1660    26.2460    27.1720    22.4280     2.1310    -5.9110 
  114.8750    66.2260    27.9890    25.9090    28.5050    22.5800     2.1380    -5.7650 
  115.0000    70.4870    26.7160    24.8380    29.1270    22.8730     2.1490    -5.6090 
  115.1250    74.1440    24.0900    22.7380    27.4470    23.2610     2.1610    -5.4520 
  115.2500    76.8700    21.2250    20.3840    24.7360    23.6470     2.1690    -5.2830 
  115.3750    77.6860    19.1920    18.5400    21.8670    23.8680     2.1670    -5.1180 
  115.5000    74.2600    18.7380    17.7530    20.7140    23.9180     2.1550    -4.9380 
  115.6250    69.1780    20.3200    18.4600    20.3590    23.9260     2.1340    -4.7730 
  115.7500    66.2660    23.0350    20.2050    22.7140    23.9230     2.1120    -4.5780 
  115.8750    63.6560    25.5440    22.1110    26.1540    23.8760     2.1010    -4.3910 
  116.0000    61.4290    26.0390    22.6650    32.3930    23.8040     2.1110    -4.2240 
  116.1250    63.1280    23.1000    20.4440    32.6860    23.7640     2.1480    -4.0180 
  116.2500    69.4400    18.6150    16.8910    23.6570    23.7160     2.1960    -3.8300 
  116.3750    77.1610    14.4870    13.5510    13.3140    23.5310     2.2370    -3.6150 
  116.5000    82.2140    11.6800    11.1750     9.2160    23.3030     2.2630    -3.4480 
  116.6250    82.9730    10.4110     9.9400     8.3670    23.3950     2.2760    -3.2840 
  116.7500    82.2700    10.0390     9.4080     8.9750    23.7000     2.2950    -3.1710 
  116.8750    83.3810    10.0900     9.2570    11.1780    23.9180     2.3270    -3.1220 
  117.0000    86.5850    10.1020     9.1470    12.7620    23.9460     2.3640    -3.0640 
  117.1250    89.1700     9.7520     8.7990     9.6970    24.0040     2.3860    -3.0560 
  117.2500    90.1560     9.1750     8.2690     7.4830    24.0430     2.3850    -3.0460 
  117.3750    90.2130     8.5860     7.7170     6.7630    23.9730     2.3640    -3.0400 
