~V
VERS. 2.00: Ver 2.00
~W
STRT.M 50.0000:
STOP.M 216.0000:
STEP.M 0.1250:
NULL. -999.2500:
UWI. F10015:
~C
DEPT.M :
GR.API :
RML.OHMM :
RI. :
RXO.OHMM :
CALI.CM :
DEN.GM/CC :
SP.MV :
~A
# ...
  117.5000    52.0210    49.4410    46.8480    42.3460    24.7940     2.4730     3.9550 
  117.6250    49.7520    50.1000    47.5610    59.5310    24.7930     2.5280     3.6500 
  117.7500    50.1560    45.7230    43.7800    69.2660    24.7930     2.5380     3.2850 
  117.8750    53.8780    37.8120    36.5980    40.7970    24.7930     2.5070     2.8360 
  118.0000    57.4490    30.3130    29.6630    26.7250    24.8050     2.4570     2.4460 
  118.1250    61.4110    24.4280    24.1210    21.4140    24.8430     2.4020     2.1390 
  118.2500    64.8410    20.8670    20.5970    19.2290    24.9030     2.3500     1.9330 
  118.3750    66.2990    19.7130    19.1480    17.2620    24.9700     2.3040     1.8070 
  118.5000    64.7820    20.2910    19.2140    18.0560    25.0250     2.2630     1.6730 
  118.6250    62.7280    22.5790    21.0000    21.0740    25.0840     2.2310     1.5050 
  118.7500    61.1670    25.1450    23.2610    23.7680    25.1310     2.2010     1.3360 
  118.8750    60.1880    27.2460    25.3220    25.6290    25.1550     2.1750     1.2200 
  119.0000    59.1730    28.4530    26.7060    26.1970    25.1620     2.1510     1.1140 
  119.1250    57.4680    28.5870    27.1220    25.4090    25.1580     2.1340     0.9480 
  119.2500    55.0420    27.6550    26.4630    23.9560    25.1340     2.1270     0.6910 
  119.3750    54.2010    26.3880    25.3250    22.2480    25.0670     2.1330     0.3960 
  119.5000    55.2720    25.4170    24.2870    21.3610    25.0270     2.1490     0.1350 
  119.6250    56.8250    24.9340    23.5680    20.9610    25.0100     2.1690    -0.0900 
  119.7500    58.2400    25.1310    23.3600    20.8230    25.0060     2.1840    -0.2710 
  119.8750    59.0980    26.0590    23.7360    20.9770    25.0050     2.1910    -0.4070 
  120.0000    58.5690    27.4900    24.5490    21.8540    25.0040     2.1880    -0.5050 
  120.1250    56.8040    29.0640    25.6060    23.7870    25.0040     2.1740    -0.5050 
  120.2500    56.0470    30.2030    26.4270    24.2690    25.0020     2.1590    -0.4980 
  120.3750    56.0500    30.4970    26.6910    24.0420    24.9670     2.1460    -0.5030 
  120.5000    56.2050    29.9460    26.3640    23.7580    24.8810     2.1330    -0.5450 
  120.6250    56.1480    28.8270    25.6170    23.6140    24.7410     2.1190    -0.6410 
  120.7500    56.3700    27.5540    24.7380    22.9880    24.5690     2.1060    -0.7830 
  120.8750    56.2010    27.0590    24.4300    22.2830    24.3380     2.1190    -1.0340 
  121.0000    56.3740    28.0780    25.2940    21.6880    24.1620     2.1840    -1.3870 
  121.1250    57.7110    30.4740    27.3050    21.6560    24.0310     2.2920    -1.8110 
  121.2500    59.2870    33.7210    30.1560    23.5570    23.9530     2.4160    -2.2790 
  121.3750    59.7670    36.7680    33.0460    28.7100    23.9500     2.5280    -2.7580 
  121.5000    58.7340    37.8890    34.4640    37.4010    24.0420     2.5950    -3.2010 
  121.6250    59.8480    33.6760    31.0240    32.3910    24.3600     2.5850    -3.5730 
  121.7500    64.8880    27.4020    25.4960    20.2350    24.6560     2.5480    -3.8740 
  121.8750    72.4350    21.0330    19.7340    12.6780    24.8170     2.5010    -4.1050 
  122.0000    79.3120    15.7210    14.8360    10.4060    24.8710     2.4560    -4.2680 
  122.1250    82.7470    11.9910    11.3030     9.5550    24.8930     2.4170    -4.3550 
  122.2500    82.5260     9.9400     9.1980     8.2200    24.9240     2.3840    -4.3430 
  122.3750    84.7830     8.9330     8.0200     7.7150    24.9350     2.3610    -4.2610 
  122.5000    89.2150     8.4180     7.3800     7.4480    24.9380     2.3500    -4.2130 
  122.6250    92.6370     8.1510     7.0660     7.1500    24.9380     2.3460    -4.1880 
  122.7500    93.3700     8.0940     7.0200     6.8030    24.9380     2.3470    -4.1800 
  122.8750    91.2920     8.2870     7.2490     6.5620    24.9380     2.3440    -4.1750 
  123.0000    87.8940     8.7360     7.7200     6.6920    24.9380     2.3350    -4.1330 
  123.1250    82.6320     9.4370     8.4750     8.2840    24.9380     2.3130    -4.1560 
  123.2500    78.4690    10.0740     9.2300    10.2960    24.9380     2.2920    -4.1800 
  123.3750    78.4950    10.4090     9.7350    10.8870    24.9380     2.2810    -4.2140 
  123.5000    82.1700    10.3830     9.8800     9.7960    24.9350     2.2830    -4.2510 
  123.6250    86.6980    10.0480     9.6650     8.1220    24.9250     2.2970    -4.2730 
  123.7500    88.4100     9.5150     9.1630     8.1000    24.8990     2.3190    -4.2700 
  123.8750    88.6360     9.0130     8.6090     8.3020    24.8740     2.3420    -4.2730 
  124.0000    92.1030     8.5980     8.1020     7.8750    24.8560     2.3550    -4.2770 
  124.1250    96.0720     8.2220     7.6250     7.2570    24.8350     2.3560    -4.2900 
  124.2500    97.8350     7.8470     7.1620     6.7420    24.8070     2.3440    -4.3280 
  124.3750    96.5630     7.4630     6.7110     6.4630    24.7600     2.3220    -4.4010 
  124.5000    95.1560     7.1120     6.3030     6.3800    24.6620     2.3020    -4.4920 
  124.6250    97.2520     6.9680     6.0830     6.2780    24.4420     2.3010    -4.5830 
  124.7500    99.1830     7.0270     6.0360     6.1020    24.2860     2.3110    -4.7500 
  124.8750    99.3140     7.3590     6.2220     6.2730    24.2170     2.3260    -4.9030 
  125.0000    96.9760     7.9510     6.6340     6.8940    24.2030     2.3360    -5.0350 
  125.1250    92.5880     8.7390     7.2370     7.8730    24.2030     2.3370    -5.1510 
  125.2500    87.7720     9.6470     7.9940     9.0520    24.2030     2.3230    -5.2190 
  125.3750    84.0150    10.4860     8.7530    10.1530    24.2030     2.2990    -5.2920 
  125.5000    79.8810    11.2740     9.4790    10.8820    24.2030     2.2810    -5.3060 
  125.6250    76.0010    12.1500    10.2550    11.2530    24.2030     2.2750    -5.2810 
  125.7500    73.5240    13.2630    11.1870    11.9730    24.2250     2.2860    -5.2340 
  125.8750    73.0260    14.6830    12.3410    14.1190    24.3030     2.3070    -5.1970 
  126.0000    73.4190    16.3050    13.6700    18.8000    24.4830     2.3230    -5.2280 
  126.1250    73.2920    17.8060    14.9730    22.5700    24.7140     2.3040    -5.2490 
  126.2500    73.0360    19.0050    16.0560    22.5390    24.8270     2.2630    -5.2850 
  126.3750    73.3180    19.9680    16.9090    20.4210    24.8610     2.2150    -5.3020 
  126.5000    73.9740    20.9020    17.6710    19.0010    24.8610     2.1730    -5.3190 
  126.6250    74.2370    22.0580    18.5410    20.2450    24.8610     2.1470    -5.3600 
  126.7500    72.9560    23.6170    19.7010    23.4110    24.8610     2.1440    -5.4020 
  126.8750    70.8060    25.4120    21.1350    24.6080    24.8610     2.1540    -5.4110 
  127.0000    68.8010    27.0150    22.5560    25.5140    24.8610     2.1630    -5.4520 
  127.1250    67.3880    28.2770    23.7870    26.2480    24.8610     2.1660    -5.5070 
  127.2500    66.4540    29.1490    24.7290    26.1010    24.8610     2.1600    -5.5620 
  127.3750    65.6370    29.7000    25.3900    25.2820    24.8610     2.1470    -5.6140 
  127.5000    64.6320    30.1270    25.9100    26.6680    24.8610     2.1360    -5.6770 
  127.6250    67.3200    30.4540    26.3180    26.6290    24.8610     2.1390    -5.7800 
  127.7500    70.5110    30.7400    26.6950    25.9510    24.8610     2.1490    -5.8450 
  127.8750    70.1780    31.0690    27.1110    25.5800    24.8610     2.1700    -5.8950 
  128.0000    67.0000    31.5740    27.6720    25.8810    24.8610     2.2000    -5.9020 
  128.1250    64.1500    32.4790    28.5510    26.7550    24.8710     2.2350    -5.8500 
  128.2500    65.0820    34.1300    30.0340    27.7680    24.9190     2.2650    -5.7860 
  128.3750    66.4070    36.7470    32.3580    29.5220    25.0400     2.2680    -5.6910 
  128.5000    66.4170    40.1700    35.4800    34.4290    25.1100     2.2410    -5.5930 
  128.6250    65.5380    44.0360    39.1170    41.7050    25.1300     2.2000    -5.5000 
