~V
VERS. 2.00: Ver 2.00
~W
STRT.M 55.0000:
STOP.M 292.0000:
STEP.M 0.1250:
NULL. -999.2500:
UWI. F10078:
~C
DEPT.M :
GR.API :
RML.OHMM :
RI. :
RXO.OHMM :
CALI.CM :
DEN.GM/CC :
SP.MV :
~A
# ...
  223.7500    55.1500    11.3520    10.0280    10.7630    23.0100     2.2750   -15.3560 
  223.8750    50.8870    11.3800     9.9780    10.6940    22.9310     2.2700   -15.4530 
  224.0000    52.5770    11.4500     9.9640    11.0030    22.9660     2.2630   -15.4850 
  224.1250    56.5600    11.4880     9.9550    11.7190    23.0910     2.2560   -15.4690 
  224.2500    56.0640    11.4410     9.9170    12.0820    23.3260     2.2470   -15.5400 
  224.3750    52.3800    11.2980     9.8390    11.8670    23.6440     2.2370   -15.6230 
  224.5000    49.6520    11.0880     9.7360    11.4110    23.8560     2.2250   -15.6680 
  224.6250    48.7400    10.8750     9.6380    11.4180    23.9730     2.2100   -15.7210 
  224.7500    47.8040    10.7230     9.5720    11.6850    24.0920     2.1950   -15.7530 
  224.8750    45.7690    10.6710     9.5450    11.8180    24.1540     2.1830   -15.7440 
  225.0000    43.4270    10.7250     9.5510    11.8030    23.9540     2.1770   -15.7780 
  225.1250    42.7820    10.8700     9.5800    11.7560    23.5500     2.1790   -15.8460 
  225.2500    44.5580    11.0560     9.6260    11.7080    23.3280     2.1840   -15.8570 
  225.3750    47.8220    11.2700     9.6990    11.7600    23.4130     2.1850   -15.8260 
  225.5000    50.8730    11.5180     9.8140    11.8020    23.7490     2.1810   -15.8080 
  225.6250    52.3060    11.8120     9.9820    11.5380    24.0290     2.1800   -15.7460 
  225.7500    53.1360    12.1200    10.1730    11.1890    23.8040     2.1910   -15.6100 
  225.8750    56.7230    12.3850    10.3490    10.8910    23.2440     2.2140   -15.5060 
  226.0000    63.9120    12.5420    10.4690    10.5740    22.8310     2.2450   -15.4300 
  226.1250    68.5810    12.5410    10.4910    10.0710    22.7390     2.2700   -15.2890 
  226.2500    69.2990    12.4280    10.4280     9.8600    22.7590     2.2840   -15.1640 
  226.3750    69.3210    12.2520    10.3070     9.8020    22.8050     2.2890   -15.0990 
  226.5000    68.5360    12.0590    10.1600     9.8430    22.8880     2.2900   -15.0270 
  226.6250    63.2380    11.8780    10.0260    10.0210    22.9630     2.2910   -14.9930 
  226.7500    58.4030    11.7100     9.9280    10.3870    22.9780     2.2920   -15.0540 
  226.8750    59.9220    11.5670     9.8790    10.6120    22.9330     2.2920   -15.1290 
  227.0000    66.2330    11.4770     9.8850    10.4620    22.8390     2.2900   -15.2220 
  227.1250    69.5110    11.4890     9.9520    10.4920    22.7120     2.2870   -15.3690 
  227.2500    66.9580    11.5960    10.0540    10.6620    22.6780     2.2820   -15.4630 
  227.3750    60.9070    11.7450    10.1630    10.8690    22.7190     2.2780   -15.5400 
  227.5000    55.9410    11.8620    10.2450    10.8720    22.7050     2.2730   -15.6980 
  227.6250    56.8390    11.8560    10.2630    10.5410    22.5920     2.2690   -15.8320 
  227.7500    58.8700    11.7290    10.2170    10.0840    22.4940     2.2660   -15.9510 
  227.8750    57.0680    11.5310    10.1220     9.7840    22.4570     2.2610   -16.1440 
  228.0000    52.4950    11.3510    10.0030     9.6470    22.4620     2.2540   -16.3390 
  228.1250    49.7230    11.2440     9.8900     9.5570    22.4960     2.2460   -16.5160 
  228.2500    49.3880    11.1500     9.8020     9.4670    22.5230     2.2390   -16.7510 
  228.3750    50.6960    10.9830     9.7470     9.5320    22.5410     2.2340   -16.9860 
  228.5000    53.6480    10.8750     9.7210     9.7150    22.5710     2.2270   -17.1140 
  228.6250    54.9410    10.7950     9.7100     9.9040    22.6550     2.2130   -17.2180 
  228.7500    51.6200    10.7230     9.6910    10.0490    22.8160     2.1920   -17.3030 
  228.8750    47.9190    10.6280     9.6450    10.1250    23.0660     2.1680   -17.2520 
  229.0000    47.9130    10.5350     9.5690    10.1710    23.3750     2.1480   -17.0960 
  229.1250    50.4370    10.4160     9.4690    10.2440    23.5100     2.1400   -16.9300 
  229.2500    53.8550    10.2660     9.3680    10.2860    23.5120     2.1430   -16.7050 
  229.3750    57.0330    10.1010     9.2800    10.2430    23.4400     2.1550   -16.4310 
  229.5000    57.5700    10.0060     9.2240    10.1280    23.3290     2.1720   -16.2110 
  229.6250    55.5260    10.2320     9.2680    10.0880    23.2090     2.1880   -15.9610 
  229.7500    55.0240    10.7640     9.5020    10.1860    23.0880     2.1990   -15.6680 
  229.8750    56.7000    11.8690    10.0410    10.6700    22.9660     2.2060   -15.4300 
  230.0000    57.6390    13.5180    10.9400    11.9010    22.8530     2.2140   -15.2100 
  230.1250    57.8080    15.0200    12.1400    14.6250    22.7990     2.2340   -14.9610 
  230.2500    56.7560    16.3020    13.3090    17.9830    22.8240     2.2680   -14.7400 
  230.3750    54.5350    16.9750    14.1180    21.1440    22.9250     2.3080   -14.5140 
  230.5000    54.3880    16.8240    14.3170    22.7150    23.0960     2.3370   -14.2210 
  230.6250    58.0770    15.8800    13.8160    19.6500    23.2740     2.3370   -13.9750 
  230.7500    61.5580    14.6970    13.0260    15.1650    23.3240     2.3180   -13.7300 
  230.8750    64.2100    13.6780    12.2890    13.4050    23.2800     2.2930   -13.4480 
  231.0000    68.4380    13.0580    11.8250    13.1130    23.1690     2.2780   -13.2320 
  231.1250    72.1030    12.9410    11.7270    12.8090    23.0420     2.2800   -13.0940 
  231.2500    69.8810    13.1200    11.8330    12.3570    23.0070     2.2900   -12.9460 
  231.3750    64.3620    13.4020    11.9960    12.1610    23.1340     2.2980   -12.8430 
  231.5000    59.3130    13.6040    12.0950    12.2760    23.3240     2.3020   -12.8300 
  231.6250    57.2080    13.5860    12.0570    12.6030    23.5080     2.2990   -12.7470 
  231.7500    56.5220    13.4050    11.9250    12.9160    23.6240     2.2880   -12.6190 
  231.8750    55.9350    13.1820    11.7600    13.1530    23.6810     2.2710   -12.5090 
  232.0000    57.5640    13.0750    11.6510    13.1730    23.6590     2.2510   -12.3600 
  232.1250    61.2020    13.2750    11.7330    13.3390    23.5190     2.2370   -12.0880 
  232.2500    62.3010    13.8320    12.0570    13.9810    23.3120     2.2370   -11.7710 
  232.3750    59.2220    14.8520    12.6760    15.5810    23.1190     2.2570   -11.4120 
  232.5000    55.9850    16.5520    13.7010    18.3020    23.0090     2.2960   -10.9250 
  232.6250    56.6700    19.6330    15.7760    22.6370    22.9630     2.3460   -10.4600 
  232.7500    55.9640    25.0310    20.1590    31.8190    22.9520     2.3930   -10.0490 
  232.8750    53.0930    34.9980    29.3690    58.4160    22.9840     2.4350    -9.6110 
  233.0000    52.0240    53.0710    46.8750   120.4110    23.0730     2.4740    -9.1860 
  233.1250    52.6010    84.2650    77.2760   216.3100    23.2170     2.5170    -8.8240 
  233.2500    51.2590   124.8640   116.4780   323.3190    23.3770     2.5640    -8.4900 
  233.3750    49.0010   166.1530   155.9930   396.4530    23.5170     2.6080    -8.2290 
  233.5000    50.0240   193.9700   182.8710   353.6840    23.5860     2.6420    -8.0870 
  233.6250    53.8510   188.1160   180.0930   255.3840    23.6000     2.6630    -7.9680 
  233.7500    55.2290   151.9010   150.4480   196.8590    23.5990     2.6810    -7.8830 
  233.8750    54.0440   102.2220   105.9030   166.9680    23.6020     2.7040    -7.8110 
  234.0000    53.9300    59.5740    63.5510   136.5630    23.6140     2.7300    -7.6420 
  234.1250    58.6520    34.4440    36.2890    89.9080    23.6420     2.7500    -7.4740 
  234.2500    66.4110    20.6660    20.9660    42.1170    23.6790     2.7460    -7.3640 
  234.3750    74.5130    13.7450    13.2420    16.8310    23.7120     2.7090    -7.2040 
  234.5000    78.1770    10.6760     9.7130     8.6430    23.7470     2.6430    -6.9820 
  234.6250    77.1370     9.8690     8.5320     7.9700    23.7580     2.5710    -6.8210 
  234.7500    78.3660     9.9140     8.2790     8.1980    23.7240     2.5200    -6.6650 
  234.8750    82.5070    10.2260     8.4510     8.3760    23.6640     2.5050    -6.4820 
