~V
VERS. 2.00: Ver 2.00
~W
STRT.M 55.0000:
STOP.M 308.0000:
STEP.M 0.1250:
NULL. -999.2500:
UWI. F10053:
~C
DEPT.M :
GR.API :
RML.OHMM :
RI. :
RXO.OHMM :
CALI.CM :
DEN.GM/CC :
SP.MV :
~A
# ...
  235.0000    57.8980    10.9220    10.4540    11.7960    23.4660     2.2040   -32.2630 
  235.1250    57.1340    10.8910    10.4140    11.5320    23.4850     2.2120   -32.0090 
  235.2500    56.5090    10.9430    10.4630    11.4620    23.5920     2.2210   -31.7980 
  235.3750    55.0460    11.0710    10.6020    11.5420    23.6740     2.2280   -31.5670 
  235.5000    54.8790    11.2390    10.7900    11.8810    23.7020     2.2310   -31.3400 
  235.6250    57.3860    11.3860    10.9450    12.3810    23.7020     2.2270   -31.0510 
  235.7500    58.9710    11.4890    11.0370    12.9680    23.6820     2.2150   -30.8050 
  235.8750    59.1820    11.5670    11.0910    13.4530    23.6670     2.1940   -30.5910 
  236.0000    60.0750    11.6690    11.1750    13.6190    23.6370     2.1710   -30.3780 
  236.1250    60.8100    11.8420    11.3530    13.4440    23.5520     2.1610   -30.1590 
  236.2500    59.9480    12.0600    11.5870    13.4570    23.4810     2.1690   -29.8980 
  236.3750    58.8900    12.2710    11.8150    13.4820    23.4680     2.1940   -29.6560 
  236.5000    59.4920    12.4230    11.9730    13.3750    23.5370     2.2240   -29.4560 
  236.6250    60.1650    12.4830    12.0170    13.3870    23.6710     2.2480   -29.3770 
  236.7500    59.7710    12.4920    12.0090    13.5550    23.7820     2.2600   -29.3310 
  236.8750    58.9380    12.4870    11.9980    13.3310    23.8370     2.2620   -29.2940 
  237.0000    59.3180    12.4960    12.0050    12.6580    23.8320     2.2570   -29.2760 
  237.1250    61.2810    12.5430    12.0470    12.8180    23.7700     2.2480   -29.2090 
  237.2500    60.7480    12.6260    12.1310    14.1490    23.7170     2.2420   -29.1250 
  237.3750    58.0570    12.7370    12.2490    15.6010    23.6520     2.2410   -28.9650 
  237.5000    57.5850    12.8760    12.3770    16.2750    23.5560     2.2480   -28.7310 
  237.6250    61.1150    13.0970    12.5620    16.3040    23.4940     2.2640   -28.4890 
  237.7500    62.8330    13.4770    12.9030    16.8180    23.5240     2.2870   -28.2510 
  237.8750    62.3990    14.1010    13.4980    18.3230    23.6200     2.3210   -28.0070 
  238.0000    61.8330    15.0140    14.3950    20.7220    23.7080     2.3670   -27.6100 
  238.1250    60.8870    16.2270    15.6360    24.3730    23.7430     2.4180   -27.0680 
  238.2500    59.3950    17.6830    17.0890    28.9290    23.7690     2.4560   -26.4430 
  238.3750    59.7750    19.3690    18.6420    31.2710    23.8310     2.4710   -25.7750 
  238.5000    62.6060    21.1350    20.2030    31.5560    23.9220     2.4620   -25.0660 
  238.6250    63.3420    22.5180    21.5810    32.8320    24.0150     2.4440   -24.3050 
  238.7500    60.4980    23.1740    22.5150    30.9800    24.0410     2.4350   -23.5500 
  238.8750    56.4620    23.0670    22.7760    24.6260    23.9050     2.4400   -22.8190 
  239.0000    54.6100    22.5180    22.4250    21.2300    23.6500     2.4560   -22.2140 
  239.1250    58.1220    22.3110    21.9980    22.4910    23.4710     2.4770   -21.7060 
  239.2500    61.3260    23.3420    22.4540    23.0250    23.4230     2.5000   -21.2110 
  239.3750    60.2670    26.6060    25.0280    29.8600    23.4820     2.5270   -20.6960 
  239.5000    56.4420    33.4410    31.4620    49.9560    23.6450     2.5590   -20.1440 
  239.6250    53.2970    47.3870    46.0300    68.7290    23.8910     2.5940   -19.4000 
  239.7500    51.1900    71.0680    71.7760   120.4720    24.1130     2.6310   -18.4650 
  239.8750    49.4090   106.1380   111.0290   282.9560    24.2530     2.6670   -17.3700 
  240.0000    48.7010   147.3580   159.5310   557.8430    24.3040     2.6990   -16.1770 
  240.1250    49.9400   176.2910   197.1920   432.3270    24.2730     2.7220   -14.8770 
  240.2500    51.7320   179.1650   204.9060   290.0710    24.2090     2.7380   -13.5460 
  240.3750    54.2970   156.3890   180.8880   233.7840    24.1520     2.7480   -12.2190 
  240.5000    57.3950   120.5600   138.9730   201.4530    24.1020     2.7550   -10.9600 
  240.6250    61.3980    87.1700    97.8910   135.0570    24.0430     2.7560    -9.7970 
  240.7500    65.3690    62.1770    66.6790    69.7240    24.0350     2.7490    -8.7680 
  240.8750    67.5380    44.8940    45.5470    35.3940    24.0610     2.7330    -7.9180 
  241.0000    67.5900    33.1150    32.1360    20.8470    24.0530     2.7050    -7.1920 
  241.1250    67.3830    25.3010    24.2650    17.6370    24.0230     2.6600    -6.7210 
  241.2500    68.9740    19.6030    18.9400    22.1380    24.0030     2.6030    -6.4450 
  241.3750    72.9850    15.4650    15.1380    26.7990    23.9810     2.5420    -6.3230 
  241.5000    79.0540    12.6410    12.4480    17.9990    23.9200     2.4890    -6.2820 
  241.6250    84.4230    11.1920    10.8690    10.5270    23.8290     2.4620    -6.3620 
  241.7500    87.2210    10.7270    10.0770     8.5940    23.7580     2.4600    -6.4770 
  241.8750    87.5540    10.9450     9.8950     8.8560    23.7520     2.4730    -6.6260 
  242.0000    85.9990    11.4630    10.1270    10.2300    23.7640     2.4870    -6.8390 
  242.1250    84.3840    11.8350    10.5250    12.3040    23.7320     2.4890    -7.0480 
  242.2500    84.8970    11.8120    10.7690    12.5360    23.6160     2.4780    -7.2240 
  242.3750    87.8510    11.3560    10.6830    11.2310    23.5340     2.4630    -7.3140 
  242.5000    91.3260    10.5680    10.2340     9.8610    23.5400     2.4550    -7.3010 
  242.6250    93.4410     9.6090     9.4740     9.3660    23.6180     2.4630    -7.1740 
  242.7500    94.4990     8.6840     8.6010     8.9960    23.6820     2.4780    -6.9740 
  242.8750    94.6900     7.9240     7.7920     8.3720    23.7460     2.4950    -6.6730 
  243.0000    93.7180     7.4220     7.2260     7.3840    23.8170     2.5110    -6.3010 
  243.1250    90.7620     7.2980     7.0860     6.7580    23.8530     2.5350    -5.9420 
  243.2500    87.4850     7.5230     7.3560     6.7870    23.8700     2.5720    -5.6790 
  243.3750    85.6970     8.0590     8.0080     7.6360    23.8860     2.6180    -5.4890 
  243.5000    84.8070     8.7410     8.8830     8.7950    23.9200     2.6550    -5.3460 
  243.6250    84.0510     9.1990     9.5370     9.7010    23.9390     2.6580    -5.2180 
  243.7500    84.8730     9.1440     9.5440    10.0630    23.9430     2.6250    -5.1440 
  243.8750    88.2720     8.5070     8.8530     9.0260    23.9390     2.5660    -4.9790 
  244.0000    90.6540     7.4800     7.8040     8.0930    23.9370     2.4990    -4.7500 
  244.1250    86.4220     6.4590     6.8610     6.4660    23.9270     2.4420    -4.3770 
  244.2500    77.3730     5.7670     6.2320     5.4750    23.9030     2.3990    -3.8750 
  244.3750    66.2760     5.4950     5.9240     5.0730    23.8620     2.3700    -3.3350 
  244.5000    56.0760     5.5700     5.8700     5.0300    23.8030     2.3530    -2.8150 
  244.6250    51.2490     5.8410     6.0160     4.9810    23.7250     2.3500    -2.3150 
  244.7500    51.9520     6.1230     6.2420     4.8940    23.6660     2.3570    -1.8570 
  244.8750    56.4170     6.3560     6.4690     4.8930    23.6420     2.3720    -1.5380 
  245.0000    61.4850     6.5480     6.6450     5.0580    23.6670     2.3920    -1.3020 
  245.1250    67.5410     6.7190     6.7320     5.3470    23.7570     2.4110    -1.1880 
  245.2500    74.9170     6.8600     6.7500     5.5280    23.8660     2.4260    -1.1360 
  245.3750    80.0510     6.9290     6.7230     5.5020    23.9250     2.4330    -1.0920 
  245.5000    80.1920     6.8950     6.6840     5.3440    23.9470     2.4320    -1.0070 
  245.6250    78.1500     6.7500     6.6490     5.4610    23.9630     2.4200    -0.9510 
  245.7500    79.9330     6.5720     6.6020     5.7100    23.9850     2.4000    -0.9210 
  245.8750    84.6740     6.4560     6.5210     5.8150    24.0010     2.3790    -0.9290 
  246.0000    86.1330     6.5230     6.4260     6.0720    24.0140     2.3630    -0.9880 
  246.1250    81.1920     6.9940     6.4740     6.7810    24.0400     2.3650    -1.0600 
