~V
VERS. 2.00: Ver 2.00
~W
STRT.M 50.0000:
STOP.M 250.0000:
STEP.M 0.1250:
NULL. -999.2500:
UWI. F10033:
~C
DEPT.M :
SP.MV :
GR.API :
RML.OHMM :
RI. :
RXO.OHMM :
CALI.CM :
DEN.GM/CC :
~A
   50.0000  -999.2500    45.4810     1.1720     0.8360     1.4160    24.6810  -999.2500 
   50.1250  -999.2500    44.1650     1.0900     0.8420     1.4560    24.7310  -999.2500 
   50.2500     0.0000    42.7120     1.0100     0.8480     1.4870    24.8120  -999.2500 
   50.3750     0.0000    42.2910     0.9430     0.8550     1.4100    24.9400  -999.2500 
   50.5000     0.0000    41.6000     0.8920     0.8600     1.2620    25.1320  -999.2500 
   50.6250    31.2380    40.4190     0.8600     0.8620     1.1220    25.3230  -999.2500 
   50.7500   125.0760    40.3680     0.8440     0.8630     1.0690    25.3970  -999.2500 
   50.8750   125.4680    42.2800     0.8450     0.8650     1.0870    25.3390  -999.2500 
   51.0000   126.0290    44.8990     0.8580     0.8730     1.1510    25.2050  -999.2500 
   51.1250   126.7630    45.7790     0.8660     0.8860     1.2060    25.0340  -999.2500 
   51.2500   127.5920    44.5720     0.8510     0.8990     1.2690    24.8530  -999.2500 
   51.3750   128.4380    43.8760     0.8090     0.9100     1.3310    24.6860  -999.2500 
   51.5000   129.2170    46.3960     0.7590     0.9170     1.3530    24.5550     0.0000 
   51.6250   129.8000    51.7530     0.7310     0.9200     1.3560    24.4700     0.0000 
   51.7500   130.1780    56.2350     0.7350     0.9180     1.3920    24.4930     0.0000 
   51.8750   130.3640    57.8310     0.7570     0.9140     1.3850    24.7140     0.0000 
   52.0000   130.3610    57.0090     0.7670     0.9090     1.3270    25.0940     0.0000 
   52.1250   130.1370    56.1720     0.7310     0.9070     1.4040    25.4630     2.2690 
   52.2500   129.7750    56.2240     0.6530     0.9080     1.6760    25.6630     2.2720 
   52.3750   129.1920    56.7300     0.5520     0.9140     1.5840    25.6220     2.2810 
   52.5000   128.2720    57.6320     0.4570     0.9260     1.2300    25.4560     2.2960 
   52.6250   127.0260    58.7680     0.4080     0.9470     1.1840    25.4530     2.3140 
   52.7500   125.5950    59.2930     0.4130     0.9760     1.2600    25.6070     2.3220 
   52.8750   123.9820    60.1220     0.4620     1.0090     1.2300    25.7880     2.3130 
   53.0000   122.1740    62.3980     0.5220     1.0380     0.7460    25.8910     2.2860 
   53.1250   120.2080    63.2490     0.5500     1.0550     0.3420    25.9240     2.2350 
   53.2500   118.1420    61.1380     0.5360     1.0590     0.2730    25.9390     2.1690 
   53.3750   116.1630    58.5710     0.4910     1.0520     0.2690    25.9360     2.0930 
   53.5000   114.4980    55.7280     0.4410     1.0390     0.2710    25.9190     2.0210 
   53.6250   113.2480    50.8890     0.4070     1.0230     0.2690    25.8840     1.9690 
   53.7500   112.2760    45.7950     0.3830     1.0090     0.2760    25.8360     1.9400 
   53.8750   111.5540    42.6960     0.3610     0.9990     0.2840    25.7970     1.9370 
   54.0000   111.1270    41.5500     0.3370     0.9930     0.2840    25.7530     1.9590 
   54.1250   111.1450    40.7400     0.3210     0.9910     0.2710    25.6600     2.0020 
   54.2500   111.5960    40.6130     0.3120     0.9920     0.2550    25.5690     2.0500 
   54.3750   112.3970    40.1630     0.3000     0.9930     0.2520    25.5640     2.0900 
   54.5000   113.3480    38.6450     0.2780     0.9960     0.2610    25.6040     2.1140 
   54.6250   114.1560    37.6780     0.2510     1.0010     0.2740    25.6460     2.1280 
   54.7500   114.7480    37.6000     0.2300     1.0090     0.2650    25.6560     2.1440 
   54.8750   115.2060    37.4620     0.2230     1.0180     0.2480    25.6310     2.1650 
   55.0000   115.5920    37.4710     0.2330     1.0270     0.2650    25.5600     2.1860 
   55.1250   115.8380    38.6380     0.2510     1.0330     0.3210    25.4620     2.1990 
   55.2500   115.9670    40.5730     0.2640     1.0340     0.3260    25.4660     2.2060 
   55.3750   116.1210    41.7840     0.2720     1.0270     0.2460    25.4890     2.2170 
   55.5000   116.4530    41.0220     0.2740     1.0110     0.2240    25.4360     2.2440 
   55.6250   117.1460    39.1480     0.2660     0.9760     0.2220    25.2030     2.2930 
   55.7500   118.1110    38.0410     0.2400     0.9030     0.2250    24.9180     2.3580 
   55.8750   119.0970    38.3040     0.1780     0.7610     0.2440    24.7090     2.4340 
   56.0000   119.7580    39.2720     0.0740     0.5500     0.2990    24.6120     2.5220 
   56.1250   119.5720    39.4600    -0.0350     0.3390     0.4620    24.6090     2.6250 
   56.2500   118.1440    38.9890    -0.1140     0.1910     0.7200    24.6160     2.7280 
   56.3750   114.8470    40.4200    -0.1590     0.1110     0.8810    24.6370     2.8020 
   56.5000   109.0110    45.2910    -0.1690     0.0870     0.8980    24.6890     2.8130 
   56.6250    99.7680    52.8010    -0.1110     0.1390     1.5250    24.7560     2.7300 
   56.7500    88.1100    60.2980     0.0720     0.3040     3.1690    24.7050     2.5870 
   56.8750    74.9650    66.3660     0.4750     0.6660     5.6470    24.4970     2.4280 
   57.0000    61.1610    69.1970     1.2000     1.3230     7.5120    24.2320     2.2940 
   57.1250    47.3410    66.6690     2.2220     2.3280     7.6060    24.1270     2.2140 
   57.2500    34.1320    64.6740     3.1300     3.3950     7.4580    24.1400     2.1710 
   57.3750    22.1930    66.5260     3.6850     4.2710     7.3670    24.2430     2.1500 
   57.5000    12.2620    67.8920     3.9800     4.8950     7.2730    24.3470     2.1420 
   57.6250     5.2810    65.1300     4.2160     5.3400     7.1540    24.4230     2.1470 
   57.7500     0.4760    60.8590     4.4730     5.7040     7.1180    24.4990     2.1600 
   57.8750    -2.8950    58.0650     4.7270     6.0030     7.0770    24.5580     2.1730 
   58.0000    -5.4330    58.1190     4.9510     6.2400     7.0470    24.5700     2.1800 
   58.1250    -7.3860    59.7210     5.1270     6.4140     6.9700    24.6060     2.1730 
   58.2500    -9.0020    61.5440     5.2690     6.5400     6.9950    24.8000     2.1570 
   58.3750   -10.3640    62.5650     5.3870     6.6230     7.0810    25.2130     2.1420 
   58.5000   -11.5210    63.1400     5.4950     6.6670     7.1590    25.6120     2.1330 
   58.6250   -12.5030    63.1340     5.6030     6.6810     7.2740    25.7740     2.1340 
   58.7500   -13.3840    62.0950     5.7240     6.6960     7.4500    25.8260     2.1390 
   58.8750   -14.1870    60.1380     5.8630     6.7270     7.5710    25.8480     2.1400 
   59.0000   -14.9140    57.3740     6.0160     6.7790     7.5480    25.8480     2.1330 
   59.1250   -15.5460    55.6670     6.1660     6.8380     7.4210    25.7830     2.1170 
   59.2500   -16.0920    56.9670     6.2910     6.8770     7.3110    25.6560     2.1010 
   59.3750   -16.5540    59.9700     6.3750     6.8790     7.1840    25.4340     2.0910 
   59.5000   -16.9580    61.7630     6.4170     6.8410     7.0200    25.1620     2.0890 
   59.6250   -17.2830    61.2400     6.4380     6.7830     6.8930    24.8640     2.0960 
   59.7500   -17.5190    61.9260     6.4700     6.7330     6.7860    24.5160     2.1050 
   59.8750   -17.6760    64.8680     6.5320     6.7110     6.7110    24.1980     2.1120 
   60.0000   -17.7360    67.5180     6.6230     6.7150     6.6690    24.0320     2.1160 
   60.1250   -17.6760    66.8060     6.7170     6.7220     6.5720    24.0840     2.1180 
   60.2500   -17.5580    66.6710     6.7760     6.6980     6.4750    24.1980     2.1220 
   60.3750   -17.3940    71.3850     6.7770     6.6240     6.4980    24.3310     2.1290 
   60.5000   -17.1640    80.0560     6.7220     6.4990     6.5960    24.4470     2.1390 
   60.6250   -16.8700    86.2300     6.6340     6.3450     6.4800    24.4980     2.1490 
   60.7500   -16.5720    86.7200     6.5650     6.2050     6.2890    24.4320     2.1570 
   60.8750   -16.3210    83.1170     6.5510     6.1100     6.2730    24.2830     2.1620 
   61.0000   -16.1810    78.8400     6.6150     6.0780     6.4780    24.2210     2.1620 
   61.1250   -16.2090    76.0680     6.7630     6.1190     6.7470    24.3810     2.1550 
