~V
VERS. 2.00: Ver 2.00
~W
STRT.M 57.0000:
STOP.M 257.0000:
STEP.M 0.1250:
NULL. -999.2500:
UWI. F10004:
~C
DEPT.M :
GR.API :
RML.OHMM :
RI. :
RXO.OHMM :
CALI.CM :
DEN.GM/CC :
SP.MV :
~A
# ...
   90.7500    72.2810    18.0380    15.9250    17.3670    24.2740     2.1900    -5.1920 
   90.8750    70.4400    16.9360    15.1350    18.1970    24.7890     2.1170    -5.2020 
   91.0000    71.7930    15.1610    13.7770    16.5100    25.1920     2.0640    -5.2560 
   91.1250    75.6100    13.3550    12.2970    12.5250    25.2160     2.0600    -5.3180 
   91.2500    77.1770    12.2070    11.2220     9.8310    24.9780     2.0980    -5.3410 
   91.3750    76.0910    12.0900    10.8540    11.4630    24.6130     2.1550    -5.3320 
   91.5000    73.8820    13.1110    11.3410    16.6180    24.3520     2.2050    -5.3110 
   91.6250    72.1460    15.1820    12.7800    20.1150    24.2430     2.2230    -5.2800 
   91.7500    70.8190    17.5440    14.7220    21.1800    24.1860     2.2170    -5.2460 
   91.8750    68.7650    19.4470    16.6260    20.9120    24.0940     2.2020    -5.2040 
   92.0000    66.5060    20.2890    17.8980    20.6090    24.0860     2.1910    -5.1580 
   92.1250    64.6730    19.8300    18.0940    19.8920    24.1780     2.1890    -5.1260 
   92.2500    64.0630    18.8000    17.6220    18.3710    24.2830     2.1910    -5.1340 
   92.3750    65.7480    17.7740    16.9170    16.9030    24.3380     2.1910    -5.1690 
   92.5000    68.2590    17.1030    16.3200    16.8250    24.3510     2.1880    -5.1820 
   92.6250    68.3090    16.9450    16.0600    17.3430    24.3520     2.1800    -5.1720 
   92.7500    66.4860    17.1290    16.1110    17.5450    24.2980     2.1730    -5.1880 
   92.8750    67.1110    17.5270    16.4120    17.6340    24.2550     2.1680    -5.2280 
   93.0000    70.7800    18.0330    16.8740    17.8790    24.2250     2.1680    -5.2860 
   93.1250    72.4690    18.5640    17.3970    17.8490    24.1870     2.1730    -5.3580 
   93.2500    72.2460    19.0030    17.8470    17.4140    24.1670     2.1790    -5.4420 
   93.3750    71.5640    19.1610    18.0610    17.0520    24.1820     2.1850    -5.5300 
   93.5000    70.8960    18.7930    17.8320    17.2420    24.1380     2.1910    -5.6710 
   93.6250    71.0560    17.6030    16.8820    16.8300    24.0580     2.2020    -5.8830 
   93.7500    73.8640    15.8000    15.3610    14.4150    24.1180     2.2170    -6.0860 
   93.8750    78.5710    13.7250    13.5340    10.6110    24.3240     2.2380    -6.2790 
   94.0000    83.5040    11.8070    11.7590     8.6040    24.2670     2.2620    -6.4640 
   94.1250    87.9910    10.4950    10.4190     8.2930    23.8520     2.2880    -6.6790 
   94.2500    89.6890     9.8090     9.5910     8.5220    23.5800     2.3120    -6.8940 
   94.3750    88.1170     9.6470     9.2360     8.4250    23.4310     2.3280    -7.0870 
   94.5000    85.5250     9.7960     9.2140     8.6010    23.3340     2.3320    -7.2450 
   94.6250    86.5800     9.9700     9.3090     9.2420    23.2750     2.3240    -7.3630 
   94.7500    89.8700     9.9540     9.2950     8.9370    23.2540     2.3130    -7.4500 
   94.8750    91.6600     9.7230     9.1010     8.3280    23.2440     2.3090    -7.4910 
   95.0000    90.7230     9.3860     8.7770     7.8800    23.2480     2.3120    -7.4830 
   95.1250    89.0630     9.1180     8.4500     7.6520    23.2550     2.3190    -7.4480 
   95.2500    88.4980     9.0010     8.2070     7.8910    23.2460     2.3190    -7.3830 
   95.3750    86.8850     9.0000     8.0540     8.5740    23.2380     2.3130    -7.2800 
   95.5000    83.0910     8.9970     7.9490     9.1730    23.2410     2.3030    -7.1420 
   95.6250    81.0060     8.8580     7.8280     9.1180    23.2580     2.2920    -6.9940 
   95.7500    82.4100     8.6710     7.7280     8.7680    23.2760     2.2840    -6.8300 
   95.8750    84.8270     8.7280     7.8130     9.0440    23.2990     2.2820    -6.6810 
   96.0000    84.0490     9.4620     8.3630    10.4860    23.3710     2.2990    -6.5500 
   96.1250    78.1860    11.5570     9.9220    13.6240    23.5900     2.3580    -6.3830 
   96.2500    71.0430    15.0630    12.7310    21.8890    23.8790     2.4570    -6.2350 
   96.3750    66.0390    19.6570    16.8430    43.8160    24.0050     2.5670    -6.1100 
   96.5000    64.7270    24.2710    21.6120    78.5640    24.0540     2.6460    -6.0000 
   96.6250    67.0920    26.8390    25.1650    67.6290    24.0870     2.6410    -5.8870 
   96.7500    69.4240    26.6930    26.2490    38.3340    24.1140     2.5660    -5.8350 
   96.8750    70.8060    24.5870    25.1050    23.1140    24.1490     2.4560    -5.8290 
   97.0000    71.7210    22.0740    23.0170    19.1400    24.2350     2.3530    -5.8480 
   97.1250    73.8620    20.5380    21.3070    19.7160    24.3820     2.2840    -5.9040 
   97.2500    75.2180    19.9430    20.2680    21.4210    24.5520     2.2420    -5.9760 
   97.3750    73.7320    19.6420    19.5310    24.1970    24.7490     2.2160    -6.0700 
   97.5000    72.0630    18.8400    18.4960    25.1300    25.0120     2.2000    -6.2020 
   97.6250    75.4410    16.9170    16.6190    20.4680    25.2330     2.2050    -6.3660 
   97.7500    81.7400    14.3300    14.2010    14.0520    25.2060     2.2300    -6.5040 
   97.8750    85.8980    11.7320    11.7500     9.9930    24.8620     2.2690    -6.6230 
   98.0000    87.1210     9.6730     9.7200     7.8800    24.6300     2.3060    -6.7570 
   98.1250    88.3120     8.5100     8.4320     7.2030    24.6030     2.3280    -6.8610 
   98.2500    89.9990     8.0280     7.7590     7.7980    24.5950     2.3360    -6.9100 
   98.3750    90.3920     8.0360     7.5860     8.5770    24.5860     2.3380    -6.9450 
   98.5000    88.7710     8.3380     7.7720     8.7820    24.5730     2.3420    -6.9830 
   98.6250    87.2640     8.7730     8.1960     8.1880    24.5650     2.3490    -7.0230 
   98.7500    85.7640     9.2050     8.7020     8.7620    24.4950     2.3520    -7.0650 
   98.8750    83.6530     9.5720     9.2190     9.5990    24.3260     2.3480    -7.0900 
   99.0000    81.6790     9.8440     9.6920    10.1160    24.0890     2.3360    -7.0990 
   99.1250    82.0300    10.0090    10.0580    10.1210    23.8990     2.3190    -7.1050 
   99.2500    84.3230    10.1050    10.2990     9.9180    23.7610     2.3020    -7.1050 
   99.3750    86.4980    10.1440    10.3940     9.1740    23.6260     2.2850    -7.0960 
   99.5000    88.1210    10.1190    10.3310     8.8480    23.5130     2.2690    -7.0560 
   99.6250    89.6980     9.9850    10.0850     8.6250    23.5120     2.2570    -6.9550 
   99.7500    92.3800     9.7290     9.7000     8.2780    23.5290     2.2540    -6.8270 
   99.8750    95.9900     9.3480     9.2010     7.6150    23.4930     2.2620    -6.7220 
  100.0000    97.7860     8.8710     8.6240     7.2430    23.4430     2.2800    -6.5680 
  100.1250    95.9350     8.3420     8.0210     7.2580    23.4550     2.2980    -6.3890 
  100.2500    93.9150     7.8560     7.4760     7.5980    23.4850     2.3110    -6.2140 
  100.3750    93.5760     7.5440     7.0900     7.8820    23.4360     2.3190    -5.9880 
  100.5000    92.7380     7.5960     6.9930     7.9340    23.3450     2.3360    -5.7440 
  100.6250    88.6580     8.3630     7.4390     8.4610    23.3140     2.3800    -5.5030 
  100.7500    83.3470     9.9610     8.5480    10.5580    23.3370     2.4390    -5.2220 
  100.8750    77.3510    12.4590    10.4630    15.2180    23.4100     2.4860    -4.8770 
  101.0000    71.8900    15.7090    13.2050    23.2850    23.5240     2.4920    -4.4990 
  101.1250    69.8530    19.2130    16.5450    26.1390    23.8610     2.4310    -4.1040 
  101.2500    70.1310    22.1910    19.7420    28.5550    24.3900     2.3320    -3.7300 
  101.3750    69.3320    24.1540    22.2110    28.9270    24.8760     2.2260    -3.4060 
  101.5000    64.6980    25.0410    23.7020    28.7390    25.0540     2.1410    -3.1320 
  101.6250    59.1230    25.1640    24.3320    29.1250    25.1110     2.0970    -2.8860 
  101.7500    56.4910    25.1660    24.6630    29.7130    25.1800     2.0830    -2.6860 
  101.8750    56.9560    25.3190    24.9610    29.7270    25.2430     2.0870    -2.5590 
