~V
VERS. 2.00: Ver 2.00
~W
STRT.M 57.0000:
STOP.M 296.0000:
STEP.M 0.1250:
NULL. -999.2500:
UWI. F10043:
~C
DEPT.M :
GR.API :
RML.OHMM :
RI. :
RXO.OHMM :
CALI.CM :
DEN.GM/CC :
SP.MV :
~A
# ...
  113.2500    78.0170     8.5260     7.8710     8.7310    24.6370     2.1690   -22.6260 
  113.3750    76.3710     8.4910     7.8050     8.7090    24.6890     2.1570   -22.8520 
  113.5000    74.1860     8.4490     7.6990     8.7060    24.7620     2.1660   -23.0410 
  113.6250    70.4460     8.4000     7.6260     8.8140    24.8740     2.1890   -23.1200 
  113.7500    66.1370     8.3400     7.5860     8.9500    25.0070     2.2120   -23.1200 
  113.8750    65.2150     8.2690     7.5290     9.0110    25.1880     2.2280   -23.0240 
  114.0000    70.0710     8.2140     7.4430     8.9830    25.4420     2.2340   -22.8700 
  114.1250    77.0560     8.2580     7.4230     8.9720    25.7560     2.2270   -22.6500 
  114.2500    78.6480     8.4580     7.5640     8.6550    25.7960     2.2100   -22.3780 
  114.3750    74.3650     8.8350     7.8880     8.3400    25.3320     2.1880   -22.0290 
  114.5000    69.5280     9.3440     8.3430     9.5520    24.4920     2.1660   -21.6250 
  114.6250    68.4390     9.8260     8.8090    15.1640    23.8490     2.1500   -21.1840 
  114.7500    68.6260    10.0590     9.1180    20.6840    23.4820     2.1430   -20.7000 
  114.8750    68.5130     9.8940     9.1260    18.0230    23.2000     2.1420   -20.1800 
  115.0000    69.7050     9.3330     8.7730    11.7670    22.9800     2.1460   -19.6170 
  115.1250    74.7630     8.5330     8.1150     9.2950    23.0260     2.1530   -19.0600 
  115.2500    81.0970     7.7700     7.4170     8.4140    23.2360     2.1660   -18.5150 
  115.3750    84.1050     7.1910     6.8640     7.6920    23.4210     2.1870   -18.0110 
  115.5000    84.2860     6.8440     6.5330     6.6940    23.5210     2.2130   -17.5110 
  115.6250    87.1470     6.7170     6.3880     6.3740    23.5990     2.2390   -17.0760 
  115.7500    92.1130     6.6940     6.3140     6.3680    23.6570     2.2580   -16.6990 
  115.8750    94.0770     6.7060     6.2820     6.3410    23.6830     2.2720   -16.3860 
  116.0000    92.0610     6.6890     6.2840     6.1650    23.6830     2.2840   -16.1250 
  116.1250    91.6350     6.5860     6.2600     6.0410    23.6710     2.3020   -15.9190 
  116.2500    92.7410     6.4180     6.1470     5.7430    23.7410     2.3200   -15.7530 
  116.3750    91.7750     6.2280     5.9450     5.6230    23.9440     2.3320   -15.6140 
  116.5000    90.1560     6.0520     5.7190     5.7010    24.2120     2.3330   -15.5330 
  116.6250    91.0570     5.8950     5.5650     5.6410    24.4090     2.3240   -15.4620 
  116.7500    93.0000     5.7340     5.4750     5.6290    24.5220     2.3110   -15.4020 
  116.8750    95.5180     5.5600     5.3760     5.6210    24.5750     2.3030   -15.3520 
  117.0000   100.4170     5.3940     5.2240     5.5620    24.5930     2.3000   -15.3380 
  117.1250   108.1340     5.3010     5.0780     5.4050    24.5890     2.3060   -15.3760 
  117.2500   111.1170     5.3190     5.0370     5.2300    24.5600     2.3200   -15.4570 
  117.3750   105.9490     5.4490     5.1240     5.3380    24.5170     2.3420   -15.5930 
  117.5000    97.8050     5.6540     5.2900     5.7880    24.4390     2.3670   -15.7710 
  117.6250    91.4920     5.8640     5.4610     6.5350    24.2910     2.3870   -16.0460 
  117.7500    87.6890     6.0220     5.6040     6.6730    24.1200     2.3960   -16.3700 
  117.8750    84.3240     6.1160     5.7260     6.4710    24.0130     2.3930   -16.7390 
  118.0000    81.1460     6.1720     5.8170     6.0680    23.9480     2.3810   -17.1450 
  118.1250    79.7330     6.2360     5.8650     6.1760    23.8480     2.3630   -17.5960 
  118.2500    78.8620     6.3340     5.9140     6.3270    23.7160     2.3450   -18.0600 
  118.3750    76.4980     6.4720     6.0220     6.5820    23.6290     2.3270   -18.5200 
  118.5000    72.4510     6.6530     6.2230     6.8050    23.5980     2.3090   -18.9570 
  118.6250    71.3640     6.8930     6.4990     7.0350    23.5960     2.2910   -19.2700 
  118.7500    73.1770     7.1850     6.7930     7.1920    23.5980     2.2780   -19.5100 
  118.8750    72.7590     7.4900     7.0830     7.3470    23.5990     2.2690   -19.6810 
  119.0000    69.6860     7.7100     7.3330     7.7660    23.5990     2.2660   -19.7510 
  119.1250    69.8480     8.3430     7.4070     8.2770    23.6160     2.2660   -19.6640 
  119.2500    74.2840     7.9460     7.1920     8.5460    23.6780     2.2690   -19.4640 
  119.3750    78.4880     7.2970     6.6890     8.1750    23.8070     2.2740   -19.1590 
  119.5000    80.0750     6.6030     6.0670     7.0380    23.9870     2.2840   -18.7930 
  119.6250    80.5520     6.1310     5.6040     6.1120    24.1770     2.3000   -18.4330 
  119.7500    81.5750     5.9510     5.3950     5.4980    24.3120     2.3200   -18.0910 
  119.8750    82.4530     6.0170     5.3920     5.5090    24.3140     2.3370   -17.7860 
  120.0000    81.6540     6.1970     5.4870     5.9680    24.2070     2.3440   -17.5720 
  120.1250    79.8920     6.3040     5.5650     6.3580    24.0700     2.3380   -17.4730 
  120.2500    81.3120     6.2410     5.5580     6.3090    24.0620     2.3270   -17.4560 
  120.3750    86.6320     6.0370     5.4540     5.7120    24.2270     2.3220   -17.4990 
  120.5000    91.4070     5.7960     5.2810     5.2690    24.4540     2.3280   -17.5780 
  120.6250    89.4330     5.6430     5.1110     5.1160    24.5400     2.3460   -17.7670 
  120.7500    83.8690     5.6210     5.0280     5.3080    24.4790     2.3640   -18.0390 
  120.8750    79.0750     5.7430     5.0850     5.6140    24.3090     2.3750   -18.3790 
  121.0000    77.1830     6.0150     5.2810     6.3170    24.1530     2.3740   -18.7620 
  121.1250    76.6830     6.5040     5.6200     6.4450    24.1570     2.3600   -19.2340 
  121.2500    74.9400     7.2330     6.1260     6.8220    24.1170     2.3410   -19.7910 
  121.3750    71.8950     8.2160     6.8690     7.9280    23.9320     2.3200   -20.4250 
  121.5000    69.9190     9.3700     7.8390     9.5870    23.7450     2.3010   -21.1000 
  121.6250    70.9130    10.4330     8.8270    10.3670    23.6660     2.2920   -21.7130 
  121.7500    71.4730    11.0980     9.5030    10.4780    23.6380     2.2970   -22.2750 
  121.8750    69.5670    11.1820     9.6790    10.2510    23.5750     2.3200   -22.7860 
  122.0000    67.4730    10.7330     9.4010    10.0160    23.4990     2.3500   -23.2180 
  122.1250    66.3220    10.0160     8.9120     9.8430    23.4780     2.3640   -23.5150 
  122.2500    64.1160     9.3800     8.4710     9.7930    23.4900     2.3500   -23.6850 
  122.3750    61.1750     8.9620     8.1390     9.7750    23.5000     2.3100   -23.7490 
  122.5000    60.2370     8.7810     7.9200     9.7850    23.4940     2.2600   -23.7300 
  122.6250    62.1060     8.8150     7.8540     9.8280    23.4880     2.2230   -23.6360 
  122.7500    63.2230     8.9590     7.9430     9.7960    23.4870     2.2070   -23.4530 
  122.8750    62.7010     9.1540     8.1540     9.8250    23.4950     2.2080   -23.1780 
  123.0000    62.5570     9.3300     8.3760     9.7810    23.4510     2.2190   -22.8450 
  123.1250    65.7810     9.3250     8.3890     9.5360    23.2560     2.2320   -22.4410 
  123.2500    69.5460     9.0310     8.1090     9.7520    22.9930     2.2430   -22.0030 
  123.3750    71.8170     8.4280     7.5890    10.8680    22.7740     2.2500   -21.5700 
  123.5000    74.7590     7.6190     6.9610    11.9750    22.6340     2.2590   -21.1490 
  123.6250    81.8130     6.8470     6.3670     7.8220    22.7240     2.2750   -20.7760 
  123.7500    87.5490     6.3350     5.9030     5.8960    22.9760     2.2980   -20.5350 
  123.8750    86.8640     6.1940     5.6480     5.4770    23.2670     2.3210   -20.4540 
  124.0000    82.0450     6.4390     5.6790     5.9740    23.4400     2.3370   -20.5320 
  124.1250    77.2900     7.0470     6.0720     6.9020    23.4950     2.3350   -20.8070 
  124.2500    72.7860     7.8170     6.6810     8.0580    23.4560     2.3170   -21.1940 
  124.3750    68.8570     8.5630     7.3260     9.0900    23.4020     2.2890   -21.6230 
