~V
VERS. 2.00: Ver 2.00
~W
STRT.M 60.0000:
STOP.M 242.0000:
STEP.M 0.1250:
NULL. -999.2500:
UWI. F10022:
~C
DEPT.M :
GR.API :
RML.OHMM :
RI. :
RXO.OHMM :
CALI.CM :
DEN.GM/CC :
SP.MV :
~A
# ...
  161.2500    49.0780    21.9590    20.4310    23.0760    23.2680     2.6360    -6.9210 
  161.3750    47.7620    22.2690    20.9740    23.3580    23.3280     2.6170    -7.0430 
  161.5000    47.6110    22.3230    21.2320    23.4400    23.5310     2.6010    -7.1320 
  161.6250    48.6680    22.1210    21.1710    23.3800    23.6510     2.5920    -7.2340 
  161.7500    49.4190    21.6650    20.8270    23.5050    23.6350     2.5820    -7.3260 
  161.8750    49.6410    20.8930    20.1710    22.9890    23.4480     2.5670    -7.3910 
  162.0000    50.8720    19.7870    19.1980    21.8280    23.0310     2.5480    -7.4650 
  162.1250    53.1340    18.4100    17.9520    20.0210    22.5330     2.5260    -7.4870 
  162.2500    53.9950    17.0160    16.6470    17.6630    22.2340     2.5060    -7.4780 
  162.3750    53.8400    15.8110    15.4670    15.5310    22.1080     2.4880    -7.4790 
  162.5000    53.4840    14.9360    14.5540    14.1060    22.0740     2.4740    -7.4490 
  162.6250    52.6260    14.4990    14.0350    13.3530    22.1390     2.4660    -7.4010 
  162.7500    51.6640    14.3950    13.8490    13.0890    22.3140     2.4680    -7.3310 
  162.8750    51.8070    14.5400    13.9400    13.5480    22.6040     2.4790    -7.2620 
  163.0000    53.3680    14.8290    14.2290    14.3480    23.0030     2.4950    -7.1950 
  163.1250    53.7290    15.1770    14.6310    15.0600    23.4300     2.5080    -7.1530 
  163.2500    52.8360    15.5220    15.0410    16.0910    23.7840     2.5120    -7.0770 
  163.3750    51.7660    15.8480    15.4020    17.3120    23.9580     2.5070    -7.0160 
  163.5000    50.9670    16.1500    15.6890    17.9370    24.0080     2.4980    -6.9350 
  163.6250    50.9100    16.4270    15.8930    18.2330    24.0010     2.4900    -6.8810 
  163.7500    51.0440    16.6650    16.0400    18.5320    23.9970     2.4860    -6.8210 
  163.8750    50.0200    16.8450    16.1440    19.3140    23.9960     2.4810    -6.7560 
  164.0000    47.8110    16.9730    16.2240    20.0590    23.9960     2.4740    -6.7120 
  164.1250    45.8130    17.0900    16.3200    20.7870    23.9730     2.4670    -6.6640 
  164.2500    45.3590    17.2430    16.4570    20.8080    23.9190     2.4660    -6.6460 
  164.3750    47.1670    17.4380    16.6320    20.2370    23.8640     2.4720    -6.6150 
  164.5000    51.2220    17.6390    16.8060    20.2590    23.8870     2.4870    -6.6420 
  164.6250    53.3150    17.7650    16.8970    20.3510    23.8800     2.5060    -6.6480 
  164.7500    51.5220    17.7720    16.8620    20.3350    23.8840     2.5240    -6.6920 
  164.8750    49.3140    17.6680    16.7040    19.9420    23.8740     2.5350    -6.7260 
  165.0000    50.2050    17.5050    16.4770    19.2190    23.8610     2.5410    -6.7600 
  165.1250    52.6810    17.3750    16.2800    18.5250    23.8000     2.5420    -6.7870 
  165.2500    53.5960    17.3400    16.1890    18.2070    23.6850     2.5420    -6.8160 
  165.3750    54.9960    17.4220    16.2300    18.3270    23.5850     2.5430    -6.8600 
  165.5000    57.3410    17.6100    16.3880    18.6670    23.6160     2.5460    -6.8730 
  165.6250    57.3510    17.8860    16.6400    18.7150    23.7640     2.5500    -6.9280 
  165.7500    55.5600    18.2110    16.9420    18.6120    23.9100     2.5520    -6.9590 
  165.8750    54.4440    18.5740    17.2860    18.3990    23.9540     2.5490    -7.0130 
  166.0000    54.6870    18.9690    17.6710    18.1880    23.9540     2.5430    -7.0580 
  166.1250    54.4150    19.4050    18.1050    18.3900    23.9210     2.5360    -7.1020 
  166.2500    53.2780    19.8720    18.5600    18.8890    23.8790     2.5290    -7.1270 
  166.3750    52.4610    20.3300    18.9930    19.3690    23.8140     2.5260    -7.1750 
  166.5000    52.5640    20.6940    19.3280    19.3670    23.6990     2.5260    -7.2200 
  166.6250    53.5370    20.7740    19.4180    19.1690    23.5320     2.5290    -7.2780 
  166.7500    55.3310    20.4800    19.2010    19.1620    23.3050     2.5320    -7.3310 
  166.8750    55.7720    19.8080    18.6640    18.9840    23.1360     2.5340    -7.3790 
  167.0000    53.4290    18.9170    17.9060    18.3650    23.0970     2.5350    -7.4480 
  167.1250    51.3060    18.1450    17.1570    17.5790    23.1160     2.5370    -7.4990 
  167.2500    51.8780    17.7910    16.6720    16.8340    23.1700     2.5400    -7.5870 
  167.3750    54.4230    18.0080    16.6190    16.7300    23.2160     2.5450    -7.6470 
  167.5000    55.3980    18.7770    17.0610    17.6730    23.2170     2.5490    -7.7190 
  167.6250    54.2320    19.9210    17.9610    19.3490    23.2950     2.5490    -7.7350 
  167.7500    53.2260    21.0260    18.9910    20.7600    23.4870     2.5450    -7.7660 
  167.8750    52.0400    21.7750    19.8430    21.9080    23.7140     2.5390    -7.7840 
  168.0000    50.7250    21.9580    20.2470    22.8780    23.8480     2.5330    -7.7520 
  168.1250    49.0790    21.4920    20.0080    22.9430    23.8390     2.5320    -7.7130 
  168.2500    48.6180    20.7170    19.3730    21.9300    23.7650     2.5350    -7.6350 
  168.3750    49.8050    19.9420    18.6180    20.1410    23.6960     2.5430    -7.5610 
  168.5000    51.4120    19.4120    18.0070    18.2240    23.6290     2.5530    -7.4740 
  168.6250    52.2430    19.2760    17.7410    17.3310    23.5740     2.5640    -7.4350 
  168.7500    53.3960    19.3930    17.7600    17.6940    23.5140     2.5720    -7.3690 
  168.8750    55.7080    19.6110    17.9540    18.7930    23.4530     2.5750    -7.3070 
  169.0000    56.9180    19.8030    18.2010    19.9000    23.4090     2.5730    -7.2510 
  169.1250    54.9750    19.9120    18.4040    20.3650    23.3890     2.5670    -7.2560 
  169.2500    53.4530    20.0020    18.5660    20.3650    23.3660     2.5630    -7.2860 
  169.3750    53.3400    20.1360    18.7210    20.5680    23.3440     2.5600    -7.2970 
  169.5000    53.5420    20.3180    18.8820    21.4100    23.3280     2.5580    -7.2960 
  169.6250    51.7130    20.4460    18.9850    22.3820    23.3890     2.5540    -7.2710 
  169.7500    48.9200    20.3890    18.9370    22.5110    23.5150     2.5490    -7.2790 
  169.8750    47.3330    20.0670    18.6690    21.6330    23.6170     2.5440    -7.2650 
  170.0000    49.0490    19.4980    18.1850    20.2500    23.6470     2.5420    -7.2810 
  170.1250    52.0990    18.8150    17.5860    18.9020    23.6010     2.5410    -7.2340 
  170.2500    53.1340    18.2470    17.0650    18.0750    23.5230     2.5420    -7.1840 
  170.3750    52.4010    17.9610    16.7680    17.7960    23.4530     2.5430    -7.1300 
  170.5000    51.7510    18.0490    16.7780    17.8510    23.4340     2.5440    -7.1060 
  170.6250    50.9010    18.5490    17.1480    18.0180    23.5290     2.5450    -7.0890 
  170.7500    48.6150    19.2670    17.7370    18.7070    23.6600     2.5460    -7.0340 
  170.8750    47.0090    20.0260    18.4120    19.8940    23.7650     2.5460    -6.9890 
  171.0000    47.0610    20.6600    19.0320    21.2970    23.8330     2.5460    -6.8890 
  171.1250    47.5000    21.0260    19.4530    22.4310    23.8430     2.5420    -6.8380 
  171.2500    47.2690    21.1820    19.6750    23.0430    23.8360     2.5370    -6.7740 
  171.3750    47.4590    21.2260    19.7460    22.9700    23.8150     2.5330    -6.7250 
  171.5000    48.8000    21.2710    19.7510    22.2360    23.8050     2.5320    -6.6660 
  171.6250    49.0140    21.4140    19.7780    22.1630    23.8220     2.5380    -6.6020 
  171.7500    48.3650    21.6400    19.8610    22.4810    23.8260     2.5480    -6.5700 
  171.8750    48.4640    21.8860    19.9880    22.8350    23.8010     2.5580    -6.5370 
  172.0000    48.7340    22.0580    20.1110    23.0230    23.7760     2.5640    -6.5340 
  172.1250    50.0320    22.0290    20.1480    22.5200    23.7710     2.5620    -6.4770 
  172.2500    51.6930    21.7790    20.0490    22.1100    23.7930     2.5550    -6.4290 
  172.3750    53.0390    21.3320    19.7940    21.8420    23.7960     2.5450    -6.3810 
