~V
VERS. 2.00: Ver 2.00
~W
STRT.M 50.0000:
STOP.M 207.0000:
STEP.M 0.1250:
NULL. -999.2500:
UWI. F10009:
~C
DEPT.M :
GR.API :
RML.OHMM :
RI. :
RXO.OHMM :
CALI.CM :
DEN.GM/CC :
SP.MV :
~A
# ...
  151.2500    57.1000    53.9010    49.5210    61.0890    23.5500     2.2340   -22.3340 
  151.3750    57.0460    53.4850    49.4190    59.4310    23.5500     2.2500   -22.6960 
  151.5000    58.2290    52.7810    49.0200    57.5730    23.5720     2.2680   -22.9880 
  151.6250    60.6480    51.9990    48.4760    55.2670    23.6180     2.2760   -23.1790 
  151.7500    60.9330    51.1830    47.8320    53.9060    23.6860     2.2700   -23.2400 
  151.8750    58.9110    50.2200    46.9970    53.7500    23.7610     2.2550   -23.1080 
  152.0000    56.9490    48.9700    45.8720    53.7690    23.8090     2.2380   -22.7200 
  152.1250    57.0090    47.3430    44.4030    52.9330    23.8230     2.2260   -21.9340 
  152.2500    58.7400    45.5670    42.8040    50.0980    23.8240     2.2190   -20.7780 
  152.3750    60.5680    43.9330    41.3190    46.6930    23.8240     2.2160   -19.3010 
  152.5000    61.5730    42.7250    40.1850    44.3510    23.8240     2.2150   -17.6010 
  152.6250    61.5560    42.1670    39.6000    43.5590    23.8230     2.2150   -15.8440 
  152.7500    61.1710    42.0700    39.4240    43.6560    23.8170     2.2160   -14.1830 
  152.8750    60.6870    42.2320    39.5020    44.5520    23.8000     2.2170   -12.6630 
  153.0000    60.5200    42.4700    39.6850    46.0180    23.7640     2.2190   -11.3600 
  153.1250    62.0620    42.7110    39.9010    46.3940    23.7050     2.2200   -10.4410 
  153.2500    65.0390    43.0070    40.1650    45.6870    23.6350     2.2200    -9.8610 
  153.3750    67.1660    43.4220    40.5210    44.6040    23.5750     2.2170    -9.5810 
  153.5000    66.7840    43.9580    40.9630    44.9680    23.5460     2.2120    -9.5430 
  153.6250    63.4950    44.5350    41.4270    47.2630    23.5380     2.2070    -9.6010 
  153.7500    60.0180    45.0620    41.8450    49.1760    23.5310     2.2050    -9.6430 
  153.8750    58.4040    45.5500    42.2340    49.9350    23.5160     2.2110    -9.6860 
  154.0000    58.5700    46.0950    42.6730    49.7120    23.4910     2.2300    -9.7280 
  154.1250    58.8620    46.8360    43.2800    49.4360    23.4600     2.2590    -9.7430 
  154.2500    58.3490    47.7370    44.0290    49.9460    23.4340     2.2860    -9.7600 
  154.3750    57.7050    48.6590    44.8060    51.7690    23.4210     2.2990    -9.7720 
  154.5000    57.7510    49.4110    45.4570    53.8550    23.4170     2.2910    -9.7750 
  154.6250    57.6640    49.8520    45.8560    53.9600    23.4150     2.2670    -9.7830 
  154.7500    57.1290    50.1500    46.1320    51.6520    23.4150     2.2420    -9.7850 
  154.8750    56.9820    50.5430    46.4930    49.9210    23.4140     2.2240    -9.7860 
  155.0000    58.4840    51.2310    47.1350    50.1930    23.4160     2.2170    -9.7890 
  155.1250    59.9050    52.2570    48.1570    52.3340    23.4240     2.2180    -9.7920 
  155.2500    59.3170    53.2970    49.3040    54.5800    23.4390     2.2200    -9.7970 
  155.3750    58.5590    53.9880    50.2440    56.8390    23.4570     2.2210    -9.8170 
  155.5000    59.7950    54.0360    50.6480    57.4350    23.4670     2.2210    -9.8270 
  155.6250    61.3970    53.2340    50.2120    55.6640    23.4380     2.2250    -9.8310 
  155.7500    60.9420    51.8500    49.1150    52.4050    23.3730     2.2340    -9.8420 
  155.8750    59.5300    50.0930    47.5400    48.2260    23.2840     2.2480    -9.8440 
  156.0000    58.3690    48.1230    45.6810    44.0170    23.2030     2.2600    -9.8590 
  156.1250    57.8010    46.0050    43.6570    41.4440    23.2000     2.2630    -9.9000 
  156.2500    57.5450    43.7990    41.5670    40.4640    23.2610     2.2580    -9.9400 
  156.3750    57.9990    41.5770    39.4730    40.0840    23.3310     2.2480    -9.9920 
  156.5000    59.9250    39.4950    37.4880    39.1660    23.3560     2.2410   -10.0740 
  156.6250    62.4600    37.9160    35.8850    37.0480    23.3140     2.2410   -10.1510 
  156.7500    62.9520    37.1020    34.8880    34.3330    23.2170     2.2440   -10.2440 
  156.8750    61.0700    37.2720    34.7160    32.1600    23.0750     2.2480   -10.3720 
  157.0000    59.8540    38.4840    35.4740    31.2390    22.9210     2.2480   -10.4980 
  157.1250    60.2990    40.6850    37.2180    32.2360    22.8030     2.2430   -10.6070 
  157.2500    60.1900    43.3140    39.5070    35.4060    22.7920     2.2370   -10.7200 
  157.3750    60.4430    45.9020    41.9390    40.3500    22.9290     2.2330   -10.8120 
  157.5000    62.3180    48.0470    44.0960    45.0940    23.1720     2.2320   -10.8810 
  157.6250    64.5730    49.4050    45.5440    47.6290    23.4150     2.2350   -10.9590 
  157.7500    64.5170    50.1120    46.2830    48.7050    23.5820     2.2380   -11.0300 
  157.8750    63.0020    50.3040    46.4020    48.7490    23.6460     2.2400   -11.1040 
  158.0000    61.5610    50.1170    46.0500    48.4070    23.6100     2.2400   -11.1980 
  158.1250    61.5120    49.5860    45.3320    47.8390    23.5090     2.2400   -11.2980 
  158.2500    61.4360    48.8200    44.4170    47.1430    23.4070     2.2430   -11.3950 
  158.3750    60.1160    47.9120    43.4120    46.2750    23.3510     2.2480   -11.4930 
  158.5000    58.5400    46.9980    42.4340    45.6310    23.3370     2.2520   -11.5870 
  158.6250    58.9440    46.2350    41.6170    44.8890    23.3460     2.2530   -11.6730 
  158.7500    60.6390    45.6710    40.9880    44.4500    23.3620     2.2510   -11.7480 
  158.8750    62.1190    45.3160    40.5530    44.0700    23.3790     2.2470   -11.7810 
  159.0000    62.7070    45.1690    40.3070    43.9880    23.3850     2.2440   -11.7990 
  159.1250    62.9620    45.2860    40.3040    44.0390    23.3550     2.2440   -11.8410 
  159.2500    62.6340    45.6900    40.5620    44.5120    23.2880     2.2480   -11.8840 
  159.3750    63.2410    46.4600    41.1460    44.9290    23.1950     2.2510   -11.9450 
  159.5000    66.1130    47.6710    42.1140    45.1810    23.1030     2.2530   -12.0390 
  159.6250    69.8920    49.4420    43.5720    45.4460    23.0300     2.2530   -12.1480 
  159.7500    70.9560    51.6570    45.4350    46.4460    22.9900     2.2510   -12.2810 
  159.8750    68.5500    54.2200    47.6380    48.7910    22.9980     2.2520   -12.4560 
  160.0000    66.0020    56.9910    50.0660    53.0690    23.0730     2.2540   -12.6360 
  160.1250    66.2360    59.8270    52.5840    58.7910    23.2020     2.2590   -12.7810 
  160.2500    67.2790    62.6400    55.0810    64.1080    23.3470     2.2630   -12.9230 
  160.3750    66.4050    65.4690    57.5680    68.8910    23.4670     2.2640   -13.0590 
  160.5000    63.2130    68.4430    60.1480    72.9800    23.5260     2.2580   -13.1620 
  160.6250    60.8990    71.7440    62.9990    76.2650    23.5420     2.2450   -13.2520 
  160.7500    59.3310    75.2270    66.0670    79.8520    23.5480     2.2380   -13.3110 
  160.8750    57.7770    78.4700    69.0530    85.2880    23.5590     2.2530   -13.3150 
  161.0000    56.0020    80.8430    71.4520    92.8140    23.5730     2.3030   -13.2900 
  161.1250    55.1370    81.7350    72.6810   101.4440    23.5750     2.3930   -13.2430 
  161.2500    53.6810    81.9490    73.2490   106.1020    23.5520     2.4960   -13.1560 
  161.3750    50.4480    82.8130    74.1080   103.2760    23.4980     2.5850   -13.0340 
  161.5000    48.1030    85.3930    76.0550    93.9070    23.4300     2.6390   -12.8740 
  161.6250    49.9240    89.0300    78.5260    81.6650    23.3580     2.6550   -12.6750 
  161.7500    53.5020    90.1350    78.6990    77.8060    23.2570     2.6500   -12.4560 
  161.8750    54.9880    84.7740    73.3650    75.6160    23.0980     2.6330   -12.2170 
  162.0000    54.1040    70.8560    60.8430    72.9270    22.8810     2.6020   -11.9580 
  162.1250    54.2930    50.6430    43.3660    65.6220    22.6610     2.5570   -11.7230 
  162.2500    56.3980    32.0510    27.7390    46.8150    22.5270     2.5060   -11.5230 
  162.3750    60.1600    19.0760    17.0080    22.1730    22.4870     2.4590   -11.3690 
