~V
VERS. 2.00: Ver 2.00
~W
STRT.M 50.0000:
STOP.M 244.0000:
STEP.M 0.1250:
NULL. -999.2500:
UWI. F10003:
~C
DEPT.M :
GR.API :
RML.OHMM :
RI. :
RXO.OHMM :
CALI.CM :
DEN.GM/CC :
SP.MV :
~A
# ...
  230.0000    23.6600     3.9290     3.5950     4.4060    25.1620     2.1760    -3.5730 
  230.1250    22.7450     4.0700     3.6980     5.0500    25.1010     2.2400    -3.5070 
  230.2500    23.1660     4.2780     3.8660     5.9520    25.0070     2.3090    -3.4530 
  230.3750    24.2790     4.4860     4.0510     6.8010    24.8080     2.3800    -3.4540 
  230.5000    24.5960     4.6120     4.1850     7.0700    24.6020     2.4420    -3.4920 
  230.6250    23.9540     4.5750     4.1930     6.3900    24.6110     2.4770    -3.5760 
  230.7500    23.5640     4.4060     4.0830     5.5850    24.7240     2.4760    -3.6890 
  230.8750    23.5430     4.1670     3.8950     4.6320    25.0070     2.4370    -3.8060 
  231.0000    23.7540     3.9360     3.6920     3.9620    25.7680     2.3730    -3.8860 
  231.1250    23.9130     3.7890     3.5420     3.7440    26.9210     2.3050    -3.9460 
  231.2500    24.2390     3.7310     3.4630     3.7320    27.1910     2.2550    -4.0590 
  231.3750    24.3370     3.7430     3.4480     3.7640    26.2250     2.2330    -4.1530 
  231.5000    23.2060     3.7940     3.4770     3.7790    25.2830     2.2360    -4.2070 
  231.6250    21.5920     3.8490     3.5260     3.7730    24.9960     2.2500    -4.2540 
  231.7500    21.0940     3.8870     3.5710     3.7680    25.1510     2.2590    -4.2760 
  231.8750    21.0940     3.9010     3.5990     3.7580    25.4730     2.2580    -4.2660 
  232.0000    21.0940     3.8890     3.6050     3.7220    25.6670     2.2490    -4.2960 
  232.1250    21.0940     3.8530     3.5840     3.6380    25.4700     2.2340    -4.3840 
  232.2500    21.0940     3.8030     3.5430     3.5890    25.2860     2.2120    -4.4500 
  232.3750    21.0940     3.7450     3.4900     3.5850    25.2960     2.1850    -4.5260 
  232.5000    21.0940     3.6900     3.4310     3.5540    25.4110     2.1650    -4.6050 
  232.6250    21.0940     3.6520     3.3810     3.4710    25.5140     2.1660    -4.6960 
  232.7500    21.0940     3.6390     3.3470     3.4370    25.4840     2.1820    -4.8290 
  232.8750    21.0940     3.6550     3.3380     3.5280    25.3930     2.1940    -4.9860 
  233.0000    21.0940     3.6970     3.3560     3.7250    25.4640     2.1840    -5.0780 
  233.1250    21.0940     3.7570     3.4020     3.9430    25.7540     2.1500    -5.1110 
  233.2500    21.0940     3.8190     3.4600     4.1490    26.0910     2.1190    -5.1380 
  233.3750    21.0940     3.8740     3.5210     4.2770    26.2460     2.1110    -5.1560 
  233.5000    21.0940     3.9180     3.5760     4.2550    26.2110     2.1250    -5.1980 
  233.6250    21.0940     3.9560     3.6260     4.0780    26.4290     2.1380    -5.2450 
  233.7500    21.0940     4.0070     3.6790     3.9190    26.6370     2.1280    -5.2670 
  233.8750    21.0940     4.0810     3.7440     3.8830    26.6070     2.0930    -5.2480 
  234.0000    21.0940     4.1810     3.8220     3.9520    26.3360     2.0450    -5.2380 
  234.1250    21.0940     4.2880     3.9000     4.0160    25.8450     2.0020    -5.2360 
  234.2500    21.0940     4.3630     3.9570     4.0610    25.3600     1.9690    -5.2430 
  234.3750    21.0940     4.3730     3.9780     4.0470    25.1370     1.9480    -5.2270 
  234.5000    21.0940     4.3060     3.9520     3.9750    25.2000     1.9410    -5.1930 
  234.6250    21.0940     4.1690     3.8800     3.9140    25.3160     1.9570    -5.1510 
  234.7500    21.0940     4.0120     3.7860     3.8930    25.4620     1.9950    -5.1280 
  234.8750    21.0940     3.8740     3.6910     3.8990    25.6280     2.0440    -5.1550 
  235.0000    21.0940     3.7830     3.6130     3.9260    25.6730     2.0890    -5.1970 
  235.1250    21.0940     3.7590     3.5690     3.9450    25.4530     2.1190    -5.1990 
  235.2500    21.0940     3.7830     3.5560     3.9840    25.2510     2.1380    -5.2110 
  235.3750    21.0940     3.8380     3.5690     4.0560    25.1550     2.1520    -5.2500 
  235.5000    21.0940     3.9040     3.5970     4.1290    25.1370     2.1600    -5.2730 
  235.6250    21.0940     3.9580     3.6280     4.1730    25.1790     2.1570    -5.2320 
  235.7500    21.0940     3.9940     3.6530     4.1510    25.3180     2.1480    -5.1680 
  235.8750    21.0940     4.0090     3.6690     4.0360    25.4290     2.1480    -5.1010 
  236.0000    21.0940     4.0080     3.6780     3.9400    25.3880     2.1690    -5.0450 
  236.1250    21.0940     3.9910     3.6810     3.9280    25.2320     2.2140    -5.0670 
  236.2500    21.0940     3.9680     3.6800     3.9870    25.3370     2.2620    -5.0650 
  236.3750    21.0940     3.9480     3.6780     4.0960    25.5800     2.2970    -5.0490 
  236.5000    21.0940     3.9390     3.6750     4.2740    25.7880     2.3140    -5.0550 
  236.6250    21.0940     3.9480     3.6730     4.4690    25.2930     2.3180    -5.1260 
  236.7500    21.0940     3.9660     3.6710     4.5910    24.8060     2.3250    -5.2210 
  236.8750    21.0940     3.9840     3.6680     4.5580    24.5240     2.3380    -5.2850 
  237.0000    21.0940     3.9940     3.6670     4.2660    24.4660     2.3520    -5.3150 
  237.1250    21.0940     3.9950     3.6650     3.7760    24.5450     2.3550    -5.3340 
  237.2500    21.0940     3.9910     3.6630     3.3630    24.7890     2.3430    -5.3530 
  237.3750    21.0940     3.9870     3.6620     3.2310    25.2110     2.3210    -5.3770 
  237.5000    21.0940     3.9850     3.6620     3.1800    25.5110     2.3010    -5.4470 
  237.6250    21.0940     3.9830     3.6620     3.1760    25.1500     2.2880    -5.4920 
  237.7500    21.0940     3.9830     3.6620     3.2110    24.7660     2.2680    -5.5400 
  237.8750    21.0940     3.9830     3.6620     3.2920    24.5170     2.2190    -5.6070 
  238.0000    21.0940     3.9830     3.6620     3.4150    24.2270     2.1260    -5.6580 
  238.1250    21.0940     3.9830     3.6620     3.6250    23.6750     2.0030    -5.6920 
  238.2500    21.0940     3.9830     3.6620     3.8780    22.8820     1.8950    -5.7210 
  238.3750    21.0940     3.9830     3.6620     4.1700    21.5630     1.8300    -5.7540 
  238.5000    21.0940     3.9830     3.6620     4.5320    19.5990     1.8200    -5.7160 
  238.6250    21.0940     3.9830     3.6620     4.9340    17.5510     1.8650    -5.7260 
  238.7500    21.0940     3.9830     3.6620     5.2400    15.9210     1.9320    -5.7090 
  238.8750    21.0940     3.9830     3.6620     5.3330    14.8530     1.9940    -5.6780 
  239.0000    21.0940     3.9830     3.6620     5.2290    14.1580     2.0360    -5.7020 
  239.1250    21.0940     3.9830     3.6620     5.1110    13.7990     2.0540    -5.6750 
  239.2500    21.0940     3.9830     3.6620     5.0750    13.6200     2.0600    -5.6390 
  239.3750    21.0940     3.9830     3.6620     5.1900    13.6030     2.0620    -5.5620 
  239.5000    21.0940     3.9830     3.6620     5.4120    13.6310     2.0610    -5.5220 
  239.6250    21.0940     3.9830     3.6620     5.6570    13.5930     2.0570    -5.4590 
  239.7500    21.0940     3.9830     3.6620     5.7740    13.5100     2.0510    -5.4050 
  239.8750    21.0940     3.9830     3.6620     5.6880    13.4190     2.0440    -5.4150 
  240.0000    21.0940     3.9830     3.6620     5.5180    13.3190     2.0380    -5.4280 
  240.1250    21.0940     3.9830     3.6620     5.3890    13.2110     2.0370    -5.4790 
  240.2500    21.0940     3.9830     3.6620     5.2990    13.1240     2.0420    -5.4820 
  240.3750    21.0940     3.9830     3.6620     5.2300    13.0160     2.0510    -5.4480 
  240.5000    21.0940     3.9830     3.6620     5.0930    12.9140     2.0620    -5.4440 
  240.6250    21.0940     3.9830     3.6620     4.9740    12.8550     2.0700    -5.5140 
  240.7500    21.0940     3.9830     3.6620     4.9040    12.8370     2.0760    -5.6320 
  240.8750    21.0940     3.9830     3.6620     4.8850    12.8330     2.0800    -5.7230 
  241.0000    21.0940     3.9830     3.6620     4.8800    12.8320     2.0820    -5.8260 
  241.1250    21.0940     3.9830     3.6620     4.8780    12.8300     2.0840    -5.9470 
