~V
VERS. 2.00: Ver 2.00
~W
STRT.M 50.0000:
STOP.M 212.0000:
STEP.M 0.1250:
NULL. -999.2500:
UWI. F10013:
~C
DEPT.M :
GR.API :
RML.OHMM :
RI. :
RXO.OHMM :
CALI.CM :
DEN.GM/CC :
SP.MV :
~A
# ...
  117.5000    60.4890    51.7230    49.8290    48.6370    22.3900     2.2790   -20.8980 
  117.6250    63.0310    45.5700    44.3800    44.0090    22.2960     2.2470   -20.8650 
  117.7500    67.7550    40.3310    39.6730    36.9570    22.2590     2.2310   -20.8470 
  117.8750    70.2350    37.4170    36.8680    30.7400    22.2220     2.2350   -20.8570 
  118.0000    67.5880    37.7540    36.7710    30.8980    22.1610     2.2560   -20.8940 
  118.1250    62.5250    42.3910    40.5070    38.4450    22.1710     2.2940   -20.9420 
  118.2500    59.6890    50.0790    47.3560    50.0610    22.3140     2.3430   -20.9840 
  118.3750    58.8860    58.3260    55.3810    60.5830    22.4500     2.4030   -21.0260 
  118.5000    58.9440    62.7070    60.4990    69.5340    22.5030     2.4710   -21.0670 
  118.6250    62.6250    57.7430    56.9800    79.3060    22.5270     2.5330   -21.1020 
  118.7500    71.0570    46.0080    46.4750    75.6900    22.5850     2.5720   -21.1360 
  118.8750    80.5380    32.5020    33.5950    47.5710    22.6660     2.5750   -21.1610 
  119.0000    87.7690    21.4430    22.4370    21.0860    22.7600     2.5400   -21.1610 
  119.1250    93.6280    14.8540    15.1230    12.1510    22.9260     2.4760   -21.1410 
  119.2500    98.5540    11.3240    10.8440     9.9070    23.1190     2.4070   -21.1050 
  119.3750   100.4570     9.8000     9.3150     9.4610    23.2940     2.3490   -21.0460 
  119.5000    98.9340     9.4230     9.2310     9.4550    23.4320     2.3100   -20.9870 
  119.6250    98.1660     9.5620     9.4770    10.0500    23.5070     2.2860   -20.9640 
  119.7500    98.5960     9.6950     9.5200    10.6230    23.5350     2.2690   -20.9730 
  119.8750    97.4930     9.6780     9.3150    10.2580    23.4820     2.2550   -21.0220 
  120.0000    95.0750     9.5560     9.0540     8.9080    23.3210     2.2470   -21.0870 
  120.1250    93.9700     9.4880     8.9770     8.8500    23.0630     2.2510   -21.1240 
  120.2500    94.6200     9.5740     9.0470     9.6090    22.8820     2.2710   -21.1430 
  120.3750    94.2140     9.8120     9.2340    10.7560    22.8080     2.3070   -21.1800 
  120.5000    91.3580    10.1370     9.4810    11.5230    22.7800     2.3540   -21.2600 
  120.6250    88.6410    10.4470     9.7770    12.6260    22.7860     2.3900   -21.3900 
  120.7500    86.4410    10.6870    10.1610    12.5530    22.8070     2.3970   -21.5270 
  120.8750    83.6500    10.8700    10.5870    11.7620    22.8200     2.3690   -21.6220 
  121.0000    80.5490    11.0370    10.9580    11.5510    22.8150     2.3160   -21.6840 
  121.1250    79.8270    11.2260    11.1740    11.9100    22.7950     2.2590   -21.7190 
  121.2500    80.2970    11.4270    11.2940    12.0510    22.7810     2.2180   -21.7760 
  121.3750    80.7370    11.6030    11.4070    11.9470    22.7930     2.1940   -21.8660 
  121.5000    81.0880    11.7180    11.5180    12.0320    22.8110     2.1850   -21.9420 
  121.6250    81.3880    11.7320    11.5680    12.0810    22.8490     2.1840   -21.9490 
  121.7500    82.9170    11.6550    11.5340    12.1160    22.9260     2.1880   -21.8980 
  121.8750    87.3370    11.4940    11.4180    12.0630    23.0090     2.1950   -21.8280 
  122.0000    92.7740    11.2590    11.2220    11.8040    23.0430     2.2050   -21.7620 
  122.1250    93.0230    10.9690    10.9440    11.5700    23.0240     2.2160   -21.7560 
  122.2500    88.6520    10.6780    10.6130    11.2960    22.9940     2.2270   -21.7660 
  122.3750    85.3760    10.4290    10.2610    10.8500    22.9530     2.2380   -21.7440 
  122.5000    87.1750    10.2590     9.9290    10.4040    22.9190     2.2450   -21.6850 
  122.6250    90.8190    10.1920     9.6720    10.1750    22.8680     2.2470   -21.5990 
  122.7500    90.9250    10.1900     9.5060    10.2310    22.8330     2.2440   -21.5370 
  122.8750    89.7070    10.2140     9.4210    10.3730    22.8230     2.2420   -21.5300 
  123.0000    91.9000    10.2210     9.3780    10.3290    22.8310     2.2450   -21.5530 
  123.1250    95.5330    10.1570     9.3080    10.2500    22.8770     2.2580   -21.5310 
  123.2500    95.3120    10.0050     9.1550    10.0760    22.9740     2.2770   -21.4600 
  123.3750    92.4320     9.7690     8.9040     9.8170    23.0920     2.2970   -21.3930 
  123.5000    89.2990     9.5110     8.5980     9.5700    23.1370     2.3130   -21.3720 
  123.6250    86.0410     9.4220     8.3820     9.6230    23.0660     2.3220   -21.4200 
  123.7500    81.7520     9.7240     8.4270     9.9340    22.9360     2.3270   -21.4860 
  123.8750    77.9160    10.6390     8.9060    10.4550    22.8000     2.3250   -21.5300 
  124.0000    75.5770    12.3410     9.9790    11.7010    22.6800     2.3130   -21.5580 
  124.1250    74.7470    15.0690    11.9130    15.5190    22.6280     2.2870   -21.5690 
  124.2500    74.2670    18.6490    14.6650    22.6500    22.6440     2.2500   -21.5870 
  124.3750    72.7400    22.9860    18.2280    28.5580    22.6600     2.2110   -21.6090 
  124.5000    69.4940    27.9730    22.5330    30.0830    22.6500     2.1780   -21.6210 
  124.6250    64.6200    33.5760    27.5390    33.3290    22.6580     2.1590   -21.6330 
  124.7500    60.2950    39.4630    32.8830    41.9270    22.7070     2.1520   -21.6410 
  124.8750    58.6360    45.1730    38.1240    56.4280    22.8170     2.1520   -21.6350 
  125.0000    60.1310    50.0110    42.6140    68.1140    22.9970     2.1540   -21.6120 
  125.1250    62.7510    52.9160    45.3540    70.4870    23.2670     2.1560   -21.5850 
  125.2500    63.3180    53.8250    46.2490    68.4160    23.4470     2.1580   -21.5550 
  125.3750    61.6930    53.0020    45.5360    62.6940    23.5310     2.1570   -21.5200 
  125.5000    60.5660    51.0140    43.7750    59.5790    23.5650     2.1490   -21.4860 
  125.6250    60.8050    48.4090    41.5650    59.5920    23.5650     2.1360   -21.4410 
  125.7500    60.9130    45.7620    39.4640    60.2420    23.4540     2.1300   -21.3740 
  125.8750    60.7040    43.4360    37.7820    52.4250    23.2500     2.1390   -21.2850 
  126.0000    60.9140    41.7690    36.7560    41.8450    23.1360     2.1650   -21.1830 
  126.1250    61.8890    41.1850    36.6540    39.7810    23.2020     2.1940   -21.0740 
  126.2500    63.6460    41.5620    37.3150    41.5110    23.3070     2.2110   -20.9770 
  126.3750    66.9310    42.6530    38.5430    46.5740    23.4310     2.2120   -20.8890 
  126.5000    69.6760    43.9530    39.9690    51.8590    23.6110     2.2030   -20.7830 
  126.6250    68.7340    44.9880    40.8930    51.5800    23.7280     2.1980   -20.6180 
  126.7500    65.7410    45.2210    40.7210    49.7350    23.7610     2.1960   -20.4240 
  126.8750    63.0900    43.7370    39.1140    49.3090    23.7060     2.1920   -20.2380 
  127.0000    63.5110    40.1710    36.1640    47.1880    23.6310     2.1770   -20.0830 
  127.1250    66.6820    35.3550    32.3360    39.8130    23.6270     2.1510   -19.9940 
  127.2500    70.1000    30.7400    28.5130    30.7390    23.5690     2.1270   -19.9200 
  127.3750    72.1310    26.9130    25.2360    25.3470    23.3750     2.1180   -19.8130 
  127.5000    71.8240    24.2460    22.8510    23.7430    23.1570     2.1370   -19.6830 
  127.6250    70.3600    23.2230    21.7580    23.1320    23.0370     2.1980   -19.5830 
  127.7500    67.6210    23.7060    21.8800    22.7050    23.0100     2.2880   -19.5410 
  127.8750    63.7000    25.5160    23.1640    22.8320    23.0110     2.3900   -19.5350 
  128.0000    58.6820    28.0530    25.2570    24.1140    23.0160     2.4800   -19.5390 
  128.1250    53.8220    30.0570    27.2540    32.7440    23.0480     2.5310   -19.5070 
  128.2500    53.0440    30.4970    28.1440    47.9070    23.1060     2.5390   -19.4570 
  128.3750    56.6040    29.1810    27.5500    58.4880    23.2230     2.5090   -19.4080 
  128.5000    61.1620    26.8040    25.8680    41.0640    23.3670     2.4590   -19.3700 
  128.6250    60.1860    24.6760    24.0730    25.3940    23.4550     2.4190   -19.3510 
