~V
VERS. 2.00: Ver 2.00
~W
STRT.M 50.0000:
STOP.M 265.0000:
STEP.M 0.1250:
NULL. -999.2500:
UWI. F10025:
~C
DEPT.M :
SP.MV :
DEN.GM/CC :
GR.API :
CALI.CM :
RXO.OHMM :
RI. :
RML.OHMM :
~A
# ...
  196.2500    -8.5130     2.3820    57.3390    21.3260     5.5640     5.8090     7.0750 
  196.3750    -8.4160     2.3750    56.9130    21.2630     5.6960     6.2200     7.2430 
  196.5000    -8.3430     2.3630    60.9180    21.3200     5.8720     6.5850     7.3750 
  196.6250    -8.2600     2.3510    67.3040    21.2700     6.0390     6.8810     7.5440 
  196.7500    -8.2110     2.3430    72.0960    20.9190     6.1410     7.0750     7.6990 
  196.8750    -8.1080     2.3360    73.1200    20.1340     6.0930     7.0990     7.7100 
  197.0000    -7.9640     2.3260    72.9760    18.9710     5.9140     6.9610     7.5680 
  197.1250    -7.8210     2.3190    71.8300    17.7860     5.7110     6.7000     7.3460 
  197.2500    -7.6590     2.3200    68.6690    17.0930     5.6850     6.4000     7.1420 
  197.3750    -7.5070     2.3270    61.6890    16.9030     5.8760     6.1650     7.0380 
  197.5000    -7.3600     2.3380    55.2290    17.2260     6.0310     6.0290     7.0220 
  197.6250    -7.2900     2.3500    51.9360    18.1470     6.0610     5.9840     7.0650 
  197.7500    -7.2080     2.3610    51.2450    19.4140     6.0380     5.9900     7.1350 
  197.8750    -7.1580     2.3640    50.9070    20.7370     6.0330     5.9970     7.1930 
  198.0000    -7.1160     2.3640    50.0130    21.7580     5.9620     5.9770     7.2220 
  198.1250    -7.0390     2.3670    48.8760    22.2650     5.8390     5.9400     7.2320 
  198.2500    -7.0130     2.3700    48.4920    22.4800     5.7870     5.9060     7.2420 
  198.3750    -6.9780     2.3640    48.8020    22.6020     5.8600     5.8950     7.2620 
  198.5000    -7.0190     2.3450    48.5240    22.7280     5.9580     5.9030     7.2920 
  198.6250    -7.0490     2.3310    46.0930    22.8200     5.9960     5.9180     7.3370 
  198.7500    -7.0950     2.3320    42.7590    22.8840     5.9890     5.9250     7.4000 
  198.8750    -7.1360     2.3400    41.6280    22.9260     5.9940     5.9060     7.4620 
  199.0000    -7.1770     2.3410    43.3640    23.0030     5.9710     5.8690     7.5110 
  199.1250    -7.3050     2.3360    47.4080    23.1630     5.8920     5.8240     7.5470 
  199.2500    -7.3880     2.3390    51.5550    23.2510     5.8290     5.7880     7.5730 
  199.3750    -7.4750     2.3500    53.3210    23.1300     5.8200     5.7650     7.5860 
  199.5000    -7.5070     2.3560    53.7780    22.9380     5.8260     5.7490     7.5820 
  199.6250    -7.5280     2.3500    53.6800    22.7810     5.8170     5.7310     7.5590 
  199.7500    -7.5740     2.3450    52.9460    22.5920     5.8180     5.7130     7.5280 
  199.8750    -7.6560     2.3540    52.3260    22.4450     5.8680     5.7040     7.5260 
  200.0000    -7.7750     2.3740    52.5340    22.4680     5.9760     5.7220     7.5780 
  200.1250    -7.8760     2.3940    53.1080    22.7080     6.1640     5.7880     7.7090 
  200.2500    -8.0130     2.4060    54.9330    22.9400     6.4280     5.9280     7.9260 
  200.3750    -8.1320     2.4150    59.5040    23.0540     6.7960     6.1650     8.2200 
  200.5000    -8.2940     2.4250    64.5800    23.0160     7.2770     6.4570     8.5180 
  200.6250    -8.4840     2.4350    68.3250    22.9070     7.9480     6.7470     8.7490 
  200.7500    -8.6020     2.4360    72.9350    22.8580     8.7100     6.9780     8.8840 
  200.8750    -8.6780     2.4260    79.3480    22.8720     8.9350     7.1180     8.9730 
  201.0000    -8.7080     2.4120    81.5870    22.9980     8.4980     7.2200     9.1140 
  201.1250    -8.7340     2.4050    78.9210    23.3050     7.9900     7.3310     9.3370 
  201.2500    -8.7240     2.4040    75.7790    23.6110     8.0610     7.4680     9.6010 
  201.3750    -8.6670     2.4010    76.6880    23.7560     8.5760     7.5910     9.8000 
  201.5000    -8.5440     2.3920    78.4790    23.7860     8.8830     7.6310     9.8540 
  201.6250    -8.3410     2.3830    77.4730    23.7860     8.6720     7.5500     9.7440 
  201.7500    -8.1690     2.3830    72.8710    23.7880     8.0750     7.3650     9.5140 
  201.8750    -7.9730     2.3940    66.7370    23.7990     7.5000     7.1410     9.2500 
  202.0000    -7.8420     2.4090    60.8070    23.7950     7.3180     6.9590     9.0490 
  202.1250    -7.6760     2.4110    55.7280    23.6910     7.4990     6.8520     8.9570 
  202.2500    -7.5220     2.4000    53.1370    23.5010     7.6800     6.8150     8.9710 
  202.3750    -7.4370     2.3840    55.0060    23.3790     7.5350     6.8050     9.0330 
  202.5000    -7.3600     2.3720    57.3810    23.4140     7.3490     6.7710     9.0580 
  202.6250    -7.3590     2.3650    58.7530    23.6420     7.3610     6.6980     9.0110 
  202.7500    -7.3670     2.3600    59.5200    23.8930     7.3910     6.5920     8.8880 
  202.8750    -7.4200     2.3570    60.0180    24.0870     7.1840     6.4740     8.7200 
  203.0000    -7.4580     2.3530    58.5850    24.1440     6.7230     6.3670     8.5650 
  203.1250    -7.5100     2.3420    56.3520    24.0960     6.3860     6.2790     8.4450 
  203.2500    -7.5740     2.3300    55.4380    23.9910     6.3410     6.2030     8.3680 
  203.3750    -7.6200     2.3300    54.8140    23.8230     6.5010     6.1380     8.3280 
  203.5000    -7.6650     2.3460    52.4870    23.6890     6.6380     6.0900     8.3020 
  203.6250    -7.6960     2.3650    48.9430    23.6710     6.6750     6.0660     8.2780 
  203.7500    -7.7480     2.3650    46.7670    23.7660     6.6490     6.0730     8.2620 
  203.8750    -7.7490     2.3450    49.8010    23.9410     6.6750     6.1050     8.2760 
  204.0000    -7.7450     2.3170    55.2120    24.1120     6.7660     6.1460     8.3290 
  204.1250    -7.7770     2.3000    60.3230    24.2220     6.9090     6.1880     8.4170 
  204.2500    -7.7750     2.2990    63.5460    24.2640     7.0300     6.2280     8.5050 
  204.3750    -7.7370     2.3080    66.1030    24.2620     7.0690     6.2670     8.5310 
  204.5000    -7.6960     2.3220    68.8710    24.2310     7.0360     6.3020     8.4820 
  204.6250    -7.6870     2.3370    70.6780    24.2140     6.9800     6.3310     8.3950 
  204.7500    -7.6260     2.3480    70.1590    24.2060     6.9820     6.3580     8.3260 
  204.8750    -7.5780     2.3550    65.0560    24.2060     7.1280     6.3900     8.3200 
  205.0000    -7.5680     2.3520    58.2080    24.2070     7.3180     6.4190     8.3480 
  205.1250    -7.5160     2.3390    53.3500    24.2090     7.3710     6.4230     8.3460 
  205.2500    -7.4610     2.3220    51.6440    24.2090     7.1900     6.3780     8.2540 
  205.3750    -7.3970     2.3100    51.1600    24.2030     6.8240     6.2650     8.0560 
  205.5000    -7.3600     2.3060    50.1470    24.1820     6.5200     6.1100     7.8200 
  205.6250    -7.2930     2.3080    48.2730    24.1330     6.3130     5.9440     7.5890 
  205.7500    -7.2570     2.3100    46.1090    24.0750     6.1490     5.7940     7.4010 
  205.8750    -7.2160     2.3090    45.3710    23.9710     5.9680     5.6780     7.3060 
  206.0000    -7.0800     2.3070    47.2470    23.7530     5.7780     5.5930     7.2910 
  206.1250    -6.9670     2.3110    50.1990    23.5070     5.6270     5.5360     7.3210 
  206.2500    -6.8600     2.3190    52.8370    23.3850     5.5800     5.5070     7.3540 
  206.3750    -6.7850     2.3240    54.7430    23.3400     5.6400     5.5180     7.3590 
  206.5000    -6.7440     2.3270    54.7030    23.2860     5.6990     5.5640     7.3340 
  206.6250    -6.6350     2.3270    54.1230    23.2640     5.7040     5.6420     7.3050 
  206.7500    -6.4940     2.3270    55.4990    23.2150     5.7010     5.7450     7.3080 
  206.8750    -6.4000     2.3250    59.8190    23.0250     5.6860     5.8700     7.3410 
  207.0000    -6.3780     2.3230    65.1530    22.6500     5.7190     5.9950     7.3650 
  207.1250    -6.3450     2.3160    72.4020    22.0840     5.8590     6.1070     7.3730 
  207.2500    -6.3020     2.3000    82.0430    21.6590     6.0820     6.1950     7.3850 
  207.3750    -6.3280     2.2730    90.2830    21.4080     6.0800     6.2340     7.4240 
