~V
VERS. 2.00: Ver 2.00
~W
STRT.M 59.0000:
STOP.M 275.0000:
STEP.M 0.1250:
NULL. -999.2500:
UWI. F10021:
~C
DEPT.M :
GR.API :
RML.OHMM :
RI. :
RXO.OHMM :
CALI.CM :
DEN.GM/CC :
SP.MV :
~A
# ...
  115.2500    69.2470     6.0520     5.7120     6.5590    22.3070     2.2820   -10.0670 
  115.3750    67.2590     6.1960     5.6890     6.6480    22.8570     2.3170   -10.0520 
  115.5000    68.9470     6.4350     5.7870     6.8470    23.4610     2.3210   -10.0540 
  115.6250    71.5500     6.5980     5.9020     7.1220    23.9070     2.3020   -10.0980 
  115.7500    70.0400     6.6110     5.9550     7.4350    24.0750     2.2790   -10.1310 
  115.8750    67.5650     6.5180     5.9410     7.5270    23.9490     2.2630   -10.1850 
  116.0000    68.7500     6.4670     5.9320     7.3940    23.6500     2.2580   -10.2350 
  116.1250    73.1250     6.7080     6.0880     7.1440    23.3140     2.2620   -10.3170 
  116.2500    74.4030     7.3190     6.5020     7.3170    23.0730     2.2690   -10.4090 
  116.3750    71.6670     8.2410     7.1850     8.1270    23.0320     2.2690   -10.5050 
  116.5000    67.4480     9.2650     8.0310     9.5590    23.2200     2.2580   -10.5910 
  116.6250    65.8830     9.9990     8.7690    10.9640    23.5810     2.2370   -10.6460 
  116.7500    66.5650    10.1890     9.1310    11.6850    23.9210     2.2180   -10.6880 
  116.8750    67.2280     9.7720     8.9830    11.7660    24.1570     2.2080   -10.7200 
  117.0000    67.9990     8.9100     8.3890    10.9450    24.2590     2.2130   -10.7280 
  117.1250    71.9100     7.9330     7.5840     9.4040    24.2920     2.2320   -10.6880 
  117.2500    74.0760     7.1710     6.8810     7.4570    24.3260     2.2550   -10.6220 
  117.3750    71.9320     6.7480     6.4210     6.7100    24.3550     2.2760   -10.5400 
  117.5000    68.5200     6.6610     6.2340     6.7000    24.3400     2.2920   -10.4530 
  117.6250    68.8890     6.8380     6.2850     6.7240    24.2320     2.2990   -10.3880 
  117.7500    71.8050     7.0760     6.4160     6.7010    24.0320     2.2980   -10.3680 
  117.8750    73.8070     7.2260     6.5080     6.5980    23.7750     2.2900   -10.3570 
  118.0000    73.3890     7.1840     6.4720     6.4780    23.5380     2.2790   -10.3670 
  118.1250    71.9390     6.8910     6.2530     6.3180    23.3800     2.2760   -10.3410 
  118.2500    69.6930     6.4580     5.9250     6.0420    23.2980     2.2860   -10.3180 
  118.3750    68.9630     5.9960     5.5630     5.6830    23.2970     2.3100   -10.2830 
  118.5000    72.1490     5.6230     5.2500     5.4840    23.3880     2.3410   -10.2740 
  118.6250    78.3030     5.4990     5.0960     5.5430    23.5530     2.3670   -10.2620 
  118.7500    82.9770     5.6930     5.1720     5.7600    23.7090     2.3790   -10.2250 
  118.8750    83.7580     6.2570     5.5430     6.2170    23.7930     2.3750   -10.1860 
  119.0000    81.6590     7.1480     6.2130     7.2180    23.7520     2.3680   -10.1490 
  119.1250    76.4260     8.1670     7.0800     9.2200    23.6650     2.3760   -10.1540 
  119.2500    69.9870     8.9550     7.8550    11.5110    23.7680     2.4050   -10.1520 
  119.3750    67.0740     9.2320     8.2750    13.5330    24.0720     2.4450   -10.1630 
  119.5000    68.7570     8.8780     8.1740    14.3010    24.3700     2.4750   -10.1740 
  119.6250    71.6600     7.9860     7.5380    11.2700    24.4960     2.4720   -10.2020 
  119.7500    73.8590     7.0030     6.7280     7.6770    24.5490     2.4450   -10.2100 
  119.8750    77.3020     6.2180     6.0020     6.1750    24.5740     2.4110   -10.2140 
  120.0000    82.1170     5.7480     5.4990     5.8340    24.5790     2.3880   -10.2230 
  120.1250    83.3590     5.5860     5.2600     5.8870    24.5650     2.3810   -10.2340 
  120.2500    80.7990     5.5650     5.1730     5.9980    24.5460     2.3800   -10.2660 
  120.3750    78.0080     5.6030     5.1700     6.0530    24.5340     2.3780   -10.3030 
  120.5000    77.6510     5.6750     5.2170     6.0050    24.5220     2.3720   -10.3200 
  120.6250    79.0130     5.8070     5.3200     5.8450    24.4590     2.3680   -10.3540 
  120.7500    80.1670     5.9900     5.4700     5.7670    24.2790     2.3710   -10.4270 
  120.8750    80.6350     6.1880     5.6410     5.8970    23.9490     2.3840   -10.5210 
  121.0000    79.1770     6.3390     5.7830     6.2330    23.4840     2.4010   -10.6120 
  121.1250    75.6000     6.3710     5.8280     6.5280    23.0440     2.4100   -10.6930 
  121.2500    73.2090     6.3010     5.7790     6.4330    22.9140     2.4040   -10.8150 
  121.3750    72.5990     6.1830     5.6720     6.1730    23.1310     2.3880   -10.9490 
  121.5000    71.1940     6.0970     5.5730     6.0080    23.5060     2.3730   -11.1030 
  121.6250    70.2080     6.1330     5.5660     6.1050    23.8270     2.3680   -11.2480 
  121.7500    72.0010     6.3000     5.6710     6.2750    23.9810     2.3700   -11.4160 
  121.8750    74.8670     6.5770     5.8800     6.5570    23.9780     2.3700   -11.5850 
  122.0000    74.4040     6.9160     6.1630     6.9150    23.8360     2.3610   -11.7500 
  122.1250    71.6410     7.2560     6.4740     7.1660    23.5310     2.3410   -11.9210 
  122.2500    71.8420     7.5360     6.7530     7.2040    23.1140     2.3190   -12.0320 
  122.3750    73.2670     7.7000     6.9490     7.0000    22.6530     2.2990   -12.1120 
  122.5000    72.0080     7.7090     7.0180     6.7540    22.2760     2.2830   -12.1480 
  122.6250    68.1400     7.5330     6.9210     6.6710    22.1450     2.2740   -12.1140 
  122.7500    66.4240     7.2550     6.7180     6.5990    22.1860     2.2730   -12.0230 
  122.8750    69.9900     6.9710     6.4800     6.4380    22.3180     2.2830   -11.9180 
  123.0000    76.8030     6.7840     6.2900     6.3460    22.4820     2.3020   -11.8320 
  123.1250    81.1580     6.7870     6.2300     6.3830    22.6730     2.3230   -11.7600 
  123.2500    79.5500     6.9360     6.2890     6.6560    22.9140     2.3340   -11.6860 
  123.3750    73.7160     7.1610     6.4380     7.1170    23.2210     2.3280   -11.6090 
  123.5000    68.4310     7.3810     6.6270     7.4470    23.5910     2.3110   -11.5080 
  123.6250    66.4800     7.5170     6.7980     7.5970    23.9410     2.2920   -11.3550 
  123.7500    67.6070     7.5500     6.9090     7.8220    24.1200     2.2860   -11.1550 
  123.8750    69.7100     7.4800     6.9350     8.2720    24.1730     2.2970   -10.9180 
  124.0000    69.9940     7.3190     6.8690     9.0380    24.1880     2.3210   -10.6360 
  124.1250    68.1680     7.0730     6.7020     9.2250    24.2060     2.3500   -10.3220 
  124.2500    69.2140     6.7920     6.4760     8.3420    24.2380     2.3670   -10.0190 
  124.3750    73.5070     6.5230     6.2300     6.9690    24.2910     2.3690    -9.7310 
  124.5000    76.9800     6.3140     6.0050     6.3640    24.3410     2.3590    -9.5150 
  124.6250    78.3560     6.2010     5.8370     6.3260    24.3350     2.3480    -9.4390 
  124.7500    80.8910     6.1550     5.7210     6.3090    24.2970     2.3450    -9.4660 
  124.8750    85.6980     6.1340     5.6380     6.2580    24.2530     2.3520    -9.5440 
  125.0000    89.1210     6.0920     5.5600     6.2430    24.2290     2.3610    -9.7020 
  125.1250    86.9150     6.0000     5.4640     6.1510    24.2640     2.3660    -9.9230 
  125.2500    81.1010     5.8890     5.3590     6.1380    24.3020     2.3670   -10.2050 
  125.3750    76.7260     5.8200     5.2840     6.1540    24.3080     2.3660   -10.5560 
  125.5000    78.3730     5.8750     5.2990     6.1930    24.2660     2.3660   -10.9930 
  125.6250    84.0380     6.1860     5.5110     6.3540    24.1530     2.3650   -11.5180 
  125.7500    86.8270     6.7560     5.9400     6.8520    23.9450     2.3630   -12.1130 
  125.8750    83.7610     7.5350     6.5640     7.6620    23.6260     2.3600   -12.7990 
  126.0000    76.4190     8.3900     7.2980     8.7760    23.2220     2.3550   -13.5530 
  126.1250    68.6290     9.0930     7.9720     9.6640    22.8700     2.3440   -14.3860 
  126.2500    62.9790     9.5000     8.4360     9.8170    22.7350     2.3230   -15.2110 
  126.3750    59.2660     9.5840     8.6280     9.4040    22.8430     2.2940   -16.0090 
