~V
VERS. 2.00: Ver 2.00
~W
STRT.M 50.0000:
STOP.M 255.0000:
STEP.M 0.1250:
NULL. -999.2500:
UWI. F10005:
~C
DEPT.M :
SP.MV :
GR.API :
RML.OHMM :
RI. :
RXO.OHMM :
CALI.CM :
DEN.GM/CC :
~A
# ...
  151.2500    -3.4710    55.2660    32.6730    31.8890    32.1760    24.0550     2.0800 
  151.3750    -3.3510    54.1880    34.1660    33.5590    36.0760    23.8960     2.0710 
  151.5000    -3.2350    53.0050    34.2440    34.0260    38.8840    23.6890     2.0780 
  151.6250    -3.1980    52.0960    32.3160    32.5920    39.3690    23.4360     2.0970 
  151.7500    -3.2370    53.5730    29.1390    29.8360    35.4770    23.1820     2.1190 
  151.8750    -3.4090    56.8080    25.6880    26.6330    30.5510    22.9600     2.1400 
  152.0000    -3.6300    59.3770    23.0350    23.9830    27.3830    22.8030     2.1590 
  152.1250    -3.8950    60.2390    22.3510    22.9080    26.3100    22.7290     2.1730 
  152.2500    -4.1880    59.8280    23.8300    23.6260    27.5300    22.7380     2.1820 
  152.3750    -4.4930    57.8080    27.5710    26.3990    31.0610    22.8330     2.1840 
  152.5000    -4.8550    56.1930    33.1570    31.1870    34.1030    23.0000     2.1790 
  152.6250    -5.2160    57.7140    38.7490    36.7180    44.7190    23.2140     2.1700 
  152.7500    -5.5940    58.3900    41.1310    39.7220    51.6330    23.4420     2.1620 
  152.8750    -5.8850    55.8640    38.3270    37.7920    55.2610    23.6720     2.1560 
  153.0000    -6.1740    53.4770    31.4450    31.5940    69.5980    23.8680     2.1520 
  153.1250    -6.4840    56.6410    24.0700    24.5420    42.4090    23.9870     2.1500 
  153.2500    -6.8270    62.4560    18.8600    19.3600    20.6030    24.0270     2.1600 
  153.3750    -7.1380    66.3370    16.4320    16.5810    11.5800    24.0270     2.1940 
  153.5000    -7.3770    67.0270    16.7520    16.0910    10.4430    24.0210     2.2580 
  153.6250    -7.5250    64.2790    20.2150    18.3090    16.1100    24.0230     2.3450 
  153.7500    -7.6050    58.7320    26.2010    23.0840    30.6100    24.0420     2.4240 
  153.8750    -7.6920    52.1470    33.7800    30.0260    50.5970    24.0840     2.4770 
  154.0000    -7.7280    48.0810    40.7390    37.2550    55.6980    24.1520     2.4950 
  154.1250    -7.6880    47.8100    43.5280    41.1480    45.0220    24.2490     2.4800 
  154.2500    -7.6290    47.5780    42.2590    41.1250    35.7710    24.3790     2.4590 
  154.3750    -7.5740    46.3500    38.9130    38.6580    29.8350    24.5130     2.4510 
  154.5000    -7.5190    44.8240    35.4760    35.5070    29.6090    24.5980     2.4720 
  154.6250    -7.4770    42.9960    32.8620    32.6570    31.7160    24.5730     2.5240 
  154.7500    -7.4120    42.0050    30.6710    30.0960    33.0520    24.4490     2.5790 
  154.8750    -7.3150    43.1310    28.5420    27.6870    28.5620    24.2350     2.6140 
  155.0000    -7.2280    46.1220    26.3920    25.4460    21.7360    23.9720     2.6170 
  155.1250    -7.1380    47.5390    24.4130    23.5350    21.3680    23.7570     2.5970 
  155.2500    -7.0770    46.4260    22.8650    22.0560    20.5820    23.6500     2.5760 
  155.3750    -7.0330    45.7060    22.0360    21.1940    21.0660    23.6560     2.5580 
  155.5000    -7.0520    47.6490    22.1030    21.0960    23.4600    23.7230     2.5370 
  155.6250    -7.0900    51.2060    23.1320    21.8690    22.4430    23.7510     2.5070 
  155.7500    -7.1730    53.5450    24.6600    23.1590    20.4210    23.7350     2.4800 
  155.8750    -7.2940    52.9450    26.2080    24.5910    26.0790    23.7260     2.4700 
  156.0000    -7.3880    49.7690    27.1650    25.6390    33.9210    23.7690     2.4860 
  156.1250    -7.4740    47.0190    26.8680    25.6520    32.8520    23.8750     2.5180 
  156.2500    -7.4950    46.6970    25.6570    24.8040    22.9060    24.0000     2.5450 
  156.3750    -7.5150    46.4400    24.1610    23.5650    18.9380    24.0790     2.5580 
  156.5000    -7.5190    43.2650    23.0170    22.4500    17.8090    24.0590     2.5570 
  156.6250    -7.5450    40.0040    22.7340    21.9140    19.4710    23.9770     2.5510 
  156.7500    -7.5470    39.7430    23.1740    21.9610    22.7580    23.9520     2.5490 
  156.8750    -7.5190    41.3610    24.0260    22.4150    23.6510    24.0190     2.5540 
  157.0000    -7.5580    42.5950    24.8690    22.9470    22.4260    24.1330     2.5660 
  157.1250    -7.6360    43.5850    25.1960    23.1230    21.5260    24.1980     2.5850 
  157.2500    -7.7640    44.6060    24.8120    22.7540    21.0110    24.1950     2.6050 
  157.3750    -7.9120    44.9560    23.7420    21.8550    22.1770    24.1670     2.6140 
  157.5000    -8.0630    45.3040    22.2910    20.6570    22.9000    24.1520     2.6060 
  157.6250    -8.1510    47.2080    21.0630    19.6080    19.5280    24.1850     2.5810 
  157.7500    -8.2530    50.0210    20.5560    19.0870    15.9060    24.2470     2.5640 
  157.8750    -8.3910    51.1350    21.0180    19.2980    16.5660    24.3050     2.5690 
  158.0000    -8.5300    49.2640    22.4510    20.2850    19.8950    24.3230     2.5960 
  158.1250    -8.6730    46.2600    24.6920    22.0300    22.4270    24.3100     2.6260 
  158.2500    -8.7910    44.9470    27.1550    24.1420    24.1180    24.2940     2.6320 
  158.3750    -8.9090    44.7010    29.3760    26.2560    28.0870    24.2850     2.6130 
  158.5000    -8.9750    44.4130    30.9800    27.9890    31.0970    24.2800     2.5850 
  158.6250    -9.0930    44.5680    31.7840    29.0310    35.4030    24.2730     2.5740 
  158.7500    -9.1870    45.3530    32.1850    29.5970    39.4350    24.2600     2.5890 
  158.8750    -9.3290    45.7240    32.4900    29.9370    42.1780    24.2380     2.6210 
  159.0000    -9.4860    44.4800    32.8610    30.2680    40.1730    24.2080     2.6550 
  159.1250    -9.6530    42.7840    33.2800    30.6670    32.1170    24.1580     2.6720 
  159.2500    -9.8840    41.4180    33.5560    30.9830    32.6000    24.0800     2.6720 
  159.3750   -10.1600    40.1920    33.4660    30.9940    38.6600    23.9770     2.6630 
  159.5000   -10.5350    38.9270    32.8620    30.5340    40.1760    23.8620     2.6550 
  159.6250   -10.9360    38.8110    31.6710    29.5000    32.7300    23.7640     2.6560 
  159.7500   -11.3260    39.6170    30.2010    28.1520    27.7720    23.7120     2.6630 
  159.8750   -11.6500    40.8920    28.8310    26.8240    28.0580    23.7070     2.6700 
  160.0000   -11.9140    43.0320    27.9960    25.9060    29.3530    23.7230     2.6730 
  160.1250   -12.1020    45.7540    28.1820    25.8540    26.1690    23.7350     2.6700 
  160.2500   -12.2050    46.7460    29.2420    26.6260    22.8740    23.7300     2.6660 
  160.3750   -12.2380    44.7240    30.7950    27.9790    24.5760    23.7050     2.6610 
  160.5000   -12.1720    41.0130    32.1870    29.3810    30.6150    23.6670     2.6560 
  160.6250   -12.0940    40.2380    32.4990    29.9970    32.5560    23.6430     2.6480 
  160.7500   -12.0480    42.2520    31.6130    29.5670    29.9580    23.6480     2.6380 
  160.8750   -12.0070    44.5770    29.9340    28.3250    26.0780    23.6700     2.6260 
  161.0000   -11.9190    45.6050    28.2410    26.8860    24.0330    23.6810     2.6140 
  161.1250   -11.7990    46.8250    27.4820    26.0500    24.6490    23.6750     2.6090 
  161.2500   -11.6420    49.0920    27.8410    26.1080    28.4780    23.6490     2.6130 
  161.3750   -11.4400    50.7210    29.1120    27.0130    28.9260    23.5830     2.6250 
  161.5000   -11.1610    50.3820    30.7740    28.4300    26.9820    23.4680     2.6360 
  161.6250   -10.7780    48.1990    32.1070    29.7730    29.5260    23.3090     2.6390 
  161.7500   -10.3430    46.0000    32.8210    30.6380    31.4150    23.1720     2.6300 
  161.8750    -9.8830    45.3890    33.0640    31.0350    31.6020    23.1340     2.6170 
  162.0000    -9.5020    45.9120    33.1680    31.1970    27.4490    23.2410     2.6080 
  162.1250    -9.1550    46.5350    33.3490    31.3170    25.8570    23.4090     2.6120 
  162.2500    -8.9170    45.9830    33.5010    31.3640    28.4610    23.4880     2.6250 
  162.3750    -8.7870    44.8730    33.4480    31.2080    32.5370    23.4710     2.6390 
