~V
VERS. 2.00: Ver 2.00
~W
STRT.M 50.0000:
STOP.M 274.0000:
STEP.M 0.1250:
NULL. -999.2500:
UWI. F10029:
~C
DEPT.M :
DEN.GM/CC :
SP.MV :
GR.API :
CALI.CM :
RXO.OHMM :
RI. :
RML.OHMM :
~A
# ...
  230.0000     2.1630   -20.2760    72.2570    22.7970    67.8070    76.9430    89.7490 
  230.1250     2.1730   -20.4060    74.8340    22.8150    60.1640    64.8800    75.7920 
  230.2500     2.1830   -20.5450    80.2000    22.8480    54.8350    54.9680    64.3250 
  230.3750     2.1950   -20.7110    85.6360    22.8600    49.6220    47.1730    55.3070 
  230.5000     2.2060   -20.8800    89.6350    22.8230    42.5590    41.6560    48.9250 
  230.6250     2.2130   -21.0560    93.3120    22.7650    35.0310    39.3120    46.2130 
  230.7500     2.2160   -21.3040    96.6370    22.7260    31.1670    40.3790    47.4470 
  230.8750     2.2130   -21.5570    97.2110    22.7750    36.9270    45.9620    53.9070 
  231.0000     2.2010   -21.8140    92.7470    22.9010    60.2760    57.6470    67.4250 
  231.1250     2.1800   -22.0620    86.1810    23.1010   107.7070    78.0350    91.0120 
  231.2500     2.1620   -22.2800    79.4820    23.2660   151.6630   104.2810   121.3760 
  231.3750     2.1530   -22.4620    73.8240    23.3400   174.1500   130.0130   151.1450 
  231.5000     2.1530   -22.6490    71.1330    23.3520   179.0390   146.2590   169.9400 
  231.6250     2.1550   -22.8350    70.9030    23.3330   169.3740   146.4770   170.1920 
  231.7500     2.1550   -22.9660    70.7590    23.2830   147.1230   137.9450   160.3210 
  231.8750     2.1540   -23.0790    69.4190    23.2180   118.2430   126.6780   147.2870 
  232.0000     2.1490   -23.1130    68.2800    23.0610    97.4740   115.3810   134.2170 
  232.1250     2.1480   -23.1370    69.3140    22.7450    94.8380   104.1660   121.2420 
  232.2500     2.1540   -23.1950    72.3120    22.5170    98.7790    92.8520   108.1530 
  232.3750     2.1650   -23.2120    75.7820    22.5850    95.6230    81.9150    95.5010 
  232.5000     2.1790   -23.1920    78.0960    22.8950    81.4280    72.2510    84.3210 
  232.6250     2.1900   -23.1970    79.0070    23.0650    64.8900    65.0960    76.0430 
  232.7500     2.1930   -23.1800    79.1220    23.1030    56.4750    60.2860    70.4780 
  232.8750     2.1850   -23.1820    78.9510    23.0750    53.1600    57.3860    67.1230 
  233.0000     2.1730   -23.2780    80.1910    23.0070    49.4990    55.6450    65.1090 
  233.1250     2.1690   -23.3420    83.2250    22.9390    44.9440    53.9720    63.1730 
  233.2500     2.1700   -23.4000    84.9250    22.9290    43.3530    51.3430    60.1320 
  233.3750     2.1720   -23.5760    83.9520    22.9750    42.3350    47.5660    55.7620 
  233.5000     2.1860   -23.7780    81.4800    23.0350    39.2660    43.3340    50.8660 
  233.6250     2.2360   -24.0160    81.2120    23.1340    34.3250    40.1280    47.1570 
  233.7500     2.3070   -24.3630    84.3850    23.2400    30.5960    39.0650    45.9280 
  233.8750     2.3690   -24.6840    88.2140    23.2610    30.6310    41.3120    48.5270 
  234.0000     2.4120   -24.9430    88.1550    23.0790    39.0470    48.6400    57.0050 
  234.1250     2.4600   -25.2400    83.1020    22.8740    73.2920    65.6760    76.7140 
  234.2500     2.5280   -25.4860    77.6430    22.8640   156.8210    94.4180   109.9650 
  234.3750     2.5860   -25.6400    73.1370    22.9970   293.1200   134.5480   156.3910 
  234.5000     2.5870   -25.8030    67.6080    23.0870   406.4790   177.8400   206.4760 
  234.6250     2.5000   -25.8470    60.5860    23.1000   393.6630   203.9570   236.6910 
  234.7500     2.3760   -25.7390    58.3820    23.1000   294.9190   206.3720   239.4850 
  234.8750     2.2650   -25.5940    62.2590    23.1020   217.0360   193.9260   225.0860 
  235.0000     2.1880   -25.4190    66.8580    23.1230   193.2170   179.8720   208.8260 
  235.1250     2.1490   -25.1980    67.4780    23.1790   200.3920   173.6530   201.6320 
  235.2500     2.1330   -24.9730    67.1840    23.2340   213.9010   175.5310   203.8040 
  235.3750     2.1330   -24.6900    69.2370    23.2510   226.9450   183.9350   213.5270 
  235.5000     2.1400   -24.2960    70.4010    23.2810   233.0310   196.3000   227.8320 
  235.6250     2.1400   -23.9070    67.1190    23.2620   237.0620   209.1600   242.7100 
  235.7500     2.1340   -23.5490    62.9620    23.1900   239.5280   219.0260   254.1240 
  235.8750     2.1310   -23.2140    60.7920    23.1520   243.2430   223.5880   259.4020 
  236.0000     2.1360   -22.9060    63.7040    23.1100   245.7090   221.7180   257.2390 
  236.1250     2.1440   -22.5620    68.3990    23.0270   245.0670   213.5130   247.7460 
  236.2500     2.1450   -22.1860    70.1430    22.9990   236.6070   202.9590   235.5360 
  236.3750     2.1410   -21.8320    69.3090    22.9750   219.5440   193.1840   224.2270 
  236.5000     2.1520   -21.5510    68.7230    22.9880   198.9270   186.1760   216.1200 
  236.6250     2.2100   -21.3410    69.0350    23.0020   188.9400   182.1840   211.5020 
  236.7500     2.3130   -21.1610    67.0350    23.0160   208.6250   178.2310   206.9280 
  236.8750     2.4330   -20.9170    63.5660    23.0690   247.3340   171.0220   198.5880 
  237.0000     2.5330   -20.6850    60.6530    23.0360   265.4620   158.2150   183.7710 
  237.1250     2.5660   -20.5310    59.8720    22.8860   232.4110   139.3500   162.4670 
  237.2500     2.5300   -20.4140    62.1780    22.7620   188.4590   118.4450   138.2820 
  237.3750     2.4510   -20.3280    66.1640    22.7540   148.6290    98.8980   115.6690 
  237.5000     2.3670   -20.2220    70.1860    22.8300   113.3040    83.1950    97.5020 
  237.6250     2.3240   -19.9960    74.6240    22.9030    85.4070    73.2470    85.9920 
  237.7500     2.3310   -19.7340    79.4610    22.9810    71.7500    68.0520    79.9820 
  237.8750     2.3810   -19.5030    81.3430    23.0260    69.1480    67.0880    78.8670 
  238.0000     2.4500   -19.2520    79.6330    23.0230    75.6600    69.6740    81.8590 
  238.1250     2.5060   -18.9980    78.2600    22.9210    84.4030    73.7010    86.5170 
  238.2500     2.5380   -18.7640    79.3460    22.8240    93.7650    73.5730    86.3700 
  238.3750     2.5540   -18.4920    81.6170    22.7590    96.4000    64.2060    75.5330 
  238.5000     2.5550   -18.2270    82.0750    22.7350    81.6490    46.8720    55.4790 
  238.6250     2.5190   -18.0030    76.6090    22.6340    51.7360    29.9330    35.8830 
  238.7500     2.4430   -17.7820    65.1400    22.3710    24.4880    18.1600    21.4790 
  238.8750     2.3510   -17.5920    52.9340    21.8580    10.6720    11.1340    12.8590 
  239.0000     2.2730   -17.3790    47.3670    21.3580     5.7750     7.2610     8.7100 
  239.1250     2.2300   -17.1320    48.9840    21.2340     4.4410     5.3890     6.7050 
  239.2500     2.2130   -16.9240    48.6420    21.5550     3.9760     4.4510     5.6990 
  239.3750     2.2090   -16.7670    42.8880    21.9860     3.8710     4.0980     5.3220 
  239.5000     2.2100   -16.6290    35.0040    22.3840     3.9530     4.0940     5.3180 
  239.6250     2.2200   -16.5290    31.2870    22.6060     4.0540     4.2710     5.5070 
  239.7500     2.2420   -16.4640    30.4590    22.7240     4.0180     4.4790     5.7300 
  239.8750     2.2690   -16.4490    30.5840    22.7900     3.9580     4.6660     5.9300 
  240.0000     2.2880   -16.5070    31.2680    22.8360     4.0730     4.8030     6.0770 
  240.1250     2.2980   -16.5230    33.3770    22.8720     4.3340     4.8650     6.1440 
  240.2500     2.3040   -16.4940    35.1160    22.8600     4.4890     4.8630     6.1410 
  240.3750     2.3070   -16.4930    34.9120    22.7810     4.4360     4.8050     6.0790 
  240.5000     2.3080   -16.4760    34.9170    22.7360     4.2760     4.7060     5.9730 
  240.6250     2.3120   -16.4990    38.2970    22.7350     4.1950     4.5820     5.8410 
  240.7500     2.3230   -16.5770    41.6800    22.7430     4.1980     4.4630     5.7130 
  240.8750     2.3360   -16.6090    41.5750    22.7210     4.1790     4.3670     5.6100 
  241.0000     2.3420   -16.6230    39.6540    22.7290     4.0640     4.3090     5.5480 
  241.1250     2.3340   -16.7090    40.3620    22.8800     4.0330     4.3090     5.5480 
