~V
VERS. 2.00: Ver 2.00
~W
STRT.M 50.0000:
STOP.M 300.0000:
STEP.M 0.1250:
NULL. -999.2500:
UWI. F10041:
~C
DEPT.M :
DEN.GM/CC :
GR.API :
RML.OHMM :
RI. :
RXO.OHMM :
CALI.CM :
SP.MV :
~A
# ...
  162.5000     2.1210    56.9810     9.0040     8.5610     9.0550    26.2890   -14.9040 
  162.6250     2.1390    58.9630     9.0820     8.6370     9.0860    26.0070   -15.0040 
  162.7500     2.1550    58.8740     9.1870     8.7370     9.1930    25.7460   -15.0040 
  162.8750     2.1640    58.7950     9.3060     8.8520     9.2120    25.7780   -14.8580 
  163.0000     2.1600    58.7980     9.4100     8.9520     9.2120    25.7930   -14.6020 
  163.1250     2.1410    59.6360     9.4380     8.9790     9.3760    25.5780   -14.3140 
  163.2500     2.1190    60.9920     9.3640     8.9080     9.4640    25.3460   -14.0360 
  163.3750     2.1040    62.1840     9.1880     8.7380     9.1460    25.0840   -13.7720 
  163.5000     2.1040    63.5760     8.9410     8.5010     8.6340    24.6800   -13.4390 
  163.6250     2.1190    64.6290     8.6770     8.2470     8.2470    24.2470   -13.0980 
  163.7500     2.1370    64.4180     8.4540     8.0330     8.7030    23.9500   -12.7100 
  163.8750     2.1510    62.3630     8.3130     7.8970     9.5080    23.8110   -12.3920 
  164.0000     2.1580    60.8200     8.2780     7.8630     9.8990    23.7510   -12.1690 
  164.1250     2.1610    62.3440     8.3740     7.9550     9.5780    23.7280   -12.0150 
  164.2500     2.1660    65.6350     8.5660     8.1400     9.3610    23.6970   -11.8730 
  164.3750     2.1740    69.1060     8.8390     8.4030     9.8650    23.7120   -11.7790 
  164.5000     2.1850    70.8310     9.1880     8.7390    10.5770    23.7490   -11.7600 
  164.6250     2.2010    70.5380     9.5990     9.1340    10.7370    23.7510   -11.7590 
  164.7500     2.2210    68.6440     9.9790     9.4990    10.5640    23.7310   -11.7730 
  164.8750     2.2410    66.0250    10.1940     9.7060    10.7410    23.7720   -11.7780 
  165.0000     2.2590    65.9210    10.1080     9.6230    10.6480    23.9030   -11.6410 
  165.1250     2.2700    70.6040     9.6070     9.1410     9.6840    23.8950   -11.3330 
  165.2500     2.2770    77.0530     8.8400     8.4040     8.2150    23.7890   -10.8740 
  165.3750     2.2840    81.4590     7.9750     7.5720     7.0030    23.6890   -10.2780 
  165.5000     2.2920    82.6530     7.1910     6.8180     6.7370    23.6400    -9.6350 
  165.6250     2.3000    83.0410     6.6780     6.3250     6.9100    23.7540    -9.0600 
  165.7500     2.3000    83.8860     6.4680     6.1230     7.1070    23.9800    -8.4880 
  165.8750     2.2860    82.6420     6.5390     6.1910     6.8290    24.2240    -7.9210 
  166.0000     2.2630    77.9700     6.7910     6.4340     6.7370    24.2880    -7.4540 
  166.1250     2.2400    74.8850     7.0420     6.6750     7.1850    24.1600    -7.1360 
  166.2500     2.2340    77.0140     7.1320     6.7620     7.3750    24.0790    -6.9920 
  166.3750     2.2510    80.2710     7.0240     6.6570     6.9980    24.1630    -6.9230 
  166.5000     2.2900    81.4880     6.7850     6.4280     6.1940    24.3920    -6.8440 
  166.6250     2.3380    82.8080     6.5560     6.2070     5.7640    24.5700    -6.5520 
  166.7500     2.3760    84.4100     6.4330     6.0900     6.3750    24.5540    -6.2340 
  166.8750     2.3920    84.0430     6.4260     6.0820     8.0490    24.4030    -5.9070 
  167.0000     2.3860    83.2210     6.4830     6.1370     9.1530    24.1880    -5.6060 
  167.1250     2.3640    85.1630     6.5170     6.1700     8.2540    23.9270    -5.3010 
  167.2500     2.3410    89.0960     6.4690     6.1240     6.8450    23.6980    -4.9460 
  167.3750     2.3280    93.5270     6.3300     5.9900     6.0630    23.5430    -4.6000 
  167.5000     2.3260    96.5870     6.1330     5.8010     5.6670    23.4880    -4.3480 
  167.6250     2.3340    95.2380     5.9410     5.6160     5.4730    23.4780    -4.2930 
  167.7500     2.3450    91.8420     5.8010     5.4820     5.4400    23.4150    -4.3230 
  167.8750     2.3530    90.4760     5.7290     5.4120     5.5010    23.3180    -4.3910 
  168.0000     2.3580    91.6690     5.7100     5.3940     5.4360    23.2240    -4.4240 
  168.1250     2.3580    91.1870     5.7240     5.4080     5.4770    23.1720    -4.4140 
  168.2500     2.3570    91.0380     5.7520     5.4350     5.6740    23.1780    -4.4430 
  168.3750     2.3560    92.2660     5.8020     5.4820     6.2050    23.2280    -4.4850 
  168.5000     2.3520    92.8230     5.8910     5.5680     6.5540    23.2710    -4.5120 
  168.6250     2.3390    88.9880     6.0540     5.7250     6.5900    23.2720    -4.5290 
  168.7500     2.3150    84.7060     6.2850     5.9470     6.7450    23.2880    -4.5560 
  168.8750     2.2860    82.7980     6.5640     6.2160     7.2720    23.2690    -4.5920 
  169.0000     2.2680    80.9940     6.8760     6.5150     8.2270    23.1950    -4.6630 
  169.1250     2.2860    77.0200     7.2650     6.8880     8.9320    23.1280    -4.7550 
  169.2500     2.3440    73.6720     7.8530     7.4590     8.9870    23.1930    -4.7660 
  169.3750     2.4340    72.0280     8.8690     8.4530    10.3860    23.4730    -4.7630 
  169.5000     2.5260    69.9850    10.7690    10.1840    17.4160    23.8570    -4.6750 
  169.6250     2.5740    66.5160    14.2250    13.1350    36.3290    24.1590    -4.5620 
  169.7500     2.5570    62.8060    18.6420    17.0000    48.9220    24.2190    -4.4050 
  169.8750     2.4780    59.5280    22.7170    20.9470    44.6210    24.1280    -4.2190 
  170.0000     2.3630    57.5850    24.9470    23.7060    32.5440    24.0350    -4.0030 
  170.1250     2.2520    56.9810    24.3090    24.0080    22.3360    24.0740    -3.7290 
  170.2500     2.1720    56.8470    22.0830    22.6020    17.5170    24.3080    -3.5220 
  170.3750     2.1260    57.1640    19.6310    20.6350    16.5190    24.5150    -3.3050 
  170.5000     2.1040    58.7110    17.9500    19.1040    17.2430    24.4980    -3.1540 
  170.6250     2.0960    59.3970    17.4870    18.5900    17.3090    24.2170    -2.9900 
  170.7500     2.0950    57.5760    17.7980    18.8480    17.2540    24.0310    -2.8460 
  170.8750     2.1020    56.0410    18.5110    19.5980    18.2670    24.1770    -2.7010 
  171.0000     2.1160    58.2860    19.2720    20.5160    19.7880    24.4730    -2.5760 
  171.1250     2.1330    62.7360    19.7710    21.2560    20.1770    24.5580    -2.4780 
  171.2500     2.1480    65.1960    19.9740    21.6650    19.4130    24.3610    -2.3770 
  171.3750     2.1560    64.6670    19.9520    21.7280    18.4200    24.0180    -2.3380 
  171.5000     2.1560    62.5550    19.7850    21.5310    17.7970    23.8000    -2.3490 
  171.6250     2.1490    60.8180    19.4810    21.1870    18.4500    23.7740    -2.4170 
  171.7500     2.1380    59.2550    19.0740    20.8270    18.6270    23.8620    -2.5250 
  171.8750     2.1300    57.6500    18.6260    20.4920    18.5610    23.8630    -2.6150 
  172.0000     2.1270    57.5900    18.2340    20.1860    18.0430    23.7280    -2.7260 
  172.1250     2.1340    59.6200    18.0240    19.8990    17.2370    23.5660    -2.8900 
  172.2500     2.1480    60.3120    17.9950    19.6320    16.6820    23.4450    -3.0750 
  172.3750     2.1630    58.2900    18.0970    19.3990    16.3540    23.4190    -3.2040 
  172.5000     2.1760    56.8000    18.2440    19.2270    15.7770    23.4640    -3.3110 
  172.6250     2.1800    58.9820    18.3710    19.1800    15.9900    23.5320    -3.3860 
  172.7500     2.1770    62.0140    18.4800    19.2910    15.9510    23.4940    -3.3770 
  172.8750     2.1670    64.1900    18.6100    19.5860    15.6770    23.3950    -3.4150 
  173.0000     2.1550    65.4980    18.8100    20.0450    15.6160    23.2780    -3.3860 
  173.1250     2.1410    64.2530    19.1110    20.5880    16.5200    23.1590    -3.3170 
  173.2500     2.1280    61.3080    19.4360    21.0630    17.5170    23.0440    -3.1260 
  173.3750     2.1190    59.7080    19.6810    21.3600    18.0780    22.9560    -2.9240 
  173.5000     2.1150    60.5830    19.7710    21.4240    18.5830    22.9730    -2.7080 
  173.6250     2.1200    60.6880    19.6930    21.2650    18.6460    23.2550    -2.4780 
