~V
VERS. 2.00: Ver 2.00
~W
STRT.M 57.0000:
STOP.M 296.0000:
STEP.M 0.1250:
NULL. -999.2500:
UWI. F10043:
~C
DEPT.M :
GR.API :
RML.OHMM :
RI. :
RXO.OHMM :
CALI.CM :
DEN.GM/CC :
SP.MV :
~A
# ...
  135.7500    80.0210     7.9010     7.1020    10.3260    23.5660     2.4030   -14.6940 
  135.8750    79.1700     7.9850     7.2900    10.6420    23.5950     2.4330   -14.6380 
  136.0000    82.8740     7.6960     7.1010     8.4910    23.5960     2.4610   -14.6060 
  136.1250    88.2940     7.2190     6.7170     6.7930    23.5800     2.4710   -14.6260 
  136.2500    92.0500     6.8360     6.4140     6.2490    23.5520     2.4580   -14.6450 
  136.3750    92.1690     6.6590     6.2700     6.3020    23.4940     2.4290   -14.6380 
  136.5000    90.1700     6.6820     6.2480     6.7960    23.4540     2.3980   -14.6000 
  136.6250    89.3190     6.7920     6.2590     7.3580    23.4560     2.3770   -14.5390 
  136.7500    91.0200     6.8300     6.2400     7.6350    23.4990     2.3710   -14.5110 
  136.8750    92.4620     6.7490     6.1870     7.1070    23.5550     2.3760   -14.4970 
  137.0000    91.9890     6.5950     6.1020     6.3940    23.5870     2.3860   -14.4960 
  137.1250    92.3420     6.4530     5.9890     6.0270    23.5980     2.3920   -14.4610 
  137.2500    94.6250     6.3680     5.8850     6.0630    23.6080     2.3910   -14.4530 
  137.3750    95.7840     6.3250     5.8300     6.4710    23.6230     2.3830   -14.4780 
  137.5000    93.4500     6.2890     5.8300     6.8450    23.6410     2.3720   -14.5570 
  137.6250    90.2160     6.2340     5.8320     6.4760    23.6660     2.3590   -14.6650 
  137.7500    90.1960     6.1810     5.7920     6.2260    23.6930     2.3460   -14.7740 
  137.8750    91.6140     6.1790     5.7440     6.2900    23.7150     2.3340   -14.8540 
  138.0000    92.9600     6.2690     5.7710     6.3400    23.7310     2.3240   -14.9470 
  138.1250    92.7260     6.4720     5.9480     6.3130    23.7260     2.3200   -15.0830 
  138.2500    89.2970     6.7250     6.1920     6.4220    23.6940     2.3180   -15.2310 
  138.3750    83.5830     6.9500     6.3860     6.7040    23.6650     2.3130   -15.3560 
  138.5000    78.6390     7.0600     6.4480     6.7710    23.6430     2.3040   -15.4600 
  138.6250    80.2640     6.9520     6.3600     6.6700    23.6580     2.2940   -15.5040 
  138.7500    85.3500     6.6720     6.1940     6.3760    23.7390     2.2870   -15.5090 
  138.8750    90.2100     6.3200     5.9870     6.1860    23.8970     2.2850   -15.5000 
  139.0000    94.1280     6.0380     5.7750     6.1010    24.0680     2.2850   -15.4540 
  139.1250    95.0310     5.9890     5.6610     5.9690    24.2670     2.2870   -15.3640 
  139.2500    94.4320     6.1800     5.7380     5.9400    24.4420     2.2930   -15.2310 
  139.3750    94.7280     6.5570     6.0370     6.2850    24.5310     2.3040   -15.1260 
  139.5000    95.5320     6.9920     6.4760     7.0080    24.5110     2.3180   -15.0390 
  139.6250    94.3110     7.2800     6.8410     7.7360    24.4350     2.3280   -14.9900 
  139.7500    92.0940     7.3060     6.9670     7.5530    24.4550     2.3290   -14.9540 
  139.8750    90.9550     7.0570     6.8260     6.8470    24.5310     2.3220   -14.8990 
  140.0000    90.6130     6.6170     6.4880     6.0350    24.5870     2.3140   -14.8620 
  140.1250    91.2580     6.1160     6.0310     5.8920    24.6250     2.3120   -14.8130 
  140.2500    94.3340     5.6710     5.5420     5.7610    24.6610     2.3170   -14.7860 
  140.3750    98.8970     5.3390     5.0970     5.4910    24.6700     2.3260   -14.7490 
  140.5000   101.0800     5.1560     4.7980     5.1760    24.6390     2.3350   -14.7090 
  140.6250   100.2150     5.1790     4.7620     4.8870    24.5140     2.3460   -14.6970 
  140.7500    96.7260     5.4020     4.9390     5.1550    24.3580     2.3600   -14.7120 
  140.8750    91.4570     5.8380     5.2730     6.1880    24.2950     2.3800   -14.7690 
  141.0000    87.2730     6.4860     5.7320     7.8300    24.3070     2.4010   -14.8500 
  141.1250    85.1280     7.3550     6.3810     8.4530    24.3310     2.4120   -14.9700 
  141.2500    84.5300     8.3620     7.2420     8.5710    24.3260     2.4050   -15.0820 
  141.3750    81.5740     9.4140     8.2540     9.2340    24.2680     2.3790   -15.1930 
  141.5000    75.1580    10.3560     9.2300    11.1580    24.1320     2.3460   -15.2950 
  141.6250    69.1730    10.9100     9.8460    11.8950    23.9820     2.3250   -15.3660 
  141.7500    67.2700    10.9580     9.9940    12.6350    24.0580     2.3230   -15.4080 
  141.8750    71.2810    10.4860     9.6940    12.4230    24.1470     2.3350   -15.4560 
  142.0000    77.0030     9.6480     9.0740     9.5050    24.0630     2.3450   -15.4970 
  142.1250    80.8410     8.7270     8.3110     8.2820    23.8550     2.3400   -15.4940 
  142.2500    83.2110     7.9790     7.5990     7.5690    23.7410     2.3250   -15.4660 
  142.3750    85.1940     7.5180     7.0710     7.1290    23.6580     2.3090   -15.4200 
  142.5000    86.8950     7.3850     6.8400     6.8740    23.5080     2.2990   -15.3870 
  142.6250    87.5470     7.6210     6.9970     7.1490    23.2310     2.3010   -15.3370 
  142.7500    87.8100     8.1300     7.4260     7.5280    22.8490     2.3050   -15.2920 
  142.8750    88.2040     8.8350     8.0330     8.1640    22.4790     2.3080   -15.2250 
  143.0000    87.7750     9.5900     8.7200     8.4400    22.2440     2.3050   -15.1490 
  143.1250    85.9450    10.0880     9.2970     8.7210    22.2210     2.2950   -15.0620 
  143.2500    82.6730    10.1110     9.5390     9.2890    22.3320     2.2840   -14.9930 
  143.3750    80.9690     9.5940     9.2960     9.5110    22.5960     2.2770   -14.9110 
  143.5000    82.4060     8.6870     8.6130     8.6500    22.9650     2.2790   -14.8250 
  143.6250    85.3340     7.7080     7.7500     7.1640    23.3570     2.2910   -14.7670 
  143.7500    90.0070     6.9460     7.0270     6.4610    23.6340     2.3090   -14.7220 
  143.8750    96.2290     6.5080     6.5590     6.4050    23.8480     2.3300   -14.6850 
  144.0000    99.0900     6.3990     6.3480     6.7830    24.0640     2.3460   -14.6670 
  144.1250    94.8250     6.5790     6.3910     6.9440    24.3030     2.3520   -14.7200 
  144.2500    90.1720     6.8590     6.6000     6.9330    24.4500     2.3460   -14.8040 
  144.3750    90.3330     7.0990     6.8860     6.7920    24.4740     2.3310   -14.9200 
  144.5000    91.5390     7.1980     7.1130     6.8580    24.3540     2.3140   -15.0450 
  144.6250    91.5330     7.0960     7.1230     7.0050    24.0840     2.3060   -15.1570 
  144.7500    92.2230     6.8760     6.9620     6.8490    23.9280     2.3080   -15.2590 
  144.8750    93.8050     6.6310     6.7470     6.2650    24.0560     2.3180   -15.3700 
  145.0000    94.3840     6.4560     6.5900     6.1490    24.2680     2.3310   -15.4780 
  145.1250    92.4920     6.4300     6.5390     6.5080    24.3570     2.3400   -15.5670 
  145.2500    90.4290     6.5250     6.5500     6.7050    24.3920     2.3450   -15.6280 
  145.3750    89.2480     6.6890     6.6160     6.5280    24.4430     2.3450   -15.7120 
  145.5000    88.1390     6.8610     6.7520     6.7960    24.4860     2.3430   -15.8080 
  145.6250    88.1520     7.0060     6.9620     7.3090    24.4870     2.3410   -15.9880 
  145.7500    88.2190     7.1550     7.1770     7.4490    24.4180     2.3400   -16.2290 
  145.8750    86.4280     7.3560     7.3390     7.3000    24.2420     2.3410   -16.5020 
  146.0000    82.7160     7.6230     7.4470     7.3450    23.9780     2.3430   -16.7850 
  146.1250    81.0250     7.9340     7.5720     7.6640    23.7790     2.3450   -17.0560 
  146.2500    81.9400     8.2940     7.8110     8.2690    23.7070     2.3450   -17.3220 
  146.3750    81.5250     8.8380     8.2480     8.8110    23.6950     2.3390   -17.5140 
  146.5000    78.8440     9.8400     8.9970     9.3890    23.7080     2.3220   -17.6640 
  146.6250    74.1530    11.8060    10.3700    10.2970    23.7860     2.2990   -17.6970 
  146.7500    68.5330    14.8000    12.5310    13.3200    23.9730     2.2850   -17.6330 
  146.8750    63.3290    18.6070    15.5110    22.8550    24.2240     2.2990   -17.5000 
