~V
VERS. 2.00: Ver 2.00
~W
STRT.M 55.0000:
STOP.M 292.0000:
STEP.M 0.1250:
NULL. -999.2500:
UWI. F10078:
~C
DEPT.M :
GR.API :
RML.OHMM :
RI. :
RXO.OHMM :
CALI.CM :
DEN.GM/CC :
SP.MV :
~A
# ...
  156.2500    86.1310     8.1320     7.3170     8.6820    22.6320     2.1940    -7.8340 
  156.3750    85.5620     8.2830     7.4120     8.7320    22.5690     2.1970    -8.0260 
  156.5000    83.2100     8.3800     7.4680     8.8700    22.5270     2.1930    -8.1790 
  156.6250    82.4300     8.4140     7.4910     8.9880    22.4980     2.1830    -8.2660 
  156.7500    83.2760     8.4050     7.4960     9.0400    22.4060     2.1750    -8.3500 
  156.8750    83.2140     8.3570     7.4880     9.0040    22.2370     2.1730    -8.4750 
  157.0000    80.4290     8.2780     7.4710     8.9100    22.0550     2.1780    -8.5750 
  157.1250    75.5290     8.2060     7.4500     8.7400    21.9720     2.1860    -8.5360 
  157.2500    72.4510     8.2140     7.4490     8.6370    21.9550     2.1900    -8.4170 
  157.3750    73.9010     8.3610     7.5040     8.6750    21.9380     2.1880    -8.2750 
  157.5000    76.9720     8.6710     7.6620     8.9290    21.8770     2.1790    -8.1300 
  157.6250    75.3670     9.1140     7.9620     9.3990    21.8380     2.1650    -7.8780 
  157.7500    72.0590     9.5430     8.3290     9.8790    21.8850     2.1540    -7.5100 
  157.8750    71.7700     9.8050     8.6390    10.2620    21.9460     2.1520    -7.0880 
  158.0000    73.7310     9.7600     8.7390    10.5490    21.9420     2.1640    -6.6350 
  158.1250    74.0250     9.2770     8.4490    10.2760    21.9630     2.1900    -6.1200 
  158.2500    74.8320     8.4880     7.8390     9.2940    22.1410     2.2200    -5.5600 
  158.3750    77.6070     7.5580     7.0470     7.7280    22.5100     2.2440    -5.0140 
  158.5000    80.6560     6.6830     6.2550     6.2820    22.9370     2.2580    -4.5100 
  158.6250    82.0230     6.0680     5.6530     5.5940    23.1430     2.2600    -4.0800 
  158.7500    83.7540     5.7440     5.2880     5.3580    23.1710     2.2540    -3.7290 
  158.8750    87.2050     5.7040     5.1650     5.3900    23.1190     2.2440    -3.4650 
  159.0000    88.7560     5.8980     5.2570     5.5550    23.0020     2.2320    -3.2960 
  159.1250    84.0410     6.2330     5.5270     5.9710    22.8940     2.2280    -3.2790 
  159.2500    77.1750     6.5560     5.8590     6.6270    22.9810     2.2390    -3.3230 
  159.3750    72.0020     6.7510     6.1620     7.4130    23.3070     2.2660    -3.3810 
  159.5000    70.2450     6.7710     6.3480     8.1990    23.6240     2.3000    -3.4610 
  159.6250    71.9020     6.5670     6.3270     8.3710    23.7020     2.3250    -3.6000 
  159.7500    77.3060     6.3030     6.1380     7.5350    23.6270     2.3330    -3.7230 
  159.8750    83.7290     6.0860     5.8550     6.3210    23.4940     2.3270    -3.7830 
  160.0000    88.5190     5.9060     5.5760     5.6170    23.4060     2.3180    -3.7960 
  160.1250    91.6680     5.8910     5.4060     5.4360    23.4550     2.3120    -3.8510 
  160.2500    92.2720     6.0040     5.3660     5.3860    23.5220     2.3080    -3.9830 
  160.3750    90.3480     6.2330     5.4380     5.5270    23.5140     2.3030    -4.1000 
  160.5000    85.5240     6.4650     5.5700     5.7820    23.4130     2.2970    -4.1560 
  160.6250    78.4780     6.4900     5.6850     6.0650    23.2840     2.2910    -4.1750 
  160.7500    75.0140     6.3070     5.7270     6.3150    23.1560     2.2870    -4.2180 
  160.8750    77.2820     6.0390     5.6890     6.4290    23.0620     2.2860    -4.2880 
  161.0000    81.8610     5.8360     5.6220     6.5210    22.9920     2.2900    -4.3400 
  161.1250    81.8730     6.0840     5.6790     6.6770    22.9190     2.3020    -4.2770 
  161.2500    79.5210     6.8720     6.0190     7.3330    22.8620     2.3180    -4.1600 
  161.3750    77.9660     8.3410     6.7930     9.1250    22.8230     2.3290    -4.0970 
  161.5000    75.9130    10.4850     8.1140    12.3150    22.8160     2.3260    -4.0650 
  161.6250    71.7800    12.8590    10.1340    16.8400    22.8530     2.3020    -4.0510 
  161.7500    67.9740    15.5600    12.6760    21.1400    22.9330     2.2680    -4.0920 
  161.8750    66.8120    18.3400    15.5080    23.9090    23.0370     2.2350    -4.1660 
  162.0000    67.5110    20.8520    18.2390    23.9640    23.1110     2.2120    -4.2540 
  162.1250    67.7800    22.4650    20.1700    23.2900    23.1340     2.1990    -4.3880 
  162.2500    67.8950    22.8010    20.8590    23.6390    23.1360     2.1930    -4.5440 
  162.3750    69.5630    21.6200    20.0500    24.0450    23.1340     2.1930    -4.7040 
  162.5000    71.3520    19.0800    17.8860    22.3870    23.1310     2.2000    -4.8400 
  162.6250    71.4160    15.7710    14.9250    17.8060    23.1260     2.2150    -4.9240 
  162.7500    72.0210    12.6740    12.0900    12.4870    23.1270     2.2340    -4.9710 
  162.8750    76.2420    10.3030     9.8370     8.5230    23.1560     2.2510    -5.0230 
  163.0000    82.3090     8.7880     8.2830     6.8660    23.2390     2.2610    -5.1150 
  163.1250    82.2160     8.0170     7.3730     6.6950    23.3730     2.2610    -5.2020 
  163.2500    77.9200     7.5460     6.7840     6.8410    23.5090     2.2570    -5.1970 
  163.3750    75.3860     7.1710     6.3600     6.7960    23.6670     2.2530    -5.0870 
  163.5000    77.0570     6.8630     6.0490     6.5320    23.8890     2.2510    -4.9990 
  163.6250    77.8810     6.9400     6.0230     6.6070    24.0870     2.2520    -4.9760 
  163.7500    75.4120     7.8740     6.6140     8.0450    24.1930     2.2640    -4.8980 
  163.8750    70.2960    10.1960     8.3320    12.6950    24.2340     2.2980    -4.7650 
  164.0000    62.3110    14.2200    11.6600    22.1020    24.2640     2.3610    -4.6140 
  164.1250    55.8280    19.8610    16.9520    36.9510    24.3190     2.4510    -4.5090 
  164.2500    55.1790    25.7110    23.1140    53.0770    24.3930     2.5340    -4.5010 
  164.3750    58.1410    30.2090    28.6070    62.9330    24.4540     2.5740    -4.5440 
  164.5000    58.5200    31.9510    31.6270    60.3390    24.4940     2.5520    -4.5590 
  164.6250    53.8680    30.1080    30.5990    47.0300    24.5050     2.4710    -4.5670 
  164.7500    50.8140    26.3980    27.0560    33.0320    24.5070     2.3760    -4.6050 
  164.8750    52.8240    22.1910    22.5970    24.5790    24.5090     2.2920    -4.6250 
  165.0000    60.2210    18.2750    18.2880    20.0310    24.5330     2.2340    -4.5960 
  165.1250    68.7750    15.0890    14.7500    16.8640    24.5780     2.2110    -4.5640 
  165.2500    75.1240    12.7750    12.1290    13.5780    24.6220     2.2150    -4.5590 
  165.3750    78.7230    11.5380    10.5460    10.6750    24.6380     2.2370    -4.5780 
  165.5000    78.9940    11.4100     9.9830     9.8540    24.6600     2.2650    -4.6200 
  165.6250    74.8510    12.2500    10.3770    12.6240    24.6660     2.2820    -4.7060 
  165.7500    68.6780    13.4260    11.2640    16.5800    24.6550     2.2820    -4.8430 
  165.8750    65.7030    14.5240    12.3280    20.6400    24.6310     2.2680    -5.0260 
  166.0000    68.8520    15.3430    13.3240    22.5680    24.5860     2.2500    -5.2490 
  166.1250    74.0650    16.0820    14.2270    19.4690    24.5120     2.2380    -5.4290 
  166.2500    75.3830    17.2770    15.3580    17.3550    24.4400     2.2300    -5.5660 
  166.3750    72.1660    19.3030    17.0750    19.8060    24.4240     2.2220    -5.7040 
  166.5000    66.1480    22.1640    19.5500    25.2750    24.4000     2.2090    -5.8290 
  166.6250    59.2120    25.4410    22.6520    28.5530    24.2480     2.1880    -5.8610 
  166.7500    55.3430    28.4050    25.7410    29.0820    23.9910     2.1660    -5.8350 
  166.8750    56.5720    30.6570    28.3130    28.1340    23.7270     2.1480    -5.8000 
  167.0000    60.2920    32.1990    30.1380    26.6080    23.5220     2.1340    -5.7740 
  167.1250    60.0550    33.2920    31.2620    25.3230    23.3690     2.1250    -5.7780 
  167.2500    56.0260    34.0420    31.8730    25.5860    23.2280     2.1180    -5.7430 
  167.3750    51.8090    33.9100    31.6060    26.8770    23.1500     2.1140    -5.6350 
