~V
VERS. 2.00: Ver 2.00
~W
STRT.M 50.0000:
STOP.M 279.0000:
STEP.M 0.1250:
NULL. -999.2500:
UWI. F10075:
~C
DEPT.M :
GR.API :
RML.OHMM :
RI. :
RXO.OHMM :
CALI.CM :
DEN.GM/CC :
SP.MV :
~A
# ...
  173.7500    59.3570    14.5420    13.0000    15.1080    24.8620     2.5250    -4.0700 
  173.8750    57.1560    15.4000    13.7350    16.7520    24.8250     2.5400    -3.9240 
  174.0000    55.5860    16.4330    14.6760    18.0560    24.7160     2.5520    -3.8480 
  174.1250    56.7770    17.5700    15.7220    17.8280    24.4740     2.5630    -3.8500 
  174.2500    58.0460    18.6840    16.7340    18.6090    24.1910     2.5750    -3.8450 
  174.3750    57.4610    19.5960    17.5760    19.4860    24.1290     2.5840    -3.8100 
  174.5000    56.7020    20.0760    18.0840    19.3950    24.2620     2.5880    -3.7740 
  174.6250    59.3990    19.8500    18.0260    19.7460    24.4170     2.5820    -3.8150 
  174.7500    63.9290    19.0740    17.4750    18.5360    24.4710     2.5700    -3.9290 
  174.8750    66.9060    18.0160    16.6010    16.5740    24.5200     2.5560    -4.0430 
  175.0000    67.3590    17.0040    15.6580    15.4330    24.5560     2.5460    -4.0700 
  175.1250    67.4120    16.3420    14.9300    14.4780    24.4390     2.5370    -4.0380 
  175.2500    68.3680    16.0420    14.5060    14.0370    24.3300     2.5230    -4.0260 
  175.3750    68.5410    16.0230    14.3600    14.1150    24.2840     2.5010    -4.0600 
  175.5000    65.7730    16.1300    14.3700    14.7960    24.2590     2.4720    -4.1440 
  175.6250    62.2330    16.1450    14.3400    15.6540    24.1940     2.4460    -4.2140 
  175.7500    59.9950    15.9530    14.1400    15.0090    24.1600     2.4330    -4.2310 
  175.8750    59.5380    15.5790    13.7780    13.9310    24.1910     2.4350    -4.2780 
  176.0000    60.5200    15.1500    13.3640    13.1590    24.2270     2.4510    -4.3720 
  176.1250    61.4010    14.8890    13.0730    12.9810    24.2690     2.4770    -4.4810 
  176.2500    60.7390    14.9150    12.9940    13.0120    24.3680     2.5020    -4.5870 
  176.3750    58.7570    15.2470    13.1420    13.3000    24.5550     2.5170    -4.6570 
  176.5000    55.5740    15.8050    13.4670    13.8500    24.7600     2.5210    -4.6270 
  176.6250    51.3020    16.4150    13.8580    14.7610    24.9000     2.5190    -4.5230 
  176.7500    49.6210    16.8790    14.1870    15.4630    24.9490     2.5180    -4.4390 
  176.8750    52.2900    17.1250    14.4040    15.9540    24.9580     2.5210    -4.3550 
  177.0000    56.6330    17.2130    14.5340    16.5690    24.9580     2.5250    -4.2910 
  177.1250    59.5100    17.3190    14.6730    16.1570    24.9560     2.5260    -4.2460 
  177.2500    62.6210    17.6060    14.9170    15.7970    24.9180     2.5270    -4.1600 
  177.3750    64.9280    18.1250    15.3030    16.2130    24.7480     2.5320    -4.0250 
  177.5000    64.6240    18.7930    15.7860    17.0830    24.3900     2.5440    -3.9560 
  177.6250    64.2980    19.3420    16.1990    19.0150    24.2070     2.5590    -3.9670 
  177.7500    66.0010    19.5270    16.3630    19.9000    24.4540     2.5690    -3.9460 
  177.8750    67.6980    19.2510    16.1860    19.1160    24.8090     2.5710    -3.9090 
  178.0000    67.8210    18.5840    15.7010    17.2990    24.9560     2.5650    -3.8950 
  178.1250    65.0850    17.7320    15.0450    16.0190    24.9930     2.5560    -3.9020 
  178.2500    60.8020    17.0040    14.4440    14.2160    25.0020     2.5490    -3.9720 
  178.3750    58.8130    16.5900    14.0340    13.6920    24.9930     2.5480    -4.1340 
  178.5000    60.8870    16.5770    13.8970    14.0680    24.9940     2.5500    -4.2850 
  178.6250    63.4460    17.0160    14.1120    14.4360    24.9930     2.5520    -4.4240 
  178.7500    63.8150    17.7110    14.5870    14.6620    25.0090     2.5470    -4.6340 
  178.8750    63.9260    18.4620    15.2040    15.3510    25.0220     2.5340    -4.8590 
  179.0000    66.4450    19.0480    15.7890    16.6140    25.0380     2.5180    -5.0500 
  179.1250    71.0260    19.2310    16.1070    17.5590    25.0600     2.5060    -5.2620 
  179.2500    74.0220    19.0190    16.0940    16.5400    25.0430     2.5010    -5.5200 
  179.3750    74.1520    18.4970    15.7930    14.7310    24.9710     2.5030    -5.7840 
  179.5000    74.1550    17.8450    15.3460    13.4940    24.8330     2.5060    -6.0570 
  179.6250    75.6870    17.3060    14.9340    12.7720    24.5860     2.5090    -6.2990 
  179.7500    75.5140    16.9810    14.6520    12.6230    24.3770     2.5140    -6.5040 
  179.8750    72.5640    16.8570    14.5090    12.4740    24.2230     2.5220    -6.7340 
  180.0000    69.7480    16.8640    14.4780    12.0080    24.0210     2.5350    -7.0240 
  180.1250    69.1600    16.9470    14.5390    12.2350    23.9020     2.5480    -7.3010 
  180.2500    69.3720    17.0870    14.6740    13.0550    23.9620     2.5510    -7.4770 
  180.3750    70.5800    17.2930    14.8820    14.0750    24.1710     2.5370    -7.5830 
  180.5000    72.6430    17.5380    15.1480    14.8220    24.4780     2.5050    -7.7020 
  180.6250    74.2910    17.7140    15.4220    16.1530    24.7380     2.4660    -7.8400 
  180.7500    73.7970    17.7480    15.6370    17.3460    24.7770     2.4360    -7.9400 
  180.8750    71.4830    17.6590    15.7570    17.0250    24.6630     2.4230    -7.9710 
  181.0000    70.7310    17.5360    15.7980    16.3510    24.5000     2.4270    -7.8830 
  181.1250    73.3730    17.5020    15.8280    16.0050    24.4350     2.4410    -7.7470 
  181.2500    75.3160    17.5650    15.9060    15.8170    24.5190     2.4520    -7.6480 
  181.3750    73.8860    17.6320    16.0200    15.7140    24.7820     2.4530    -7.5640 
  181.5000    71.3040    17.5730    16.1050    16.3600    24.9940     2.4400    -7.4400 
  181.6250    70.6960    17.2790    16.0710    16.9560    25.0680     2.4150    -7.3030 
  181.7500    70.6410    16.8390    15.9320    16.7020    25.0430     2.3920    -7.1950 
  181.8750    71.3860    16.4040    15.7690    15.2020    24.8880     2.3810    -7.1380 
  182.0000    74.4190    16.1630    15.7110    13.6700    24.5850     2.3830    -7.1450 
  182.1250    77.5790    16.3200    15.9000    13.8460    24.3690     2.3940    -7.1870 
  182.2500    78.5760    16.7900    16.2960    14.7750    24.1900     2.3990    -7.2890 
  182.3750    78.3840    17.3950    16.7910    15.3180    24.0550     2.3920    -7.4570 
  182.5000    77.6860    17.8760    17.2010    15.7350    24.0180     2.3790    -7.6350 
  182.6250    75.5990    17.9310    17.2620    16.7800    24.0970     2.3730    -7.8580 
  182.7500    73.8510    17.6150    16.9840    17.1440    24.2380     2.3800    -8.1380 
  182.8750    74.6300    17.1960    16.5620    16.4410    24.3230     2.3970    -8.4340 
  183.0000    75.6470    17.0870    16.3160    15.4770    24.3670     2.4110    -8.7700 
  183.1250    75.0390    17.9850    16.7690    15.4750    24.3940     2.4070    -9.1660 
  183.2500    74.5020    20.4010    18.3440    16.3070    24.3920     2.3820    -9.5650 
  183.3750    74.6720    25.0450    21.6930    19.4630    24.4380     2.3420    -9.9600 
  183.5000    72.8790    35.8590    27.7820    26.3020    24.5490     2.2990   -10.4010 
  183.6250    67.9520    49.8660    38.9840    44.1200    24.6970     2.2630   -10.9380 
  183.7500    63.4790    70.4850    56.4650    80.3330    24.7900     2.2370   -11.5360 
  183.8750    60.8590    99.1080    81.3360   121.7730    24.8090     2.2170   -12.1730 
  184.0000    60.0760   136.2280   113.4520   139.9480    24.7740     2.2030   -12.7510 
  184.1250    60.0450   181.2200   151.7020   150.7310    24.7250     2.1910   -13.2480 
  184.2500    59.1350   228.6710   191.8780   161.8560    24.6560     2.1810   -13.7750 
  184.3750    55.9710   273.5160   230.3160   163.5310    24.5870     2.1730   -14.3570 
  184.5000    51.3290   310.9860   263.2700   157.9260    24.5330     2.1640   -14.8990 
  184.6250    48.6390   334.1090   285.1040   145.0660    24.4960     2.1550   -15.3020 
  184.7500    49.3440   338.8670   292.9810   142.6570    24.4610     2.1500   -15.6650 
  184.8750    51.7480   320.2090   283.0740   150.0640    24.4230     2.1500   -15.9970 
