~V
VERS. 2.00: Ver 2.00
~W
STRT.M 50.0000:
STOP.M 278.0000:
STEP.M 0.1250:
NULL. -999.2500:
UWI. F10031:
~C
DEPT.M :
GR.API :
RML.OHMM :
RI. :
RXO.OHMM :
CALI.CM :
DEN.GM/CC :
SP.MV :
~A
# ...
  140.0000    93.2380     5.0130     4.3890     5.0190    23.3190     2.3810   -10.9890 
  140.1250    91.2440     5.7730     4.9520     5.9850    23.3260     2.4050   -11.4530 
  140.2500    88.0920     6.7530     5.7420     7.4130    23.2470     2.4290   -12.2150 
  140.3750    82.3950     7.7750     6.6340     9.0040    23.0930     2.4380   -13.1980 
  140.5000    76.0560     8.6310     7.4590    10.1570    22.9090     2.4170   -14.2850 
  140.6250    71.1340     9.0900     8.0040     9.9960    22.7590     2.3660   -15.3720 
  140.7500    67.7650     9.2000     8.2500     9.4860    22.7210     2.3070   -16.4070 
  140.8750    66.0820     9.0920     8.2690     9.4550    22.7430     2.2570   -17.3580 
  141.0000    66.1620     8.9470     8.1920     9.6860    22.7570     2.2240   -18.1950 
  141.1250    67.1530     8.9340     8.1580     9.7340    22.7390     2.2090   -18.8480 
  141.2500    68.6140     9.0880     8.2250     9.6810    22.7120     2.2010   -19.3270 
  141.3750    69.5400     9.3830     8.3930     9.7850    22.7270     2.1970   -19.6400 
  141.5000    68.4530     9.7630     8.6310    10.1230    22.8080     2.1960   -19.8510 
  141.6250    67.4910    10.1420     8.8900    10.6100    22.9330     2.1990   -19.9870 
  141.7500    68.3770    10.4340     9.1040    11.2150    23.0300     2.2030   -20.0680 
  141.8750    68.7780    10.5820     9.2240    11.8010    23.0770     2.2040   -20.1300 
  142.0000    66.7840    10.5680     9.2230    11.8580    23.0980     2.1990   -20.2120 
  142.1250    63.0310    10.4200     9.1080    11.3790    23.1280     2.1930   -20.3310 
  142.2500    59.3400    10.2490     8.9570    10.9420    23.1800     2.1880   -20.4710 
  142.3750    56.4530    10.1340     8.8360    10.9440    23.2350     2.1860   -20.6080 
  142.5000    55.7850    10.1240     8.7970    11.3230    23.2390     2.1830   -20.7210 
  142.6250    58.0580    10.2450     8.8850    11.8050    23.1920     2.1760   -20.8230 
  142.7500    60.0500    10.4530     9.0730    12.1210    23.1510     2.1650   -20.9240 
  142.8750    60.8270    10.7200     9.3360    12.2050    23.0950     2.1550   -20.9900 
  143.0000    61.2730    11.0290     9.6430    12.2200    23.0010     2.1530   -20.9380 
  143.1250    61.8760    11.3510     9.9520    12.2750    22.9260     2.1610   -20.7060 
  143.2500    62.2330    11.6180    10.1970    12.3260    22.9160     2.1720   -20.3160 
  143.3750    61.7510    11.7180    10.2910    12.2580    22.9480     2.1810   -19.7800 
  143.5000    60.4970    11.5230    10.1370    12.0250    22.9680     2.1860   -19.1140 
  143.6250    60.4340    10.8930     9.6240    11.5370    22.9520     2.1920   -18.3020 
  143.7500    62.2080     9.9590     8.8540    10.7050    22.9230     2.2050   -17.4090 
  143.8750    66.0620     8.9130     7.9750     9.5470    22.8940     2.2290   -16.4960 
  144.0000    72.0340     7.9870     7.1680     8.1070    22.8550     2.2590   -15.6410 
  144.1250    77.7310     7.4480     6.6410     6.9310    22.7970     2.2840   -14.9280 
  144.2500    79.6410     7.3350     6.4430     6.5320    22.7300     2.2930   -14.3690 
  144.3750    76.9880     7.6290     6.5860     6.9190    22.6880     2.2820   -13.9540 
  144.5000    72.9220     8.2450     7.0340     7.5380    22.7430     2.2550   -13.6480 
  144.6250    70.6490     9.0460     7.7160     8.2370    22.8370     2.2230   -13.4300 
  144.7500    69.3950     9.7940     8.4270     9.0920    22.8800     2.2010   -13.1950 
  144.8750    67.8120    10.2980     8.9890     9.7820    22.8560     2.2020   -12.8570 
  145.0000    66.4030    10.4200     9.2490     9.9490    22.8220     2.2320   -12.3880 
  145.1250    67.5170    10.0540     9.0700     9.5320    22.8210     2.2890   -11.7550 
  145.2500    72.5770     9.3740     8.5740     8.8000    22.9180     2.3490   -11.0510 
  145.3750    80.8480     8.5610     7.9060     7.8870    23.1080     2.3940   -10.3320 
  145.5000    87.4290     7.8110     7.2370     7.1780    23.2810     2.4100    -9.6320 
  145.6250    87.4190     7.2970     6.7290     6.7760    23.3310     2.3970    -8.9930 
  145.7500    85.3230     7.0030     6.4050     6.5230    23.3080     2.3740    -8.4610 
  145.8750    84.7360     6.8640     6.2370     6.5280    23.2390     2.3540    -8.0850 
  146.0000    85.1610     6.7900     6.1650     6.7150    23.1420     2.3430    -7.8730 
  146.1250    83.6820     6.7130     6.1350     6.7630    23.0410     2.3390    -7.7960 
  146.2500    81.5220     6.6440     6.1300     6.5970    22.9730     2.3390    -7.7190 
  146.3750    80.5440     6.6500     6.1850     6.3740    23.0250     2.3400    -7.5880 
  146.5000    82.6750     6.7900     6.3420     6.3590    23.2670     2.3460    -7.4060 
  146.6250    87.0460     7.0670     6.6250     6.8910    23.5160     2.3620    -7.2030 
  146.7500    88.0750     7.3730     6.9420     7.6370    23.6800     2.3850    -7.0200 
  146.8750    85.5610     7.5760     7.1840     8.4420    23.7390     2.4080    -6.8590 
  147.0000    83.8290     7.6080     7.2430     8.9140    23.7420     2.4220    -6.7030 
  147.1250    85.1190     7.3920     7.0390     8.2340    23.7500     2.4140    -6.5720 
  147.2500    87.2750     7.0990     6.6740     7.2620    23.7810     2.3880    -6.4710 
  147.3750    90.5930     6.8250     6.2570     6.3970    23.8180     2.3560    -6.3990 
  147.5000    95.8260     6.5030     5.8780     5.9540    23.8310     2.3280    -6.3520 
  147.6250    98.9800     6.2770     5.5910     5.8180    23.8210     2.3150    -6.3200 
  147.7500    99.0220     6.1770     5.3740     5.7120    23.8060     2.3170    -6.2860 
  147.8750    99.0070     6.0930     5.2080     5.5280    23.8010     2.3310    -6.2540 
  148.0000   100.4410     6.0120     5.0840     5.2750    23.8020     2.3510    -6.2240 
  148.1250   101.5150     5.9370     5.0280     5.0970    23.8060     2.3740    -6.1680 
  148.2500   102.3210     5.9700     5.0580     5.1340    23.8110     2.3910    -6.1180 
  148.3750   103.7660     6.1360     5.1920     5.4180    23.8150     2.3960    -6.1100 
  148.5000   104.3300     6.4400     5.4360     5.8130    23.8120     2.3870    -6.1540 
  148.6250   101.0600     6.8800     5.7870     6.1080    23.7970     2.3630    -6.2580 
  148.7500    95.7240     7.3680     6.1780     6.4840    23.7660     2.3340    -6.3830 
  148.8750    90.1800     7.8060     6.5320     6.9640    23.7160     2.3070    -6.5040 
  149.0000    86.2670     8.0820     6.7680     7.4510    23.6270     2.2890    -6.6500 
  149.1250    85.2680     8.0930     6.7970     7.8380    23.4960     2.2860    -6.8680 
  149.2500    85.2410     7.9480     6.6870     7.9490    23.3860     2.2920    -7.1280 
  149.3750    84.2430     7.8700     6.5780     7.7970    23.3200     2.3030    -7.3930 
  149.5000    82.4030     8.1910     6.6910     7.7770    23.3170     2.3140    -7.6290 
  149.6250    81.0400     9.4410     7.4140     8.9240    23.3380     2.3240    -7.8060 
  149.7500    78.7670    11.7360     8.9280    12.0190    23.2680     2.3320    -7.9450 
  149.8750    75.2250    15.0320    11.3360    16.4540    23.1060     2.3390    -8.0540 
  150.0000    71.7450    18.9740    14.5220    21.2230    22.9880     2.3350    -8.1230 
  150.1250    69.7350    22.8130    18.0490    24.2180    22.9360     2.3140    -8.1330 
  150.2500    68.9040    25.7720    21.1450    23.7930    22.9020     2.2790    -8.1020 
  150.3750    67.1960    27.4560    23.2780    22.8210    22.8830     2.2390    -8.0400 
  150.5000    64.0540    27.9620    24.3120    22.6130    22.8790     2.2060    -7.9640 
  150.6250    62.0240    27.7930    24.5250    22.5280    22.8850     2.1870    -7.8910 
  150.7500    63.0340    27.7200    24.6150    22.2160    22.8980     2.1810    -7.8270 
  150.8750    66.6900    28.0990    24.9390    21.5140    22.9270     2.1830    -7.7820 
  151.0000    69.6010    28.9980    25.6240    21.0760    22.9540     2.1920    -7.7610 
  151.1250    69.3920    30.1890    26.5660    22.2520    22.9100     2.2070    -7.7460 
