~V
VERS. 2.00: Ver 2.00
~W
STRT.M 60.0000:
STOP.M 262.0000:
STEP.M 0.1250:
NULL. -999.2500:
UWI. F10018:
~C
DEPT.M :
GR.API :
RML.OHMM :
RI. :
RXO.OHMM :
CALI.CM :
DEN.GM/CC :
SP.MV :
~A
# ...
  150.0000    58.9870    28.7780    25.4380    28.6240    24.8270     2.1130     9.7350 
  150.1250    57.4910    28.4960    25.1720    29.3380    24.8450     2.1230     9.4900 
  150.2500    56.5300    28.4630    25.1070    29.8580    24.8700     2.1310     9.2850 
  150.3750    57.5050    28.6800    25.2590    30.3400    24.8830     2.1340     9.1870 
  150.5000    60.1680    29.1260    25.6280    31.1080    24.8940     2.1330     9.1960 
  150.6250    61.4740    29.8330    26.2680    32.0500    24.9350     2.1280     9.3070 
  150.7500    59.4920    30.7650    27.1580    33.2460    25.0060     2.1250     9.5170 
  150.8750    56.0660    31.8850    28.2850    34.3760    25.0580     2.1250     9.7680 
  151.0000    55.4930    33.1230    29.5950    35.4050    25.0780     2.1280     9.9870 
  151.1250    56.1870    34.3990    31.0200    37.3970    25.0850     2.1290    10.1720 
  151.2500    54.8760    35.6480    32.4660    39.4240    25.0940     2.1290    10.3970 
  151.3750    52.2100    36.8520    33.8790    40.7960    25.1070     2.1260    10.6450 
  151.5000    49.5050    37.9920    35.2110    40.9980    25.1460     2.1240    10.8570 
  151.6250    48.6010    38.7590    36.1870    41.8590    25.2990     2.1250    10.9470 
  151.7500    49.4930    38.6160    36.3430    43.1710    25.4880     2.1310    10.8690 
  151.8750    51.3100    37.0390    35.1840    42.9660    25.6590     2.1430    10.6210 
  152.0000    53.1560    33.9050    32.5390    40.7220    25.6810     2.1580    10.2590 
  152.1250    55.7980    29.6260    28.7070    35.3880    25.2840     2.1750     9.8190 
  152.2500    59.6640    25.3670    24.7760    28.2300    24.8020     2.1880     9.2680 
  152.3750    61.6400    21.9480    21.5200    22.1890    24.6620     2.1940     8.6680 
  152.5000    61.4190    19.8530    19.3850    20.0690    24.7970     2.1910     8.1230 
  152.6250    62.0030    19.4550    18.7220    18.4170    24.9020     2.1810     7.7350 
  152.7500    62.8050    20.4160    19.3080    18.9390    24.9290     2.1700     7.5050 
  152.8750    62.4340    22.4980    21.0470    22.7390    24.9170     2.1610     7.4610 
  153.0000    61.4820    25.2890    23.6810    29.3530    24.9170     2.1560     7.6090 
  153.1250    60.6580    28.1740    26.6950    33.0410    24.9340     2.1520     7.9350 
  153.2500    57.9290    30.5310    29.3510    34.5220    24.9440     2.1490     8.3750 
  153.3750    52.9470    32.0260    31.1860    35.6060    24.9450     2.1470     8.8410 
  153.5000    49.5750    32.5740    32.0020    36.8850    24.9310     2.1440     9.2850 
  153.6250    50.8180    32.2430    31.7790    37.0690    24.9000     2.1420     9.6260 
  153.7500    54.4980    31.4660    30.9800    35.6270    24.8750     2.1440     9.8260 
  153.8750    57.4550    30.4680    29.8680    33.4490    24.8770     2.1470     9.9000 
  154.0000    58.8880    29.4190    28.6440    31.6130    24.8770     2.1430     9.8980 
  154.1250    58.9290    28.5910    27.5810    30.3780    24.8490     2.1170     9.8310 
  154.2500    58.3670    28.2710    26.9660    29.6880    24.8090     2.0750     9.7030 
  154.3750    58.5270    28.7160    27.0520    28.3430    24.8040     2.0460     9.5260 
  154.5000    59.8400    30.0540    27.9830    28.5870    24.8590     2.0620     9.3290 
  154.6250    59.5290    32.3090    29.8490    31.4380    24.8480     2.1380     9.2180 
  154.7500    55.3170    34.9150    32.2040    41.3780    24.7250     2.2250     9.3050 
  154.8750    50.8530    37.2300    34.5090    62.7990    24.6770     2.2720     9.5730 
  155.0000    50.6590    38.6480    36.1630    62.2830    24.8750     2.2550     9.9080 
  155.1250    53.6980    38.7850    36.6730    48.2060    25.1140     2.1860    10.2330 
  155.2500    55.0940    38.1620    36.3680    41.6340    25.2590     2.1210    10.5850 
  155.3750    53.6380    37.2540    35.6360    40.5830    25.2870     2.0860    10.9750 
  155.5000    51.6790    36.4380    34.8550    41.7830    25.2850     2.0820    11.3910 
  155.6250    51.7480    35.9210    34.2980    42.6590    25.3380     2.0920    11.7700 
  155.7500    52.4380    35.6180    33.9620    41.9080    25.4500     2.1040    12.0390 
  155.8750    53.1210    35.4700    33.8000    40.7600    25.5420     2.1150    12.1550 
  156.0000    54.0780    35.4670    33.7940    40.2070    25.5560     2.1290    12.1520 
  156.1250    54.5040    35.5910    33.9380    39.8230    25.5610     2.1450    12.1120 
  156.2500    53.0060    35.7340    34.1340    40.2090    25.5730     2.1570    12.0110 
  156.3750    49.6240    35.7770    34.2720    40.6610    25.5380     2.1610    11.8590 
  156.5000    47.7510    35.5790    34.2020    40.4690    25.4410     2.1570    11.6530 
  156.6250    49.9990    34.9720    33.7320    39.7210    25.4670     2.1470    11.4070 
  156.7500    53.7820    34.0400    32.9090    39.0340    25.5240     2.1380    11.1340 
  156.8750    55.7450    32.8970    31.8290    37.3010    25.5070     2.1340    10.8530 
  157.0000    54.9800    31.6940    30.6420    34.6520    25.3870     2.1370    10.5600 
  157.1250    54.9460    30.6560    29.5760    30.8230    25.3010     2.1450    10.2430 
  157.2500    56.5880    29.9450    28.8090    29.4940    25.2520     2.1520     9.9990 
  157.3750    58.3840    29.6640    28.4450    29.4680    25.2020     2.1570     9.8560 
  157.5000    58.9660    29.8520    28.5300    28.6070    25.1570     2.1600     9.8040 
  157.6250    57.2300    30.5380    29.1130    29.5630    25.1710     2.1630     9.7790 
  157.7500    54.3960    31.5170    30.0180    31.9640    25.3470     2.1700     9.7220 
  157.8750    52.0830    32.6290    31.1050    34.5040    25.5520     2.1810     9.6800 
  158.0000    50.8410    33.7520    32.2440    35.1890    25.7040     2.1930     9.7100 
  158.1250    49.8860    34.7920    33.3130    35.7240    25.8420     2.1990     9.7880 
  158.2500    50.0210    35.7040    34.2410    36.6500    26.0790     2.1960     9.8360 
  158.3750    51.5180    36.3890    34.9310    37.1430    26.3280     2.1830     9.8100 
  158.5000    52.2300    36.6820    35.2400    34.4660    26.5100     2.1660     9.6950 
  158.6250    51.6260    36.3210    34.9310    39.0510    26.5920     2.1530     9.5160 
  158.7500    51.9910    35.4190    34.1040    37.4910    26.4520     2.1520     9.3340 
  158.8750    53.9380    34.2180    32.9690    29.6340    26.0950     2.1620     9.1160 
  159.0000    55.9970    33.0670    31.8400    20.2120    25.7490     2.1760     8.8750 
  159.1250    57.4450    32.3770    31.1030    16.8640    25.6410     2.1850     8.7260 
  159.2500    56.2680    32.2100    30.8610    22.4170    25.7700     2.1840     8.6320 
  159.3750    52.0040    32.4540    31.0700    30.1070    25.9840     2.1740     8.5530 
  159.5000    47.8930    32.8700    31.5610    33.6780    26.0970     2.1610     8.4840 
  159.6250    49.2310    33.1260    32.0620    33.4710    26.1730     2.1510     8.4320 
  159.7500    53.4830    33.0400    32.3260    33.4740    26.1070     2.1470     8.4020 
  159.8750    54.9800    32.6490    32.2890    33.9510    25.9850     2.1490     8.4020 
  160.0000    52.5460    32.1920    32.0910    34.2590    25.8070     2.1540     8.4100 
  160.1250    49.6060    32.1130    32.0790    35.1480    25.6360     2.1570     8.3320 
  160.2500    49.4070    32.6700    32.5250    34.4890    25.4890     2.1530     8.1680 
  160.3750    50.7760    33.9080    33.5190    31.9910    25.3630     2.1450     7.9220 
  160.5000    51.3960    35.4730    34.8110    31.1780    25.2800     2.1380     7.5740 
  160.6250    51.0540    36.1080    35.3270    31.9490    25.1530     2.1440     7.1640 
  160.7500    51.7680    34.5780    33.8910    32.7460    24.9520     2.1660     6.7360 
  160.8750    54.8800    30.6070    30.2120    27.3130    24.6530     2.2000     6.2680 
  161.0000    60.2290    25.3100    25.3630    17.7440    24.2060     2.2390     5.7060 
  161.1250    64.8180    20.7110    21.1910    11.7470    23.7360     2.2750     5.0670 
