~V
VERS. 2.00: Ver 2.00
~W
STRT.M 60.0000:
STOP.M 242.0000:
STEP.M 0.1250:
NULL. -999.2500:
UWI. F10022:
~C
DEPT.M :
GR.API :
RML.OHMM :
RI. :
RXO.OHMM :
CALI.CM :
DEN.GM/CC :
SP.MV :
~A
# ...
  195.0000    57.5230    27.8450    24.9970    28.3790    23.5830     2.2740   -11.0430 
  195.1250    57.8640    29.8590    26.8650    29.5200    23.6460     2.2870   -10.9030 
  195.2500    59.6480    32.5250    29.5280    31.4990    23.7310     2.3140   -10.7670 
  195.3750    58.3630    35.2970    32.4890    34.8320    23.8070     2.3530   -10.5750 
  195.5000    54.3360    37.5010    35.0810    38.3600    23.8450     2.3950   -10.3500 
  195.6250    53.2250    38.1640    36.3140    40.1840    23.8440     2.4210   -10.1800 
  195.7500    53.3810    37.0910    35.8650    40.0770    23.8340     2.4230   -10.0060 
  195.8750    52.2010    34.4640    33.7920    37.9290    23.8250     2.4020    -9.8150 
  196.0000    52.1300    30.9250    30.6560    34.3980    23.8980     2.3700    -9.6810 
  196.1250    55.4310    27.3600    27.2850    30.2050    23.9730     2.3410    -9.5540 
  196.2500    57.0740    24.3700    24.3280    26.4260    24.0210     2.3220    -9.4230 
  196.3750    54.8620    22.1270    21.9990    24.3730    24.0320     2.3130    -9.3790 
  196.5000    52.5510    20.6200    20.3400    23.2750    24.0290     2.3100    -9.3480 
  196.6250    54.3150    19.8490    19.4020    22.1580    24.0260     2.3100    -9.3000 
  196.7500    58.0280    19.5780    18.9830    21.1600    24.0260     2.3120    -9.3160 
  196.8750    61.6030    19.6780    18.9680    21.2220    24.0260     2.3130    -9.3450 
  197.0000    63.5050    20.0250    19.2430    22.3870    24.0260     2.3140    -9.3260 
  197.1250    62.5670    20.5350    19.7320    24.5750    24.0250     2.3150    -9.3370 
  197.2500    61.3590    21.1470    20.3450    25.1100    24.0200     2.3180    -9.3700 
  197.3750    61.5190    21.8830    21.0740    24.2630    24.0040     2.3230    -9.3710 
  197.5000    63.1440    22.7760    21.9340    24.1140    23.9790     2.3300    -9.4260 
  197.6250    63.5640    23.8590    22.9460    25.4540    23.9620     2.3350    -9.5310 
  197.7500    62.7850    25.0480    24.0460    27.5580    23.9260     2.3340    -9.6230 
  197.8750    61.7830    26.2650    25.1650    29.3420    23.8170     2.3240    -9.7520 
  198.0000    61.2280    27.4650    26.2470    29.5170    23.6180     2.3090    -9.9110 
  198.1250    60.1070    28.7210    27.3110    28.6160    23.5130     2.2940   -10.0690 
  198.2500    58.9380    30.1880    28.4840    29.0110    23.6120     2.2830   -10.2540 
  198.3750    58.1760    32.0010    29.8970    30.9140    23.8030     2.2790   -10.4490 
  198.5000    56.9470    34.1990    31.6180    33.6170    23.9210     2.2800   -10.6040 
  198.6250    55.9920    36.6730    33.6140    36.8730    23.9600     2.2890   -10.7660 
  198.7500    55.9650    39.0760    35.6240    39.4240    23.9200     2.3050   -10.9040 
  198.8750    56.2460    41.0910    37.3900    40.7050    23.8550     2.3240   -10.9920 
  199.0000    55.1410    42.4830    38.6920    41.2980    23.7960     2.3400   -11.1190 
  199.1250    53.2160    43.0980    39.3470    41.9950    23.7260     2.3470   -11.2540 
  199.2500    53.2270    43.2470    39.5540    43.3670    23.7520     2.3490   -11.3400 
  199.3750    56.0290    43.2630    39.5430    44.3510    23.7830     2.3520   -11.4720 
  199.5000    59.6210    43.5250    39.6000    44.2550    23.7510     2.3600   -11.6590 
  199.6250    60.1750    44.4800    40.0740    43.9700    23.6340     2.3690   -11.8210 
  199.7500    58.2710    46.1670    41.0800    44.4250    23.4960     2.3690   -12.0080 
  199.8750    55.6400    48.4580    42.6180    45.9310    23.2880     2.3560   -12.2450 
  200.0000    52.9420    51.0220    44.5260    48.3850    23.0990     2.3380   -12.4360 
  200.1250    50.8490    53.2970    46.4620    51.3730    23.1320     2.3240   -12.6020 
  200.2500    50.6380    54.8600    48.0370    53.4920    23.1810     2.3190   -12.8070 
  200.3750    52.4760    55.5130    49.0250    54.8350    23.2130     2.3190   -12.9480 
  200.5000    53.2420    55.3210    49.3850    55.5730    23.2520     2.3200   -13.0070 
  200.6250    51.6430    54.5430    49.2270    55.6940    23.2440     2.3170   -13.0730 
  200.7500    51.6820    53.6870    48.8990    55.2980    23.2190     2.3130   -13.0810 
  200.8750    55.5350    53.0020    48.5800    55.3670    23.1950     2.3090   -13.0070 
  201.0000    60.0960    52.5280    48.3200    55.9680    23.1840     2.3060   -12.9540 
  201.1250    59.3990    52.0970    48.0270    56.7160    23.1810     2.3050   -12.8970 
  201.2500    56.3400    51.4800    47.5710    57.3500    23.1810     2.3010   -12.7850 
  201.3750    55.6090    50.5930    46.8980    57.2150    23.1810     2.2940   -12.7230 
  201.5000    57.5000    49.5000    46.0590    56.1030    23.1810     2.2870   -12.6880 
  201.6250    59.6320    48.3740    45.2080    54.2870    23.1820     2.2820   -12.5910 
  201.7500    60.5940    47.3880    44.5010    53.8120    23.1900     2.2820   -12.5650 
  201.8750    61.0140    46.6080    43.9970    54.2560    23.2120     2.2850   -12.5930 
  202.0000    60.5510    46.0140    43.6660    54.5470    23.2370     2.2890   -12.5630 
  202.1250    58.2610    45.5300    43.4080    55.3470    23.2480     2.2910   -12.5530 
  202.2500    56.5270    45.0620    43.1140    54.9840    23.2500     2.2880   -12.5610 
  202.3750    56.6570    44.6070    42.7710    54.1440    23.2500     2.2830   -12.4820 
  202.5000    57.6860    44.2200    42.4400    52.2230    23.2590     2.2750   -12.4070 
  202.6250    57.6580    43.9430    42.1940    49.9750    23.3410     2.2670   -12.4010 
  202.7500    57.2050    43.6440    41.9590    48.5780    23.5490     2.2610   -12.3350 
  202.8750    57.6460    43.1000    41.5500    48.2390    23.8240     2.2570   -12.2360 
  203.0000    56.3590    42.1210    40.7700    48.5070    23.9870     2.2550   -12.2080 
  203.1250    53.9660    40.6770    39.5130    48.6140    24.0250     2.2600   -12.1810 
  203.2500    54.2310    39.1840    38.0940    46.5600    24.0200     2.2800   -12.1480 
  203.3750    57.0360    38.0880    36.8880    43.0770    24.0020     2.3190   -12.1930 
  203.5000    58.7370    37.7520    36.2500    41.7450    23.9670     2.3680   -12.2900 
  203.6250    55.3030    38.3910    36.4790    44.0860    23.9370     2.4000   -12.3620 
  203.7500    51.2010    39.5400    37.2990    48.5500    23.8990     2.3970   -12.4740 
  203.8750    50.8160    40.6760    38.3250    50.9380    23.8730     2.3630   -12.6550 
  204.0000    53.9960    41.2650    39.0770    50.8210    23.9010     2.3160   -12.7990 
  204.1250    57.1930    40.8240    39.0300    49.4710    23.9700     2.2800   -12.9160 
  204.2500    57.2020    39.5990    38.2380    46.7820    24.0120     2.2630   -13.0540 
  204.3750    55.8500    37.9720    36.9520    42.4210    24.0250     2.2600   -13.1050 
  204.5000    54.8250    36.3470    35.5080    38.0800    24.0250     2.2670   -13.0400 
  204.6250    55.2880    34.9780    34.1250    35.8140    24.0220     2.2750   -12.9520 
  204.7500    56.3880    33.7310    32.7590    35.5540    24.0200     2.2810   -12.7910 
  204.8750    56.0290    32.3570    31.2440    35.7800    24.0220     2.2840   -12.5020 
  205.0000    54.0530    30.6430    29.4370    35.0240    24.0250     2.2860   -12.1760 
  205.1250    53.8830    28.5180    27.3050    32.6420    24.0260     2.2910   -11.8280 
  205.2500    56.0910    26.3220    25.1320    29.1780    24.0260     2.3030   -11.4140 
  205.3750    58.4060    24.4630    23.2610    25.6230    24.0250     2.3210   -11.0090 
  205.5000    58.3270    23.3430    22.0360    23.1590    24.0170     2.3410   -10.6650 
  205.6250    58.1720    23.3870    21.8530    22.4290    24.0020     2.3540   -10.3520 
  205.7500    59.9780    24.4140    22.5980    23.3790    23.9870     2.3580   -10.0860 
  205.8750    61.6880    26.1890    24.1080    25.8610    23.9720     2.3530    -9.8840 
  206.0000    61.3850    28.3480    26.0780    29.5470    23.9390     2.3410    -9.7640 
  206.1250    60.1990    30.4490    28.0960    33.3070    23.8850     2.3270    -9.6930 
