~V
VERS. 2.00: Ver 2.00
~W
STRT.M 50.0000:
STOP.M 237.0000:
STEP.M 0.1250:
NULL. -999.2500:
UWI. F10006:
~C
DEPT.M :
GR.API :
RML.OHMM :
RI. :
RXO.OHMM :
CALI.CM :
DEN.GM/CC :
SP.MV :
~A
# ...
  173.7500    64.9010    55.9640    54.6780    55.6230    24.2900     2.2370   -19.5410 
  173.8750    63.4590    56.4560    55.5540    56.6490    24.3780     2.2270   -19.4760 
  174.0000    61.6340    55.5050    55.0510    52.2800    24.4310     2.2240   -19.4080 
  174.1250    60.5540    53.6640    53.5340    49.1670    24.4240     2.2220   -19.3570 
  174.2500    60.8940    52.0370    51.9880    47.4470    24.4040     2.2140   -19.3090 
  174.3750    60.6250    51.3500    51.0900    48.0160    24.3940     2.2020   -19.2560 
  174.5000    59.0000    51.9100    51.1930    50.1730    24.3940     2.2000   -19.2040 
  174.6250    57.1800    53.2690    52.0220    52.0040    24.3920     2.2310   -19.1410 
  174.7500    57.1870    53.7320    52.1480    53.9710    24.3810     2.2910   -19.0620 
  174.8750    57.9500    51.6290    50.0540    58.6360    24.3300     2.3570   -18.9790 
  175.0000    58.7660    46.1700    44.9360    61.4410    24.2190     2.4050   -18.9020 
  175.1250    63.2160    38.0550    37.3350    44.1780    23.9950     2.4200   -18.8160 
  175.2500    70.0970    29.8580    29.5920    25.4710    23.8610     2.4210   -18.7210 
  175.3750    74.8710    23.0840    23.0930    15.3710    23.7400     2.4260   -18.6390 
  175.5000    75.7380    18.2850    18.3550    12.3370    23.5940     2.4430   -18.5700 
  175.6250    76.3200    15.5170    15.4710    12.9080    23.5270     2.4610   -18.5140 
  175.7500    78.8240    13.9800    13.7760    13.1740    23.5120     2.4660   -18.4800 
  175.8750    80.8920    13.2840    12.9730    11.7910    23.5110     2.4530   -18.4600 
  176.0000    80.0490    13.1710    12.8470    10.3310    23.5080     2.4290   -18.4510 
  176.1250    76.7330    13.5540    13.3050    11.1120    23.5060     2.4040   -18.4570 
  176.2500    72.6030    14.2680    14.1170    12.6340    23.5050     2.3870   -18.4800 
  176.3750    68.8760    15.1930    15.1370    14.1840    23.5050     2.3780   -18.5040 
  176.5000    67.0700    16.1300    16.1590    15.0470    23.5040     2.3790   -18.5220 
  176.6250    68.4680    16.7470    16.8470    15.1390    23.5420     2.3830   -18.5300 
  176.7500    71.3930    16.8900    17.0360    15.1150    23.6560     2.3850   -18.5390 
  176.8750    73.2710    16.5860    16.7330    14.7260    23.8110     2.3820   -18.5470 
  177.0000    74.3370    16.0490    16.1300    13.6870    23.9120     2.3780   -18.5500 
  177.1250    76.3710    15.6260    15.5460    12.8810    23.9230     2.3750   -18.5250 
  177.2500    77.9440    15.5540    15.2380    13.1170    23.9190     2.3740   -18.4870 
  177.3750    75.6820    15.8990    15.3030    14.7380    23.9380     2.3700   -18.4500 
  177.5000    71.2770    16.5690    15.7050    16.8880    23.9340     2.3610   -18.4190 
  177.6250    70.5020    17.3210    16.2880    17.6060    23.9440     2.3460   -18.3970 
  177.7500    72.9940    17.8430    16.7790    16.9250    23.9740     2.3320   -18.3810 
  177.8750    75.1270    17.9500    16.9990    15.9740    24.0200     2.3260   -18.3830 
  178.0000    74.8470    17.5920    16.8690    15.0030    24.0570     2.3290   -18.4040 
  178.1250    74.0300    16.8210    16.3740    14.1810    24.0690     2.3390   -18.4630 
  178.2500    73.0680    15.8960    15.6840    13.3230    24.0400     2.3520   -18.5430 
  178.3750    72.2930    14.9890    14.9200    12.3680    23.9680     2.3670   -18.6370 
  178.5000    72.5140    14.2320    14.1970    11.6610    23.8710     2.3830   -18.7490 
  178.6250    72.9700    13.7640    13.6380    11.0660    23.8110     2.3980   -18.8810 
  178.7500    72.7710    13.5820    13.2790    10.9790    23.7690     2.4060   -19.0130 
  178.8750    72.3360    13.6740    13.1430    11.5790    23.7470     2.4040   -19.1230 
  179.0000    71.5780    14.0010    13.2390    12.3580    23.7320     2.3960   -19.2100 
  179.1250    69.6780    14.5340    13.6010    12.7110    23.6680     2.3840   -19.2830 
  179.2500    68.1640    15.1730    14.1530    13.0530    23.6270     2.3740   -19.3280 
  179.3750    69.0640    15.8500    14.8190    13.7730    23.6090     2.3660   -19.3370 
  179.5000    70.8540    16.4840    15.4920    14.5160    23.5880     2.3580   -19.3110 
  179.6250    70.1250    16.9650    16.0330    14.5050    23.5850     2.3520   -19.2530 
  179.7500    68.5390    17.2580    16.3990    13.7200    23.5470     2.3480   -19.1700 
  179.8750    69.2260    17.3710    16.6050    13.5240    23.3900     2.3470   -19.0910 
  180.0000    71.8620    17.3720    16.7050    13.9770    23.2040     2.3480   -19.0280 
  180.1250    71.4040    17.3780    16.7710    14.2380    23.2590     2.3510   -18.9880 
  180.2500    68.1680    17.5010    16.8680    14.5770    23.4730     2.3540   -18.9780 
  180.3750    65.1860    17.7940    17.0300    15.1080    23.6430     2.3570   -19.0090 
  180.5000    64.5200    18.2440    17.2690    15.7100    23.7160     2.3570   -19.0800 
  180.6250    65.1160    18.7830    17.5810    16.5440    23.7260     2.3530   -19.1740 
  180.7500    65.7970    19.2970    17.9090    17.5580    23.7820     2.3440   -19.2800 
  180.8750    67.2200    19.7280    18.2040    18.1480    23.8700     2.3310   -19.4090 
  181.0000    68.5310    20.0840    18.4460    17.9860    23.9300     2.3180   -19.5480 
  181.1250    67.4080    20.4830    18.6920    17.3720    23.9790     2.3060   -19.6780 
  181.2500    65.5180    21.1130    19.0870    17.6440    24.0000     2.2910   -19.8060 
  181.3750    65.4090    22.1590    19.7950    19.1370    24.0090     2.2760   -19.9190 
  181.5000    66.7480    23.7680    20.9470    20.7320    24.0120     2.2700   -20.0150 
  181.6250    66.8900    26.0750    22.6790    22.2160    23.9880     2.2970   -20.1010 
  181.7500    66.7690    28.8160    24.8070    23.7080    23.9230     2.3540   -20.1910 
  181.8750    66.2050    31.6580    27.1050    25.7520    23.8770     2.4190   -20.2660 
  182.0000    65.3450    34.1670    29.2600    27.8240    23.8930     2.4570   -20.3360 
  182.1250    66.1730    35.7740    30.8420    30.7130    23.8880     2.4370   -20.3980 
  182.2500    68.1180    36.4300    31.7260    31.3370    23.8210     2.3760   -20.4630 
  182.3750    69.9410    36.2890    31.9390    29.9800    23.8810     2.3080   -20.5370 
  182.5000    70.2880    35.7130    31.6880    28.8680    23.9920     2.2610   -20.6260 
  182.6250    70.2070    35.1740    31.2850    28.3620    24.0490     2.2500   -20.7570 
  182.7500    70.7230    35.0160    31.0540    28.4210    24.0370     2.2590   -20.9300 
  182.8750    70.6710    35.3860    31.1540    28.7450    24.0310     2.2740   -21.1490 
  183.0000    69.7130    36.3110    31.6460    29.9640    24.0490     2.2840   -21.4170 
  183.1250    66.0530    37.8310    32.6000    32.7160    24.0620     2.2840   -21.7110 
  183.2500    62.3030    39.8290    33.9890    35.6400    24.0630     2.2790   -22.0200 
  183.3750    60.9720    42.3060    35.9060    37.8250    24.0500     2.2760   -22.3470 
  183.5000    62.4020    45.2280    38.4310    39.7840    24.0280     2.2800   -22.7020 
  183.6250    66.5370    48.4180    41.5830    42.1530    24.0230     2.2940   -23.0710 
  183.7500    69.6200    51.4000    44.9680    46.9210    24.0050     2.3080   -23.4510 
  183.8750    70.5170    53.7690    48.1990    55.3510    23.9300     2.3100   -23.8460 
  184.0000    69.3310    55.3690    50.9760    63.2920    23.8230     2.2960   -24.2370 
  184.1250    65.8760    56.3690    53.1380    62.5770    23.8400     2.2750   -24.6440 
  184.2500    60.4630    57.2100    54.8210    52.9970    23.9760     2.2780   -25.0540 
  184.3750    55.9400    57.7190    55.7860    52.1560    24.1110     2.3260   -25.4360 
  184.5000    54.7920    56.8610    55.1770    62.5920    24.1980     2.4140   -25.7420 
  184.6250    55.8700    52.3580    50.9980    67.3810    24.1750     2.5000   -25.8960 
  184.7500    59.2070    44.0810    43.2030    54.4730    24.0260     2.5390   -25.8480 
  184.8750    65.3500    33.4950    33.1790    35.8740    23.8750     2.5180   -25.5530 
