~V
VERS. 2.00: Ver 2.00
~W
STRT.M 56.0000:
STOP.M 269.0000:
STEP.M 0.1250:
NULL. -999.2500:
UWI. F10026:
~C
DEPT.M :
GR.API :
RML.OHMM :
RI. :
RXO.OHMM :
CALI.CM :
DEN.GM/CC :
SP.MV :
~A
# ...
  101.0000    83.9820     6.9760     6.0510     7.1410    23.7640     2.2250   -23.4150 
  101.1250    87.6580     7.0680     6.0910     7.2430    23.5830     2.2310   -23.2470 
  101.2500    91.4690     7.0180     6.0470     6.9780    23.4050     2.2440   -23.0860 
  101.3750    91.6270     6.8100     5.9180     6.4830    23.3510     2.2600   -22.9470 
  101.5000    87.9770     6.4760     5.7230     6.0760    23.3580     2.2750   -22.8240 
  101.6250    85.4470     6.0960     5.5040     5.9420    23.3950     2.2860   -22.7280 
  101.7500    87.6510     5.7890     5.3250     5.7040    23.5220     2.2940   -22.6470 
  101.8750    92.6800     5.6550     5.2410     5.6530    23.7150     2.3040   -22.5760 
  102.0000    94.0930     5.7690     5.2970     5.8960    23.9310     2.3200   -22.5200 
  102.1250    89.8910     6.1770     5.5420     6.2150    24.0160     2.3460   -22.4680 
  102.2500    86.6140     6.7340     5.9140     6.9630    24.0460     2.3730   -22.4290 
  102.3750    86.6160     7.2570     6.3180     8.0260    24.0670     2.3910   -22.3980 
  102.5000    86.7940     7.5480     6.6240     8.6740    24.0920     2.3910   -22.3800 
  102.6250    85.0780     7.4320     6.6820     7.8690    24.0830     2.3760   -22.3870 
  102.7500    87.5910     7.0410     6.5220     7.2780    24.0640     2.3600   -22.4330 
  102.8750    93.7530     6.5600     6.2310     6.7490    24.0820     2.3510   -22.5290 
  103.0000    98.2380     6.2080     5.9310     6.1120    24.1340     2.3480   -22.6680 
  103.1250    95.6100     6.1460     5.7230     5.9260    24.1750     2.3440   -22.8440 
  103.2500    90.2760     6.2590     5.6080     5.9350    24.2090     2.3320   -23.0560 
  103.3750    87.8510     6.3100     5.5440     6.0010    24.2370     2.3190   -23.2870 
  103.5000    89.2180     6.2350     5.4830     6.0070    24.2480     2.3130   -23.5540 
  103.6250    92.7620     6.0530     5.3980     5.9460    24.2300     2.3220   -23.8630 
  103.7500    95.1930     5.8710     5.3180     5.7170    24.1970     2.3400   -24.1930 
  103.8750    95.6390     5.8070     5.2930     5.4330    24.1760     2.3560   -24.5550 
  104.0000    94.9920     5.9570     5.3710     5.2870    24.1750     2.3590   -24.9470 
  104.1250    94.8740     6.3660     5.5850     5.5220    24.1240     2.3410   -25.3690 
  104.2500    94.2870     6.8760     5.8640     6.1400    23.9510     2.3120   -25.7990 
  104.3750    91.5720     7.2790     6.1060     6.9280    23.6880     2.2830   -26.2430 
  104.5000    88.4790     7.3590     6.1860     7.4030    23.3820     2.2640   -26.6880 
  104.6250    86.9280     6.9640     5.9990     7.2260    23.1630     2.2600   -27.1350 
  104.7500    88.5810     6.3790     5.6810     6.5110    23.0070     2.2670   -27.6130 
  104.8750    93.4980     5.9970     5.4500     5.9140    22.9560     2.2890   -28.1270 
  105.0000    97.2290     6.2300     5.5570     5.6680    22.9630     2.3320   -28.6850 
  105.1250    92.4890     7.5200     6.3300     6.4960    23.0370     2.4020   -29.2940 
  105.2500    82.5130     9.6720     7.7560    10.9250    23.2210     2.4790   -29.9390 
  105.3750    73.8840    12.1880     9.6180    26.5340    23.5030     2.5290   -30.6080 
  105.5000    69.2520    14.1490    11.3270    43.6650    23.7900     2.5270   -31.2610 
  105.6250    68.0740    14.3110    11.9030    34.4410    23.8930     2.4600   -31.8690 
  105.7500    67.9380    12.8860    11.2540    18.3810    23.9350     2.3650   -32.4030 
  105.8750    67.6850    10.7350     9.8770    10.9640    24.0150     2.2760   -32.8460 
  106.0000    67.3640     8.8280     8.4620     8.8470    24.0450     2.2160   -33.2030 
  106.1250    68.2510     7.8480     7.5500     8.4990    23.9400     2.1890   -33.4860 
  106.2500    69.6240     7.6390     7.1460     8.2510    23.8360     2.1780   -33.7290 
  106.3750    70.5310     7.9290     7.1290     8.3010    23.8450     2.1740   -33.9490 
  106.5000    70.8230     8.4080     7.3320     8.7110    23.7690     2.1710   -34.1570 
  106.6250    70.0260     8.7930     7.5960     9.2710    23.8490     2.1710   -34.3740 
  106.7500    68.1070     8.9790     7.8110     9.6840    24.0310     2.1700   -34.6120 
  106.8750    65.0530     8.9830     7.9430     9.8230    24.1490     2.1640   -34.8730 
  107.0000    62.9560     8.8870     7.9980     9.8260    24.1110     2.1490   -35.1400 
  107.1250    64.6580     8.7990     7.9860     9.8580    24.0420     2.1250   -35.3880 
  107.2500    66.1420     8.7830     7.9430     9.9060    24.0050     2.1070   -35.6050 
  107.3750    64.5650     8.8400     7.8800     9.8700    23.9290     2.1060   -35.7850 
  107.5000    61.1620     8.9270     7.8040     9.8480    23.7980     2.1250   -35.9410 
  107.6250    62.2280     8.9710     7.7200     9.9800    23.7500     2.1540   -36.0470 
  107.7500    66.5620     8.9380     7.6400    10.1170    23.8020     2.1730   -36.0940 
  107.8750    67.5290     8.8440     7.5750    10.0720    23.8970     2.1740   -36.0590 
  108.0000    62.8090     8.7420     7.5440     9.9400    24.0460     2.1620   -35.9360 
  108.1250    56.7360     8.7180     7.5730     9.7440    24.2140     2.1500   -35.7240 
  108.2500    54.6180     8.8080     7.6630     9.5340    24.1710     2.1460   -35.4360 
  108.3750    56.2740     9.0120     7.8080     9.3950    23.8850     2.1480   -35.0930 
  108.5000    59.5400     9.2920     7.9840     9.3400    23.5720     2.1510   -34.7040 
  108.6250    62.0780     9.5700     8.1490     9.1700    23.3940     2.1510   -34.2620 
  108.7500    62.2170     9.7710     8.2720     8.9870    23.2510     2.1470   -33.7770 
  108.8750    62.0860     9.8370     8.3360     8.8640    23.1390     2.1430   -33.2740 
  109.0000    65.2720     9.7310     8.3210     8.7480    23.0570     2.1410   -32.7640 
  109.1250    69.0500     9.4100     8.1850     8.7570    23.0990     2.1460   -32.2580 
  109.2500    68.8140     8.9460     7.9310     8.9880    23.0430     2.1630   -31.7790 
  109.3750    67.3610     8.4220     7.5820     9.0490    23.2330     2.1940   -31.3370 
  109.5000    69.2250     7.9560     7.2030     8.5080    23.6390     2.2350   -30.9470 
  109.6250    72.6250     7.7140     6.9220     7.5870    24.1310     2.2670   -30.5990 
  109.7500    71.9280     7.7530     6.8280     7.4040    24.0610     2.2760   -30.2730 
  109.8750    67.7860     8.0760     6.9670     8.1820    23.9490     2.2580   -29.9690 
  110.0000    65.0180     8.6050     7.3200     9.3710    23.9320     2.2190   -29.6540 
  110.1250    66.2440     9.1400     7.7810     9.6120    23.8470     2.1750   -29.2760 
  110.2500    68.6870     9.4280     8.1330     9.2700    23.5650     2.1390   -28.8210 
  110.3750    69.9940     9.3130     8.2040     8.9020    23.2210     2.1190   -28.2840 
  110.5000    71.5800     8.7910     7.9200     8.4950    23.0460     2.1180   -27.6710 
  110.6250    75.8940     8.0100     7.3290     7.8100    22.9100     2.1430   -27.0280 
  110.7500    82.1210     7.2520     6.6640     6.8730    22.7500     2.1830   -26.4180 
  110.8750    86.7710     6.6590     6.0800     5.8440    22.7200     2.2270   -25.8580 
  111.0000    85.9510     6.2780     5.6650     5.4750    22.9490     2.2600   -25.3840 
  111.1250    81.1740     6.0950     5.4610     5.6950    23.0180     2.2730   -25.0360 
  111.2500    79.3730     6.0050     5.3920     6.0350    23.0030     2.2770   -24.7920 
  111.3750    82.7240     5.9530     5.3930     6.1430    23.1430     2.2820   -24.6260 
  111.5000    87.6680     5.9090     5.4070     5.8860    23.2540     2.2950   -24.5360 
  111.6250    88.3520     5.8830     5.4040     5.6720    23.4650     2.3130   -24.5270 
  111.7500    85.0090     5.9010     5.4030     5.5020    23.6760     2.3270   -24.5490 
  111.8750    81.2960     5.9870     5.4480     5.6610    23.8900     2.3340   -24.5940 
  112.0000    80.2150     6.1540     5.5780     6.0640    24.0040     2.3320   -24.6720 
  112.1250    79.3990     6.3920     5.8140     6.5560    24.0170     2.3220   -24.7960 
