~V
VERS. 2.00: Ver 2.00
~W
STRT.M 51.0000:
STOP.M 262.0000:
STEP.M 0.1250:
NULL. -999.2500:
UWI. F10019:
~C
DEPT.M :
DEN.GM/CC :
SP.MV :
GR.API :
CALI.CM :
RXO.OHMM :
RI. :
RML.OHMM :
~A
   51.0000     1.9010  -999.2500  -999.2500  -999.2500  -999.2500  -999.2500  -999.2500 
   51.1250     1.9370  -999.2500  -999.2500  -999.2500  -999.2500  -999.2500  -999.2500 
   51.2500     1.9560  -999.2500  -999.2500  -999.2500  -999.2500  -999.2500  -999.2500 
   51.3750     1.9690  -999.2500  -999.2500  -999.2500  -999.2500  -999.2500  -999.2500 
   51.5000     2.0000  -999.2500  -999.2500  -999.2500  -999.2500  -999.2500  -999.2500 
   51.6250     2.0470  -999.2500  -999.2500  -999.2500  -999.2500  -999.2500  -999.2500 
   51.7500     2.0860  -999.2500  -999.2500  -999.2500  -999.2500  -999.2500  -999.2500 
   51.8750     2.0970  -999.2500  -999.2500  -999.2500  -999.2500  -999.2500  -999.2500 
   52.0000     2.0780  -999.2500  -999.2500  -999.2500  -999.2500  -999.2500  -999.2500 
   52.1250     2.0550  -999.2500  -999.2500  -999.2500  -999.2500  -999.2500  -999.2500 
   52.2500     2.0330  -999.2500  -999.2500  -999.2500  -999.2500  -999.2500  -999.2500 
   52.3750     2.0040  -999.2500  -999.2500  -999.2500  -999.2500  -999.2500  -999.2500 
   52.5000     1.9680  -999.2500  -999.2500  -999.2500  -999.2500  -999.2500  -999.2500 
   52.6250     1.9450  -999.2500  -999.2500  -999.2500  -999.2500  -999.2500  -999.2500 
   52.7500     1.9440  -999.2500  -999.2500  -999.2500  -999.2500  -999.2500  -999.2500 
   52.8750     1.9500  -999.2500  -999.2500  -999.2500  -999.2500  -999.2500  -999.2500 
   53.0000     1.9440  -999.2500  -999.2500  -999.2500  -999.2500  -999.2500  -999.2500 
   53.1250     1.9360  -999.2500  -999.2500  -999.2500  -999.2500  -999.2500  -999.2500 
   53.2500     1.9370  -999.2500  -999.2500  -999.2500  -999.2500  -999.2500  -999.2500 
   53.3750     1.9520   -57.8040  -999.2500  -999.2500  -999.2500  -999.2500  -999.2500 
   53.5000     1.9680   -57.8040  -999.2500  -999.2500  -999.2500  -999.2500  -999.2500 
   53.6250     1.9740   -57.4650  -999.2500  -999.2500  -999.2500  -999.2500  -999.2500 
   53.7500     1.9690   -57.8680  -999.2500  -999.2500  -999.2500  -999.2500  -999.2500 
   53.8750     1.9580   -58.8650  -999.2500  -999.2500  -999.2500  -999.2500  -999.2500 
   54.0000     1.9470   -60.3780  -999.2500  -999.2500  -999.2500  -999.2500  -999.2500 
   54.1250     1.9570   -62.1680  -999.2500  -999.2500  -999.2500  -999.2500  -999.2500 
   54.2500     2.0050   -64.1230  -999.2500  -999.2500  -999.2500  -999.2500  -999.2500 
   54.3750     2.0580   -66.0330  -999.2500  -999.2500  -999.2500  -999.2500  -999.2500 
   54.5000     2.0120   -67.5810  -999.2500  -999.2500  -999.2500  -999.2500  -999.2500 
   54.6250     1.8910   -68.5120  -999.2500  -999.2500  -999.2500  -999.2500  -999.2500 
   54.7500     1.8270   -68.6940  -999.2500  -999.2500  -999.2500  -999.2500  -999.2500 
   54.8750     1.9010   -68.1680  -999.2500  -999.2500  -999.2500  -999.2500  -999.2500 
   55.0000     2.0140   -66.9770     0.0010    -0.8000     0.0240     0.2080     5.4260 
   55.1250     2.0350   -65.3920     0.0010    -0.8000     0.0240     0.2080     5.4260 
   55.2500     1.9870   -63.5560    42.9870    18.5410     0.0230     0.2080     5.4260 
   55.3750     1.9440   -61.6830    57.8580    25.1910     0.0180     0.2080     5.2350 
   55.5000     1.9360   -60.0140    58.3310    25.2480     0.0110     0.2160     5.3760 
   55.6250     1.9410   -58.7490    60.0540    25.2270     0.0090     0.2270     5.8690 
   55.7500     1.9500   -57.9110    62.0260    25.2330     0.0130     0.2350     6.6040 
   55.8750     1.9620   -57.4070    61.7790    25.2330     0.0270     0.2390     7.4420 
   56.0000     1.9720   -57.1770    58.2710    25.2090     0.0380     0.2400     8.2920 
   56.1250     1.9710   -57.0200    54.6510    25.1880     0.0350     0.2420     9.1530 
   56.2500     1.9630   -56.8990    51.6430    25.2010     0.0210     0.2430     9.9960 
   56.3750     1.9600   -56.8220    49.1760    25.2310     0.0120     0.2410    10.7100 
   56.5000     1.9710   -56.8980    46.3810    25.2450     0.0130     0.2360    11.0450 
   56.6250     1.9810   -57.1210    43.7040    25.2480     0.0150     0.2360    11.0110 
   56.7500     1.9810   -57.5670    42.0150    25.2480     0.0150     0.2400    10.7780 
   56.8750     1.9810   -58.2670    41.8960    25.2480     0.0120     0.2450    10.4680 
   57.0000     1.9840   -59.1410    43.1310    25.2480     0.0080     0.2500     9.8580 
   57.1250     1.9780   -60.0270    44.0700    25.2500     0.0090     0.2540     8.8180 
   57.2500     1.9560   -60.7670    44.1740    25.2540     0.0380     0.2580     7.4180 
   57.3750     1.9310   -61.2930    43.6320    25.2550     0.1050     0.2620     5.9680 
   57.5000     1.9250   -61.5000    42.1310    25.2520     0.1670     0.2630     4.9750 
   57.6250     1.9410   -61.5070    40.9870    25.2500     0.1810     0.2580     4.5740 
   57.7500     1.9640   -61.3110    40.6360    25.2470     0.1710     0.2500     4.6390 
   57.8750     1.9740   -60.9150    41.2970    25.2440     0.1750     0.2430     4.9060 
   58.0000     1.9600   -60.4250    43.3150    25.2400     0.2080     0.2400     5.0930 
   58.1250     1.9360   -60.0330    45.5590    25.2280     0.2670     0.2390     5.0470 
   58.2500     1.9180   -59.8880    45.9980    25.2040     0.3550     0.2420     4.7240 
   58.3750     1.9130   -60.0240    44.4880    25.1780     0.4810     0.2460     4.2520 
   58.5000     1.9230   -60.5260    43.2560    25.1650     0.5670     0.2490     3.9020 
   58.6250     1.9370   -61.2590    43.2120    25.1620     0.5580     0.2470     3.7840 
   58.7500     1.9490   -62.1580    43.2420    25.1620     0.4910     0.2420     3.8410 
   58.8750     1.9540   -63.1530    44.0030    25.1620     0.4330     0.2390     3.9060 
   59.0000     1.9480   -64.1370    46.2560    25.1610     0.3840     0.2430     3.7160 
   59.1250     1.9280   -65.0690    49.8290    25.1540     0.2870     0.2470     3.2680 
   59.2500     1.8930   -65.9370    54.5540    25.1410     0.2350     0.2430     2.7980 
   59.3750     1.8490   -66.7460    59.5930    25.1310     0.2750     0.2300     2.5580 
   59.5000     1.8130   -67.4280    62.4990    25.1240     0.4160     0.2120     2.6870 
   59.6250     1.7930   -67.8960    62.5800    25.0960     0.4210     0.1980     3.0390 
   59.7500     1.7920   -68.1170    62.4350    25.0270     0.4480     0.1980     3.4920 
   59.8750     1.8040   -68.1130    64.1070    24.8280     0.4830     0.2170     3.8870 
   60.0000     1.8250   -67.9760    66.3210    24.4930     0.5050     0.2440     3.9550 
   60.1250     1.8470   -67.7620    66.6380    24.3060     0.5000     0.2660     3.6410 
   60.2500     1.8710   -67.4800    64.1820    24.4590     0.5500     0.2780     3.0710 
   60.3750     1.9000   -67.1000    60.1530    24.8580     0.6540     0.2820     2.4680 
   60.5000     1.9420   -66.6610    56.3940    25.1460     0.6430     0.2810     2.0240 
   60.6250     1.9810   -66.2770    53.4940    25.2230     0.5760     0.2810     1.7990 
   60.7500     1.9940   -66.0710    51.7610    25.1140     0.5630     0.2850     1.8380 
   60.8750     1.9780   -66.0810    51.2340    24.9130     0.6290     0.2950     2.1170 
   61.0000     1.9580   -66.3130    51.6190    24.6760     0.7250     0.3120     2.4800 
   61.1250     1.9550   -66.6790    50.9840    24.4790     0.8080     0.3340     2.6940 
   61.2500     1.9630   -67.1280    49.1820    24.3590     0.8370     0.3520     2.7350 
   61.3750     1.9660   -67.6060    48.0240    24.3360     0.8150     0.3590     2.7130 
   61.5000     1.9520   -68.0520    48.9350    24.3760     0.7750     0.3500     2.6680 
   61.6250     1.9310   -68.4300    50.2540    24.3740     0.7720     0.3310     2.5460 
   61.7500     1.9130   -68.8040    50.7540    24.3090     0.8010     0.3000     2.3270 
   61.8750     1.9100   -69.2780    49.6670    24.2720     0.7950     0.2600     2.0690 
   62.0000     1.9260   -69.9890    47.5470    24.3730     0.7300     0.2260     1.9060 
   62.1250     1.9500   -70.8580    45.9890    24.5510     0.7000     0.2040     1.9020 
