~V
VERS. 2.00: Ver 2.00
~W
STRT.M 60.0000:
STOP.M 245.0000:
STEP.M 0.1250:
NULL. -999.2500:
UWI. F10050:
~C
DEPT.M :
SP.MV :
GR.API :
RML.OHMM :
RI. :
RXO.OHMM :
CALI.CM :
DEN.GM/CC :
~A
# ...
  138.7500   -29.6730    59.3830    24.4820    22.9960    23.3360    23.2410     2.1970 
  138.8750   -29.6900    60.9990    25.0030    23.5560    23.9620    23.2440     2.2000 
  139.0000   -29.6950    60.1450    25.5090    24.0860    24.7670    23.3380     2.1930 
  139.1250   -29.7040    60.2670    25.8970    24.5000    25.4870    23.6500     2.1820 
  139.2500   -29.7340    62.6470    26.1410    24.7750    25.8300    24.0880     2.1740 
  139.3750   -29.7190    65.1810    26.2640    24.9160    25.8160    24.3280     2.1720 
  139.5000   -29.7060    65.3240    26.3070    24.9630    25.8050    24.3890     2.1760 
  139.6250   -29.7180    62.2090    26.2940    24.9590    25.6530    24.3990     2.1810 
  139.7500   -29.7090    58.8190    26.2370    24.9470    25.4820    24.4200     2.1830 
  139.8750   -29.6900    57.4070    26.1400    24.9470    25.4680    24.4390     2.1810 
  140.0000   -29.6750    57.2530    26.0210    24.9620    25.9050    24.4460     2.1770 
  140.1250   -29.6400    56.9610    25.9160    24.9780    25.8490    24.4520     2.1750 
  140.2500   -29.5920    57.8880    25.8640    24.9860    25.2210    24.4730     2.1750 
  140.3750   -29.5590    59.8630    25.8700    24.9850    24.7340    24.5220     2.1760 
  140.5000   -29.4850    60.0970    25.8800    24.9590    25.4190    24.5940     2.1760 
  140.6250   -29.3940    58.7480    25.7610    24.8370    26.9180    24.6530     2.1740 
  140.7500   -29.2900    59.5080    25.4400    24.5660    27.2590    24.7440     2.1750 
  140.8750   -29.1770    62.6130    24.9070    24.1190    26.3500    24.8720     2.1870 
  141.0000   -29.0570    64.9190    24.2160    23.5120    24.4420    24.9540     2.2080 
  141.1250   -28.9150    64.7660    23.4800    22.8170    22.9350    24.9740     2.2210 
  141.2500   -28.7460    64.8310    22.8450    22.1820    22.3380    24.9420     2.2140 
  141.3750   -28.6040    65.0690    22.4110    21.7160    22.3080    24.8260     2.1940 
  141.5000   -28.4650    64.5690    22.2290    21.4820    21.6820    24.5870     2.1850 
  141.6250   -28.2820    63.7630    22.3360    21.5140    20.5420    24.3750     2.2260 
  141.7500   -28.1350    61.7310    22.6370    21.7240    19.4800    24.0260     2.3150 
  141.8750   -27.9970    58.2870    23.0620    22.0570    19.0300    23.4760     2.4250 
  142.0000   -27.8420    56.5150    23.5650    22.4860    19.7470    22.8520     2.5150 
  142.1250   -27.7240    57.9980    24.1620    23.0310    20.9050    22.6020     2.5560 
  142.2500   -27.6580    59.5450    24.8560    23.6860    21.8230    22.5210     2.5720 
  142.3750   -27.5930    61.8470    25.6220    24.4310    23.4490    22.4490     2.5800 
  142.5000   -27.5300    66.6720    26.3590    25.1830    26.4610    22.3210     2.5860 
  142.6250   -27.5510    71.9240    26.8430    25.7390    29.5700    22.1690     2.5810 
  142.7500   -27.5780    74.2530    26.9690    25.9540    28.1740    22.1510     2.5640 
  142.8750   -27.6010    72.7620    26.7590    25.7850    25.8580    22.3040     2.5410 
  143.0000   -27.6570    69.2710    26.3600    25.3320    24.4480    22.6120     2.5170 
  143.1250   -27.7030    67.3310    25.9750    24.7990    23.7070    22.8420     2.4980 
  143.2500   -27.7460    68.6860    25.7290    24.3900    22.9570    22.8430     2.4860 
  143.3750   -27.7930    69.7970    25.6840    24.2020    23.3710    22.6600     2.4750 
  143.5000   -27.8460    68.4780    25.9150    24.2960    24.3290    22.4330     2.4610 
  143.6250   -27.9020    68.5060    26.5920    24.8010    24.0180    22.3790     2.4500 
  143.7500   -27.9620    70.4500    27.6440    25.6580    24.1960    22.4160     2.4560 
  143.8750   -28.0070    70.7030    28.8770    26.7310    25.2800    22.4520     2.4830 
  144.0000   -28.0710    69.2390    29.9650    27.7530    28.2110    22.4890     2.5180 
  144.1250   -28.1660    70.8920    30.4640    28.3130    32.6440    22.5790     2.5340 
  144.2500   -28.2240    73.7980    30.3070    28.2780    33.1840    22.7110     2.5230 
  144.3750   -28.2860    73.4600    29.6400    27.7270    28.2440    22.8240     2.4940 
  144.5000   -28.3820    69.7490    28.7610    26.9150    23.9710    22.8780     2.4690 
  144.6250   -28.4290    68.5180    27.9970    26.1540    23.1020    22.8250     2.4670 
  144.7500   -28.4550    69.9910    27.4600    25.5960    24.6240    22.7010     2.4780 
  144.8750   -28.4950    71.0880    27.0540    25.2020    26.5510    22.7000     2.4890 
  145.0000   -28.4910    72.0570    26.5620    24.8020    26.1260    22.9910     2.4930 
  145.1250   -28.4100    74.6480    25.7600    24.1750    24.9600    23.3440     2.4880 
  145.2500   -28.2930    75.6750    24.7340    23.3220    25.1420    23.5310     2.4840 
  145.3750   -28.0880    74.7110    23.6710    22.3610    24.8200    23.5800     2.4880 
  145.5000   -27.7340    74.3940    22.7510    21.4470    23.9930    23.5840     2.4960 
  145.6250   -27.2780    76.0960    22.1050    20.7370    23.5760    23.5810     2.4990 
  145.7500   -26.7200    77.5730    21.7110    20.2660    22.6940    23.5630     2.4900 
  145.8750   -26.0760    79.1960    21.5800    20.0680    22.0510    23.5290     2.4720 
  146.0000   -25.4450    80.0550    21.7500    20.1680    22.0890    23.5010     2.4540 
  146.1250   -24.8860    75.7570    22.2530    20.5730    22.6980    23.4540     2.4500 
  146.2500   -24.3640    68.7850    22.8490    21.0740    23.2260    23.3250     2.4640 
  146.3750   -23.9330    63.7470    23.2320    21.4100    24.1130    23.1090     2.4890 
  146.5000   -23.6250    64.0390    23.0930    21.3120    24.9950    22.9510     2.5140 
  146.6250   -23.4390    67.6860    22.2030    20.5630    24.0720    22.9000     2.5250 
  146.7500   -23.3930    69.9920    20.8780    19.4150    20.4380    22.8950     2.5260 
  146.8750   -23.3970    69.9660    19.4840    18.1570    16.4040    22.8920     2.5270 
  147.0000   -23.3930    67.6750    18.3490    17.0590    13.0720    22.8740     2.5400 
  147.1250   -23.4000    64.8050    17.7020    16.3210    12.3250    22.8130     2.5620 
  147.2500   -23.3980    61.5520    17.4150    15.8750    12.8570    22.7320     2.5790 
  147.3750   -23.3970    59.3290    17.3290    15.6120    13.6690    22.7590     2.5830 
  147.5000   -23.3920    60.3870    17.2900    15.4160    13.8940    22.9800     2.5770 
  147.6250   -23.3600    63.4350    17.2030    15.2330    13.0470    23.2940     2.5660 
  147.7500   -23.3310    65.1280    17.1130    15.1030    12.5810    23.4820     2.5570 
  147.8750   -23.3520    64.5700    17.1100    15.1050    13.2010    23.5810     2.5510 
  148.0000   -23.3610    62.0300    17.2750    15.3030    14.8460    23.6130     2.5450 
  148.1250   -23.3210    60.3270    17.7090    15.7420    16.4830    23.5800     2.5400 
  148.2500   -23.3060    58.2480    18.3690    16.3270    17.6390    23.5210     2.5400 
  148.3750   -23.2860    56.5560    19.1640    16.9600    18.5280    23.4520     2.5480 
  148.5000   -23.2500    56.2850    19.9310    17.5290    19.0480    23.3830     2.5600 
  148.6250   -23.2400    56.5090    20.4360    17.9050    19.9780    23.2940     2.5690 
  148.7500   -23.2230    56.1570    20.6130    18.0690    20.0290    23.2270     2.5710 
  148.8750   -23.1460    55.4320    20.4960    18.0360    19.1460    23.2710     2.5660 
  149.0000   -23.0730    56.5360    20.1820    17.8420    18.0010    23.4030     2.5580 
  149.1250   -23.0510    59.4540    19.7390    17.4920    18.1660    23.4730     2.5540 
  149.2500   -23.0180    60.3860    19.1840    17.0070    18.4330    23.4890     2.5570 
  149.3750   -22.9750    59.1680    18.4780    16.3720    18.1130    23.4770     2.5650 
  149.5000   -22.9620    56.9420    17.6130    15.5860    16.8450    23.4580     2.5760 
  149.6250   -22.9320    56.1950    16.3890    14.6950    15.2850    23.4500     2.5850 
  149.7500   -22.9100    58.7110    14.7460    13.8440    14.2770    23.4510     2.5870 
  149.8750   -22.9210    62.5120    14.1530    13.1690    14.0750    23.4430     2.5820 
