~V
VERS. 2.00: Ver 2.00
~W
STRT.M 55.0000:
STOP.M 297.0000:
STEP.M 0.1250:
NULL. -999.2500:
UWI. F10076:
~C
DEPT.M :
DEN.GM/CC :
SP.MV :
GR.API :
CALI.CM :
RXO.OHMM :
RI. :
RML.OHMM :
~A
# ...
  280.0000     2.2710   -12.2980    72.0420    24.2540     7.2820     5.9080     7.8420 
  280.1250     2.2880   -12.4490    76.5800    24.2770     6.8820     6.3330     8.2820 
  280.2500     2.3050   -12.4350    80.7460    24.4120     6.7180     6.6380     8.5470 
  280.3750     2.3070   -12.2700    82.0820    24.7400     7.1000     6.8370     8.6620 
  280.5000     2.2950   -12.0110    81.9440    25.2940     7.4810     6.9840     8.7160 
  280.6250     2.2770   -11.6750    81.8410    25.7090     7.7450     7.1680     8.8450 
  280.7500     2.2650   -11.3060    81.2020    25.5900     8.0080     7.4350     9.1070 
  280.8750     2.2680   -10.8550    78.9610    25.0420     7.9770     7.7710     9.4760 
  281.0000     2.2890   -10.3640    76.6200    24.4240     8.1530     8.0820     9.8060 
  281.1250     2.3110    -9.8390    77.7620    24.2160     8.3100     8.1330     9.7590 
  281.2500     2.3160    -9.4400    80.8070    24.2130     7.8520     7.8030     9.2100 
  281.3750     2.3080    -9.1640    81.9580    24.3540     6.3680     7.1240     8.2730 
  281.5000     2.2960    -8.9670    77.0960    24.4970     4.8920     6.2720     7.2320 
  281.6250     2.2850    -8.8510    67.0750    24.6640     4.0460     5.4910     6.4000 
  281.7500     2.2740    -8.7410    58.2140    24.9730     3.8390     4.9220     5.8680 
  281.8750     2.2610    -8.6910    52.3410    25.3910     3.8750     4.6040     5.6300 
  282.0000     2.2460    -8.6680    49.6100    25.7590     3.9140     4.5130     5.6220 
  282.1250     2.2340    -8.6360    49.1860    25.9890     3.8770     4.6020     5.7710 
  282.2500     2.2340    -8.5890    48.9020    25.8900     3.8600     4.7460     5.9580 
  282.3750     2.2490    -8.5320    48.8710    25.6860     3.9870     4.8700     6.1030 
  282.5000     2.2730    -8.4360    49.6090    25.3900     4.1870     4.9200     6.1450 
  282.6250     2.2940    -8.2730    50.1270    25.1940     4.1850     4.8590     6.0330 
  282.7500     2.3070    -8.1280    48.1790    24.9950     3.9420     4.7240     5.8250 
  282.8750     2.3150    -7.9700    44.9180    24.7880     3.7340     4.5630     5.5900 
  283.0000     2.3200    -7.8810    42.8530    24.7900     3.8050     4.4210     5.4020 
  283.1250     2.3230    -7.9060    42.3820    24.7710     4.0640     4.3510     5.3310 
  283.2500     2.3200    -7.9210    43.4410    24.7280     4.2200     4.3570     5.3720 
  283.3750     2.3140    -7.9910    45.5580    24.9340     4.3040     4.4330     5.5020 
  283.5000     2.3080    -8.0820    48.3400    25.1410     4.4730     4.5490     5.6740 
  283.6250     2.3080    -8.2140    51.1600    25.0360     4.8040     4.6550     5.8140 
  283.7500     2.3120    -8.3970    52.2760    24.7690     4.8420     4.7080     5.8720 
  283.8750     2.3170    -8.6070    51.3400    24.6020     4.4520     4.6860     5.8300 
  284.0000     2.3180    -8.7840    49.8470    24.6530     3.9620     4.5960     5.7080 
  284.1250     2.3110    -8.9180    49.7050    24.7040     3.8540     4.4730     5.5560 
  284.2500     2.3060    -9.1160    50.7050    24.6000     3.9480     4.3620     5.4300 
  284.3750     2.3080    -9.3790    50.8850    24.5510     3.9580     4.2930     5.3550 
  284.5000     2.3070    -9.7780    50.0960    24.6250     3.8080     4.2790     5.3440 
  284.6250     2.2900   -10.2590    49.9810    24.8310     3.7890     4.3310     5.4070 
  284.7500     2.2700   -10.8370    51.3150    24.9630     4.1720     4.4300     5.5210 
  284.8750     2.2670   -11.5380    53.0970    25.0200     4.6720     4.5660     5.6750 
  285.0000     2.2860   -12.4010    54.3120    25.0410     4.8350     4.7270     5.8490 
  285.1250     2.3180   -13.2600    54.3440    24.9080     4.4370     4.8770     5.9930 
  285.2500     2.3430   -14.0030    52.6730    24.6210     4.1550     4.9580     6.0420 
  285.3750     2.3490   -14.6030    49.7890    24.3820     4.0970     4.9290     5.9580 
  285.5000     2.3350   -15.0180    49.6940    24.3920     4.2180     4.7860     5.7520 
  285.6250     2.3220   -15.1400    53.5990    24.4420     4.1050     4.5680     5.4850 
  285.7500     2.3250   -14.9660    53.5990    24.5140     3.8120     4.3650     5.2610 
  285.8750     2.3400   -14.5640    53.5990    24.6690     3.7080     4.2320     5.1390 
  286.0000     2.3520   -13.9750    53.5990    24.7580     3.9710     4.1840     5.1340 
  286.1250     2.3500   -13.4550    53.5990    24.8930     4.5060     4.2050     5.2130 
  286.2500     2.3390   -13.0570    53.5990    24.9830     4.7230     4.2330     5.2840 
  286.3750     2.3300   -12.7600    53.5990    25.0670     4.5570     4.2290     5.2790 
  286.5000     2.3290   -12.6030    53.5990    25.0970     4.2940     4.1760     5.1730 
  286.6250     2.3340   -12.7310    53.5990    25.0970     4.0840     4.0970     5.0130 
  286.7500     2.3350   -12.9290    53.5990    25.0510     4.0360     4.0620     4.9200 
  286.8750     2.3340   -13.0770    53.5990    24.9580     4.1640     4.1400     4.9870 
  287.0000     2.3390   -13.1330    53.5990    24.7560     4.5290     4.3790     5.2600 
  287.1250     2.3540   -13.0830    53.5990    24.5530     5.5760     4.8140     5.7530 
  287.2500     2.3670   -12.9870    53.5990    24.4380     7.1590     5.3490     6.3320 
  287.3750     2.3660   -12.8360    53.5990    24.3560     8.2120     5.8320     6.8080 
  287.5000     2.3450   -12.6270    53.5990    24.2640     7.8600     6.0590     6.9540 
  287.6250     2.3230   -12.3250    53.5990    24.1790     6.7640     5.8370     6.5830 
  287.7500     2.3200   -12.1630    53.5990    24.1630     5.9710     5.3150     5.9330 
  287.8750     2.3280   -12.2210    53.5990    24.1830     4.9680     4.7010     5.2630 
  288.0000     2.3310   -12.5480    53.5990    24.1770     3.7720     4.1860     4.7740 
  288.1250     2.3250   -13.0400    53.5990    24.2210     3.5720     3.9240     4.5890 
  288.2500     2.3220   -13.6370    53.5990    24.2760     4.1350     3.8910     4.6400 
  288.3750     2.3240   -14.4020    53.5990    24.2500     5.1350     4.0400     4.8630 
  288.5000     2.3270   -15.3050    53.5990    24.1910     5.8080     4.3020     5.1800 
  288.6250     2.3280   -16.2200    53.5990    24.2620     5.6440     4.6130     5.5250 
  288.7500     2.3290   -17.1100    53.5990    24.3920     5.4100     4.9290     5.8590 
  288.8750     2.3280   -17.9460    53.5990    24.4740     5.8260     5.2480     6.1730 
  289.0000     2.3270   -18.6050    53.5990    24.4790     6.7830     5.5660     6.4560 
  289.1250     2.3260   -19.1450    53.5990    24.3980     7.2970     5.8610     6.6830 
  289.2500     2.3310   -19.5200    53.5990    24.4200     7.0220     6.1350     6.8810 
  289.3750     2.3420   -19.7260    53.5990    24.5460     6.3920     6.4310     7.1240 
  289.5000     2.3600   -19.7880    53.5990    24.7690     6.3360     6.8100     7.4950 
  289.6250     2.3770   -19.7820    53.5990    24.9320     7.7090     7.3100     8.0400 
  289.7500     2.3890   -19.7340    53.5990    24.7840     9.7790     7.8510     8.6410 
  289.8750     2.3920   -19.6620    53.5990    24.4970    11.5670     8.3210     9.1560 
  290.0000     2.3850   -19.5750    53.5990    24.2760    11.6330     8.6290     9.4840 
  290.1250     2.3670   -19.4290    53.5990    24.2770     9.6320     8.7440     9.6180 
  290.2500     2.3430   -19.3250    53.5990    24.3430     7.1240     8.7710     9.6720 
  290.3750     2.3160   -19.2260    53.5990    24.3980     6.0400     8.7690     9.6840 
  290.5000     2.2890   -19.1600    53.5990    24.3620     5.5730     8.7560     9.6450 
  290.6250     2.2690   -19.1450    53.5990    24.3040     4.8850     8.7310     9.5650 
  290.7500     2.2530   -19.1840    53.5990    24.2580     4.1190     8.6960     9.5020 
  290.8750     2.2430   -19.2840    53.5990    24.2660     3.8470     8.6610     9.4930 
  291.0000     2.2380   -19.4350    53.5990    24.3660     3.9280     8.6390     9.5350 
  291.1250     2.2350   -19.6110    53.5990    24.3940     4.1870     8.6480     9.5930 
