~V
VERS. 2.00: Ver 2.00
~W
STRT.M 50.0000:
STOP.M 274.0000:
STEP.M 0.1250:
NULL. -999.2500:
UWI. F10029:
~C
DEPT.M :
DEN.GM/CC :
SP.MV :
GR.API :
CALI.CM :
RXO.OHMM :
RI. :
RML.OHMM :
~A
# ...
  151.2500     2.0620   -10.7630    86.7800    23.2010    23.8070    22.4630    24.4750 
  151.3750     2.0800   -10.8120    86.3940    23.1560    22.9280    22.4090    24.4170 
  151.5000     2.0970   -10.9370    84.3150    23.1560    22.6540    22.3320    24.3350 
  151.6250     2.1050   -11.0410    86.5410    23.2200    23.1830    22.2360    24.2310 
  151.7500     2.1020   -11.1810    88.0590    23.2090    23.3340    22.0760    24.0600 
  151.8750     2.0900   -11.3400    85.9590    23.0970    22.4500    21.8100    23.7750 
  152.0000     2.0770   -11.4980    82.1140    22.9700    21.1250    21.4230    23.3600 
  152.1250     2.0730   -11.7040    80.6460    22.8900    20.2010    20.9290    22.8320 
  152.2500     2.0750   -11.9770    82.5050    22.8450    19.6990    20.4100    22.2750 
  152.3750     2.0780   -12.2410    84.5280    22.7740    19.3100    19.9360    21.7670 
  152.5000     2.0790   -12.5170    83.7710    22.6950    19.0570    19.5690    21.3740 
  152.6250     2.0810   -12.7930    81.5380    22.6800    18.7240    19.3990    21.1930 
  152.7500     2.0840   -13.0360    81.5830    22.7110    18.2090    19.4290    21.2240 
  152.8750     2.0820   -13.2780    83.5090    22.7390    17.9110    19.6070    21.4150 
  153.0000     2.0730   -13.5300    84.4390    22.7020    18.1280    19.7920    21.6130 
  153.1250     2.0660   -13.7270    83.7540    22.6760    18.6940    19.7360    21.5530 
  153.2500     2.0720   -13.9350    82.9830    22.6290    18.9960    19.3470    21.1370 
  153.3750     2.0870   -14.1540    83.2550    22.5390    18.4060    18.6600    20.4010 
  153.5000     2.1000   -14.3230    84.0870    22.4270    16.7890    17.8080    19.4880 
  153.6250     2.1050   -14.4620    85.5910    22.5490    15.1740    16.9580    18.5770 
  153.7500     2.1110   -14.5580    88.9760    22.6180    14.6270    16.2160    17.7820 
  153.8750     2.1210   -14.5940    91.3140    22.6440    14.8330    15.6170    17.1410 
  154.0000     2.1300   -14.5910    89.4740    22.6450    14.9050    15.1670    16.6590 
  154.1250     2.1270   -14.4780    87.7050    22.6360    14.2870    14.8890    16.3610 
  154.2500     2.1150   -14.2770    88.8980    22.5810    13.7070    14.7750    16.2390 
  154.3750     2.1060   -14.0030    88.9600    22.4470    13.6190    14.8550    16.3250 
  154.5000     2.1060   -13.7190    85.5870    22.2680    13.8910    15.1680    16.6600 
  154.6250     2.1060   -13.4280    87.1480    21.9390    14.1890    15.7480    17.2810 
  154.7500     2.1000   -13.1790    94.8560    21.5660    14.7950    16.4770    18.0620 
  154.8750     2.0910   -12.9400    99.3590    21.4570    15.8030    17.2250    18.8640 
  155.0000     2.0900   -12.6940    93.8570    21.7030    16.8280    17.8640    19.5480 
  155.1250     2.0980   -12.5600    83.6820    22.1060    17.2950    18.3000    20.0150 
  155.2500     2.1030   -12.4560    79.3960    22.4340    17.4280    18.6060    20.3420 
  155.3750     2.1030   -12.4260    81.9800    22.5960    17.4790    18.8920    20.6490 
  155.5000     2.1010   -12.4870    84.6290    22.6330    17.5360    19.2900    21.0750 
  155.6250     2.1000   -12.6640    83.6560    22.6230    17.7240    19.9610    21.7940 
  155.7500     2.1010   -12.8770    81.4490    22.6190    18.0250    20.8270    22.7220 
  155.8750     2.1050   -13.1450    79.4050    22.6310    18.3030    21.5520    23.4980 
  156.0000     2.1100   -13.5360    77.7050    22.6410    18.4900    21.5130    23.4570 
  156.1250     2.1150   -13.9750    77.5220    22.6600    18.6240    19.8660    21.6920 
  156.2500     2.1290   -14.4570    79.4750    22.6950    17.6820    16.9970    18.6200 
  156.3750     2.1610   -14.9890    84.7130    22.7100    14.7950    13.7580    15.1500 
  156.5000     2.2100   -15.4820    92.8250    22.6900    10.9550    11.0140    12.2100 
  156.6250     2.2590   -15.8860   101.8150    22.7010     8.2880     9.4160    10.4980 
  156.7500     2.2960   -16.2170   113.6710    22.7430     7.5030     8.9290     9.9770 
  156.8750     2.3250   -16.4930   125.8360    22.7690     8.8700     9.6400    10.7380 
  157.0000     2.3550   -16.6770   126.8810    22.7580    14.3710    11.7500    12.9990 
  157.1250     2.3860   -16.7890   108.2810    22.6280    24.5480    15.9010    17.4450 
  157.2500     2.4050   -16.8390    85.7850    22.4290    31.4700    21.8820    23.8520 
  157.3750     2.4100   -16.8390    73.3080    22.1890    31.7720    28.7560    31.2160 
  157.5000     2.4140   -16.7810    70.5690    22.0080    29.8700    34.1330    36.9750 
  157.6250     2.4440   -16.7400    74.7870    21.7490    30.4750    34.2930    37.1460 
  157.7500     2.4850   -16.7230    84.9670    21.3120    33.9630    29.9060    32.4480 
  157.8750     2.4940   -16.7430    93.0750    20.9240    31.7670    23.4700    25.5530 
  158.0000     2.4440   -16.7320    96.7390    20.8330    21.7040    17.3730    19.0220 
  158.1250     2.3610   -16.7440   101.1110    20.9340    12.1910    13.0100    14.3480 
  158.2500     2.2990   -16.7960   107.3100    21.0380     8.4710    10.1760    11.3120 
  158.3750     2.2720   -16.8530   110.4800    21.2470     7.7560     8.6180     9.6440 
  158.5000     2.2700   -16.9520   108.0340    21.6870     7.6370     8.1550     9.1480 
  158.6250     2.2930   -17.0600   106.0800    22.1920     7.7030     8.9660    10.0160 
  158.7500     2.3370   -17.1930   102.3190    22.4280     9.8770    11.0870    12.2880 
  158.8750     2.3860   -17.2750    94.3010    22.4370    16.2520    14.8130    16.2800 
  159.0000     2.4240   -17.3850    87.4330    22.4440    24.7860    20.1950    22.0450 
  159.1250     2.4370   -17.5250    84.4440    22.4720    29.5550    26.0230    28.2880 
  159.2500     2.4270   -17.6780    78.9640    22.2820    28.4080    29.1860    31.6760 
  159.3750     2.4030   -17.7940    71.3440    21.8120    24.4140    27.8270    30.2210 
  159.5000     2.3780   -17.9030    70.7170    21.3470    19.8690    23.3630    25.4380 
  159.6250     2.3620   -18.0560    80.6190    21.0990    15.4740    18.8500    20.6040 
  159.7500     2.3600   -18.1720    89.8770    21.0030    12.7110    15.7660    17.3000 
  159.8750     2.3790   -18.2920    92.2990    21.1000    11.7650    14.2460    15.6730 
  160.0000     2.4180   -18.4100    88.3300    21.3710    13.7620    14.2110    15.6350 
  160.1250     2.4580   -18.4650    81.5720    21.7210    17.6110    15.9070    17.4510 
  160.2500     2.4840   -18.5040    76.2410    21.9790    22.7390    19.0920    20.8640 
  160.3750     2.5030   -18.5710    73.4830    22.0460    28.8370    23.4490    25.5300 
  160.5000     2.5190   -18.6170    70.6510    22.0350    34.0180    28.0000    30.4050 
  160.6250     2.5180   -18.6550    69.9400    22.0160    34.4530    30.9290    33.5430 
  160.7500     2.4950   -18.7300    71.6430    21.9860    30.8700    31.7700    34.4440 
  160.8750     2.4650   -18.8000    72.0430    21.9670    27.1040    31.1130    33.7400 
  161.0000     2.4510   -18.8370    69.4860    21.9560    25.2040    29.8750    32.4140 
  161.1250     2.4620   -18.8830    66.6150    21.8210    26.1200    28.7760    31.2370 
  161.2500     2.4790   -18.9250    66.0610    21.5870    27.8370    28.0600    30.4700 
  161.3750     2.4890   -18.9860    67.5240    21.3850    28.6440    27.6820    30.0650 
  161.5000     2.4860   -19.0750    69.4000    21.2550    28.5530    27.5390    29.9120 
  161.6250     2.4720   -19.0590    69.4740    21.1290    28.2020    27.6720    30.0540 
  161.7500     2.4530   -18.9890    71.3710    21.0370    27.3640    28.1890    30.6080 
  161.8750     2.4370   -18.9280    76.6040    21.0030    25.6280    29.2760    31.7720 
  162.0000     2.4380   -18.8730    79.1900    21.0240    25.9580    31.1000    33.7260 
  162.1250     2.4710   -18.8830    74.3120    21.1140    29.3820    33.8180    36.6380 
  162.2500     2.5210   -18.9160    69.5110    21.2410    33.7200    36.9760    40.0200 
  162.3750     2.5620   -18.8990    68.6990    21.3260    37.3160    39.8730    43.1240 
