~V
VERS. 2.00: Ver 2.00
~W
STRT.M 55.0000:
STOP.M 247.0000:
STEP.M 0.1250:
NULL. -999.2500:
UWI. F10032:
~C
DEPT.M :
GR.API :
RML.OHMM :
RI. :
RXO.OHMM :
CALI.CM :
DEN.GM/CC :
SP.MV :
~A
# ...
   88.7500    62.2540     9.8130     8.4550    11.8750    23.7920     2.1880   -24.6770 
   88.8750    63.5430     9.6660     8.3570    11.5890    23.7770     2.1970   -24.2480 
   89.0000    67.7410     9.5000     8.2200    10.8030    23.7800     2.1970   -23.7950 
   89.1250    73.5170     9.3550     8.0910     9.8420    23.7640     2.1840   -23.3450 
   89.2500    75.8900     9.2180     7.9880     9.9530    23.7560     2.1640   -22.9440 
   89.3750    73.4920     9.0600     7.8920    10.9100    23.7530     2.1450   -22.6020 
   89.5000    69.3640     8.9620     7.8480    11.5730    23.7610     2.1330   -22.3060 
   89.6250    68.1720     9.2890     8.0610    11.5590    23.7830     2.1390   -21.9700 
   89.7500    69.6690    10.2690     8.6620    11.5720    23.7980     2.1700   -21.5400 
   89.8750    73.0900    11.9090     9.7020    11.8780    23.7950     2.2350   -21.0360 
   90.0000    77.6860    13.8730    11.0820    14.1110    23.8140     2.3240   -20.5300 
   90.1250    82.0630    15.2240    12.3200    21.0190    23.9520     2.4070   -20.0640 
   90.2500    84.5770    15.1420    12.7000    24.3370    24.2070     2.4490   -19.6540 
   90.3750    85.3110    13.5930    11.9560    15.2430    24.4720     2.4360   -19.3210 
   90.5000    85.8700    11.4090    10.5340     9.1040    24.5880     2.3770   -19.0890 
   90.6250    87.7640     9.6930     9.1840     8.4990    24.3930     2.3040   -19.0470 
   90.7500    88.4790     8.8130     8.2860     9.6580    24.0520     2.2460   -19.1990 
   90.8750    87.9570     8.7100     7.9130    10.8440    23.8150     2.2120   -19.4890 
   91.0000    87.0030     9.1130     8.0070    11.4960    23.7410     2.1970   -19.8160 
   91.1250    86.2390     9.6150     8.3810    11.2750    23.7510     2.1950   -20.1180 
   91.2500    84.8680     9.9000     8.7140    10.8180    23.7530     2.1940   -20.4050 
   91.3750    82.0430     9.9330     8.8940    10.6070    23.7360     2.1920   -20.6870 
   91.5000    80.1790     9.8150     8.9410    11.0120    23.7240     2.1900   -20.9570 
   91.6250    82.5750     9.6730     8.8880    11.1720    23.7300     2.1880   -21.1510 
   91.7500    86.3940     9.5970     8.7900    11.2070    23.7310     2.1870   -21.2900 
   91.8750    86.7110     9.6020     8.7090    11.2880    23.6970     2.1850   -21.4380 
   92.0000    81.9010     9.6560     8.6910    11.5640    23.6330     2.1850   -21.6410 
   92.1250    77.5390     9.6980     8.7130    11.9150    23.6030     2.1870   -21.9000 
   92.2500    77.7710     9.6910     8.7070    11.7490    23.5950     2.1930   -22.1500 
   92.3750    80.9950     9.6250     8.6470    11.3040    23.5940     2.2000   -22.3550 
   92.5000    83.0910     9.5190     8.5350    11.0090    23.5920     2.2060   -22.5070 
   92.6250    80.2780     9.4210     8.3910    10.9810    23.5850     2.2110   -22.6720 
   92.7500    77.7630     9.3620     8.2710    11.0020    23.5730     2.2130   -22.8550 
   92.8750    79.0180     9.3410     8.2130    10.9740    23.5610     2.2130   -23.0110 
   93.0000    80.8870     9.3500     8.2180    10.8980    23.5580     2.2060   -23.0990 
   93.1250    79.9640     9.3900     8.2580    10.9140    23.5610     2.1920   -23.1130 
   93.2500    78.5650     9.4640     8.3200    10.9880    23.5600     2.1750   -23.0720 
   93.3750    78.0920     9.5770     8.4100    11.0570    23.5550     2.1590   -23.0030 
   93.5000    76.8230     9.7010     8.4950    11.1210    23.5510     2.1490   -22.9340 
   93.6250    74.9970     9.7320     8.4980    11.1620    23.5520     2.1480   -22.8220 
   93.7500    75.4020     9.6010     8.4030    11.1220    23.5610     2.1530   -22.6140 
   93.8750    77.0250     9.3180     8.2070    10.9680    23.5730     2.1630   -22.3150 
   94.0000    79.9170     8.9720     7.9280    10.8100    23.5820     2.1740   -21.9950 
   94.1250    84.1060     8.7190     7.6620    10.2000    23.5830     2.1840   -21.7260 
   94.2500    86.9580     8.6650     7.5400     9.3280    23.5760     2.1890   -21.5430 
   94.3750    87.6850     8.8330     7.6050     9.0030    23.5490     2.1900   -21.4190 
   94.5000    87.1280     9.1450     7.7980     9.5030    23.5350     2.1860   -21.3170 
   94.6250    85.8100     9.4520     8.0170     9.8530    23.5550     2.1800   -21.2830 
   94.7500    84.3400     9.6260     8.1650     9.8120    23.6540     2.1730   -21.3870 
   94.8750    82.6650     9.6290     8.1910     9.7710    23.7330     2.1660   -21.6560 
   95.0000    80.1480     9.5280     8.1240     9.8210    23.8120     2.1540   -22.0430 
   95.1250    78.6230     9.4880     8.0880    10.2420    23.8540     2.1370   -22.4780 
   95.2500    78.6650     9.6080     8.1630    10.9290    23.8290     2.1240   -22.9100 
   95.3750    77.3700     9.8820     8.3360    11.5280    23.7940     2.1240   -23.3510 
   95.5000    74.7730    10.2390     8.5640    11.8540    23.7870     2.1450   -23.8260 
   95.6250    75.6810    10.5590     8.8110    12.0830    23.8010     2.1800   -24.2850 
   95.7500    78.1460    10.7420     9.0120    12.1980    23.7960     2.2110   -24.6500 
   95.8750    77.2180    10.7590     9.1000    12.2140    23.7780     2.2280   -24.8950 
   96.0000    75.0460    10.6520     9.0580    12.2410    23.7630     2.2300   -25.0400 
   96.1250    76.5980    10.5020     8.9350    12.3920    23.7650     2.2260   -25.1240 
   96.2500    79.5830    10.4060     8.8180    12.3980    23.7670     2.2240   -25.1560 
   96.3750    80.3940    10.4210     8.7650    12.3050    23.7690     2.2230   -25.1100 
   96.5000    78.2380    10.5580     8.8210    12.2180    23.7730     2.2170   -24.9610 
   96.6250    75.9310    10.7760     8.9980    12.1160    23.7750     2.2010   -24.7090 
   96.7500    76.8760    10.9860     9.1980    12.0370    23.7750     2.1790   -24.4210 
   96.8750    82.5920    11.1190     9.3430    11.8060    23.7750     2.1590   -24.1190 
   97.0000    88.6290    11.1150     9.4070    11.4260    23.7770     2.1460   -23.7950 
   97.1250    85.6790    10.9490     9.3540    10.9290    23.7820     2.1420   -23.3940 
   97.2500    76.8220    10.7070     9.1910    10.3490    23.7910     2.1430   -22.8700 
   97.3750    70.1050    10.4430     8.9590    10.0290    23.8130     2.1470   -22.2330 
   97.5000    68.2220    10.1740     8.7190    10.1610    23.8750     2.1550   -21.5000 
   97.6250    68.1820     9.8660     8.4720    10.8920    23.9790     2.1700   -20.6460 
   97.7500    69.0250     9.4760     8.1770    11.5980    24.0880     2.1900   -19.6600 
   97.8750    71.9590     8.9840     7.8340    11.2350    24.2380     2.2120   -18.5920 
   98.0000    75.7260     8.4290     7.4630     8.6450    24.4540     2.2320   -17.5270 
   98.1250    79.9750     7.9340     7.0830     7.6070    24.6460     2.2450   -16.5810 
   98.2500    84.7850     7.6040     6.7750     7.3720    24.7340     2.2520   -15.8210 
   98.3750    88.2010     7.5020     6.6360     7.3980    24.7250     2.2540   -15.2400 
   98.5000    89.3900     7.6560     6.7130     7.4940    24.7250     2.2520   -14.8230 
   98.6250    88.7320     8.0850     7.0200     7.6540    24.6790     2.2420   -14.6540 
   98.7500    85.6150     8.6710     7.4940     8.4690    24.5100     2.2230   -14.6730 
   98.8750    81.1380     9.2790     8.0610     9.3570    24.2220     2.2010   -14.7620 
   99.0000    79.2850     9.7250     8.5610    10.0200    24.0700     2.1860   -14.7800 
   99.1250    80.7510     9.7380     8.7480    10.3990    24.0700     2.1960   -14.6200 
   99.2500    79.7420     9.3130     8.5900    10.3580    24.0940     2.2290   -14.3290 
   99.3750    78.5460     8.6030     8.1480     9.4080    24.1890     2.2700   -13.9270 
   99.5000    82.4990     7.8790     7.5720     7.6700    24.3990     2.3030   -13.4620 
   99.6250    89.4990     7.4410     7.0920     6.9780    24.4990     2.3120   -12.9030 
   99.7500    91.7170     7.3230     6.8220     6.8640    24.5190     2.3020   -12.3300 
   99.8750    89.8790     7.4290     6.7300     7.1270    24.5340     2.2850   -11.8470 
