~V
VERS. 2.00: Ver 2.00
~W
STRT.M 50.0000:
STOP.M 265.0000:
STEP.M 0.1250:
NULL. -999.2500:
UWI. F10025:
~C
DEPT.M :
SP.MV :
DEN.GM/CC :
GR.API :
CALI.CM :
RXO.OHMM :
RI. :
RML.OHMM :
~A
# ...
  117.5000   -14.9240     2.1850    77.7970    23.6650     9.6300     9.6510    11.5810 
  117.6250   -15.0070     2.2030    76.2160    23.3540     9.6440    10.5180    12.3870 
  117.7500   -15.1590     2.2230    75.6970    23.0940     9.3940    11.0230    12.7100 
  117.8750   -15.2840     2.2290    76.6120    22.8410     9.5350    11.0360    12.5030 
  118.0000   -15.3880     2.2090    79.0340    22.6220    10.1870    10.8170    12.1240 
  118.1250   -15.4630     2.1650    81.3610    22.5880    10.9260    10.5700    11.8160 
  118.2500   -15.4060     2.1250    80.4580    22.6370    11.2650    10.3760    11.6320 
  118.3750   -15.2580     2.0990    77.3350    22.7920    11.0120    10.1520    11.4010 
  118.5000   -15.0400     2.0870    76.8170    23.0920    10.7670     9.7380    10.9120 
  118.6250   -14.7610     2.0870    79.9640    23.3650    10.4920     9.0490    10.1060 
  118.7500   -14.3170     2.0970    84.7550    23.5450     9.6820     8.1290     9.1040 
  118.8750   -13.8050     2.1160    90.1200    23.6750     8.0100     7.1610     8.1820 
  119.0000   -13.2840     2.1420    95.4910    23.9150     6.4980     6.3460     7.5310 
  119.1250   -12.7450     2.1800    99.7890    24.3080     5.7360     5.7740     7.1960 
  119.2500   -12.3110     2.2290   102.0580    24.4690     5.5390     5.4650     7.1270 
  119.3750   -11.9490     2.2800   100.7860    24.4380     5.8290     5.3900     7.2000 
  119.5000   -11.6610     2.3130    97.4830    24.3520     6.1500     5.3680     7.1830 
  119.6250   -11.4720     2.3060    95.0780    24.3150     6.2360     5.2550     6.9230 
  119.7500   -11.4140     2.2750    95.6230    24.2850     6.0300     5.0070     6.4520 
  119.8750   -11.4790     2.2400    97.5260    24.2600     5.6200     4.7560     6.0270 
  120.0000   -11.5880     2.2210    99.7730    24.2470     5.3190     4.7070     5.9000 
  120.1250   -11.7980     2.2370   102.4650    24.2380     5.7030     5.0080     6.2310 
  120.2500   -11.9900     2.2810   103.0190    24.2080     7.8450     5.7500     7.1060 
  120.3750   -12.2140     2.3390    97.6260    24.1520    11.5890     6.9560     8.5200 
  120.5000   -12.4600     2.3760    89.1970    24.1130    14.0920     8.1890     9.9160 
  120.6250   -12.6460     2.3570    82.8920    24.0680    13.3670     8.8550    10.5650 
  120.7500   -12.7650     2.3040    79.4410    23.9760    10.5110     8.5850    10.0790 
  120.8750   -12.7790     2.2510    79.0450    23.8690     7.9250     7.5740     8.8100 
  121.0000   -12.7770     2.2250    82.8360    23.8700     6.3490     6.4980     7.5720 
  121.1250   -12.7100     2.2270    90.3580    23.9830     5.6050     5.6440     6.6680 
  121.2500   -12.6370     2.2390    98.5470    24.1090     5.4950     5.0930     6.1240 
  121.3750   -12.5680     2.2470   103.6690    24.1970     5.5300     4.8710     5.9010 
  121.5000   -12.4900     2.2440   106.2240    24.2360     5.4090     4.8700     5.8940 
  121.6250   -12.5090     2.2320   105.2770    24.2450     5.2840     5.0230     6.0740 
  121.7500   -12.5510     2.2170   100.0870    24.2350     5.5000     5.2510     6.3920 
  121.8750   -12.6220     2.2050    95.1010    24.2010     6.3650     5.4420     6.7400 
  122.0000   -12.6610     2.2000    93.5230    24.1400     6.9560     5.5150     6.9550 
  122.1250   -12.6840     2.2040    94.2870    24.1110     6.7490     5.4670     6.9380 
  122.2500   -12.7070     2.2090    95.4270    24.1010     6.1830     5.4010     6.7440 
  122.3750   -12.6750     2.2080    95.2030    24.0900     6.1030     5.5290     6.6880 
  122.5000   -12.6310     2.2070    93.0660    24.0520     6.7680     5.9890     7.0550 
  122.6250   -12.4950     2.2300    89.0540    23.9470     9.0440     6.8640     7.9780 
  122.7500   -12.4050     2.2740    84.5000    23.8590    13.9890     8.1090     9.4110 
  122.8750   -12.3840     2.3250    80.6720    23.8850    19.3910     9.3430    10.8260 
  123.0000   -12.3930     2.3640    78.1290    24.0130    20.4570     9.9040    11.3230 
  123.1250   -12.4740     2.3720    77.9530    24.0700    16.6070     9.4910    10.6060 
  123.2500   -12.5150     2.3430    82.3590    24.0150    11.2820     8.4030     9.2340 
  123.3750   -12.5740     2.2900    90.5310    23.8350     8.0330     7.2230     7.9910 
  123.5000   -12.6190     2.2390    96.7120    23.5900     6.4330     6.3160     7.1530 
  123.6250   -12.6830     2.2120    97.8290    23.2340     5.8820     5.7490     6.7260 
  123.7500   -12.7250     2.2010    96.5110    22.8200     5.7660     5.4910     6.6450 
  123.8750   -12.7130     2.1960    98.6190    22.3540     5.8510     5.4960     6.8190 
  124.0000   -12.6670     2.1970   103.7920    21.9310     5.9340     5.6240     7.0940 
  124.1250   -12.5560     2.2130   106.3730    21.7950     6.1290     5.7920     7.3910 
  124.2500   -12.4870     2.2390   103.9250    22.0550     6.4920     5.9330     7.6260 
  124.3750   -12.4140     2.2700   100.3290    22.5470     6.6860     5.9830     7.6950 
  124.5000   -12.3620     2.3000    99.9920    22.9930     6.3020     5.9310     7.5980 
  124.6250   -12.2800     2.3080   103.3910    23.1930     5.7350     5.7950     7.3890 
  124.7500   -12.2010     2.2900   106.3780    23.2000     5.5570     5.6220     7.1550 
  124.8750   -12.1530     2.2590   106.1530    23.1120     5.7400     5.4780     6.9830 
  125.0000   -12.1060     2.2440   104.3860    22.9520     5.7820     5.3940     6.8990 
  125.1250   -12.0800     2.2570   103.0060    22.6280     5.6350     5.3700     6.9220 
  125.2500   -12.0150     2.2730   102.2050    22.2650     5.5460     5.3860     7.0710 
  125.3750   -11.9540     2.2710   101.3170    22.1700     5.5930     5.4140     7.3100 
  125.5000   -11.8740     2.2500   102.2550    22.4720     5.6690     5.4370     7.4700 
  125.6250   -11.8500     2.2300   103.4600    22.9430     5.7060     5.4470     7.4080 
  125.7500   -11.8260     2.2230   102.6510    23.4380     5.7710     5.4310     7.1250 
  125.8750   -11.7780     2.2240   101.2940    23.7190     5.7810     5.3700     6.7880 
  126.0000   -11.7590     2.2220   102.3720    23.8080     5.7480     5.2870     6.5850 
  126.1250   -11.8090     2.2190   104.3150    23.8150     5.7000     5.2140     6.5550 
  126.2500   -11.9420     2.2260   103.9560    23.8150     5.6900     5.1770     6.6310 
  126.3750   -12.0880     2.2460   101.3510    23.8140     5.9190     5.1940     6.7220 
  126.5000   -12.2710     2.2690   101.0890    23.8040     6.3730     5.2460     6.8100 
  126.6250   -12.4900     2.2770   104.2860    23.7620     6.8490     5.3140     6.9080 
  126.7500   -12.7500     2.2680   108.6030    23.6900     6.8390     5.3830     6.9530 
  126.8750   -13.0320     2.2500   110.4840    23.6430     6.5650     5.4450     6.8330 
  127.0000   -13.3020     2.2300   110.0990    23.6980     6.3610     5.5050     6.6280 
  127.1250   -13.5340     2.2090   109.5750    23.8090     6.3700     5.5670     6.5020 
  127.2500   -13.7040     2.1940   108.9950    23.8800     6.4070     5.6230     6.5810 
  127.3750   -13.8480     2.1890   108.4380    23.9030     6.2970     5.6550     6.8640 
  127.5000   -13.9790     2.1900   106.9040    23.9130     6.1700     5.6640     7.1640 
  127.6250   -14.0310     2.1820   104.8970    23.9360     6.1230     5.6490     7.3340 
  127.7500   -14.0400     2.1690   106.0610    23.9660     6.0800     5.6120     7.3290 
  127.8750   -14.0310     2.1650   108.9320    23.9810     6.1210     5.5570     7.2290 
  128.0000   -14.0520     2.1780   109.7440    23.9730     6.2700     5.4930     7.1300 
  128.1250   -14.0000     2.1940   107.1390    23.9210     6.3460     5.4190     7.0340 
  128.2500   -13.9270     2.2020   104.3440    23.8420     6.1430     5.3300     6.9030 
  128.3750   -13.9000     2.2120   103.7170    23.7070     5.9630     5.2480     6.7040 
  128.5000   -13.8330     2.2300   104.9360    23.4940     5.9410     5.2220     6.5100 
  128.6250   -13.8190     2.2440   107.2580    23.3310     5.9670     5.3000     6.4260 
