~V
VERS. 2.00: Ver 2.00
~W
STRT.M 56.0000:
STOP.M 268.0000:
STEP.M 0.1250:
NULL. -999.2500:
UWI. F10027:
~C
DEPT.M :
GR.API :
RML.OHMM :
RI. :
RXO.OHMM :
CALI.CM :
DEN.GM/CC :
SP.MV :
~A
# ...
  146.0000    65.5570    24.8060    24.8230    24.0850    23.7530     2.1140    -2.6550 
  146.1250    65.5480    24.4060    24.4560    23.4260    23.7350     2.1190    -2.8690 
  146.2500    65.5840    23.6820    23.7280    22.7490    23.7250     2.1270    -3.1310 
  146.3750    67.9740    22.7410    22.7290    21.2460    23.7380     2.1340    -3.4300 
  146.5000    72.8340    21.7630    21.6390    18.1080    23.7250     2.1400    -3.7110 
  146.6250    76.0880    21.0090    20.7240    16.3010    23.6520     2.1470    -3.9410 
  146.7500    74.7690    20.6140    20.1440    16.0440    23.5760     2.1570    -4.1810 
  146.8750    72.1360    20.6120    19.9630    16.6100    23.5620     2.1670    -4.3980 
  147.0000    71.0360    20.9380    20.1450    17.7390    23.6100     2.1700    -4.5290 
  147.1250    69.8610    21.4540    20.5950    18.7390    23.7040     2.1610    -4.5760 
  147.2500    67.7220    21.9560    21.1080    19.0060    23.7490     2.1440    -4.6330 
  147.3750    66.5850    22.3440    21.5590    19.1380    23.7620     2.1250    -4.6660 
  147.5000    67.2610    22.5920    21.8810    19.5190    23.7580     2.1130    -4.6570 
  147.6250    67.9030    22.6990    22.0250    19.6840    23.7220     2.1110    -4.6780 
  147.7500    67.7790    22.6890    21.9990    19.6410    23.6570     2.1120    -4.7210 
  147.8750    67.8800    22.5350    21.7780    19.6770    23.6070     2.1090    -4.7500 
  148.0000    69.0370    22.2030    21.3520    19.7400    23.5920     2.0990    -4.7730 
  148.1250    70.2710    21.6710    20.7430    19.5330    23.5270     2.0860    -4.8170 
  148.2500    70.4170    21.0630    20.1020    18.1180    23.4730     2.0810    -4.8340 
  148.3750    70.2240    20.5420    19.5660    15.8610    23.4780     2.0890    -4.7730 
  148.5000    71.0160    20.2900    19.2630    14.6390    23.5160     2.1080    -4.6450 
  148.6250    70.5200    20.5090    19.3340    14.9810    23.5320     2.1280    -4.4980 
  148.7500    67.1100    21.1230    19.7300    15.7530    23.5370     2.1380    -4.2940 
  148.8750    62.7180    21.9910    20.3760    16.2940    23.5610     2.1350    -4.0660 
  149.0000    60.0290    22.8760    21.1370    17.2670    23.6350     2.1230    -3.8940 
  149.1250    61.4390    23.4950    21.8360    18.7290    23.7200     2.1070    -3.7670 
  149.2500    64.8380    23.7930    22.3590    20.0480    23.7470     2.0940    -3.6250 
  149.3750    67.0030    23.8760    22.6660    20.7130    23.7150     2.0880    -3.5430 
  149.5000    67.1160    23.7780    22.7690    20.9310    23.6190     2.0890    -3.5640 
  149.6250    65.4680    23.5570    22.6820    21.0250    23.5370     2.1000    -3.6000 
  149.7500    64.2550    23.3290    22.4880    21.0220    23.5010     2.1140    -3.6380 
  149.8750    63.3930    23.1420    22.2390    20.5180    23.5170     2.1270    -3.7220 
  150.0000    62.2040    23.0190    21.9890    19.7660    23.5670     2.1330    -3.8020 
  150.1250    61.1390    22.9720    21.8160    19.5550    23.5770     2.1290    -3.8250 
  150.2500    61.6670    22.9760    21.7560    19.6360    23.5570     2.1220    -3.8600 
  150.3750    65.5480    22.9900    21.8210    19.2530    23.5380     2.1140    -3.9180 
  150.5000    71.2430    23.0960    21.9880    18.7240    23.5320     2.1080    -3.9670 
  150.6250    73.3510    23.3570    22.2210    18.8620    23.5050     2.1070    -3.9950 
  150.7500    71.4150    23.8610    22.4880    19.7010    23.4320     2.1070    -4.0590 
  150.8750    68.7970    24.2530    22.8340    20.1670    23.3390     2.1080    -4.1780 
  151.0000    66.0600    24.7780    23.3640    20.0490    23.2820     2.1090    -4.3640 
  151.1250    62.9620    25.7400    24.1910    20.2830    23.2920     2.1100    -4.6280 
  151.2500    61.8310    26.7780    25.0420    20.6020    23.3260     2.1150    -4.9620 
  151.3750    64.6650    27.1490    25.3280    21.0710    23.3580     2.1240    -5.3600 
  151.5000    70.2790    26.0200    24.3300    23.0200    23.3800     2.1430    -5.8350 
  151.6250    77.3090    22.8330    21.5120    29.1650    23.4080     2.1780    -6.3640 
  151.7500    86.9840    18.6440    17.7640    31.4540    23.4390     2.2240    -6.9060 
  151.8750    97.0660    14.5490    14.0200    20.7250    23.4770     2.2740    -7.4070 
  152.0000   101.9090    11.3630    10.9720    10.2970    23.4710     2.3160    -7.8060 
  152.1250    98.6340     9.5420     9.0170     8.0820    23.4020     2.3370    -8.1530 
  152.2500    94.6290     8.6680     7.8850     8.1320    23.3550     2.3350    -8.4560 
  152.3750    93.7380     8.3970     7.3690     8.1060    23.3850     2.3140    -8.6590 
  152.5000    94.0810     8.4230     7.2670     7.7230    23.4580     2.2820    -8.7520 
  152.6250    92.2810     8.5820     7.4610     7.8860    23.5250     2.2470    -8.8640 
  152.7500    89.8560     8.8760     7.8650     8.5800    23.6040     2.2170    -8.9720 
  152.8750    87.7470     9.4360     8.5320     8.8900    23.6870     2.1990    -9.0530 
  153.0000    85.8230    10.3540     9.5190     9.3290    23.7420     2.2020    -9.1920 
  153.1250    83.7800    11.5900    10.8200    11.4130    23.7600     2.2410    -9.3520 
  153.2500    80.8970    12.7960    12.1410    15.5200    23.7620     2.3070    -9.4820 
  153.3750    78.6330    13.6290    13.1310    18.5430    23.7580     2.3800    -9.6570 
  153.5000    78.6480    13.8640    13.4980    16.5320    23.7260     2.4310    -9.9060 
  153.6250    80.1130    13.4550    13.1120    12.6350    23.6350     2.4290   -10.1000 
  153.7500    81.2200    12.7910    12.3720    10.6390    23.5290     2.3830   -10.2450 
  153.8750    81.4230    12.1630    11.6000    10.1320    23.4740     2.3160   -10.3900 
  154.0000    81.3960    11.7420    11.0060    10.1990    23.4730     2.2520   -10.4980 
  154.1250    81.7290    11.5750    10.6730    10.2900    23.5180     2.2120   -10.5500 
  154.2500    82.0480    11.5210    10.4730    10.2710    23.5670     2.1910   -10.5900 
  154.3750    82.3530    11.4780    10.3040    10.1180    23.6000     2.1850   -10.6020 
  154.5000    82.2190    11.3790    10.1140     9.9520    23.6330     2.1850   -10.5770 
  154.6250    85.0510    11.1990     9.9090     9.7270    23.6530     2.1910   -10.5160 
  154.7500    89.4170    10.9880     9.7320     9.5030    23.6500     2.1990   -10.4740 
  154.8750    91.7250    10.8000     9.6190     9.3500    23.6220     2.2080   -10.4680 
  155.0000    91.8070    10.6930     9.5850     9.3120    23.5810     2.2170   -10.4490 
  155.1250    90.5740    10.7190     9.6490     9.3500    23.5310     2.2210   -10.4340 
  155.2500    88.7380    10.8580     9.7950     9.3750    23.4790     2.2200   -10.4640 
  155.3750    87.8070    11.0870    10.0200     9.4410    23.4280     2.2160   -10.5000 
  155.5000    88.7300    11.3730    10.3130     9.6340    23.3670     2.2110   -10.4920 
  155.6250    89.2130    11.6950    10.6550     9.8150    23.3200     2.2090   -10.4890 
  155.7500    87.3290    12.0300    10.9980     9.9940    23.2950     2.2090   -10.5010 
  155.8750    85.4330    12.3720    11.3090    10.1920    23.2740     2.2110   -10.4770 
  156.0000    84.2990    12.7130    11.5700    10.4040    23.2560     2.2130   -10.4190 
  156.1250    80.6530    13.0260    11.7720    10.5770    23.2620     2.2110   -10.3970 
  156.2500    76.8730    13.2900    11.9380    10.6450    23.2830     2.2060   -10.3670 
  156.3750    78.0050    13.4910    12.0750    10.7460    23.2980     2.2000   -10.3000 
  156.5000    82.6240    13.6420    12.1850    10.9450    23.3020     2.1960   -10.2230 
  156.6250    85.1090    13.7950    12.2890    11.2100    23.3050     2.1950   -10.2070 
  156.7500    84.8750    14.0570    12.4590    11.4190    23.3300     2.1980   -10.1960 
  156.8750    83.7370    14.5930    12.8170    11.6080    23.4240     2.1980   -10.1490 
  157.0000    80.6580    15.6380    13.5470    12.0200    23.6030     2.1950   -10.1010 
  157.1250    75.4190    17.6400    15.0200    13.3760    23.8350     2.1930   -10.0460 
