~V
VERS. 2.00: Ver 2.00
~W
STRT.M 63.0000:
STOP.M 195.0000:
STEP.M 0.1250:
NULL. -999.2500:
UWI. F10020:
~C
DEPT.M :
GR.API :
CALI.CM :
RXO.OHMM :
RI. :
RML.OHMM :
DEN.GM/CC :
SP.MV :
~A
# ...
  119.2500    67.7570    24.1420    16.0080    18.2840    18.3740     2.5470   -28.2700 
  119.3750    69.1090    24.1590    16.6740    17.8700    18.1920     2.5350   -28.1970 
  119.5000    67.6500    24.1550    18.0750    18.1280    18.6280     2.5100   -28.1390 
  119.6250    64.6030    24.1480    20.0020    18.8500    19.3710     2.4790   -28.0970 
  119.7500    61.9420    24.1040    21.3840    19.6760    20.1010     2.4500   -28.1000 
  119.8750    58.7120    23.9980    21.5860    20.4360    20.7390     2.4270   -28.1480 
  120.0000    56.3190    23.9310    20.7030    21.0910    21.3220     2.4120   -28.1940 
  120.1250    58.2370    24.0740    20.6700    21.7190    22.0110     2.4200   -28.2720 
  120.2500    62.2680    24.1530    23.1890    22.4180    22.9020     2.4440   -28.3680 
  120.3750    64.6880    24.1330    27.3100    23.1620    23.8970     2.4730   -28.5010 
  120.5000    64.6280    24.0880    29.5970    23.7600    24.6810     2.4950   -28.6270 
  120.6250    63.1680    24.0920    28.6010    23.7730    24.6500     2.5090   -28.7390 
  120.7500    61.1850    24.1020    26.2800    22.9920    23.6290     2.5220   -28.7980 
  120.8750    59.7930    24.0700    23.7730    21.4560    21.7670     2.5310   -28.7980 
  121.0000    60.5680    24.0120    20.9740    19.4880    19.5480     2.5290   -28.7740 
  121.1250    63.1250    23.9480    17.8860    17.5550    17.5790     2.5080   -28.7330 
  121.2500    65.5270    24.0410    15.2100    15.9840    16.1200     2.4780   -28.6850 
  121.3750    68.0590    24.1030    13.3930    14.9310    15.2280     2.4430   -28.5880 
  121.5000    70.5150    24.1210    12.6910    14.4530    14.8830     2.4100   -28.5110 
  121.6250    70.0300    24.1430    13.4710    14.5950    15.0530     2.3950   -28.4410 
  121.7500    66.9460    24.1860    15.2620    15.1090    15.4800     2.4020   -28.3920 
  121.8750    64.1340    24.2300    17.0870    15.7470    15.9290     2.4200   -28.3850 
  122.0000    63.8790    24.2470    17.7840    16.2080    16.1570     2.4260   -28.3960 
  122.1250    66.2930    24.2230    16.8640    16.1830    15.9730     2.4100   -28.3860 
  122.2500    69.9070    24.1560    15.8560    15.7530    15.5490     2.3900   -28.3530 
  122.3750    73.5000    24.0650    15.0400    15.1190    15.1170     2.3770   -28.3280 
  122.5000    74.8510    23.9330    14.0570    14.5200    14.8500     2.3710   -28.2920 
  122.6250    73.7780    23.8120    13.0370    14.1720    14.7920     2.3700   -28.2740 
  122.7500    72.1140    23.6750    12.8390    14.0830    14.8560     2.3770   -28.2770 
  122.8750    71.0520    23.7080    13.6670    14.2000    15.0030     2.3950   -28.2930 
  123.0000    70.2980    23.9080    14.9000    14.4360    15.2120     2.4200   -28.3470 
  123.1250    69.2220    24.1080    15.5480    14.6900    15.4530     2.4370   -28.4340 
  123.2500    67.2910    24.2010    15.3670    14.9040    15.6630     2.4340   -28.5180 
  123.3750    65.7710    24.1930    15.0660    15.0880    15.8190     2.4150   -28.6430 
  123.5000    65.7880    24.1200    14.8500    15.2570    15.9500     2.3990   -28.7430 
  123.6250    66.1240    24.0370    14.8370    15.3880    16.0960     2.4030   -28.8740 
  123.7500    64.9890    23.9820    15.1670    15.4380    16.2300     2.4180   -28.9720 
  123.8750    64.3560    24.0290    15.5830    15.3700    16.2560     2.4300   -29.0470 
  124.0000    65.7520    24.0820    15.1330    15.1860    16.1270     2.4310   -29.0600 
  124.1250    66.6960    24.1100    14.1020    14.9450    15.9400     2.4200   -29.0450 
  124.2500    65.7670    24.1380    13.7440    14.7490    15.8640     2.4090   -29.0060 
  124.3750    64.4580    24.1880    14.2740    14.6490    15.9430     2.4030   -28.9060 
  124.5000    62.9230    24.2130    14.9450    14.6550    16.1160     2.3990   -28.8160 
  124.6250    60.3580    24.1800    15.2340    14.8100    16.3520     2.3930   -28.6730 
  124.7500    58.3110    24.1390    15.3930    15.1380    16.7430     2.3920   -28.5330 
  124.8750    58.1670    24.0910    15.5200    15.6840    17.4390     2.3980   -28.3880 
  125.0000    59.0110    24.1450    15.9580    16.4600    18.5250     2.4100   -28.2920 
  125.1250    60.4320    24.1720    17.3650    17.4230    19.9230     2.4250   -28.2060 
  125.2500    62.2420    24.2110    19.9620    18.3680    21.2200     2.4420   -28.1330 
  125.3750    63.8840    24.2200    22.7170    19.0830    22.0370     2.4500   -28.1010 
  125.5000    64.6690    24.1980    24.0290    19.4050    22.1750     2.4410   -28.0660 
  125.6250    63.9030    24.1880    22.4170    19.2810    21.6790     2.4240   -28.0680 
  125.7500    61.9280    24.1840    20.9240    18.9560    21.0260     2.4170   -28.0480 
  125.8750    60.4640    24.1630    20.4110    18.6220    20.5540     2.4170   -28.0370 
  126.0000    60.3910    24.1170    20.4310    18.4140    20.4480     2.4140   -28.0050 
  126.1250    60.8020    24.0970    20.0350    18.3850    20.7280     2.4160   -28.0160 
  126.2500    59.7200    24.1260    19.5350    18.4160    21.1100     2.4260   -28.0360 
  126.3750    58.4950    24.1440    19.2670    18.3600    21.3200     2.4360   -28.0600 
  126.5000    58.5030    24.1220    19.1770    18.0850    21.1520     2.4350   -28.1030 
  126.6250    59.0010    24.1080    18.7350    17.5170    20.4920     2.4270   -28.1500 
  126.7500    60.1780    24.1050    17.4930    16.8040    19.5940     2.4230   -28.2460 
  126.8750    62.4400    24.1050    16.0080    16.1160    18.7390     2.4180   -28.3470 
  127.0000    66.1660    24.1060    15.0700    15.6230    18.1960     2.4070   -28.4320 
  127.1250    69.3030    24.1000    14.8760    15.4940    18.2110     2.3950   -28.5080 
  127.2500    71.2230    24.0980    15.3750    15.6670    18.6590     2.3960   -28.5850 
  127.3750    73.2310    24.0940    16.3790    16.0090    19.2950     2.4060   -28.6470 
  127.5000    74.1350    24.0980    17.3620    16.3230    19.7750     2.4100   -28.6820 
  127.6250    73.4950    24.1010    17.5090    16.3800    19.7100     2.3930   -28.7040 
  127.7500    72.3920    24.1020    16.6560    16.1620    19.1820     2.3710   -28.7160 
  127.8750    72.5870    24.1020    15.5850    15.7810    18.4620     2.3620   -28.7100 
  128.0000    74.8020    24.0990    15.1630    15.4270    17.9050     2.3770   -28.6880 
  128.1250    75.1430    24.1040    15.3280    15.2920    17.8310     2.4050   -28.6520 
  128.2500    72.3630    24.1150    15.6510    15.3720    18.1720     2.4220   -28.5750 
  128.3750    68.6670    24.1300    16.3620    15.5940    18.7510     2.4190   -28.4530 
  128.5000    68.4730    24.1170    17.5900    15.8400    19.3390     2.4080   -28.2980 
  128.6250    72.1190    24.1090    18.1560    15.9550    19.7140     2.4060   -28.0920 
  128.7500    75.6800    24.1030    17.6820    15.9150    19.8410     2.4120   -27.8400 
  128.8750    76.2540    24.0990    16.8310    15.7840    19.7360     2.4240   -27.5570 
  129.0000    72.0980    24.0970    16.3180    15.6570    19.4740     2.4390   -27.2610 
  129.1250    66.2370    24.0950    16.4990    15.6250    19.2260     2.4560   -26.9210 
  129.2500    63.3740    24.0960    16.8750    15.6360    19.0910     2.4680   -26.5690 
  129.3750    62.8040    24.0990    17.0830    15.4730    18.8660     2.4680   -26.2480 
  129.5000    62.2200    24.1030    16.7790    14.8070    18.1010     2.4530   -25.9490 
  129.6250    63.6590    24.0930    15.6270    13.3540    16.2720     2.4280   -25.6760 
  129.7500    67.1190    24.0350    13.3960    11.4670    13.7850     2.4050   -25.3730 
  129.8750    68.7980    23.8970    10.1550     9.5540    11.2740     2.3870   -25.0790 
  130.0000    66.1370    23.7300     7.1760     7.9460     9.2740     2.3770   -24.7720 
  130.1250    61.1210    23.6550     5.9110     6.8750     8.1360     2.3790   -24.5200 
  130.2500    56.2900    23.6230     5.6630     6.2470     7.6660     2.3840   -24.2930 
  130.3750    52.9360    23.6010     5.8030     5.9840     7.6840     2.3830   -24.0710 
