~V
VERS. 2.00: Ver 2.00
~W
STRT.M 50.0000:
STOP.M 280.0000:
STEP.M 0.1250:
NULL. -999.2500:
UWI. F10023:
~C
DEPT.M :
SP.MV :
DEN.GM/CC :
GR.API :
CALI.CM :
RXO.OHMM :
RI. :
RML.OHMM :
~A
# ...
  207.5000   -17.6720     2.3570    44.7140    23.9580     6.3850     6.2530     7.3930 
  207.6250   -17.5540     2.3710    44.9160    23.9470     6.4980     6.2580     7.4150 
  207.7500   -17.4830     2.3760    44.4920    23.9660     6.5980     6.2550     7.4350 
  207.8750   -17.4700     2.3720    46.0820    23.9550     6.6240     6.2280     7.4310 
  208.0000   -17.5010     2.3680    48.0830    23.9140     6.5610     6.1700     7.3940 
  208.1250   -17.5660     2.3670    46.8150    23.9170     6.4420     6.0830     7.3270 
  208.2500   -17.6020     2.3620    44.6070    23.9730     6.3380     5.9850     7.2510 
  208.3750   -17.5630     2.3510    43.7990    24.0460     6.2840     5.8920     7.1810 
  208.5000   -17.4580     2.3360    44.9580    24.0870     6.2890     5.8240     7.1320 
  208.6250   -17.3850     2.3250    47.4030    24.0960     6.3450     5.8030     7.1260 
  208.7500   -17.3580     2.3310    49.9800    24.1590     6.4310     5.8290     7.1670 
  208.8750   -17.3440     2.3540    52.2140    24.4390     6.5220     5.8930     7.2540 
  209.0000   -17.3180     2.3770    53.0720    24.9730     6.6030     5.9780     7.3740 
  209.1250   -17.2260     2.3810    52.8660    25.1420     6.7170     6.0680     7.5050 
  209.2500   -17.1350     2.3750    54.0310    24.7920     6.9150     6.1370     7.6140 
  209.3750   -17.0430     2.3700    56.1750    24.4420     7.2170     6.1630     7.6750 
  209.5000   -16.9820     2.3660    57.0670    24.2900     7.5020     6.1330     7.6740 
  209.6250   -16.9820     2.3590    56.7480    24.2190     7.3940     6.0380     7.6040 
  209.7500   -16.9790     2.3490    57.1950    24.1530     6.9820     5.9060     7.5000 
  209.8750   -16.9670     2.3400    57.0710    24.1090     6.5350     5.7660     7.3880 
  210.0000   -16.9090     2.3340    54.9740    24.0920     6.2490     5.6390     7.2880 
  210.1250   -16.8150     2.3280    54.6870    24.0900     6.1100     5.5440     7.2130 
  210.2500   -16.7170     2.3240    59.6920    24.0820     5.9580     5.4840     7.1630 
  210.3750   -16.6610     2.3220    65.7340    24.0690     5.8330     5.4630     7.1460 
  210.5000   -16.6230     2.3250    67.5920    24.0630     5.7830     5.4890     7.1710 
  210.6250   -16.5800     2.3380    66.5200    24.0580     5.8420     5.5830     7.2560 
  210.7500   -16.5460     2.3550    68.2340    24.0140     5.9560     5.7340     7.3860 
  210.8750   -16.4810     2.3730    73.6260    23.9700     6.1370     5.9200     7.5360 
  211.0000   -16.4030     2.3860    79.7660    24.0090     6.3560     6.1040     7.6640 
  211.1250   -16.3460     2.3890    84.5200    24.1070     6.4520     6.2080     7.6990 
  211.2500   -16.2960     2.3790    88.1650    24.1540     6.3750     6.1840     7.6130 
  211.3750   -16.3050     2.3560    89.6150    24.1640     6.2550     6.0270     7.4200 
  211.5000   -16.3420     2.3280    89.3220    24.1630     6.2080     5.7840     7.1800 
  211.6250   -16.3600     2.3070    89.5450    24.1630     6.2030     5.5480     6.9950 
  211.7500   -16.3510     2.2960    89.6550    24.1630     6.1310     5.4020     6.9350 
  211.8750   -16.3330     2.2890    90.2530    24.1700     6.1200     5.3820     7.0240 
  212.0000   -16.3480     2.2820    92.3420    24.1880     6.3300     5.4810     7.2310 
  212.1250   -16.4430     2.2770    94.0560    24.2170     6.6780     5.6380     7.4570 
  212.2500   -16.6130     2.2820    94.7580    24.2470     7.0070     5.7560     7.5890 
  212.3750   -16.7750     2.2960    96.1470    24.2940     7.2720     5.8010     7.6070 
  212.5000   -16.9400     2.3150    98.3850    24.3310     7.3850     5.8260     7.6000 
  212.6250   -17.0680     2.3320    98.5790    24.2950     7.4520     5.9920     7.7830 
  212.7500   -17.2140     2.3410    95.6870    24.2000     8.1640     6.4360     8.3290 
  212.8750   -17.4290     2.3370    93.8170    24.1220    10.2560     7.2680     9.3590 
  213.0000   -17.6960     2.3260    95.0100    24.0910    13.5380     8.5460    10.9100 
  213.1250   -17.9900     2.3140    97.0240    24.1250    16.4460    10.2800    12.9150 
  213.2500   -18.2390     2.3040    95.3370    24.2150    18.4880    12.2010    14.9900 
  213.3750   -18.3960     2.2980    90.4560    24.3160    19.8790    14.0470    16.8150 
  213.5000   -18.4950     2.3020    87.7020    24.3620    20.9150    15.6090    18.2190 
  213.6250   -18.5780     2.3230    90.6030    24.3290    22.6850    16.7620    19.1870 
  213.7500   -18.6450     2.3430    93.2510    24.2520    25.2080    17.5550    19.8240 
  213.8750   -18.6930     2.3430    90.5870    24.1880    27.1270    17.8920    19.9710 
  214.0000   -18.7090     2.3180    84.9420    24.1790    25.9580    17.6310    19.4110 
  214.1250   -18.6280     2.2790    84.8280    24.2370    21.7230    16.6510    18.0520 
  214.2500   -18.4950     2.2450    89.6800    24.3090    17.8110    15.2670    16.3470 
  214.3750   -18.3530     2.2250    92.5050    24.3120    15.1610    13.7660    14.6550 
  214.5000   -18.2210     2.2250    90.3890    24.2340    13.4340    12.3880    13.2150 
  214.6250   -18.1720     2.2450    89.4090    24.1410    12.1610    11.3170    12.1700 
  214.7500   -18.1200     2.2700    92.3290    24.0740    11.1230    10.5380    11.4390 
  214.8750   -18.0270     2.2870    96.3640    24.0350    10.4090    10.0200    10.9710 
  215.0000   -17.8970     2.2910    99.9350    24.0160    10.0720     9.7150    10.7180 
  215.1250   -17.7210     2.2860   104.4160    24.0110     9.9450     9.5990    10.6500 
  215.2500   -17.5560     2.2810   107.8590    24.0090     9.8710     9.5780    10.6430 
  215.3750   -17.4510     2.2750   107.1720    24.0090     9.9750     9.5610    10.5800 
  215.5000   -17.3850     2.2690   102.9070    24.0190    10.3590     9.4640    10.3720 
  215.6250   -17.3150     2.2640    99.5440    24.0430    10.5920     9.2730    10.0280 
  215.7500   -17.2480     2.2660    98.0520    24.0720    10.3290     9.0940     9.7300 
  215.8750   -17.1760     2.2800    97.1080    24.0850     9.7510     9.0650     9.6550 
  216.0000   -17.1110     2.3010    96.7220    24.0860     9.6790     9.3060     9.9260 
  216.1250   -17.1170     2.3160    95.4850    24.0860    11.0150     9.8950    10.5880 
  216.2500   -17.1620     2.3190    90.5560    24.0850    12.7750    10.6460    11.3550 
  216.3750   -17.2490     2.3170    84.7400    24.0830    13.6260    11.2690    11.8510 
  216.5000   -17.3300     2.3140    84.8000    24.0800    13.0780    11.4170    11.7310 
  216.6250   -17.3360     2.3110    90.9580    24.1010    11.3240    10.8310    10.8780 
  216.7500   -17.3360     2.3070    93.9970    24.1510     9.5190     9.8530     9.7760 
  216.8750   -17.3270     2.3090    93.9440    24.1960     8.1440     8.8250     8.7900 
  217.0000   -17.3240     2.3270    95.4940    24.1980     7.3160     7.9850     8.0990 
  217.1250   -17.3290     2.3610    98.1590    24.1030     6.9390     7.4580     7.7500 
  217.2500   -17.3580     2.3950    97.3440    23.8590     6.7610     7.1490     7.5960 
  217.3750   -17.3910     2.4090    95.4690    23.4520     6.7900     6.9740     7.5480 
  217.5000   -17.4220     2.3950    97.6690    23.0570     7.0430     6.8820     7.5510 
  217.6250   -17.4460     2.3620   101.6080    22.9420     7.1730     6.8790     7.6090 
  217.7500   -17.4610     2.3380   102.4570    23.1640     7.2640     6.9740     7.7390 
  217.8750   -17.5410     2.3260   100.5270    23.5650     7.7270     7.1950     7.9770 
  218.0000   -17.6590     2.3200    98.4550    23.8930     8.9360     7.5830     8.3860 
  218.1250   -17.8390     2.3140    94.8760    24.0250    10.9000     8.2830     9.1700 
  218.2500   -18.0130     2.3260    89.8290    24.0870    12.7030     9.4620    10.5330 
  218.3750   -18.1370     2.3690    87.1210    24.1250    15.0360    11.4190    12.7920 
  218.5000   -18.2630     2.4380    87.5110    24.1260    20.1480    14.5670    16.3440 
  218.6250   -18.4330     2.5080    84.1630    24.0600    33.7020    19.7010    21.9400 
