~V
VERS. 2.00: Ver 2.00
~W
STRT.M 50.0000:
STOP.M 255.0000:
STEP.M 0.1250:
NULL. -999.2500:
UWI. F10005:
~C
DEPT.M :
SP.MV :
GR.API :
RML.OHMM :
RI. :
RXO.OHMM :
CALI.CM :
DEN.GM/CC :
~A
# ...
  218.7500   -21.2500    54.3170   322.5980   331.6470   468.1180    24.0420     2.1520 
  218.8750   -21.3550    54.2170   346.8010   354.7760   419.1600    24.1600     2.1490 
  219.0000   -21.4940    53.9610   355.3210   362.4040   425.5990    24.2280     2.1510 
  219.1250   -21.5720    53.9780   350.6430   356.9760   461.6990    24.2520     2.1580 
  219.2500   -21.6400    54.1870   336.8630   343.0120   472.4910    24.2680     2.1660 
  219.3750   -21.7070    54.3620   312.3230   319.2460   447.9190    24.2830     2.1740 
  219.5000   -21.7690    54.5600   277.4330   285.4810   419.3590    24.2860     2.1800 
  219.6250   -21.8810    55.3390   238.8310   246.8120   392.2270    24.2400     2.1860 
  219.7500   -21.9330    56.7170   206.0140   212.6730   360.3770    24.1250     2.1970 
  219.8750   -21.9030    58.1480   183.5340   188.4890   296.7610    23.9310     2.2090 
  220.0000   -21.7910    57.2930   172.7440   176.4920   227.6830    23.6720     2.2160 
  220.1250   -21.6570    54.3360   174.3380   177.7820   219.8300    23.4280     2.2150 
  220.2500   -21.4940    52.8210   183.0080   186.4460   276.1330    23.2590     2.2130 
  220.3750   -21.1700    52.5620   192.7360   196.1180   328.5600    23.1720     2.2250 
  220.5000   -20.8950    51.8820   195.4490   199.1880   317.9720    23.1170     2.2580 
  220.6250   -20.4380    52.3670   183.0910   188.3170   261.3860    23.0720     2.3140 
  220.7500   -19.9370    56.2060   161.1640   167.8060   220.4860    23.0190     2.3800 
  220.8750   -19.4560    62.7390   137.4230   144.2700   185.6780    22.9850     2.4440 
  221.0000   -18.9840    67.5860   117.3420   123.2810   178.1860    23.0360     2.4950 
  221.1250   -18.4220    67.2890   103.3380   107.9600   136.2670    23.2480     2.5140 
  221.2500   -17.7500    65.1930    93.7600    97.1510   110.2880    23.6010     2.5020 
  221.3750   -17.1160    65.5740    87.4580    89.7940   113.8630    24.0130     2.4670 
  221.5000   -16.3850    68.7960    83.3220    84.7650   122.4550    24.3430     2.4280 
  221.6250   -15.7840    70.9490    80.5470    81.2450   109.1910    24.4980     2.3980 
  221.7500   -15.2700    70.8710    78.4440    78.4810    85.4770    24.5570     2.3730 
  221.8750   -14.7110    70.8040    77.1010    76.5060    73.7910    24.5710     2.3410 
  222.0000   -14.1390    71.1590    76.9380    75.6710    71.3250    24.5700     2.3010 
  222.1250   -13.6470    69.2280    78.7440    76.6990    66.3890    24.5400     2.2720 
  222.2500   -13.2100    66.7650    82.3450    79.4480    63.2850    24.4820     2.2820 
  222.3750   -12.7860    65.9730    87.2030    83.4890    68.7290    24.3990     2.3420 
  222.5000   -12.3480    66.6820    92.1120    87.8200    90.0760    24.3030     2.4420 
  222.6250   -11.8880    65.8920    95.0880    90.7540   104.5230    24.2130     2.5450 
  222.7500   -11.4000    63.2920    95.5470    91.5480   106.0080    24.1020     2.6080 
  222.8750   -10.9790    60.5600    94.0680    90.4180   113.6680    23.9620     2.6110 
  223.0000   -10.6290    59.2270    91.7550    88.1540   107.1770    23.8070     2.5560 
  223.1250   -10.3110    61.0690    89.1640    85.2720    96.8150    23.6910     2.4720 
  223.2500   -10.0410    64.1790    86.0570    81.8370    86.7320    23.6130     2.4110 
  223.3750    -9.8440    65.3240    82.0590    77.6640    87.7030    23.5540     2.3990 
  223.5000    -9.7550    63.5670    77.0860    72.7320    89.6620    23.4970     2.4370 
  223.6250    -9.6070    62.8630    71.1590    67.0610   100.5000    23.4500     2.5020 
  223.7500    -9.4420    64.8950    64.6470    60.9380    89.6510    23.4250     2.5540 
  223.8750    -9.1580    66.2230    57.7680    54.5390    78.5070    23.4470     2.5770 
  224.0000    -8.8430    64.9980    50.7280    48.0330    85.8800    23.5570     2.5740 
  224.1250    -8.5270    62.2180    43.9580    41.8030    74.8590    23.7690     2.5580 
  224.2500    -8.2030    59.4180    38.0820    36.3780    54.2120    24.0240     2.5460 
  224.3750    -7.8920    54.9740    33.6760    32.2160    44.7520    24.2390     2.5410 
  224.5000    -7.5520    46.2410    31.0000    29.5000    47.7950    24.3560     2.5430 
  224.6250    -7.2820    33.9840    29.9220    28.1390    42.7990    24.3630     2.5580 
  224.7500    -7.0440    22.8870    29.0790    27.0220    38.9410    24.3200     2.5850 
  224.8750    -6.8810    16.4640    27.0880    24.9210    43.2030    24.2520     2.6190 
  225.0000    -6.7340    14.3190    23.1460    21.0530    44.4650    24.1700     2.6420 
  225.1250    -6.5750    14.5000    17.8610    16.0150    35.9670    24.0760     2.6270 
  225.2500    -6.4290    16.3680    13.0340    11.4870    19.6650    23.9790     2.5700 
  225.3750    -6.2500    20.3580     9.4960     8.1580     8.9700    23.9040     2.4830 
  225.5000    -6.0970    24.8080     5.9750     6.0420     4.8940    23.8780     2.3900 
  225.6250    -6.0060    26.8730     5.2020     5.0020     4.0400    23.8790     2.3230 
  225.7500    -5.9100    27.2250     5.0770     4.6020     3.9640    23.8540     2.2900 
  225.8750    -5.7930    27.9160     5.3140     4.6400     3.9690    23.8080     2.2840 
  226.0000    -5.6520    29.7380     5.6640     4.9210     3.9840    23.7700     2.2950 
  226.1250    -5.5710    31.6810     5.9470     5.2520     4.1180    23.7780     2.3100 
  226.2500    -5.5230    32.2170     6.1350     5.5150     4.2620    23.8330     2.3220 
  226.3750    -5.5240    31.8690     6.2550     5.6960     4.4420    23.9150     2.3300 
  226.5000    -5.6020    31.9460     6.3190     5.8030     4.6770    23.9730     2.3350 
  226.6250    -5.6980    32.2100     6.3100     5.8270     4.8830    23.9430     2.3390 
  226.7500    -5.7450    31.7380     6.2300     5.7710     4.9660    23.8690     2.3440 
  226.8750    -5.6810    30.7990     6.0870     5.6220     4.8780    23.8190     2.3480 
  227.0000    -5.6190    30.8000     5.8980     5.3820     4.7320    23.8310     2.3480 
  227.1250    -5.5080    31.0500     5.6960     5.0870     4.4660    23.9150     2.3420 
  227.2500    -5.3830    29.9950     5.5340     4.8180     4.3150    24.0270     2.3380 
  227.3750    -5.2620    29.3060     5.4620     4.6330     4.2210    24.1370     2.3380 
  227.5000    -5.0860    30.9330     5.5210     4.5700     4.1590    24.2120     2.3440 
  227.6250    -4.9170    35.1770     5.7410     4.6520     4.2530    24.2380     2.3510 
  227.7500    -4.8610    38.9930     6.0440     4.8220     4.7320    24.2440     2.3540 
  227.8750    -4.9860    42.0460     6.3510     5.0250     5.4500    24.2540     2.3510 
  228.0000    -5.1570    44.6180     6.5810     5.2000     5.5970    24.2820     2.3450 
  228.1250    -5.3720    44.0030     6.6700     5.2800     5.4960    24.3340     2.3450 
  228.2500    -5.5830    39.6850     6.6500     5.2640     5.4870    24.3840     2.3510 
  228.3750    -5.7700    35.2310     6.5550     5.1730     5.4450    24.4000     2.3600 
  228.5000    -5.8880    34.8580     6.4190     5.0410     4.9800    24.3700     2.3670 
  228.6250    -5.8990    37.3650     6.2700     4.9050     4.9200    24.3150     2.3660 
  228.7500    -5.8600    37.4650     6.1420     4.7910     5.0240    24.2790     2.3610 
  228.8750    -5.8180    35.6080     6.0660     4.7130     4.9580    24.2820     2.3540 
  229.0000    -5.7950    34.9980     6.0660     4.6770     4.7400    24.3110     2.3500 
  229.1250    -5.8250    37.6670     6.1500     4.6970     4.6660    24.3410     2.3530 
  229.2500    -5.8820    41.7100     6.2680     4.7540     4.7150    24.3520     2.3600 
  229.3750    -5.9280    46.1460     6.3850     4.8300     4.7700    24.3590     2.3690 
  229.5000    -6.0090    50.4250     6.4870     4.9150     4.7460    24.3720     2.3740 
  229.6250    -6.2020    52.2860     6.6060     5.0190     4.8620    24.3690     2.3740 
  229.7500    -6.4810    52.2620     6.7790     5.1620     5.0060    24.3430     2.3670 
  229.8750    -6.7560    53.1220     7.0290     5.3580     5.0030    24.2910     2.3570 
