~V
VERS. 2.00: Ver 2.00
~W
STRT.M 64.0000:
STOP.M 287.0000:
STEP.M 0.1250:
NULL. -999.2500:
UWI. F10052:
~C
DEPT.M :
SP.MV :
DEN.GM/CC :
GR.API :
RML.OHMM :
RI. :
RXO.OHMM :
CALI.CM :
~A
# ...
  120.2500   -22.9950     2.1600    68.7680     7.6920     6.7420     7.8810    23.4310 
  120.3750   -22.9020     2.1700    67.9210     7.0380     6.2620     7.6370    23.6880 
  120.5000   -22.8240     2.1930    64.2250     6.2810     5.6510     7.0750    24.0560 
  120.6250   -22.7720     2.2270    65.0830     5.5650     5.0480     6.0410    24.3200 
  120.7500   -22.7570     2.2600    74.2500     4.9650     4.5700     5.0940    24.3330 
  120.8750   -22.7700     2.2780    86.3250     4.5330     4.2690     4.7790    24.1020 
  121.0000   -22.7880     2.2780    92.0180     4.3320     4.1570     4.9870    23.7330 
  121.1250   -22.7990     2.2610    87.1500     4.4800     4.2480     5.5470    23.3640 
  121.2500   -22.8250     2.2380    80.1730     4.9260     4.4840     5.8020    23.0940 
  121.3750   -22.9060     2.2140    75.1900     5.5630     4.8320     5.8060    22.9610 
  121.5000   -23.0210     2.1900    70.2440     6.2270     5.2490     6.0110    22.9570 
  121.6250   -23.1310     2.1640    65.3500     6.7260     5.6830     6.5280    23.0590 
  121.7500   -23.1890     2.1350    63.4520     6.9940     6.0620     6.8190    23.2150 
  121.8750   -23.2060     2.1090    65.1090     7.0040     6.3170     6.9440    23.3930 
  122.0000   -23.2230     2.0920    68.9190     6.7800     6.3890     7.0250    23.5440 
  122.1250   -23.2690     2.0920    72.9910     6.4010     6.2220     6.8810    23.5870 
  122.2500   -23.3270     2.1070    75.5080     6.0250     5.9100     6.5120    23.5000 
  122.3750   -23.3480     2.1330    76.7300     5.7500     5.5580     6.1130    23.3010 
  122.5000   -23.3270     2.1620    77.9560     5.6420     5.2730     5.8920    23.0410 
  122.6250   -23.3170     2.1850    78.3200     5.7650     5.1580     5.7130    22.7960 
  122.7500   -23.3610     2.1980    75.1030     6.0760     5.2110     5.8400    22.6370 
  122.8750   -23.4370     2.2000    69.8660     6.5040     5.3950     6.2620    22.6080 
  123.0000   -23.5050     2.1920    67.4450     6.8970     5.6270     6.6260    22.7180 
  123.1250   -23.5520     2.1760    67.9870     7.0530     5.7960     6.8630    22.9610 
  123.2500   -23.5940     2.1520    67.6490     7.0330     5.9050     7.0310    23.2770 
  123.3750   -23.6350     2.1210    67.0850     7.0750     6.0820     7.1860    23.6260 
  123.5000   -23.6700     2.0930    68.1550     7.4950     6.5430     7.4140    23.9450 
  123.6250   -23.6810     2.0940    68.7220     8.8030     7.7070     9.1040    24.1480 
  123.7500   -23.6460     2.1480    65.3910    11.2870     9.8170    14.8370    24.2340 
  123.8750   -23.5880     2.2790    60.7350    15.1960    13.0650    29.2880    24.2470 
  124.0000   -23.5370     2.4520    58.3960    20.1090    17.1650    43.6870    24.2340 
  124.1250   -23.5030     2.5730    57.6080    23.2570    20.2980    42.7240    24.2240 
  124.2500   -23.4820     2.5870    56.2950    22.0310    20.3930    34.5850    24.2120 
  124.3750   -23.4880     2.5100    54.9640    17.5930    17.5390    24.9710    24.1880 
  124.5000   -23.5190     2.3890    54.1090    13.0340    13.6880    15.8700    24.1390 
  124.6250   -23.5500     2.2720    54.7980    10.1790    10.6280    10.4210    24.0610 
  124.7500   -23.5620     2.1820    57.2280     8.6440     8.6080     8.3610    23.9700 
  124.8750   -23.5610     2.1290    60.3110     7.9690     7.4390     7.7360    23.8770 
  125.0000   -23.5620     2.1110    62.1090     7.7900     6.8920     7.5870    23.7840 
  125.1250   -23.5660     2.1160    61.4310     7.8370     6.8160     7.5630    23.6880 
  125.2500   -23.5600     2.1250    58.8100     7.8660     6.9500     7.6090    23.5780 
  125.3750   -23.5120     2.1320    56.9820     7.8280     7.1460     7.6930    23.4490 
  125.5000   -23.4290     2.1370    57.8480     7.7750     7.2960     7.7690    23.3050 
  125.6250   -23.3330     2.1390    59.9250     7.7820     7.3260     7.8060    23.1640 
  125.7500   -23.2400     2.1350    60.6170     7.8360     7.2510     7.7890    23.0450 
  125.8750   -23.1520     2.1240    61.8760     7.8830     7.1090     7.6270    22.9590 
  126.0000   -23.0510     2.1090    65.1650     7.8840     6.9510     7.3780    22.9130 
  126.1250   -22.9280     2.0950    65.9720     7.8490     6.8330     7.2260    22.9010 
  126.2500   -22.7860     2.0840    63.3610     7.8340     6.7620     7.5110    22.9010 
  126.3750   -22.6530     2.0760    60.8810     7.8570     6.7260     7.6420    22.9040 
  126.5000   -22.5330     2.0740    61.3890     7.8880     6.7020     7.6250    22.9110 
  126.6250   -22.4220     2.0770    64.5390     7.8890     6.6800     7.5460    22.9250 
  126.7500   -22.3590     2.0850    65.3950     7.8690     6.6710     7.4620    22.9490 
  126.8750   -22.3290     2.0960    64.0180     7.8540     6.6990     7.3750    22.9830 
  127.0000   -22.3080     2.1100    63.3440     7.8520     6.7790     7.4280    23.0280 
  127.1250   -22.2790     2.1240    65.2870     7.8610     6.9040     7.6120    23.0850 
  127.2500   -22.2410     2.1360    67.4610     7.8700     7.0230     7.8760    23.1390 
  127.3750   -22.1890     2.1470    67.3820     7.8760     7.0920     8.1390    23.1770 
  127.5000   -22.1250     2.1540    67.1170     7.8670     7.0710     8.2660    23.1930 
  127.6250   -22.0860     2.1610    67.0980     7.7990     6.9260     8.0550    23.1930 
  127.7500   -22.0520     2.1700    67.8080     7.6590     6.7010     7.5850    23.1930 
  127.8750   -21.9960     2.1810    68.5340     7.4700     6.4510     7.1070    23.1980 
  128.0000   -21.9060     2.1880    69.1240     7.2870     6.2330     7.0350    23.2060 
  128.1250   -21.8250     2.1830    70.6120     7.2000     6.1050     6.9790    23.2050 
  128.2500   -21.7840     2.1670    72.4050     7.2290     6.0680     6.9190    23.1890 
  128.3750   -21.7750     2.1490    73.6590     7.3520     6.1120     7.1370    23.1590 
  128.5000   -21.7910     2.1390    72.3810     7.5220     6.2230     7.3850    23.1160 
  128.6250   -21.7790     2.1450    67.3380     7.6790     6.3790     7.4460    23.0620 
  128.7500   -21.7270     2.1600    63.7220     7.8000     6.5440     7.3610    23.0050 
  128.8750   -21.6660     2.1740    64.5650     7.9160     6.7050     7.2750    22.9580 
  129.0000   -21.6210     2.1760    69.8830     8.0810     6.8710     7.4270    22.9230 
  129.1250   -21.5380     2.1620    73.5300     8.3520     7.0750     7.6400    22.8950 
  129.2500   -21.4130     2.1450    73.0030     8.6740     7.3060     7.7300    22.8620 
  129.3750   -21.2660     2.1310    70.7640     8.9390     7.5160     7.7690    22.8210 
  129.5000   -21.1020     2.1260    68.4330     9.0330     7.6310     7.9560    22.7760 
  129.6250   -20.9410     2.1270    66.2800     8.8610     7.5620     8.1920    22.7340 
  129.7500   -20.8070     2.1300    65.7450     8.5550     7.3540     8.1880    22.7010 
  129.8750   -20.7090     2.1330    68.5200     8.2760     7.0990     7.9640    22.6740 
  130.0000   -20.6270     2.1400    72.1430     8.1280     6.9020     7.7210    22.6600 
  130.1250   -20.5650     2.1580    70.9420     8.1040     6.8410     7.5980    22.6980 
  130.2500   -20.5180     2.1820    66.0990     8.0670     6.8660     7.6310    22.8110 
  130.3750   -20.4750     2.2040    62.5360     7.8890     6.8830     7.8170    22.9820 
  130.5000   -20.4260     2.2200    63.9250     7.4950     6.7760     7.9640    23.1460 
  130.6250   -20.3550     2.2310    71.0340     6.9190     6.4580     7.2870    23.2230 
  130.7500   -20.2590     2.2390    79.4620     6.3660     6.0260     6.2210    23.2320 
  130.8750   -20.1770     2.2460    85.3690     5.9700     5.5960     5.4630    23.2200 
  131.0000   -20.1220     2.2530    89.6060     5.7770     5.2620     5.4510    23.2210 
  131.1250   -20.0690     2.2620    92.4650     5.7760     5.0840     5.8510    23.2540 
  131.2500   -20.0030     2.2670    94.2430     5.8310     5.0060     5.9870    23.3170 
  131.3750   -19.9610     2.2640    95.8180     5.8300     4.9630     5.6410    23.4140 
