~V
VERS. 2.00: Ver 2.00
~W
STRT.M 55.0000:
STOP.M 279.0000:
STEP.M 0.1250:
NULL. -999.2500:
UWI. F10072:
~C
DEPT.M :
GR.API :
RML.OHMM :
RI. :
RXO.OHMM :
CALI.CM :
DEN.GM/CC :
SP.MV :
~A
# ...
  100.0000    63.8630     9.5380     7.6870     9.1820    23.6640     2.0830   -29.8660 
  100.1250    64.8110     9.7510     7.8270     9.5590    23.6590     2.0750   -29.5050 
  100.2500    63.3810     9.9930     8.0150     9.9150    23.6030     2.0760   -29.1140 
  100.3750    62.5290    10.1700     8.1690    10.1460    23.5710     2.0880   -28.6930 
  100.5000    64.3530    10.2070     8.2230    10.0890    23.5660     2.1070   -28.2620 
  100.6250    65.8930    10.0560     8.1290     9.6230    23.5550     2.1220   -27.7970 
  100.7500    64.5980     9.7800     7.9320     8.8960    23.5110     2.1260   -27.2980 
  100.8750    63.7970     9.4500     7.6750     8.3250    23.4260     2.1180   -26.7540 
  101.0000    64.8920     9.1480     7.4220     8.0330    23.3570     2.1050   -26.2270 
  101.1250    65.7070     8.9700     7.2540     7.8460    23.3620     2.0950   -25.7290 
  101.2500    66.8600     8.9330     7.1970     7.6700    23.3970     2.0920   -25.1570 
  101.3750    69.6220     9.0100     7.2460     7.7780    23.4030     2.0960   -24.5690 
  101.5000    72.6240     9.1350     7.3650     8.4400    23.4200     2.1050   -23.9780 
  101.6250    73.1340     9.2270     7.5120     8.8940    23.4260     2.1170   -23.4230 
  101.7500    73.0370     9.2680     7.6530     8.7070    23.3920     2.1300   -22.9140 
  101.8750    73.3490     9.2810     7.7800     8.3580    23.2960     2.1410   -22.4610 
  102.0000    72.7340     9.2950     7.8790     8.2920    23.2450     2.1470   -22.0450 
  102.1250    71.7790     9.3050     7.9170     8.5260    23.3420     2.1480   -21.6000 
  102.2500    73.2940     9.2660     7.8860     8.4180    23.4490     2.1500   -21.1750 
  102.3750    77.0430     9.1310     7.7720     7.9040    23.4670     2.1540   -20.7000 
  102.5000    79.2090     8.8810     7.5600     7.1610    23.4410     2.1590   -20.1580 
  102.6250    77.2240     8.5350     7.2330     6.9090    23.4160     2.1630   -19.5190 
  102.7500    76.9750     8.1600     6.8300     7.1080    23.4260     2.1680   -18.7650 
  102.8750    83.4180     7.7740     6.3890     7.3040    23.4990     2.1780   -17.8900 
  103.0000    94.0730     7.3650     5.9540     6.6800    23.6990     2.1940   -16.9290 
  103.1250   100.3590     6.9290     5.5700     5.9380    24.0200     2.2150   -16.0210 
  103.2500   100.5500     6.5530     5.2520     5.6170    24.3030     2.2320   -15.2030 
  103.3750   100.8890     6.4030     5.0550     5.5970    24.4600     2.2410   -14.5020 
  103.5000   103.8460     6.6860     5.0770     5.5490    24.5520     2.2480   -13.9540 
  103.6250   105.3310     7.6180     5.4850     5.6500    24.6590     2.2640   -13.6390 
  103.7500   102.1560     8.9810     6.2750     6.3810    24.6480     2.2980   -13.5820 
  103.8750    93.3870    10.4370     7.3920     8.9950    24.4940     2.3460   -13.8470 
  104.0000    81.4580    11.5490     8.5970    16.5900    24.2160     2.3910   -14.3980 
  104.1250    72.6530    11.7980     9.3300    22.3420    23.8770     2.4020   -15.1950 
  104.2500    69.4580    11.2760     9.3410    15.1740    23.4850     2.3730   -16.1670 
  104.3750    68.5740    10.3190     8.8080     9.6040    23.2520     2.3140   -17.2290 
  104.5000    66.5820     9.3820     8.1200     8.1520    23.1820     2.2470   -18.3120 
  104.6250    65.2620     8.8330     7.6390     8.3360    23.1870     2.1950   -19.2700 
  104.7500    64.4220     8.6430     7.4550     8.5920    23.2120     2.1620   -20.1380 
  104.8750    63.8890     8.6890     7.5110     8.7250    23.2580     2.1430   -20.8240 
  105.0000    64.5580     8.8330     7.6770     8.9370    23.2840     2.1370   -21.3530 
  105.1250    66.5440     8.9760     7.8110     9.1780    23.2280     2.1460   -21.7020 
  105.2500    67.6550     9.0830     7.8560     9.0780    23.1050     2.1660   -21.9070 
  105.3750    66.1640     9.1490     7.8120     8.9860    22.9860     2.1860   -22.0360 
  105.5000    63.4280     9.1810     7.6970     8.9880    22.9690     2.1960   -22.1120 
  105.6250    62.1700     9.2070     7.5430     9.1850    23.0990     2.1860   -22.2260 
  105.7500    64.2320     9.2690     7.4070     9.3240    23.1900     2.1670   -22.2900 
  105.8750    67.5460     9.3830     7.3300     9.4370    23.1960     2.1470   -22.3480 
  106.0000    67.6010     9.5330     7.3270     9.2480    23.1460     2.1330   -22.4000 
  106.1250    63.5880     9.6770     7.3910     9.4740    23.0640     2.1270   -22.4360 
  106.2500    60.7940     9.7860     7.4790     9.6750    23.0510     2.1230   -22.4910 
  106.3750    61.9510     9.8600     7.5620     9.9310    23.1460     2.1200   -22.5620 
  106.5000    66.1270     9.9140     7.6280    10.0630    23.2590     2.1150   -22.6290 
  106.6250    69.7000     9.9720     7.6950    10.4170    23.3050     2.1120   -22.6660 
  106.7500    69.9490    10.0390     7.7850    10.8880    23.3300     2.1140   -22.7060 
  106.8750    66.9670    10.0910     7.8880    10.9930    23.3660     2.1190   -22.7260 
  107.0000    63.7090    10.0780     7.9650    10.3260    23.3750     2.1240   -22.7430 
  107.1250    63.4140     9.9470     7.9600     9.7570    23.4240     2.1230   -22.7130 
  107.2500    63.2120     9.7410     7.8830     9.5040    23.4550     2.1150   -22.6290 
  107.3750    62.4470     9.5340     7.7770     9.5580    23.4510     2.1070   -22.4790 
  107.5000    63.0630     9.4030     7.7050     9.6970    23.3750     2.1050   -22.3000 
  107.6250    64.6060     9.4070     7.7120     9.7660    23.3200     2.1100   -22.1290 
  107.7500    64.1510     9.4900     7.7660     9.8600    23.2690     2.1180   -21.9470 
  107.8750    61.2460     9.5880     7.8210    10.1710    23.2230     2.1250   -21.7810 
  108.0000    58.7610     9.6430     7.8480    10.5120    23.2220     2.1260   -21.6020 
  108.1250    59.0770     9.6150     7.8290    10.7460    23.2990     2.1240   -21.4720 
  108.2500    62.6390     9.5190     7.7580    10.5050    23.4260     2.1220   -21.3300 
  108.3750    67.7210     9.3710     7.6330     9.5210    23.5520     2.1220   -21.1820 
  108.5000    70.0880     9.1970     7.4710     8.6990    23.6750     2.1250   -21.0510 
  108.6250    68.3560     9.0280     7.3050     8.4880    23.7010     2.1300   -20.9700 
  108.7500    66.3970     8.8930     7.1820     8.4340    23.6330     2.1360   -20.9100 
  108.8750    66.4080     8.8190     7.1280     8.4760    23.5840     2.1430   -20.8450 
  109.0000    67.1180     8.8260     7.1430     8.5830    23.5740     2.1510   -20.7760 
  109.1250    68.9050     8.9320     7.2130     8.6570    23.5780     2.1570   -20.6870 
  109.2500    70.4880     9.0940     7.3200     8.9560    23.5420     2.1600   -20.6210 
  109.3750    69.4640     9.2740     7.4610     9.4120    23.4600     2.1590   -20.5910 
  109.5000    66.7210     9.4400     7.6260     9.8160    23.3560     2.1540   -20.5880 
  109.6250    65.5630     9.5540     7.7820     9.7240    23.2520     2.1490   -20.5440 
  109.7500    67.0520     9.6040     7.8730     9.2530    23.1780     2.1470   -20.4770 
  109.8750    69.1250     9.5730     7.8530     8.5710    23.1340     2.1490   -20.3800 
  110.0000    70.4040     9.4530     7.7140     8.3680    23.1360     2.1530   -20.2790 
  110.1250    70.3100     9.2480     7.4900     8.6770    23.1940     2.1570   -20.2220 
  110.2500    67.4120     9.0160     7.2580     8.7230    23.2670     2.1570   -20.1820 
  110.3750    63.9880     8.8130     7.0690     8.5420    23.3150     2.1550   -20.1560 
  110.5000    62.6730     8.6740     6.9480     8.4120    23.3280     2.1520   -20.1310 
  110.6250    64.7960     8.6270     6.9080     8.4500    23.3800     2.1510   -20.1140 
  110.7500    68.9810     8.6470     6.9330     8.6290    23.4870     2.1530   -20.1240 
  110.8750    73.2720     8.7110     7.0230     8.8900    23.5510     2.1530   -20.1750 
  111.0000    74.7940     8.7900     7.1590     8.9660    23.5660     2.1500   -20.2520 
  111.1250    72.5060     8.8590     7.3030     8.8390    23.5650     2.1430   -20.3020 
