~V
VERS. 2.00: Ver 2.00
~W
STRT.M 55.0000:
STOP.M 297.0000:
STEP.M 0.1250:
NULL. -999.2500:
UWI. F10076:
~C
DEPT.M :
DEN.GM/CC :
SP.MV :
GR.API :
CALI.CM :
RXO.OHMM :
RI. :
RML.OHMM :
~A
# ...
  212.5000     2.1190   -18.2210    67.6500    24.2020    72.4600    69.9160    71.4510 
  212.6250     2.1260   -18.2790    64.0390    24.2850    76.3430    75.0170    76.6720 
  212.7500     2.1180   -18.2880    62.4840    24.6540    80.5310    79.8850    81.6480 
  212.8750     2.1030   -18.2920    62.0010    25.1210    84.8830    84.2860    86.1260 
  213.0000     2.0970   -18.2630    61.9110    25.5350    89.5090    88.0870    89.9670 
  213.1250     2.1020   -18.2180    62.5250    25.8860    92.1260    90.9210    92.8320 
  213.2500     2.1030   -18.1510    63.0300    26.1230    92.3000    92.6040    94.6010 
  213.3750     2.0990   -18.1200    62.2270    26.2170    91.0020    92.8700    95.0520 
  213.5000     2.0990   -18.0870    60.7810    26.2260    89.1870    91.4620    93.9700 
  213.6250     2.1100   -18.0330    60.9010    26.2490    85.4470    87.7120    90.7560 
  213.7500     2.1230   -17.9950    62.0790    26.3290    78.5390    81.9220    85.6130 
  213.8750     2.1370   -18.0030    62.0580    26.3060    67.4170    74.6970    78.9300 
  214.0000     2.1540   -18.0070    60.2770    25.9800    55.9290    67.1220    71.5600 
  214.1250     2.1710   -17.9430    59.1500    25.4270    50.6910    60.5700    64.7740 
  214.2500     2.1740   -17.8490    60.0010    25.2730    50.8350    55.6540    59.4300 
  214.3750     2.1610   -17.7170    61.6570    25.4470    52.5660    52.5750    55.9340 
  214.5000     2.1450   -17.5680    61.9890    25.6800    53.8130    51.2320    54.3210 
  214.6250     2.1350   -17.3710    60.7860    25.7750    53.8900    51.4410    54.4750 
  214.7500     2.1260   -17.1560    60.0880    25.7690    55.5890    52.2560    55.3850 
  214.8750     2.1200   -16.9090    60.3810    25.8490    59.5540    52.7350    56.0820 
  215.0000     2.1220   -16.6840    62.0510    26.0710    63.3300    51.8940    55.5770 
  215.1250     2.1290   -16.4580    64.3630    26.2820    60.6880    49.0460    53.0990 
  215.2500     2.1320   -16.2630    65.0540    26.2410    52.5600    45.1600    49.4520 
  215.3750     2.1300   -16.0260    61.0800    25.8500    43.4610    41.3230    45.6540 
  215.5000     2.1250   -15.7990    55.1500    25.1700    37.2010    38.4520    42.6830 
  215.6250     2.1120   -15.6080    56.4830    24.4610    36.3880    37.3080    41.4590 
  215.7500     2.1010   -15.3990    62.1420    23.9570    38.8940    37.6360    41.8720 
  215.8750     2.1010   -15.1490    63.7530    24.0840    44.1770    39.0580    43.5950 
  216.0000     2.1070   -14.8840    58.9690    24.6550    49.1070    40.9540    45.9750 
  216.1250     2.1030   -14.6380    55.4440    25.0760    49.7100    42.3950    47.9790 
  216.2500     2.0980   -14.3870    55.5410    25.3030    47.1030    42.7100    48.7680 
  216.3750     2.1090   -14.1220    54.8090    25.6840    44.7490    41.6360    47.9570 
  216.5000     2.1400   -13.8170    52.2380    26.2900    45.1280    39.2360    45.5480 
  216.6250     2.1790   -13.4550    51.8590    26.7240    46.0790    35.6360    41.6350 
  216.7500     2.2140   -13.0660    53.4000    27.0010    43.5550    31.5620    37.0430 
  216.8750     2.2520   -12.6590    54.4990    27.0700    36.0240    27.7950    32.6370 
  217.0000     2.3120   -12.1880    54.8240    26.7030    26.7710    25.1600    29.3260 
  217.1250     2.3980   -11.6630    58.0050    25.9360    22.4450    24.7100    28.2520 
  217.2500     2.4790   -11.0530    62.9010    25.1610    25.3780    26.8020    30.0840 
  217.3750     2.5300   -10.4710    65.5460    24.5730    45.2130    32.1680    36.1930 
  217.5000     2.5460    -9.8880    61.4460    24.2000   111.4820    41.6500    47.7880 
  217.6250     2.5360    -9.2280    52.6330    24.0870   253.2320    54.9780    63.6630 
  217.7500     2.5090    -8.5610    48.6290    24.1150   316.6950    64.0420    74.6220 
  217.8750     2.4700    -7.9540    51.7870    24.1700   243.2100    59.1790    71.2170 
  218.0000     2.4220    -7.3870    57.7020    24.1680   124.0370    43.4950    54.4930 
  218.1250     2.3590    -6.8370    64.6830    24.1350    53.9440    29.3010    36.3030 
  218.2500     2.2800    -6.3530    74.0350    24.0890    23.9890    20.1540    23.8430 
  218.3750     2.2080    -5.9290    85.3180    24.0480    12.4630    14.7740    16.7170 
  218.5000     2.1730    -5.6060    94.1290    24.0620     8.8930    11.7160    12.8890 
  218.6250     2.1850    -5.3680    99.2710    24.1440     7.8430    10.1520    10.9270 
  218.7500     2.2150    -5.2160   102.7650    24.1190     7.1690     9.2850     9.7920 
  218.8750     2.2500    -5.0360   104.6690    23.9040     6.6010     8.8330     9.1820 
  219.0000     2.2840    -4.9110   105.4310    23.5890     6.1410     8.6160     8.8910 
  219.1250     2.3140    -4.8910   106.1530    23.7860     6.0930     8.5260     8.7810 
  219.2500     2.3450    -4.8650   105.4810    24.1370     6.3840     8.4680     8.7270 
  219.3750     2.3850    -4.7470   103.4740    24.4030     6.6160     8.4100     8.6910 
  219.5000     2.4270    -4.5690   103.2790    24.6030     6.5590     8.3470     8.6500 
  219.6250     2.4380    -4.4480   106.3280    24.8630     6.2970     8.2690     8.5510 
  219.7500     2.4160    -4.2880   106.3820    25.0220     6.0620     8.1490     8.3480 
  219.8750     2.3810    -4.1140   100.8710    24.9900     5.8960     7.9880     8.0000 
  220.0000     2.3620    -3.9470    92.4260    24.7170     5.6430     7.6240     7.7070 
  220.1250     2.3720    -3.7880    83.3560    24.3180     5.1710     7.2330     7.4400 
  220.2500     2.3890    -3.6660    75.6340    24.0660     4.7520     6.9460     7.2510 
  220.3750     2.3930    -3.6400    73.7430    24.0170     4.6990     6.8090     7.1980 
  220.5000     2.3810    -3.6540    78.3040    24.0770     5.0060     6.8190     7.2870 
  220.6250     2.3600    -3.7240    86.6440    24.0870     5.3820     6.9360     7.4810 
  220.7500     2.3390    -3.8640    96.3660    24.0280     5.5140     7.0670     7.6920 
  220.8750     2.3220    -4.1240   105.0770    23.9940     5.4880     7.1720     7.8870 
  221.0000     2.3120    -4.4350   108.5330    24.0630     5.5470     7.2570     8.0790 
  221.1250     2.3130    -4.6910   107.4810    24.0770     5.7860     7.3880     8.3210 
  221.2500     2.3260    -4.9320   107.2130    23.9870     6.2650     7.6060     8.6430 
  221.3750     2.3540    -5.1910   107.9980    23.8600     7.0470     7.9280     9.0660 
  221.5000     2.3930    -5.4590   106.8890    23.8710     8.0370     8.3690     9.6320 
  221.6250     2.4240    -5.6410   104.2670    24.0990     8.7770     8.9970    10.4610 
  221.7500     2.4360    -5.8380   102.6880    24.3410     9.0660     9.8330    11.5860 
  221.8750     2.4300    -5.9610   101.8640    24.4650     9.3780    10.8510    12.9550 
  222.0000     2.4100    -5.9960    99.9980    24.4550    10.7030    11.8780    14.3080 
  222.1250     2.3770    -5.9810    94.8200    24.3450    14.5290    12.4660    15.0200 
  222.2500     2.3460    -5.9480    90.0200    24.2450    17.6110    12.3480    14.7780 
  222.3750     2.3410    -5.8320    90.0260    24.1800    16.7540    11.5730    13.7450 
  222.5000     2.3770    -5.6670    95.1060    24.0980    12.6910    10.4960    12.4610 
  222.6250     2.4480    -5.4750    99.1510    23.9230     9.1240     9.5780    11.5350 
  222.7500     2.5170    -5.1940    96.9900    23.8000     8.1870     9.0440    11.1400 
  222.8750     2.5530    -4.8630    91.7460    23.8220     8.9160     8.9150    11.2130 
  223.0000     2.5430    -4.5080    87.9010    23.9450    10.2820     9.0580    11.5160 
  223.1250     2.4950    -4.1940    85.2380    24.0090    11.1270     9.1740    11.6330 
  223.2500     2.4420    -3.8520    81.6980    23.9890    11.0300     8.9900    11.3000 
  223.3750     2.3980    -3.4560    78.5900    23.9330    10.1330     8.4580    10.5540 
  223.5000     2.3630    -3.0560    76.8730    23.8790     8.4610     7.7310     9.6490 
  223.6250     2.3410    -2.6980    73.0700    23.8980     6.6650     7.0540     8.9030 
