~V
VERS. 2.00: Ver 2.00
~W
STRT.M 57.0000:
STOP.M 296.0000:
STEP.M 0.1250:
NULL. -999.2500:
UWI. F10043:
~C
DEPT.M :
GR.API :
RML.OHMM :
RI. :
RXO.OHMM :
CALI.CM :
DEN.GM/CC :
SP.MV :
~A
# ...
  237.0000    95.7180    10.8990     9.5020     9.6660    24.4630     2.3040   -28.5220 
  237.1250    99.8340    10.8190     9.3910     9.7400    24.5120     2.2910   -28.5160 
  237.2500   101.5320    10.7330     9.2060     9.6250    24.6010     2.2850   -28.4790 
  237.3750   101.1260    10.6420     9.0220     9.4160    24.6790     2.2860   -28.4240 
  237.5000   100.4630    10.5600     8.9330     9.1670    24.6730     2.2890   -28.3630 
  237.6250    98.5000    10.5170     9.0010     8.8070    24.5690     2.2920   -28.2930 
  237.7500    96.8330    10.5140     9.1370     8.6250    24.4890     2.2930   -28.2160 
  237.8750    96.3400    10.5450     9.2340     8.8290    24.4530     2.2890   -28.1220 
  238.0000    95.0020    10.5990     9.2100     9.0960    24.4200     2.2820   -28.0270 
  238.1250    91.7590    10.6780     9.0640     9.1540    24.3620     2.2800   -27.9980 
  238.2500    89.8630    10.7850     8.9310     9.0570    24.3720     2.2830   -28.0550 
  238.3750    91.0000    10.9280     8.9220     8.9630    24.3480     2.2930   -28.1520 
  238.5000    92.7130    11.1290     9.0850     9.3080    24.2880     2.3040   -28.2840 
  238.6250    94.7580    11.4480     9.3910    10.1410    24.2430     2.3100   -28.4380 
  238.7500    99.0890    11.9210     9.7650    11.4280    24.2450     2.3070   -28.6320 
  238.8750   102.6070    12.5980    10.2290    12.9060    24.2800     2.3010   -28.8340 
  239.0000   102.5150    13.5200    10.8760    14.3040    24.3560     2.2970   -29.0470 
  239.1250    99.6120    12.8290    11.8290    15.7290    24.3940     2.3020   -29.2510 
  239.2500    98.2770    14.0760    12.9610    16.9350    24.3890     2.3160   -29.4010 
  239.3750    98.8540    15.2030    14.0090    17.7830    24.3740     2.3350   -29.5040 
  239.5000    99.3030    15.8630    14.6260    18.5020    24.3690     2.3550   -29.5780 
  239.6250    99.7930    15.5700    14.4270    17.3740    24.3050     2.3710   -29.6520 
  239.7500   100.5870    14.4540    13.5930    15.9930    24.1820     2.3800   -29.6870 
  239.8750   100.4890    12.8910    12.4320    13.7700    24.1250     2.3820   -29.7270 
  240.0000    98.4480    11.3840    11.2740    11.8200    24.2740     2.3740   -29.7790 
  240.1250    96.2640    10.4300    10.4170    10.6170    24.4120     2.3590   -29.8460 
  240.2500    97.2890    10.1270     9.9700    11.2720    24.4570     2.3420   -29.9560 
  240.3750   100.9000    10.4440    10.0090    12.9890    24.4560     2.3280   -30.1070 
  240.5000   103.7610    11.2440    10.5270    14.0910    24.4880     2.3180   -30.3040 
  240.6250   102.1600    12.2960    11.3960    14.5030    24.4920     2.3110   -30.4780 
  240.7500    98.9690    13.2390    12.2550    15.1980    24.4760     2.3060   -30.6370 
  240.8750    96.8580    13.8190    12.8480    15.9070    24.4460     2.3050   -30.7490 
  241.0000    95.5850    13.9180    13.0660    16.5920    24.4310     2.3120   -30.8290 
  241.1250    94.3070    13.5680    12.9560    16.3290    24.4240     2.3270   -30.8240 
  241.2500    92.2790    13.0710    12.7170    14.9960    24.4240     2.3390   -30.7430 
  241.3750    90.6140    12.6210    12.4270    13.4090    24.4310     2.3440   -30.5940 
  241.5000    90.4060    12.3510    12.1520    12.2150    24.4280     2.3390   -30.3830 
  241.6250    90.2460    12.3650    12.0320    12.8090    24.4230     2.3310   -30.1540 
  241.7500    88.5700    12.5960    12.1380    13.6270    24.3930     2.3300   -29.9190 
  241.8750    87.6430    12.9550    12.4320    14.2810    24.3800     2.3380   -29.6800 
  242.0000    91.8530    13.3240    12.7810    15.7560    24.4070     2.3500   -29.4250 
  242.1250    98.0170    13.5540    13.0120    15.7250    24.3490     2.3550   -29.1500 
  242.2500    99.5350    13.5770    13.0850    14.3900    24.1620     2.3440   -28.8270 
  242.3750    98.0610    13.4020    13.0520    12.7420    23.8840     2.3200   -28.4440 
  242.5000    97.5820    13.1110    12.9800    11.9970    23.5520     2.2890   -28.0030 
  242.6250    97.7450    12.8000    12.8650    11.7070    23.3810     2.2650   -27.4990 
  242.7500    96.8440    12.5090    12.6730    11.4280    23.2430     2.2490   -26.9560 
  242.8750    96.0820    12.1980    12.3850    11.5080    23.2220     2.2400   -26.3950 
  243.0000    97.3470    11.7890    12.0060    12.6170    23.2630     2.2380   -25.8180 
  243.1250    98.6530    11.1830    11.4930    12.9490    23.3120     2.2400   -25.2260 
  243.2500    97.4520    10.4330    10.8240    11.8240    23.3880     2.2450   -24.6550 
  243.3750    93.9750     9.6560    10.0350     9.8920    23.5380     2.2490   -24.1440 
  243.5000    89.9710     9.0110     9.2630     8.7780    23.8030     2.2530   -23.7370 
  243.6250    87.7810     8.7090     8.7660     8.7870    24.1440     2.2630   -23.5020 
  243.7500    86.8010     8.7830     8.6680     8.7700    24.3030     2.2820   -23.4130 
  243.8750    88.0560     9.2250     8.9890     9.4550    24.3350     2.3070   -23.4710 
  244.0000    91.0790     9.9660     9.6300    11.7320    24.3080     2.3290   -23.6510 
  244.1250    92.5900    10.8830    10.4140    14.4120    24.2580     2.3310   -23.9230 
  244.2500    91.2780    11.8040    11.1730    14.8420    24.2050     2.3110   -24.2100 
  244.3750    89.2910    12.6850    11.9120    13.4610    24.1060     2.2750   -24.4600 
  244.5000    87.8280    13.6070    12.7400    13.0070    23.8510     2.2400   -24.6280 
  244.6250    87.5390    14.7720    13.8190    14.8400    23.3880     2.2320   -24.6430 
  244.7500    88.2650    16.2710    15.1550    18.2140    22.8960     2.2570   -24.5270 
  244.8750    88.9870    18.0380    16.6830    23.4030    22.7510     2.3090   -24.2830 
  245.0000    89.0490    19.7010    18.1830    31.0930    23.0290     2.3700   -23.9140 
  245.1250    89.9100    20.3400    19.0000    33.0790    23.5890     2.4120   -23.4740 
  245.2500    90.9910    19.4780    18.6160    28.1820    23.9590     2.4280   -23.0220 
  245.3750    89.8360    17.2480    16.9580    21.9440    24.0400     2.4220   -22.5980 
  245.5000    85.7340    14.3760    14.5330    18.8600    24.0240     2.4090   -22.1920 
  245.6250    82.9930    11.7980    12.1530    17.2440    24.1300     2.3980   -21.7880 
  245.7500    82.2590     9.9160    10.3200    13.3920    24.2240     2.3910   -21.4200 
  245.8750    81.1510     8.7200     9.1030     9.4590    24.2470     2.3860   -21.0890 
  246.0000    79.2740     8.0420     8.3620     8.0790    24.2230     2.3830   -20.8310 
  246.1250    78.7400     7.7460     7.9540     8.4660    24.1700     2.3810   -20.6510 
  246.2500    78.8780     7.6550     7.7520     8.5540    24.0810     2.3800   -20.5290 
  246.3750    78.4960     7.7270     7.7710     8.2370    23.9940     2.3760   -20.4570 
  246.5000    78.4760     7.9800     8.0280     7.6360    23.9420     2.3680   -20.4220 
  246.6250    80.8350     8.4940     8.5310     7.9870    23.9310     2.3570   -20.4670 
  246.7500    83.1250     9.2020     9.1620     9.2310    23.9380     2.3470   -20.4930 
  246.8750    84.3850     9.9480     9.7990    10.9710    23.9550     2.3430   -20.4590 
  247.0000    86.6120    10.4460    10.2590    12.3580    23.9720     2.3450   -20.3000 
  247.1250    87.5750    10.2800    10.2370    12.0520    23.9570     2.3520   -19.9980 
  247.2500    83.8920     9.5470     9.7280    10.1790    23.9380     2.3580   -19.5890 
  247.3750    76.4490     8.6040     8.9360     8.2340    23.9070     2.3600   -19.0840 
  247.5000    70.3830     7.8840     8.2080     7.5920    23.9080     2.3540   -18.5120 
  247.6250    68.4520     7.7410     7.9070     7.6980    23.9100     2.3460   -17.8910 
  247.7500    67.4310     8.0660     8.0330     8.3120    23.9530     2.3430   -17.2730 
  247.8750    66.0860     8.6340     8.4230    10.2370    23.9520     2.3530   -16.7100 
  248.0000    65.3750     9.1040     8.7880    13.0830    23.8300     2.3790   -16.2600 
  248.1250    65.0020     9.0650     8.7750    12.5840    23.6610     2.4170   -15.9380 
