~V
VERS. 2.00: Ver 2.00
~W
STRT.M 50.0000:
STOP.M 255.0000:
STEP.M 0.1250:
NULL. -999.2500:
UWI. F10005:
~C
DEPT.M :
SP.MV :
GR.API :
RML.OHMM :
RI. :
RXO.OHMM :
CALI.CM :
DEN.GM/CC :
~A
# ...
  241.2500   -10.3460    75.7530     7.6410     6.9160     7.7730    23.8020     2.3420 
  241.3750   -10.9330    77.0990     7.7970     7.0490     7.5220    23.9220     2.3270 
  241.5000   -11.7220    78.7290     7.9750     7.2110     7.6950    24.0840     2.3010 
  241.6250   -12.4770    77.9500     8.1480     7.3750     8.1930    24.2110     2.2720 
  241.7500   -13.0870    78.2150     8.2890     7.5120     8.2260    24.2620     2.2500 
  241.8750   -13.5810    81.3180     8.3710     7.5930     7.6700    24.2420     2.2390 
  242.0000   -14.0950    83.4080     8.3600     7.5850     7.3350    24.1770     2.2440 
  242.1250   -14.3750    82.5260     8.2220     7.4500     7.5300    24.0910     2.2650 
  242.2500   -14.3560    83.4600     7.9980     7.2260     7.9600    23.9810     2.2960 
  242.3750   -14.1300    85.9990     7.7470     6.9720     7.9210    23.8480     2.3250 
  242.5000   -13.8420    86.2970     7.5420     6.7520     7.1530    23.7200     2.3430 
  242.6250   -13.7240    85.3510     7.4640     6.6410     6.7760    23.6600     2.3380 
  242.7500   -13.7460    86.1160     7.5270     6.6530     7.2120    23.6390     2.3160 
  242.8750   -13.8420    86.1550     7.7170     6.7820     8.1480    23.6390     2.2870 
  243.0000   -13.9790    84.1200     7.9860     6.9930     8.4210    23.6510     2.2620 
  243.1250   -14.2800    82.3170     8.2600     7.2230     7.8150    23.6970     2.2490 
  243.2500   -14.6440    82.6820     8.4610     7.4030     7.8560    23.7780     2.2480 
  243.3750   -14.9580    83.7890     8.5410     7.4870     8.4400    23.8800     2.2550 
  243.5000   -15.1600    84.1460     8.4820     7.4560     8.5070    23.9720     2.2640 
  243.6250   -15.2110    83.1140     8.2870     7.3060     8.0070    24.0140     2.2700 
  243.7500   -15.2950    82.3210     8.0430     7.1000     7.7100    24.0210     2.2700 
  243.8750   -15.3750    82.5780     7.8270     6.8980     7.6500    24.0300     2.2660 
  244.0000   -15.3800    83.8070     7.7070     6.7610     7.6570    24.1030     2.2620 
  244.1250   -15.4210    85.5180     7.7470     6.7510     7.4940    24.2590     2.2620 
  244.2500   -15.5480    86.0880     7.9090     6.8500     7.5260    24.4210     2.2650 
  244.3750   -15.7110    85.1730     8.1500     7.0330     7.7880    24.5130     2.2670 
  244.5000   -15.8140    83.9320     8.4170     7.2590     8.1870    24.5380     2.2650 
  244.6250   -15.7890    84.0300     8.6510     7.4790     8.5660    24.5250     2.2610 
  244.7500   -15.5940    85.3130     8.8110     7.6480     8.8370    24.5010     2.2580 
  244.8750   -15.3250    87.3700     8.8740     7.7360     8.8440    24.4880     2.2580 
  245.0000   -14.9630    88.1720     8.8300     7.7280     8.7510    24.5030     2.2640 
  245.1250   -14.4410    88.1720     8.6700     7.6090     8.7280    24.5640     2.2740 
  245.2500   -13.8800    88.1720     8.4390     7.4220     8.5670    24.6350     2.2860 
  245.3750   -13.3080    88.1720     8.1820     7.2060     8.1790    24.6820     2.2980 
  245.5000   -12.7930    88.1720     7.9510     7.0020     7.6890    24.6970     2.3090 
  245.6250   -12.4440    88.1720     7.8120     6.8670     7.3650    24.6930     2.3180 
  245.7500   -12.2930    88.1720     7.7790     6.8170     7.2620    24.6810     2.3230 
  245.8750   -12.2820    88.1720     7.8470     6.8600     7.2730    24.6520     2.3250 
  246.0000   -12.4360    88.1720     7.9790     6.9740     7.3130    24.6050     2.3230 
  246.1250   -12.6390    88.1720     8.1040     7.1060     7.4050    24.5330     2.3170 
  246.2500   -12.7320    88.1720     8.1460     7.1860     7.5550    24.4520     2.3110 
  246.3750   -12.6900    88.1720     8.0700     7.1750     7.7300    24.3670     2.3080 
  246.5000   -12.5400    88.1720     7.8930     7.0740     7.7920    24.3070     2.3110 
  246.6250   -12.2610    88.1720     7.6850     6.9250     7.7120    24.3160     2.3240 
  246.7500   -11.8950    88.1720     7.5320     6.7970     7.6350    24.3540     2.3440 
  246.8750   -11.4740    88.1720     7.4720     6.7190     7.6690    24.3530     2.3720 
  247.0000   -10.9910    88.1720     7.4840     6.6870     7.6720    24.2660     2.4010 
  247.1250   -10.5650    88.1720     7.4850     6.6540     7.6210    24.1080     2.4150 
  247.2500   -10.2660    88.1720     7.4070     6.5740     7.6360    23.9260     2.4040 
  247.3750   -10.1190    88.1720     7.2450     6.4410     7.5250    23.7590     2.3680 
  247.5000   -10.0960    88.1720     7.0490     6.2850     7.2210    23.6360     2.3220 
  247.6250   -10.1520    88.1720     6.8950     6.1550     6.8240    23.5590     2.2940 
  247.7500   -10.2360    88.1720     6.8120     6.0750     6.4220    23.4890     2.2970 
  247.8750   -10.3150    88.1720     6.7900     6.0380     6.2260    23.4120     2.3200 
  248.0000   -10.4250    88.1720     6.7990     6.0250     6.3300    23.3400     2.3430 
  248.1250   -10.6680    88.1720     6.8070     6.0220     6.7250    23.2960     2.3450 
  248.2500   -11.0950    88.1720     6.8030     6.0210     7.1090    23.2620     2.3290 
  248.3750   -11.6710    88.1720     6.7880     6.0210     7.3300    23.2330     2.3090 
  248.5000   -12.3370    88.1720     6.7650     6.0180     7.7360    23.2410     2.2930 
  248.6250   -13.0470    88.1720     6.7470     6.0130     8.1290    23.3500     2.2880 
  248.7500   -13.6960    88.1720     6.7400     6.0090     8.6760    23.5700     2.2870 
  248.8750   -14.3050    88.1720     6.7440     6.0080     8.9400    23.8800     2.2870 
  249.0000   -14.8970    88.1720     6.7590     6.0120     8.8540    24.2280     2.2850 
  249.1250   -15.3480    88.1720     6.7820     6.0180     8.6600    24.5340     2.2800 
  249.2500   -15.5700    88.1720     6.8060     6.0220     8.5500    24.7150     2.2730 
  249.3750   -15.6550    88.1720     6.8200     6.0200     8.4520    24.7240     2.2670 
  249.5000   -15.6770    88.1720     6.8140     6.0150     8.4250    24.5350     2.2640 
  249.6250   -15.6490    88.1720     6.7860     6.0120     8.4910    24.1400     2.2660 
  249.7500   -15.6300    88.1720     6.7540     6.0110     8.6910    23.7260     2.2700 
  249.8750   -15.6070    88.1720     6.7360     6.0100     8.8280    23.3730     2.2710 
  250.0000   -15.5450    88.1720     6.7420     6.0080     8.6520    23.2090     2.2700 
  250.1250   -15.5160    88.1720     6.7650     6.0060     8.4460    22.7790     2.2710 
  250.2500   -15.5090    88.1720     6.7820     6.0050     8.1800    22.1200     2.2760 
  250.3750   -15.5110    88.1720     6.7850     6.0050     7.9030    21.0130     2.2760 
  250.5000   -15.4730    88.1720     6.7770     6.0090     7.9560    19.4540     2.2640 
  250.6250   -15.3880    88.1720     6.7640     6.0130     8.6280    19.0250     2.2320 
  250.7500   -15.3470    88.1720     6.7550     6.0160     9.0950    18.7960     2.1920 
  250.8750   -15.4010    88.1720     6.7510     6.0190     9.2280    18.6000     2.1600 
  251.0000   -15.4790    88.1720     6.7510     6.0200     9.2870    18.3820     2.1450 
  251.1250   -15.5010    88.1720     6.7510     6.0200     9.4980    18.2100     2.1520 
  251.2500   -15.5830    88.1720     6.7510     6.0200     9.3630    18.1280     2.1670 
  251.3750   -15.6900    88.1720     6.7510     6.0200     8.9250    18.1000     2.1780 
  251.5000   -15.7890    88.1720     6.7510     6.0200     8.8120    18.0800     2.1750 
  251.6250   -15.8740    88.1720     6.7510     6.0200     9.1450    18.0290     2.1630 
  251.7500   -15.9730    88.1720     6.7510     6.0200     9.2700    17.9200     2.1530 
  251.8750   -15.9730    88.1720     6.7510     6.0200     9.3740    17.7250     2.1550 
  252.0000   -15.9730    88.1720     6.7510     6.0200     9.2210    17.4260     2.1680 
  252.1250  -999.2500    88.1720     6.7510     6.0200     9.2780    17.0010     2.1820 
  252.2500  -999.2500    88.1720     6.7510     6.0200     9.1860    16.5290     2.1880 
  252.3750  -999.2500    88.1720     6.7510     6.0200     9.0850    16.1410     2.1830 
