~V
VERS. 2.00: Ver 2.00
~W
STRT.M 56.0000:
STOP.M 312.0000:
STEP.M 0.1250:
NULL. -999.2500:
UWI. F10077:
~C
DEPT.M :
GR.API :
RML.OHMM :
RI. :
RXO.OHMM :
CALI.CM :
DEN.GM/CC :
SP.MV :
~A
# ...
  168.5000    59.9410     7.7360     7.1040     8.8380    23.5230     2.2040   -15.0090 
  168.6250    61.7670     7.6920     7.0640     8.2880    23.5450     2.2060   -15.0450 
  168.7500    62.7690     7.7030     7.0680     7.9050    23.4200     2.2040   -15.1050 
  168.8750    62.3100     7.7760     7.1260     7.8520    23.2510     2.1970   -15.2030 
  169.0000    60.6720     7.8940     7.2330     7.9700    23.1430     2.1890   -15.3000 
  169.1250    59.9230     8.0320     7.3720     7.8830    23.0880     2.1860   -15.4100 
  169.2500    59.7330     8.1640     7.5140     7.8740    23.0850     2.1890   -15.5720 
  169.3750    59.5230     8.2750     7.6430     8.0780    23.1580     2.1980   -15.8040 
  169.5000    59.2350     8.3550     7.7440     8.4050    23.2900     2.2070   -16.0910 
  169.6250    58.8950     8.3890     7.8080     8.6240    23.3840     2.2110   -16.4060 
  169.7500    59.2210     8.3850     7.8410     8.7820    23.4060     2.2060   -16.6630 
  169.8750    60.3460     8.3530     7.8470     8.7570    23.4160     2.1920   -16.8740 
  170.0000    61.8380     8.3090     7.8380     8.6000    23.4870     2.1720   -17.0910 
  170.1250    61.7270     8.2830     7.8310     8.5220    23.5620     2.1500   -17.3110 
  170.2500    59.9040     8.2900     7.8440     8.6790    23.6290     2.1340   -17.4920 
  170.3750    57.5660     8.3250     7.8800     8.8390    23.6690     2.1270   -17.6450 
  170.5000    55.5960     8.3570     7.9180     8.8370    23.6890     2.1320   -17.7390 
  170.6250    54.1030     8.3330     7.9140     8.6510    23.6730     2.1480   -17.7570 
  170.7500    53.7630     8.2280     7.8410     8.4800    23.6450     2.1650   -17.7090 
  170.8750    56.4330     8.0490     7.6950     8.3920    23.6150     2.1770   -17.5620 
  171.0000    62.0860     7.8290     7.5000     8.2540    23.6360     2.1780   -17.2890 
  171.1250    66.6840     7.6180     7.3000     7.8460    23.6860     2.1650   -16.9290 
  171.2500    67.7190     7.4490     7.1350     7.6400    23.6880     2.1470   -16.6190 
  171.3750    67.2300     7.3300     7.0260     7.6350    23.6370     2.1310   -16.4200 
  171.5000    67.6510     7.2620     6.9790     7.7570    23.5520     2.1240   -16.3390 
  171.6250    67.4340     7.2910     7.0300     7.9350    23.4520     2.1260   -16.2810 
  171.7500    65.0330     7.4850     7.2240     8.1950    23.3910     2.1310   -16.2010 
  171.8750    62.7600     7.8840     7.5990     8.4920    23.3500     2.1370   -16.0560 
  172.0000    62.1990     8.4300     8.1200     8.8070    23.2970     2.1510   -15.7780 
  172.1250    63.2760     8.8960     8.6070     9.1990    23.1730     2.1940   -15.2030 
  172.2500    63.9230     9.0220     8.8040    10.1650    22.9510     2.2620   -14.2480 
  172.3750    65.0300     8.6510     8.5310    10.6230    22.6710     2.3400   -12.9150 
  172.5000    68.4250     7.8280     7.7950     8.5450    22.4730     2.3970   -11.3180 
  172.6250    74.0130     7.3520     6.7980     7.4180    22.5350     2.4070    -9.6270 
  172.7500    78.0870     6.3770     5.8380     6.7770    22.8960     2.3830    -7.9920 
  172.8750    81.5250     5.6090     5.0400     6.1640    23.5040     2.3510    -6.4840 
  173.0000    87.1500     5.0740     4.4520     5.4550    24.1540     2.3340    -5.1660 
  173.1250    92.0050     4.7940     4.1180     4.7050    24.6560     2.3430    -4.2330 
  173.2500    92.4320     4.7220     3.9940     4.2780    24.8420     2.3560    -3.7870 
  173.3750    89.7480     4.8840     4.0840     4.2750    24.8390     2.3540    -3.8800 
  173.5000    85.8960     5.3220     4.4140     4.8330    24.6870     2.3230    -4.5340 
  173.6250    78.6030     6.0690     5.0400     6.3400    24.4410     2.2650    -5.8470 
  173.7500    69.5590     6.9630     5.8680     8.2320    24.2130     2.2090    -7.5550 
  173.8750    64.1720     7.8140     6.7560     9.4300    24.1180     2.1780    -9.4610 
  174.0000    64.2480     8.4300     7.5050     9.7800    24.1390     2.1800   -11.4720 
  174.1250    64.6350     8.6560     7.8910    10.0280    24.1550     2.2020   -13.4810 
  174.2500    61.5500     8.6090     7.9610    10.2950    24.0700     2.2090   -15.3030 
  174.3750    57.5830     8.4280     7.8270    10.0560    23.9040     2.1840   -16.7960 
  174.5000    57.6570     8.2480     7.6270     9.5160    23.8080     2.1290   -17.8380 
  174.6250    61.4200     8.1700     7.4690     9.0380    23.8300     2.0700   -18.2210 
  174.7500    63.7810     8.2210     7.4010     8.9100    23.8600     2.0330   -18.0990 
  174.8750    63.4510     8.4160     7.4420     8.9480    23.8970     2.0270   -17.6020 
  175.0000    62.0910     8.6970     7.5650     9.1880    23.9360     2.0470   -16.8280 
  175.1250    59.8340     8.8600     7.6290     9.2530    23.9440     2.0910   -15.7410 
  175.2500    57.8920     8.7000     7.4590     9.3420    23.8840     2.1530   -14.3800 
  175.3750    59.8510     8.1420     6.9790     9.9720    23.8430     2.2310   -12.8260 
  175.5000    68.7250     7.2850     6.2520    10.2570    23.9090     2.3100   -11.1590 
  175.6250    82.8290     6.3950     5.4760     8.2170    24.0340     2.3660    -9.5330 
  175.7500    91.9640     5.7540     4.8640     5.5670    24.0860     2.3870    -8.0710 
  175.8750    92.5170     5.4870     4.5180     5.0690    24.0750     2.3760    -6.8740 
  176.0000    88.0010     5.5960     4.4690     5.7210    24.0500     2.3500    -5.9570 
  176.1250    83.8950     6.0190     4.7310     6.2280    24.0340     2.3230    -5.3690 
  176.2500    81.1590     6.5450     5.1730     5.8360    24.0170     2.3010    -5.1330 
  176.3750    77.5300     7.0330     5.6840     6.1270    23.9780     2.2820    -5.2140 
  176.5000    74.7780     7.4010     6.1550     7.2400    23.9410     2.2690    -5.4460 
  176.6250    74.7070     7.6160     6.4950     7.5620    23.9890     2.2710    -5.6150 
  176.7500    75.9100     7.7060     6.6900     7.2730    24.1390     2.2870    -5.6960 
  176.8750    77.6380     7.6440     6.7120     7.3380    24.1960     2.3100    -5.7150 
  177.0000    78.9910     7.4140     6.5520     7.7270    24.0540     2.3260    -5.6710 
  177.1250    79.5130     7.0590     6.2460     6.9440    23.9510     2.3260    -5.5340 
  177.2500    79.8280     6.7150     5.9170     6.5530    23.9910     2.3210    -5.2560 
  177.3750    82.4890     6.4570     5.6420     6.1750    24.2360     2.3220    -4.8430 
  177.5000    87.3970     6.3210     5.4630     5.8690    24.5470     2.3310    -4.4460 
  177.6250    89.6910     6.3170     5.4060     5.8730    24.7490     2.3420    -4.1950 
  177.7500    89.0780     6.3760     5.4250     5.8930    24.8210     2.3450    -4.0120 
  177.8750    87.8070     6.4340     5.4700     5.8840    24.8450     2.3410    -3.7920 
  178.0000    85.7030     6.4460     5.4930     5.8620    24.8690     2.3350    -3.5120 
  178.1250    81.2440     6.3780     5.4610     5.7690    24.8960     2.3330    -3.2980 
  178.2500    80.4090     6.2510     5.3850     5.7150    24.9480     2.3320    -3.1960 
  178.3750    87.2750     6.1040     5.2940     5.6280    25.0320     2.3300    -3.1770 
  178.5000    97.1670     5.9850     5.2230     5.5490    25.1090     2.3250    -3.1660 
  178.6250    99.7620     5.9540     5.2150     5.5050    25.1340     2.3160    -3.1480 
  178.7500    96.4920     6.0200     5.2800     5.5520    25.1000     2.3040    -3.1610 
  178.8750    91.5740     6.1730     5.4110     5.6720    24.9860     2.2900    -3.2510 
  179.0000    86.8650     6.3610     5.5740     5.8600    24.8410     2.2730    -3.4080 
  179.1250    82.7700     6.4980     5.7000     6.1100    24.6970     2.2540    -3.5310 
  179.2500    81.6060     6.5320     5.7420     6.1910    24.5250     2.2390    -3.6000 
  179.3750    84.0100     6.4490     5.6780     6.3730    24.3510     2.2320    -3.5620 
  179.5000    88.6280     6.2720     5.5200     5.7820    24.3970     2.2380    -3.4460 
  179.6250    92.6140     6.0490     5.3020     5.3290    24.5580     2.2560    -3.3140 
