~V
VERS. 2.00: Ver 2.00
~W
STRT.M 57.0000:
STOP.M 255.0000:
STEP.M 0.1250:
NULL. -999.2500:
UWI. F10046:
~C
DEPT.M :
GR.API :
RML.OHMM :
RI. :
RXO.OHMM :
CALI.CM :
DEN.GM/CC :
SP.MV :
~A
# ...
  192.0000    52.6240    27.9230    23.8030    36.9910    24.5840     2.6260    -8.8260 
  192.1250    53.1350    31.6600    27.5110    36.7650    24.5180     2.6180    -8.9140 
  192.2500    50.1430    35.2170    30.9450    36.9470    24.4410     2.5690    -9.0330 
  192.3750    47.3060    38.6590    34.1180    39.5810    24.3790     2.4920    -9.1750 
  192.5000    49.7510    41.9660    37.0680    42.8300    24.4130     2.4060    -9.3440 
  192.6250    54.1580    44.8810    39.6640    45.6920    24.5150     2.3350    -9.5250 
  192.7500    54.3860    47.1670    41.7460    48.8450    24.6180     2.2990    -9.6920 
  192.8750    52.0790    48.6650    43.1610    51.4640    24.6760     2.3040    -9.8560 
  193.0000    51.0200    49.4280    43.9250    52.1920    24.6180     2.3430    -9.9980 
  193.1250    51.4780    49.6740    44.2120    51.1100    24.4600     2.3890   -10.1030 
  193.2500    51.9510    49.8480    44.4070    49.8070    24.4050     2.4080   -10.1620 
  193.3750    53.0950    50.2260    44.7470    49.6500    24.5700     2.3870   -10.2220 
  193.5000    54.8980    50.9860    45.4060    51.0910    24.8720     2.3350   -10.3030 
  193.6250    54.6780    52.2430    46.5390    53.0780    25.0650     2.2800   -10.3940 
  193.7500    53.0660    53.7740    48.0130    55.6880    25.0930     2.2430   -10.4800 
  193.8750    52.6820    55.3050    49.6340    58.0800    25.0710     2.2270   -10.5380 
  194.0000    54.9210    56.5210    51.1410    59.9640    25.0600     2.2280   -10.5830 
  194.1250    57.4620    57.0550    52.1920    61.6560    25.0600     2.2360   -10.6750 
  194.2500    57.8420    56.9640    52.7090    62.6120    25.0600     2.2450   -10.7970 
  194.3750    56.3600    56.4420    52.7550    62.4150    25.0600     2.2510   -10.8780 
  194.5000    55.2520    55.8230    52.5650    62.0790    25.0600     2.2550   -10.8700 
  194.6250    54.9110    55.6120    52.5990    61.6360    25.0600     2.2550   -10.8370 
  194.7500    53.7850    56.1330    53.2640    61.1480    25.0600     2.2530   -10.8370 
  194.8750    51.2530    57.4020    54.7040    61.1860    25.0600     2.2500   -10.8780 
  195.0000    49.8850    59.0850    56.6040    61.9940    25.0600     2.2470   -10.9130 
  195.1250    51.2120    60.0250    57.8160    63.0170    25.0600     2.2450   -10.8700 
  195.2500    53.3140    58.9290    56.9920    63.7970    25.0600     2.2420   -10.7700 
  195.3750    54.0960    54.9400    53.2210    63.4360    25.0550     2.2410   -10.6730 
  195.5000    52.9010    48.6090    46.7210    60.9640    25.0390     2.2440   -10.6320 
  195.6250    51.9960    41.5400    39.2190    55.2630    24.9870     2.2580   -10.6400 
  195.7500    53.2270    35.9570    33.1290    45.4110    24.9180     2.2780   -10.6380 
  195.8750    55.6100    32.8780    29.6800    34.0550    24.8590     2.2980   -10.6140 
  196.0000    56.7480    33.6630    29.3690    29.3540    24.8790     2.3070   -10.6020 
  196.1250    56.1860    38.4430    32.7170    36.7650    24.9700     2.3010   -10.6400 
  196.2500    54.8890    45.5340    38.6670    49.1170    25.0600     2.2870   -10.7210 
  196.3750    51.6790    53.4680    46.1300    60.4930    25.0830     2.2760   -10.8470 
  196.5000    48.4250    60.5520    53.4920    65.8430    25.0150     2.2730   -11.0230 
  196.6250    50.4500    64.8830    58.5690    65.0540    24.8620     2.2750   -11.1920 
  196.7500    56.5200    66.5570    60.8860    64.3820    24.7420     2.2690   -11.3250 
  196.8750    60.5550    66.4590    61.1170    64.6880    24.7590     2.2470   -11.4350 
  197.0000    59.9130    65.8240    60.5170    66.5500    24.8690     2.2060   -11.5420 
  197.1250    57.4120    65.7330    60.1960    67.0410    24.9130     2.1590   -11.6780 
  197.2500    55.4970    66.4880    60.5570    68.4800    24.8190     2.1290   -11.8380 
  197.3750    53.6200    67.9300    61.5540    69.9060    24.5780     2.1320   -11.9520 
  197.5000    51.2480    69.5350    62.8420    71.1070    24.1750     2.1740   -11.9570 
  197.6250    49.6970    70.4070    63.7540    71.8490    23.8630     2.2480   -11.9140 
  197.7500    49.4820    70.1000    63.7950    71.9950    23.6990     2.3200   -11.8990 
  197.8750    50.6490    68.6140    62.7820    71.5890    23.6490     2.3600   -11.9380 
  198.0000    52.8640    66.3540    60.8890    69.6170    23.7540     2.3570   -12.0240 
  198.1250    54.3600    63.9240    58.5530    62.3790    24.1150     2.3130   -12.0620 
  198.2500    54.6850    61.7420    56.3320    57.2020    24.6080     2.2570   -12.0180 
  198.3750    54.7400    59.8260    54.4460    55.0410    25.0290     2.2020   -11.9550 
  198.5000    55.7810    58.0370    52.9040    54.7270    25.1180     2.1540   -11.9450 
  198.6250    57.3680    56.2650    51.6350    54.5180    24.9900     2.1200   -11.9700 
  198.7500    57.7440    54.5660    50.5340    54.0470    24.8540     2.1050   -12.0060 
  198.8750    58.0310    53.1200    49.6490    52.8730    24.6920     2.1170   -12.0040 
  199.0000    58.4470    52.1190    49.0860    51.3070    24.2840     2.1580   -11.9320 
  199.1250    57.7420    51.7570    48.9930    50.6770    23.7220     2.2220   -11.8330 
  199.2500    56.9530    51.8790    49.2600    50.3900    23.4570     2.2820   -11.7830 
  199.3750    58.2660    52.3220    49.7400    50.4120    23.4370     2.3150   -11.7690 
  199.5000    60.9420    52.8840    50.2420    51.0650    23.5650     2.3110   -11.7800 
  199.6250    60.2950    53.3010    50.5500    52.1170    23.9090     2.2800   -11.8070 
  199.7500    57.3090    53.3870    50.6050    52.4830    24.3780     2.2490   -11.8190 
  199.8750    56.0390    53.0380    50.4010    51.9780    24.6560     2.2290   -11.8360 
  200.0000    56.7490    52.2590    49.9670    51.3910    24.7400     2.2190   -11.8650 
  200.1250    57.0560    51.1570    49.3080    50.5790    24.7380     2.2140   -11.9310 
  200.2500    56.8180    50.0310    48.5310    49.9490    24.6910     2.2090   -12.0210 
  200.3750    57.1760    49.1250    47.7740    48.6370    24.6510     2.2040   -12.1470 
  200.5000    58.3900    48.6450    47.2370    46.5600    24.6250     2.2060   -12.2990 
  200.6250    59.4250    48.8180    47.2000    45.6490    24.6050     2.2160   -12.4010 
  200.7500    58.2740    49.5530    47.6510    45.9010    24.6220     2.2290   -12.4910 
  200.8750    54.6780    50.7490    48.4880    47.6590    24.6670     2.2380   -12.6130 
  201.0000    52.7670    52.2540    49.5450    50.5360    24.7310     2.2420   -12.7990 
  201.1250    56.5900    53.9630    50.7180    52.3540    24.7900     2.2420   -13.0370 
  201.2500    59.5070    55.9080    52.0800    52.3260    24.8310     2.2410   -13.2750 
  201.3750    56.7800    58.3870    53.9250    52.2910    24.8510     2.2410   -13.4670 
  201.5000    52.9470    61.8010    56.6350    53.7910    24.8670     2.2430   -13.5920 
  201.6250    53.0210    66.6070    60.6610    58.4760    24.8780     2.2490   -13.7370 
  201.7500    53.3280    72.3430    65.6290    66.2940    24.8240     2.2590   -13.9160 
  201.8750    53.5700    78.2210    70.8850    75.8800    24.7270     2.2710   -14.0900 
  202.0000    55.4080    83.1390    75.4580    85.3550    24.6920     2.2780   -14.2520 
  202.1250    56.3730    85.6580    78.0180    90.2840    24.7510     2.2750   -14.4160 
  202.2500    53.6550    85.7600    78.4110    90.8110    24.8010     2.2610   -14.6120 
  202.3750    49.4760    83.9630    77.0070    87.5980    24.9000     2.2440   -14.8390 
  202.5000    48.5080    81.2760    74.6700    82.6190    24.9790     2.2300   -15.0880 
  202.6250    50.3090    78.9220    72.4990    78.3440    24.9550     2.2250   -15.3380 
  202.7500    52.3590    77.6030    71.2090    75.3570    24.8900     2.2290   -15.5760 
  202.8750    54.0540    77.5090    71.0250    74.5430    24.8530     2.2360   -15.8050 
  203.0000    54.5340    78.5020    71.8410    76.1440    24.8820     2.2420   -16.0340 
  203.1250    53.1400    80.2480    73.3360    78.8300    24.8880     2.2450   -16.2860 
