~V
VERS. 2.00: Ver 2.00
~W
STRT.M 56.0000:
STOP.M 235.0000:
STEP.M 0.1250:
NULL. -999.2500:
UWI. F10014:
~C
DEPT.M :
GR.API :
RML.OHMM :
RI. :
RXO.OHMM :
CALI.CM :
DEN.GM/CC :
SP.MV :
~A
# ...
   78.5000    86.2810     8.2100     7.2820     7.2300    24.9290     2.2590   -13.7000 
   78.6250    88.4360     7.9620     7.0910     7.1990    24.9040     2.2630   -13.6130 
   78.7500    90.6410     7.6190     6.8150     7.0690    24.9070     2.2770   -13.6000 
   78.8750    92.5130     7.3340     6.5610     6.6690    24.9120     2.3000   -13.6390 
   79.0000    94.0530     7.2680     6.4420     6.2490    24.9000     2.3270   -13.6830 
   79.1250    94.1490     7.5520     6.5610     6.2770    24.8840     2.3440   -13.7540 
   79.2500    92.2580     8.0510     6.8590     6.9450    24.8110     2.3450   -13.9040 
   79.3750    88.5350     8.5760     7.2320     7.9080    24.6820     2.3280   -14.1100 
   79.5000    84.4740     8.9430     7.5510     9.2400    24.5870     2.3020   -14.3130 
   79.6250    83.0310     9.0450     7.7220     9.4280    24.5720     2.2780   -14.4120 
   79.7500    82.2440     9.0630     7.8310     8.5280    24.6060     2.2640   -14.4490 
   79.8750    80.2620     9.2540     8.0340     7.6640    24.6660     2.2640   -14.4940 
   80.0000    78.2430     9.8600     8.5000     8.6640    24.7540     2.2730   -14.5680 
   80.1250    76.3850    11.1110     9.4300    10.4050    24.8800     2.2780   -14.6480 
   80.2500    74.3130    12.8840    10.8100    11.9930    24.9820     2.2620   -14.6820 
   80.3750    73.2380    14.9870    12.5600    13.0560    24.9520     2.2180   -14.6430 
   80.5000    72.3450    17.0310    14.4090    14.3350    24.7860     2.1520   -14.5800 
   80.6250    67.9860    18.2130    15.6650    16.4390    24.7630     2.0880   -14.5720 
   80.7500    62.8880    18.0120    15.7390    18.3040    24.8610     2.0490   -14.5880 
   80.8750    61.0700    16.3360    14.4840    18.4900    24.9010     2.0490   -14.5530 
   81.0000    62.7000    13.7380    12.4040    16.3300    24.7860     2.0860   -14.4430 
   81.1250    67.2240    11.3110    10.4160    12.8090    24.7780     2.1520   -14.2630 
   81.2500    76.2170     9.9050     9.1260     9.2280    24.8950     2.2270   -14.0370 
   81.3750    85.7400     9.8500     8.7330     7.9870    25.0030     2.2940   -13.8080 
   81.5000    87.8920    11.0720     9.2600     9.2410    24.9710     2.3330   -13.5690 
   81.6250    80.7880    13.0460    10.5930    14.2830    24.8270     2.3270   -13.3490 
   81.7500    73.7130    14.4720    11.8870    18.0510    24.7260     2.2920   -13.1690 
   81.8750    71.2930    14.3130    12.1780    17.7220    24.7130     2.2510   -13.0480 
   82.0000    73.1890    12.4760    11.1100    13.7900    24.7850     2.2300   -13.0240 
   82.1250    78.8910    10.0590     9.4030     8.9380    24.8480     2.2490   -13.0820 
   82.2500    85.2300     8.3210     8.0520     6.1840    24.8210     2.2970   -13.1800 
   82.3750    88.9680     7.5920     7.3320     5.6730    24.7380     2.3580   -13.3000 
   82.5000    88.0740     7.7240     7.2100     6.7070    24.6030     2.4110   -13.4500 
   82.6250    85.3880     8.3770     7.5540     8.3650    24.4970     2.4380   -13.6050 
   82.7500    83.8250     9.0160     8.0040     8.3640    24.4750     2.4380   -13.7390 
   82.8750    82.0400     9.3360     8.2940     7.8940    24.5460     2.4200   -13.8020 
   83.0000    79.2710     9.2630     8.2980     7.8640    24.6450     2.3960   -13.7850 
   83.1250    77.1520     8.9870     8.1040     8.0050    24.7190     2.3790   -13.8060 
   83.2500    77.6870     8.8440     7.9710     7.7740    24.8260     2.3690   -13.9130 
   83.3750    79.4160     9.0190     8.0630     7.9370    24.9580     2.3540   -14.0660 
   83.5000    79.2020     9.6340     8.4900     8.6140    24.9740     2.3190   -14.1940 
   83.6250    76.6400    10.9230     9.4430    10.0260    24.8770     2.2550   -14.2890 
   83.7500    72.9710    12.9310    10.9690    11.6980    24.8430     2.1820   -14.3780 
   83.8750    68.7150    15.6850    13.1380    13.8070    24.8920     2.1360   -14.5310 
   84.0000    64.6080    18.9670    15.8690    17.4850    24.9030     2.1520   -14.7380 
   84.1250    63.5870    22.0190    18.6590    26.0720    24.8360     2.2530   -14.9140 
   84.2500    65.4030    23.8290    20.5710    39.2490    24.7340     2.3860   -15.0340 
   84.3750    67.2180    23.7850    20.9220    44.9640    24.6200     2.4960   -15.0980 
   84.5000    67.4220    22.0870    19.7410    34.7930    24.3830     2.5370   -15.1470 
   84.6250    68.6310    19.6390    17.7140    19.9300    23.9840     2.4930   -15.1940 
   84.7500    71.2310    17.5250    15.8070    14.4570    23.6580     2.4100   -15.2240 
   84.8750    71.5460    16.1460    14.3990    12.7150    23.6040     2.3260   -15.2410 
   85.0000    68.3560    15.5170    13.5800    12.1080    23.9020     2.2670   -15.2610 
   85.1250    64.6550    15.4900    13.3220    12.4240    24.3970     2.2410   -15.3080 
   85.2500    62.9290    15.6890    13.3620    12.8310    24.7010     2.2300   -15.3710 
   85.3750    61.8110    15.9300    13.5450    12.9470    24.8160     2.2240   -15.4270 
   85.5000    61.2160    16.1250    13.7680    12.7460    24.8150     2.2120   -15.4540 
   85.6250    63.6650    16.2210    13.9520    12.8530    24.7710     2.1930   -15.4440 
   85.7500    66.0340    16.2070    14.0550    13.2520    24.7160     2.1720   -15.4200 
   85.8750    66.1130    16.0960    14.0730    13.9890    24.6590     2.1540   -15.3960 
   86.0000    65.7490    15.9580    14.0460    14.5720    24.5790     2.1480   -15.3740 
   86.1250    66.9780    15.9620    14.0890    14.2030    24.4860     2.1600   -15.3090 
   86.2500    68.3620    16.2550    14.3180    14.1030    24.4090     2.1830   -15.1950 
   86.3750    69.0240    16.9340    14.8240    15.2760    24.3470     2.2020   -15.0440 
   86.5000    69.8190    17.9940    15.6380    16.6870    24.2400     2.2070   -14.8970 
   86.6250    69.3570    19.3020    16.7210    16.7920    23.9460     2.1990   -14.8590 
   86.7500    67.9920    20.5110    17.8300    16.1440    23.5940     2.1930   -14.9090 
   86.8750    66.2250    21.3150    18.7120    15.3690    23.2260     2.2020   -14.9370 
   87.0000    63.9150    21.5170    19.1530    14.4480    22.9400     2.2260   -14.8690 
   87.1250    62.9950    21.0970    19.0550    13.7410    22.7900     2.2500   -14.7730 
   87.2500    64.6310    20.4680    18.7090    14.0400    22.7440     2.2600   -14.7040 
   87.3750    68.6390    19.9430    18.3640    15.1080    22.9760     2.2490   -14.6920 
   87.5000    72.4550    19.6260    18.1440    16.4230    23.3970     2.2180   -14.7040 
   87.6250    74.6130    19.2260    17.8630    16.9200    23.8100     2.1710   -14.6380 
   87.7500    74.2090    18.2550    17.1200    17.1220    24.0560     2.1260   -14.4890 
   87.8750    71.8690    16.4530    15.6560    17.5310    24.3040     2.0960   -14.3480 
   88.0000    70.5330    13.9810    13.5830    16.6220    24.6600     2.0930   -14.2790 
   88.1250    72.8260    11.4560    11.4130    12.7790    24.9480     2.1260   -14.2040 
   88.2500    77.1010     9.4980     9.6690     8.5450    25.0940     2.1790   -14.1200 
   88.3750    81.2280     8.3310     8.5360     7.1330    25.1320     2.2340   -14.0570 
   88.5000    83.3530     7.8980     8.0010     6.9710    25.0930     2.2780   -14.0120 
   88.6250    81.4870     8.0220     7.9880     7.6560    25.0190     2.2960   -14.0290 
   88.7500    77.1610     8.2940     8.1890     8.3680    24.9680     2.2980   -14.0770 
   88.8750    74.7610     8.4430     8.3560     8.6140    24.9470     2.2920   -14.0700 
   89.0000    76.5520     8.3240     8.2960     7.8810    24.9510     2.2900   -13.9950 
   89.1250    81.0550     7.9300     7.9380     7.1870    24.9750     2.2950   -13.9250 
   89.2500    85.4710     7.4400     7.4370     6.6160    24.9790     2.3030   -13.8930 
   89.3750    88.1620     6.9790     6.9220     6.7630    24.9650     2.3130   -13.8690 
   89.5000    89.5410     6.6510     6.5040     6.7290    24.9580     2.3240   -13.8470 
   89.6250    90.5630     6.5710     6.3000     6.1560    24.9370     2.3360   -13.7620 
