~V
VERS. 2.00: Ver 2.00
~W
STRT.M 56.0000:
STOP.M 261.0000:
STEP.M 0.1250:
NULL. -999.2500:
UWI. F10028:
~C
DEPT.M :
GR.API :
RML.OHMM :
RI. :
RXO.OHMM :
CALI.CM :
DEN.GM/CC :
SP.MV :
~A
# ...
  224.7500    63.3410    44.9630    36.2930    92.4640    24.8920     2.3440    -1.7020 
  224.8750    66.2330    45.9390    38.7100    69.0670    24.9310     2.2990    -2.0390 
  225.0000    68.7060    43.2750    37.7140    50.3320    24.9410     2.2820    -2.3950 
  225.1250    71.7230    40.9650    36.1180    41.3630    24.9490     2.2850    -2.7390 
  225.2500    73.5400    41.4890    36.2970    39.5210    24.9460     2.2880    -3.0350 
  225.3750    71.4840    45.4870    39.1370    43.2800    24.9440     2.2830    -3.2850 
  225.5000    66.9710    52.7930    44.8110    54.1770    24.9280     2.2780    -3.4960 
  225.6250    63.3240    62.3410    52.7210    72.1570    24.8470     2.2850    -3.6640 
  225.7500    61.6780    70.6010    60.0600    90.5690    24.7510     2.3020    -3.8380 
  225.8750    60.4870    74.0620    63.9870    96.2120    24.7010     2.3160    -4.0290 
  226.0000    60.6200    71.3870    63.0890    87.4930    24.6810     2.3170    -4.2540 
  226.1250    64.0110    64.5560    58.2200    70.8860    24.6820     2.3110    -4.5160 
  226.2500    67.4080    57.7910    52.7120    59.1970    24.6840     2.3150    -4.7900 
  226.3750    68.9500    52.9420    48.3730    49.4180    24.6820     2.3350    -5.0640 
  226.5000    69.6940    50.6140    46.0440    48.2240    24.6820     2.3590    -5.3540 
  226.6250    69.5950    50.9810    46.1290    57.2130    24.6960     2.3660    -5.6520 
  226.7500    66.6770    53.1000    47.9200    58.6150    24.7180     2.3490    -5.9330 
  226.8750    62.8840    56.4920    51.0370    58.1210    24.7250     2.3160    -6.2220 
  227.0000    63.0690    60.7740    55.1440    60.4560    24.7080     2.2800    -6.5220 
  227.1250    66.0670    65.6550    59.9540    71.6200    24.7050     2.2530    -6.8500 
  227.2500    65.0660    70.7340    64.9660    80.1660    24.7030     2.2350    -7.2050 
  227.3750    61.7070    75.7910    69.8810    82.6380    24.7080     2.2290    -7.5890 
  227.5000    59.6220    80.6290    74.4790    84.5470    24.7250     2.2330    -7.9660 
  227.6250    58.3010    85.0680    78.5760    96.6990    24.7340     2.2430    -8.3220 
  227.7500    56.7510    89.3520    82.4120   101.6670    24.7400     2.2500    -8.6590 
  227.8750    56.6560    93.9240    86.4210    96.5780    24.7460     2.2500    -8.9410 
  228.0000    58.2150    99.2690    91.1110   100.5860    24.7590     2.2430    -9.1840 
  228.1250    58.3700   105.8740    96.9900   118.3180    24.7810     2.2340    -9.4280 
  228.2500    57.2300   113.5710   103.9210   124.2040    24.7950     2.2260    -9.6750 
  228.3750    57.4310   121.9410   111.6070   123.5720    24.8340     2.2220    -9.9350 
  228.5000    60.2110   129.8200   119.1880   140.9700    24.8950     2.2230   -10.1890 
  228.6250    62.7980   134.6000   124.6350   154.9940    24.9260     2.2230   -10.4830 
  228.7500    63.4300   134.9370   126.5620   152.4660    24.9300     2.2210   -10.8010 
  228.8750    62.4860   130.7040   124.3980   147.1330    24.9150     2.2170   -11.1490 
  229.0000    61.3950   123.2690   118.8280   138.0920    24.8800     2.2140   -11.5140 
  229.1250    60.9900   115.3570   111.8890   115.2250    24.8250     2.2150   -11.8820 
  229.2500    60.4770   109.7810   106.4490    97.2530    24.7530     2.2170   -12.2840 
  229.3750    59.8260   108.0030   104.1800    89.3670    24.6820     2.2160   -12.6680 
  229.5000    59.3280   110.6870   105.9050    92.8230    24.6370     2.2090   -13.0470 
  229.6250    59.2630   118.9060   112.7010   105.4170    24.6620     2.1960   -13.4050 
  229.7500    58.5460   131.9350   123.9530   123.3350    24.7380     2.1840   -13.7720 
  229.8750    56.2920   149.6010   139.5390   144.6100    24.8500     2.1790   -14.1420 
  230.0000    55.3090   171.5070   159.1380   167.8220    24.9290     2.1820   -14.4960 
  230.1250    56.9320   197.7020   182.9760   189.0640    24.9700     2.1910   -14.7890 
  230.2500    57.1360   226.9640   210.1380   218.8400    24.9780     2.1980   -15.0040 
  230.3750    55.1070   258.2140   239.8940   259.5910    24.9810     2.2020   -15.1730 
  230.5000    53.2320   289.0540   270.2790   291.2580    24.9690     2.2000   -15.3050 
  230.6250    54.4720   313.4130   296.1660   303.1850    24.9410     2.1950   -15.3900 
  230.7500    55.9350   325.4010   312.0960   332.4220    24.9190     2.1910   -15.4450 
  230.8750    55.9470   319.6840   312.9530   353.0260    24.9030     2.1900   -15.4910 
  231.0000    54.5830   293.6890   295.5220   331.8860    24.9030     2.1950   -15.5460 
  231.1250    53.3250   248.0360   258.0370   289.6110    24.9120     2.2050   -15.5810 
  231.2500    54.0340   195.4760   210.2700   250.1190    24.9140     2.2120   -15.5630 
  231.3750    56.1730   146.2980   161.4720   213.9950    24.8720     2.2150   -15.4600 
  231.5000    57.6550   107.4190   119.9450   151.3320    24.7730     2.2140   -15.2770 
  231.6250    59.1540    82.8350    92.0690    92.6320    24.6690     2.2170   -15.0560 
  231.7500    61.8560    69.1360    75.8200    57.2090    24.5800     2.2260   -14.8130 
  231.8750    65.0690    64.8760    69.8850    43.0070    24.4990     2.2390   -14.5330 
  232.0000    65.7130    69.5560    73.8500    38.1940    24.3740     2.2510   -14.2270 
  232.1250    62.0550    85.5560    90.7940    62.0510    24.2140     2.2530   -13.9770 
  232.2500    56.9840   112.8740   120.6080   122.6720    24.0290     2.2470   -13.8310 
  232.3750    53.0200   152.1800   162.5940   205.9420    23.8930     2.2370   -13.7980 
  232.5000    51.3470   199.9480   210.3880   230.7100    23.8720     2.2270   -13.8730 
  232.6250    51.3420   241.4430   247.6420   218.2910    23.9350     2.2180   -14.0230 
  232.7500    51.2960   262.3370   264.2840   202.7540    23.9860     2.2090   -14.2320 
  232.8750    51.4180   262.6400   262.2920   200.5120    24.0250     2.2000   -14.5000 
  233.0000    51.8060   251.7480   250.0140   201.4720    24.0500     2.1920   -14.8500 
  233.1250    52.8630   236.7790   233.7700   203.8130    24.1290     2.1870   -15.2390 
  233.2500    53.6920   221.0140   216.8740   210.2670    24.3060     2.1870   -15.6080 
  233.3750    54.1730   205.4820   200.4080   214.7050    24.5250     2.1900   -15.9900 
  233.5000    55.0960   191.1450   185.3180   195.6470    24.6580     2.1970   -16.3940 
  233.6250    55.9770   179.0840   172.7980   174.8560    24.7450     2.2030   -16.7410 
  233.7500    56.5690   168.9980   162.6360   161.7920    24.8020     2.2060   -16.9610 
  233.8750    57.9320   160.6030   154.6020   168.0310    24.8680     2.2050   -16.9920 
  234.0000    59.3760   153.9210   148.6660   166.4880    24.8990     2.2030   -16.7700 
  234.1250    58.4050   149.8720   145.6100   178.0240    24.9000     2.2020   -16.2720 
  234.2500    55.2020   148.6470   145.4240   165.6770    24.8700     2.2050   -15.6300 
  234.3750    53.9200   150.0730   147.8990   154.8810    24.8320     2.2100   -14.8960 
  234.5000    56.1200   152.7690   151.7670   156.8540    24.8010     2.2130   -14.0860 
  234.6250    58.5090   153.0380   153.7780   195.8330    24.7700     2.2120   -13.2860 
  234.7500    58.0170   147.2630   150.5900   205.1310    24.7570     2.2090   -12.5530 
  234.8750    54.8900   133.9160   140.3340   186.2560    24.7530     2.2080   -11.9640 
  235.0000    53.4240   115.0570   123.8900   152.5700    24.7530     2.2120   -11.5260 
  235.1250    56.2500    95.7590   104.9930   118.3690    24.7500     2.2240   -11.1770 
  235.2500    60.0410    79.9120    88.1890    96.7700    24.7360     2.2420   -10.8070 
  235.3750    62.4290    68.3500    75.2040    75.6800    24.7130     2.2570   -10.4190 
  235.5000    63.6240    60.5680    66.1150    58.6410    24.6950     2.2650    -9.9930 
  235.6250    63.9280    55.9780    60.5750    55.9510    24.7090     2.2620    -9.5380 
  235.7500    62.8790    53.2250    57.1230    62.4680    24.7670     2.2530    -9.0770 
  235.8750    61.7950    51.8460    55.2100    61.9930    24.8250     2.2460    -8.5960 
