~V
VERS. 2.00: Ver 2.00
~W
STRT.M 63.0000:
STOP.M 195.0000:
STEP.M 0.1250:
NULL. -999.2500:
UWI. F10020:
~C
DEPT.M :
GR.API :
CALI.CM :
RXO.OHMM :
RI. :
RML.OHMM :
DEN.GM/CC :
SP.MV :
~A
# ...
  175.5000   101.2390    24.1900     7.2250     7.1540     7.8050     2.2920   -31.8790 
  175.6250    92.9750    24.2070     6.7360     6.9050     7.5010     2.3180   -31.4550 
  175.7500    81.3030    24.2110     6.7070     6.7030     7.3840     2.3330   -31.0150 
  175.8750    70.7030    24.2030     6.8690     6.5700     7.4680     2.3410   -30.5990 
  176.0000    64.4650    24.1910     7.0820     6.5160     7.6540     2.3510   -30.2800 
  176.1250    62.7980    24.1870     7.2950     6.5230     7.7510     2.3640   -30.0490 
  176.2500    63.6430    24.1800     7.3800     6.5350     7.6950     2.3720   -29.8660 
  176.3750    64.9560    24.1830     7.2110     6.5090     7.5430     2.3730   -29.7600 
  176.5000    64.7650    24.1890     6.9240     6.4310     7.3840     2.3700   -29.6770 
  176.6250    62.4790    24.1900     6.7810     6.3040     7.2900     2.3630   -29.6950 
  176.7500    59.6820    24.1880     6.7390     6.1670     7.2520     2.3620   -29.7650 
  176.8750    58.2700    24.1860     6.7270     6.0500     7.2370     2.3700   -29.8760 
  177.0000    60.0760    24.1890     6.6870     5.9760     7.2190     2.3810   -29.9690 
  177.1250    63.7390    24.1850     6.5770     5.9570     7.1900     2.3820   -30.0670 
  177.2500    65.3950    24.1870     6.5260     5.9890     7.1690     2.3730   -30.2860 
  177.3750    64.1400    24.1910     6.7660     6.0750     7.2050     2.3670   -30.5750 
  177.5000    62.3840    24.1970     7.3010     6.2170     7.3570     2.3730   -30.8780 
  177.6250    63.1230    24.1950     7.7470     6.3990     7.6520     2.3810   -31.1650 
  177.7500    65.5250    24.2030     7.9380     6.5790     8.0010     2.3780   -31.4700 
  177.8750    68.2580    24.2290     8.0380     6.7430     8.3140     2.3600   -31.7700 
  178.0000    70.9260    24.2500     8.1920     6.9070     8.5460     2.3390   -32.1350 
  178.1250    72.7940    24.2600     8.3730     7.1190     8.7270     2.3280   -32.4900 
  178.2500    73.5900    24.2610     8.5510     7.3810     8.9530     2.3250   -32.7510 
  178.3750    74.1040    24.2590     8.7360     7.6460     9.2530     2.3210   -32.9980 
  178.5000    74.8730    24.2310     8.9100     7.8440     9.5330     2.3150   -33.2880 
  178.6250    76.5580    24.1940     9.0770     7.8940     9.6050     2.3070   -33.6430 
  178.7500    79.3350    24.1750     9.0960     7.8190     9.4720     2.3010   -34.0500 
  178.8750    83.1420    24.1830     9.0230     7.6820     9.2600     2.2920   -34.4160 
  179.0000    87.6550    24.1890     9.0350     7.5770     9.1380     2.2780   -34.7030 
  179.1250    92.1200    24.1950     9.2320     7.6220     9.2970     2.2620   -35.0230 
  179.2500    95.7620    24.1950     9.4640     7.8500     9.7150     2.2510   -35.2730 
  179.3750    99.1080    24.1900     9.7890     8.2400    10.2590     2.2470   -35.4090 
  179.5000   102.3110    24.1790    10.4810     8.6690    10.7130     2.2520   -35.4040 
  179.6250   104.1600    24.1740    11.3150     8.8740    10.8010     2.2650   -35.1740 
  179.7500   104.0890    24.1650    11.1870     8.7090    10.4940     2.2790   -34.7180 
  179.8750   104.1430    24.1480     9.7660     8.1880     9.8620     2.2900   -34.0610 
  180.0000   104.5730    24.1470     7.8570     7.4670     9.0520     2.2910   -33.2210 
  180.1250   102.8700    24.1850     6.5570     6.7680     8.2380     2.2910   -32.2840 
  180.2500    98.4510    24.2210     5.9900     6.2300     7.5560     2.3000   -31.3810 
  180.3750    92.7320    24.2340     5.8870     5.8940     7.1100     2.3190   -30.5610 
  180.5000    87.4640    24.2270     5.9860     5.7460     6.9470     2.3320   -29.8170 
  180.6250    83.2180    24.2000     6.0620     5.7460     7.0440     2.3200   -29.1090 
  180.7500    79.4640    24.1810     6.0320     5.8000     7.1990     2.3010   -28.4960 
  180.8750    76.4520    24.1510     5.9770     5.8500     7.2560     2.2920   -28.0940 
  181.0000    74.8470    24.1240     6.0070     5.8650     7.1560     2.3020   -27.8530 
  181.1250    74.5300    24.0880     6.0990     5.8370     6.9500     2.3200   -27.6420 
  181.2500    73.9530    24.0620     6.1070     5.7890     6.7810     2.3330   -27.5320 
  181.3750    73.5440    24.0540     6.1290     5.7400     6.7310     2.3370   -27.4870 
  181.5000    74.0700    24.0570     6.2300     5.7140     6.8050     2.3430   -27.5290 
  181.6250    73.8670    24.0870     6.3900     5.7490     6.9520     2.3580   -27.6740 
  181.7500    72.9280    24.1350     6.7010     5.8560     7.0810     2.3700   -27.8560 
  181.8750    72.6930    24.1720     7.1350     6.0300     7.1510     2.3660   -28.0830 
  182.0000    74.4170    24.1800     7.5420     6.2460     7.1540     2.3570   -28.4020 
  182.1250    78.2440    24.1750     7.7720     6.4570     7.1220     2.3720   -28.7310 
  182.2500    81.7270    24.1510     7.8790     6.6100     7.1120     2.4070   -28.9810 
  182.3750    82.1980    24.1250     7.8790     6.6720     7.1380     2.4370   -29.1580 
  182.5000    79.1970    24.0970     7.6740     6.6300     7.1810     2.4470   -29.2860 
  182.6250    77.1920    24.0770     7.2920     6.4880     7.2080     2.4350   -29.4650 
  182.7500    78.4770    24.0580     6.8390     6.3010     7.2180     2.4120   -29.6340 
  182.8750    79.2970    24.0490     6.4980     6.1100     7.2290     2.3850   -29.7340 
  183.0000    77.5250    24.0480     6.3300     5.9550     7.2570     2.3610   -29.7920 
  183.1250    77.0620    24.0460     6.3090     5.8780     7.3070     2.3460   -29.9160 
  183.2500    77.5780    24.0470     6.3110     5.8870     7.3700     2.3380   -30.0760 
  183.3750    77.6500    24.0460     6.3950     5.9880     7.4560     2.3400   -30.2320 
  183.5000    77.6500    24.0500     6.6720     6.1820     7.5850     2.3490   -30.3410 
  183.6250    77.6500    24.0390     7.0870     6.4770     7.7770     2.3470   -30.4500 
  183.7500    77.6500    23.9890     7.5050     6.8450     8.0230     2.3300   -30.5850 
  183.8750    77.6500    23.8590     7.9650     7.2750     8.3210     2.3100   -30.6710 
  184.0000    77.6500    23.7060     8.5690     7.7530     8.6830     2.2980   -30.7130 
  184.1250    77.6500    23.6340     9.2350     8.2450     9.1100     2.2950   -30.7610 
  184.2500    77.6500    23.6210     9.8720     8.6940     9.5510     2.2930   -30.8170 
  184.3750    77.6500    23.6190    10.4670     9.0540     9.9730     2.2990   -30.8830 
  184.5000    77.6500    23.6210    10.9160     9.3000    10.3470     2.3180   -30.9390 
  184.6250    77.6500    23.6330    11.1620     9.4260    10.6180     2.3430   -30.9000 
  184.7500    77.6500    23.6810    11.1590     9.4990    10.7600     2.3560   -30.8450 
  184.8750    77.6500    23.7460    11.0240     9.5600    10.7810     2.3560   -30.8490 
  185.0000    77.6500    23.7500    10.8930     9.6280    10.7350     2.3460   -30.8840 
  185.1250    77.6500    23.7640    11.0070     9.6900    10.6900     2.3390   -30.8580 
  185.2500    77.6500    23.7680    11.2180     9.7090    10.6150     2.3400   -30.8020 
  185.3750    77.6500    23.7720    11.2790     9.6340    10.4020     2.3480   -30.7910 
  185.5000    77.6500    23.7660    10.9110     9.4190     9.9730     2.3540   -30.8230 
  185.6250    77.6500    23.7570    10.0880     9.0240     9.3960     2.3490   -30.8980 
  185.7500    77.6500    23.7540     9.3710     8.5200     8.8770     2.3400   -31.0030 
  185.8750    77.6500    23.7850     8.9860     7.9900     8.5080     2.3300   -31.1180 
  186.0000    77.6500    23.8010     8.6880     7.5260     8.2630     2.3210   -31.2440 
  186.1250    77.6500    23.7760     8.1140     7.2180     8.1040     2.3130   -31.4670 
  186.2500    77.6500    23.7510     7.7560     7.0760     8.0510     2.3080   -31.7780 
  186.3750    77.6500    23.7440     7.9170     7.1010     8.1750     2.3040   -32.1390 
  186.5000    77.6500    23.7300     8.4130     7.2700     8.4800     2.3000   -32.5500 
  186.6250    77.6500    23.7290     9.1310     7.5450     8.8480     2.2950   -32.9830 
