~V
VERS. 2.00: Ver 2.00
~W
STRT.M 55.0000:
STOP.M 264.0000:
STEP.M 0.1250:
NULL. -999.2500:
UWI. F10017:
~C
DEPT.M :
DEN.GM/CC :
SP.MV :
GR.API :
CALI.CM :
RXO.OHMM :
RI. :
RML.OHMM :
~A
   55.0000  -999.2500     6.9780  -999.2500  -999.2500  -999.2500  -999.2500  -999.2500 
   55.1250  -999.2500     6.0220  -999.2500  -999.2500  -999.2500  -999.2500  -999.2500 
   55.2500  -999.2500     5.4380  -999.2500  -999.2500  -999.2500  -999.2500  -999.2500 
   55.3750  -999.2500     5.1700  -999.2500  -999.2500  -999.2500  -999.2500  -999.2500 
   55.5000  -999.2500     5.1910  -999.2500  -999.2500  -999.2500  -999.2500  -999.2500 
   55.6250  -999.2500     5.3910  -999.2500  -999.2500  -999.2500  -999.2500  -999.2500 
   55.7500  -999.2500     5.6790  -999.2500  -999.2500  -999.2500  -999.2500  -999.2500 
   55.8750  -999.2500     5.9760  -999.2500  -999.2500  -999.2500  -999.2500  -999.2500 
   56.0000  -999.2500     6.1300  -999.2500  -999.2500  -999.2500  -999.2500  -999.2500 
   56.1250  -999.2500     6.0660  -999.2500  -999.2500  -999.2500  -999.2500  -999.2500 
   56.2500  -999.2500     5.9050  -999.2500  -999.2500  -999.2500  -999.2500  -999.2500 
   56.3750  -999.2500     5.6930  -999.2500  -999.2500  -999.2500  -999.2500  -999.2500 
   56.5000  -999.2500     5.5750  -999.2500  -999.2500  -999.2500  -999.2500  -999.2500 
   56.6250  -999.2500     5.6960  -999.2500  -999.2500  -999.2500  -999.2500  -999.2500 
   56.7500  -999.2500     5.9930  -999.2500  -999.2500  -999.2500  -999.2500  -999.2500 
   56.8750  -999.2500     6.4460  -999.2500  -999.2500  -999.2500  -999.2500  -999.2500 
   57.0000  -999.2500     6.9540  -999.2500  -999.2500  -999.2500  -999.2500  -999.2500 
   57.1250  -999.2500     7.3630  -999.2500  -999.2500  -999.2500  -999.2500  -999.2500 
   57.2500  -999.2500     7.4940  -999.2500  -999.2500  -999.2500  -999.2500  -999.2500 
   57.3750  -999.2500     7.2910  -999.2500  -999.2500  -999.2500  -999.2500  -999.2500 
   57.5000  -999.2500     6.6550  -999.2500  -999.2500  -999.2500  -999.2500  -999.2500 
   57.6250  -999.2500     5.2860    42.3360    25.1410     2.4200     0.2260     2.9030 
   57.7500  -999.2500     3.3370    42.3360    25.1410     2.4200     0.2260     2.9030 
   57.8750  -999.2500     0.9620    42.3360    25.1410     2.4200     0.2260     2.9030 
   58.0000  -999.2500    -1.6230    41.1660    25.2590     2.4200     0.2360     2.4980 
   58.1250  -999.2500    -4.1940    39.4620    25.3030     2.4200     0.2510     1.7840 
   58.2500     2.1610    -6.6150    37.6140    25.3100     2.4200     0.2590     1.4550 
   58.3750     2.1610    -8.8310    36.2300    25.3120     2.4200     0.2520     1.9240 
   58.5000     2.2040   -10.8210    35.5350    25.3130     2.4200     0.2330     3.0600 
   58.6250     2.1920   -12.4170    36.3960    25.3110     2.4200     0.2090     4.0590 
   58.7500     2.1370   -13.6640    38.7950    25.3070     2.4200     0.1960     4.3140 
   58.8750     2.0770   -14.7100    41.5500    25.3060     2.4200     0.1970     3.9760 
   59.0000     2.0310   -15.5430    42.1630    25.3080     2.4200     0.2060     3.6010 
   59.1250     2.0010   -16.1850    39.6820    25.3090     2.4200     0.2100     3.7600 
   59.2500     1.9810   -16.6740    36.8350    25.3090     2.4200     0.2010     4.3220 
   59.3750     1.9700   -17.0490    34.6740    25.3090     2.4200     0.1840     4.8040 
   59.5000     1.9750   -17.4400    34.3160    25.3090     2.4200     0.1680     4.8420 
   59.6250     2.0000   -17.7590    35.8130    25.3090     2.4200     0.1650     4.4140 
   59.7500     2.0390   -18.0320    37.0130    25.3090     2.4200     0.1760     3.9230 
   59.8750     2.0790   -18.2590    37.8970    25.3090     2.4200     0.1970     3.6910 
   60.0000     2.1100   -18.4400    39.9580    25.3090     2.4200     0.2210     3.9140 
   60.1250     2.1200   -18.5670    43.7840    25.3090     2.4200     0.2370     4.6830 
   60.2500     2.1170   -18.6630    48.0180    25.3090     2.4200     0.2400     5.6830 
   60.3750     2.1170   -18.6630    53.8130    25.3090     2.4200     0.2370     6.4480 
   60.5000     2.1290   -18.5200    60.5280    25.3090     2.4200     0.2310     6.6540 
   60.6250     2.1410   -18.3030    65.3600    25.3090     2.4200     0.2320     6.6250 
   60.7500     2.1290   -18.0870    66.5560    25.3090     2.4200     0.2420     7.1240 
   60.8750     2.0880   -17.8200    64.3500    25.3090     2.4200     0.2580     8.1210 
   61.0000     2.0460   -17.5680    60.2390    25.3090     2.4200     0.2740     8.8380 
   61.1250     2.0400   -17.2780    56.4140    25.3090     2.4200     0.2810     8.1660 
   61.2500     2.0700   -16.8940    55.1120    25.3090     2.4200     0.2790     6.3400 
   61.3750     2.1120   -16.4550    55.7380    25.3090     2.4200     0.2710     4.2550 
   61.5000     2.1410   -15.8540    56.5080    25.3090     2.4200     0.2640     2.9900 
   61.6250     2.1390   -15.0900    56.4330    25.3090     2.4200     0.2690     3.3000 
   61.7500     2.1200   -14.0670    55.6940    25.3090     2.4200     0.2830     4.4160 
   61.8750     2.0970   -12.7370    54.6920    25.3090     2.4200     0.3000     5.4940 
   62.0000     2.0800   -11.0780    53.8320    25.3090     2.4200     0.3080     6.1250 
   62.1250     2.0750    -8.9700    51.8790    25.3090     2.4200     0.3000     6.1440 
   62.2500     2.0830    -6.4930    50.4060    25.3080     2.5250     0.2830     5.6120 
   62.3750     2.0990    -3.6830    51.3140    25.3020     2.8450     0.2620     4.6240 
   62.5000     2.1150    -0.5920    54.5420    25.2830     3.2300     0.2440     3.4610 
   62.6250     2.1340     2.7390    58.1240    25.2540     3.5230     0.2280     2.5370 
   62.7500     2.1760     6.0970    58.3100    25.2190     3.5680     0.2140     2.0290 
   62.8750     2.2530     9.1210    55.2980    25.1270     3.3790     0.2000     1.9280 
   63.0000     2.3480    11.5840    51.4920    24.9260     3.2580     0.1900     2.0900 
   63.1250     2.4270    13.2900    49.6260    24.5960     3.3430     0.1940     2.2850 
   63.2500     2.4800    14.3500    49.1710    24.2520     3.4570     0.2090     2.3380 
   63.3750     2.5200    14.8840    49.0640    23.9220     3.3340     0.2300     2.2190 
   63.5000     2.5650    14.9270    50.0670    23.6940     2.9590     0.2490     1.9680 
   63.6250     2.6130    14.4280    51.7420    23.6320     2.4670     0.2560     1.7080 
   63.7500     2.6530    13.6060    52.2800    23.6400     1.9970     0.2560     1.5870 
   63.8750     2.6690    12.8020    51.7440    23.6490     1.6040     0.2560     1.6080 
   64.0000     2.6390    12.2060    50.8510    23.6500     1.3320     0.2630     1.6620 
   64.1250     2.5220    11.8780    49.0970    23.6500     1.1870     0.2750     1.6310 
   64.2500     2.3540    11.6630    47.6070    23.6500     1.0920     0.2840     1.5720 
   64.3750     2.2030    11.3570    47.3410    23.6500     0.9750     0.2830     1.6520 
   64.5000     2.1290    10.8890    47.2160    23.6500     0.8280     0.2730     2.0110 
   64.6250     2.1500    10.3230    45.2620    23.6840     0.6900     0.2610     2.6000 
   64.7500     2.2040     9.6930    42.3500    23.8130     0.5930     0.2560     3.1730 
   64.8750     2.2360     8.8620    40.6940    24.0550     0.5360     0.2570     3.5520 
   65.0000     2.2180     7.7710    40.7910    24.2760     0.5040     0.2580     3.6220 
   65.1250     2.1530     6.1780    42.4450    24.4070     0.4860     0.2380     3.0510 
   65.2500     2.0710     3.9920    44.2830    24.4820     0.4860     0.1910     1.9250 
   65.3750     1.9720     1.1670    45.4320    24.5420     0.5130     0.1280     0.9330 
   65.5000     1.8830    -2.3360    46.0270    24.5890     0.5600     0.0730     0.5000 
   65.6250     1.8960    -6.5770    45.6560    24.6070     0.6710     0.0410     0.4700 
   65.7500     2.0120   -11.3120    45.4400    24.6040     0.9310     0.0310     0.5420 
   65.8750     2.1410   -16.2490    46.5590    24.4840     1.4940     0.0510     0.6220 
   66.0000     2.1850   -21.2160    49.0700    23.9410     2.4540     0.1300     0.7080 
   66.1250     2.1380   -25.9340    53.5630    22.4740     3.5730     0.3700     0.9690 
