~V
VERS. 2.00: Ver 2.00
~W
STRT.M 50.0000:
STOP.M 313.0000:
STEP.M 0.1250:
NULL. -999.2500:
UWI. F10034:
~C
DEPT.M :
GR.API :
RML.OHMM :
RI. :
RXO.OHMM :
CALI.CM :
DEN.GM/CC :
SP.MV :
~A
# ...
  297.5000    43.6760     6.5730     5.8540     7.2560    23.9360     2.3710   -10.3550 
  297.6250    43.3300     6.5240     5.8090     7.2940    23.9830     2.3550   -10.9540 
  297.7500    45.6180     6.2960     5.6240     7.1590    24.0210     2.3490   -11.6070 
  297.8750    47.4720     5.9960     5.3700     7.0600    24.0370     2.3500   -12.2930 
  298.0000    47.5170     5.8120     5.1850     7.1740    24.0310     2.3540   -13.0420 
  298.1250    49.2560     6.0650     5.3160     8.0100    24.0040     2.3570   -13.9190 
  298.2500    52.8750     6.8980     5.9010    10.1070    23.9680     2.3610   -14.8590 
  298.3750    57.4240     8.3600     7.0320    13.7130    23.9200     2.3670   -15.8630 
  298.5000    62.6250    10.3140     8.6690    18.4150    23.8740     2.3780   -16.8710 
  298.6250    69.2320    12.3710    10.5870    22.9020    23.8520     2.3920   -17.6740 
  298.7500    75.1090    13.9850    12.2900    24.5170    23.8430     2.4040   -18.2330 
  298.8750    76.5980    14.7810    13.3630    23.3770    23.8320     2.4110   -18.5440 
  299.0000    74.0730    14.6400    13.5710    20.7290    23.8100     2.4120   -18.6180 
  299.1250    71.4860    13.6460    12.8620    17.5390    23.7850     2.4110   -18.3210 
  299.2500    71.0250    12.2620    11.6670    14.8370    23.7690     2.4100   -17.7340 
  299.3750    70.4720    10.7370    10.2520    13.1240    23.7580     2.4090   -16.8540 
  299.5000    67.7020     9.2360     8.8170    12.0590    23.7730     2.4050   -15.8000 
  299.6250    65.4130     7.9360     7.5550    10.2610    23.8010     2.3970   -14.8080 
  299.7500    65.6050     6.9480     6.5690     8.1190    23.8300     2.3840   -14.0000 
  299.8750    67.4000     6.3470     5.9250     6.7190    23.8210     2.3680   -13.3790 
  300.0000    69.4360     6.1340     5.6310     6.3430    23.7630     2.3510   -12.9140 
  300.1250    69.2210     6.2600     5.6710     6.5670    23.6660     2.3340   -12.6630 
  300.2500    66.8430     6.5160     5.8770     7.0420    23.6700     2.3190   -12.5640 
  300.3750    64.0280     6.7500     6.1230     7.6130    23.7510     2.3110   -12.5520 
  300.5000    62.9350     6.8560     6.2980     7.9020    23.8200     2.3160   -12.5800 
  300.6250    63.4520     6.7900     6.3260     7.6170    23.8400     2.3360   -12.5850 
  300.7500    64.1110     6.6410     6.2500     7.0790    23.8420     2.3640   -12.5230 
  300.8750    65.2590     6.4810     6.1270     6.7710    23.8420     2.3930   -12.4420 
  301.0000    66.6700     6.3600     6.0060     6.7620    23.8480     2.4140   -12.3800 
  301.1250    67.7280     6.2960     5.9160     6.8290    23.8660     2.4180   -12.2660 
  301.2500    67.5020     6.2570     5.8460     6.7430    23.8940     2.4090   -12.1370 
  301.3750    65.7670     6.2170     5.7780     6.5870    23.9470     2.3870   -12.1040 
  301.5000    63.6180     6.1570     5.6940     6.4810    24.0870     2.3600   -12.1740 
  301.6250    63.2460     6.0620     5.5810     6.4160    24.2770     2.3320   -12.3000 
  301.7500    64.0960     5.9400     5.4460     6.3400    24.3030     2.3110   -12.4310 
  301.8750    65.1390     5.8050     5.3040     6.2340    24.1400     2.3000   -12.5400 
  302.0000    66.5680     5.6850     5.1820     6.0450    23.9680     2.3000   -12.5910 
  302.1250    68.1280     5.6330     5.1230     5.7890    23.9120     2.3130   -12.6430 
  302.2500    68.1280     5.6700     5.1430     5.6370    23.9110     2.3350   -12.6440 
  302.3750    68.1280     5.7890     5.2380     5.7510    23.9330     2.3620   -12.5340 
  302.5000    68.1280     5.9510     5.3750     6.0420    23.9600     2.3880   -12.3610 
  302.6250    68.1280     6.0770     5.4920     6.2480    23.9700     2.4040   -12.2100 
  302.7500    68.1280     6.1070     5.5390     6.2680    23.9910     2.4090   -12.0810 
  302.8750    68.1280     6.0270     5.4940     6.1060    24.0520     2.4030   -11.9150 
  303.0000    68.1280     5.8640     5.3730     5.8660    24.1480     2.3910   -11.7330 
  303.1250    68.1280     5.6860     5.2240     5.6100    24.2140     2.3810   -11.6190 
  303.2500    68.1280     5.5640     5.1100     5.4560    24.2160     2.3770   -11.6180 
  303.3750    68.1280     5.5340     5.0640     5.4630    24.1450     2.3840   -11.6490 
  303.5000    68.1280     5.5980     5.0960     5.5910    24.0130     2.4010   -11.6430 
  303.6250    68.1280     5.7340     5.1930     5.7720    23.9050     2.4220   -11.5860 
  303.7500    68.1280     5.8700     5.3000     5.9040    23.8200     2.4390   -11.4980 
  303.8750    68.1280     5.9490     5.3680     5.9420    23.7210     2.4440   -11.4010 
  304.0000    68.1280     5.9250     5.3570     5.8600    23.5920     2.4350   -11.2910 
  304.1250    68.1280     5.7720     5.2370     5.6480    23.5620     2.4140   -11.1040 
  304.2500    68.1280     5.5500     5.0500     5.3970    23.5670     2.3900   -10.9230 
  304.3750    68.1280     5.3270     4.8500     5.1870    23.5600     2.3730   -10.8470 
  304.5000    68.1280     5.1680     4.6930     5.0800    23.5720     2.3690   -10.8900 
  304.6250    68.1280     5.1400     4.6440     5.1880    23.7520     2.3840   -11.0120 
  304.7500    68.1280     5.2340     4.7000     5.4990    23.9910     2.4080   -11.1840 
  304.8750    68.1280     5.4200     4.8450     5.9550    24.2200     2.4350   -11.4010 
  305.0000    68.1280     5.6530     5.0420     6.3120    24.3580     2.4520   -11.6120 
  305.1250    68.1280     5.8720     5.2420     6.5450    24.4950     2.4480   -11.7980 
  305.2500    68.1280     6.0400     5.4050     6.7100    24.7890     2.4250   -11.8810 
  305.3750    68.1280     6.1450     5.5160     6.9030    25.2200     2.3950   -11.8310 
  305.5000    68.1280     6.1960     5.5770     7.1900    25.4430     2.3720   -11.6800 
  305.6250    68.1280     6.2090     5.5980     7.5980    25.0710     2.3700   -11.4260 
  305.7500    68.1280     6.2090     5.6030     7.8600    24.4640     2.3830   -11.0520 
  305.8750    68.1280     6.2070     5.6010     7.6520    24.0010     2.3980   -10.6010 
  306.0000    68.1280     6.2070     5.5970     7.0170    23.7800     2.4060   -10.1500 
  306.1250    68.1280     6.2100     5.5930     6.3490    23.7010     2.4030    -9.7170 
  306.2500    68.1280     6.2120     5.5920     6.0390    23.6470     2.4000    -9.2960 
  306.3750    68.1280     6.2120     5.5920     6.0830    23.6100     2.4010    -8.9030 
  306.5000    68.1280     6.2080     5.5920     6.3960    23.6460     2.4090    -8.5030 
  306.6250    68.1280     6.2050     5.5910     6.8040    23.7750     2.4190    -8.1010 
  306.7500    68.1280     6.2050     5.5900     7.1500    23.8520     2.4280    -7.8080 
  306.8750    68.1280     6.2070     5.5900     7.3540    23.8720     2.4330    -7.6210 
  307.0000    68.1280     6.2100     5.5910     7.4720    23.8990     2.4340    -7.4610 
  307.1250    68.1280     6.2130     5.5920     7.4930    23.9130     2.4290    -7.3090 
  307.2500    68.1280     6.2150     5.5930     7.4180    23.8960     2.4190    -7.1780 
  307.3750    68.1280     6.2170     5.5940     7.3440    23.9080     2.4090    -7.0610 
  307.5000    68.1280     6.2200     5.5960     7.3070    23.9730     2.4050    -7.0230 
  307.6250    68.1280     6.2220     5.5990     7.3570    24.0560     2.4100    -7.0680 
  307.7500    68.1280     6.2240     5.6020     7.5100    24.0890     2.4230    -7.1280 
  307.8750    68.1280     6.2260     5.6040     7.7850    24.0960     2.4380    -7.1700 
  308.0000    68.1280     6.2270     5.6040     8.1270    24.0960     2.4520    -7.1900 
  308.1250    68.1280     6.2270     5.6030     8.3770    24.0960     2.4630    -7.2070 
  308.2500    68.1280     6.2270     5.6030     8.4490    24.0990     2.4720    -7.2360 
  308.3750    68.1280     6.2270     5.6030     8.3910    24.1130     2.4790    -7.2840 
  308.5000    68.1280     6.2270     5.6030     8.2310    24.1430     2.4830    -7.3260 
  308.6250    68.1280     6.2270     5.6030     8.1750    24.1530     2.4820    -7.3400 
