~V
VERS. 2.00: Ver 2.00
~W
STRT.M 55.0000:
STOP.M 264.0000:
STEP.M 0.1250:
NULL. -999.2500:
UWI. F10017:
~C
DEPT.M :
DEN.GM/CC :
SP.MV :
GR.API :
CALI.CM :
RXO.OHMM :
RI. :
RML.OHMM :
~A
# ...
   66.2500     2.0860   -30.1830    59.9820    20.6380     4.3420     0.8910     1.7640 
   66.3750     2.0700   -33.7450    66.7200    19.1620     4.6390     1.8230     3.4700 
   66.5000     2.0840   -36.4780    71.4010    18.4090     4.6230     3.1360     5.7380 
   66.6250     2.1000   -38.3860    71.7040    18.2190     4.4860     4.4620     6.9380 
   66.7500     2.0970   -39.7350    70.7160    18.1570     4.3670     5.4750     6.9000 
   66.8750     2.0830   -40.7600    69.5230    18.0750     4.3200     6.1790     6.4070 
   67.0000     2.0700   -41.5960    68.4660    18.0140     4.3410     6.6820     6.0120 
   67.1250     2.0680   -42.2470    68.0660    17.9970     4.4150     7.0350     5.9330 
   67.2500     2.0700   -42.7730    67.6400    18.0220     4.5140     7.2940     6.0480 
   67.3750     2.0690   -43.1940    66.1510    18.1050     4.6220     7.4860     6.2260 
   67.5000     2.0640   -43.5780    63.2880    18.2550     4.7270     7.6330     6.4580 
   67.6250     2.0540   -43.9020    62.0800    18.3880     4.7980     7.7430     6.7720 
   67.7500     2.0340   -44.2430    64.1360    18.4540     4.8350     7.8260     7.0790 
   67.8750     2.0040   -44.5530    66.8190    18.4710     4.8600     7.8770     7.2960 
   68.0000     1.9700   -44.7800    67.8590    18.4640     4.8940     7.9000     7.4200 
   68.1250     1.9400   -44.9830    67.5370    18.4310     4.9460     7.8990     7.4970 
   68.2500     1.9150   -45.1400    66.1160    18.3800     4.9990     7.8930     7.5730 
   68.3750     1.8990   -45.3110    63.7230    18.3170     5.0330     7.8820     7.6710 
   68.5000     1.8990   -45.4880    62.3040    18.2070     5.0400     7.8580     7.7860 
   68.6250     1.9190   -45.6620    64.2460    17.9930     5.0990     7.8130     7.8640 
   68.7500     1.9430   -45.7840    67.4870    17.7750     5.2040     7.7560     7.8580 
   68.8750     1.9620   -45.9100    69.3230    17.6310     5.2380     7.7050     7.7040 
   69.0000     1.9710   -46.0730    68.6560    17.5790     5.1060     7.6810     7.3250 
   69.1250     1.9640   -46.2230    65.2790    17.5520     4.8980     7.7020     6.7810 
   69.2500     1.9450   -46.4210    62.8490    17.4890     4.7790     7.7510     6.3770 
   69.3750     1.9190   -46.5780    64.6280    17.4190     4.7960     7.8050     6.3560 
   69.5000     1.8930   -46.7020    67.6630    17.3830     4.8870     7.8490     6.7850 
   69.6250     1.8740   -46.7730    66.2330    17.3910     4.9780     7.8730     7.4570 
   69.7500     1.8630   -46.8360    63.6520    17.4350     5.0290     7.8840     7.9370 
   69.8750     1.8580   -46.8800    64.1050    17.5070     5.0500     7.8870     8.1090 
   70.0000     1.8550   -46.8850    66.7210    17.5970     5.0660     7.8780     8.1310 
   70.1250     1.8550   -46.9210    67.5580    17.7260     5.0520     7.8350     8.1850 
   70.2500     1.8600   -46.9430    65.1750    17.9080     4.9590     7.7560     8.1690 
   70.3750     1.8700   -46.9730    62.9180    18.0890     4.8120     7.6530     7.9540 
   70.5000     1.8800   -47.0310    64.4270    18.1440     4.6840     7.5530     7.5860 
   70.6250     1.8790   -47.0720    69.5010    18.0620     4.6780     7.4930     7.3490 
   70.7500     1.8680   -47.1410    70.6900    18.0140     4.7890     7.4900     7.4890 
   70.8750     1.8560   -47.2370    67.3870    18.0360     4.9660     7.5500     7.9900 
   71.0000     1.8520   -47.3480    66.5420    18.1300     5.1460     7.6650     8.5960 
   71.1250     1.8530   -47.4530    69.3230    18.3110     5.3070     7.8170     9.0340 
   71.2500     1.8500   -47.5340    70.4420    18.6160     5.4720     7.9670     9.2840 
   71.3750     1.8420   -47.6330    69.2790    19.0590     5.6430     8.0760     9.3680 
   71.5000     1.8430   -47.7630    67.4730    19.4250     5.7780     8.1030     9.2800 
   71.6250     1.8670   -48.0120    66.5720    19.5530     5.9020     8.0080     8.9880 
   71.7500     1.9050   -48.2630    67.5100    19.5980     6.0350     7.8050     8.5980 
   71.8750     1.9470   -48.5150    71.3810    19.6860     6.1580     7.5100     8.2270 
   72.0000     1.9840   -48.8060    76.7500    19.8660     6.2500     7.1470     7.9610 
   72.1250     2.0120   -49.0260    83.2640    20.0740     6.8190     6.7440     7.8100 
   72.2500     2.0340   -49.2090    93.1630    20.2540     6.9360     6.3310     7.6510 
   72.3750     2.0430   -49.3640   102.3980    20.4940     6.4630     5.9230     7.3340 
   72.5000     2.0420   -49.4410   104.4910    20.9280     5.9390     5.5360     6.7830 
   72.6250     2.0350   -49.3470    98.2900    21.4220     5.6550     5.2200     6.1100 
   72.7500     2.0330   -49.1360    92.3650    21.8390     5.1330     5.0250     5.6170 
   72.8750     2.0430   -48.8320    91.1610    22.2230     5.0020     5.0230     5.5370 
   73.0000     2.0800   -48.4580    92.6140    22.6460     5.0940     5.2810     5.9610 
   73.1250     2.1650   -48.1380    89.4390    22.8510     5.6750     5.8820     6.8630 
   73.2500     2.2720   -47.8270    80.4990    22.6930     6.4420     6.6990     7.9060 
   73.3750     2.3530   -47.5160    70.8010    22.5340     6.9440     7.5100     8.7370 
   73.5000     2.3680   -47.2510    68.0160    22.7290     6.8660     7.9760     9.0090 
   73.6250     2.3210   -47.0190    72.4490    22.9460     6.2320     7.7230     8.4650 
   73.7500     2.2660   -46.9090    77.3950    22.8550     5.8710     6.9710     7.5020 
   73.8750     2.2330   -46.9180    81.2690    22.5520     5.9700     6.0590     6.5480 
   74.0000     2.2260   -46.9760    85.6490    22.2660     6.1650     5.2620     5.8780 
   74.1250     2.2350   -47.1010    91.7700    22.1560     6.0900     4.7460     5.5950 
   74.2500     2.2370   -47.2260    95.8850    22.1400     5.8620     4.4680     5.5700 
   74.3750     2.2250   -47.3060    95.3420    22.1780     5.7850     4.3770     5.7150 
   74.5000     2.2090   -47.3480    90.6080    22.2700     5.9210     4.4140     5.9610 
   74.6250     2.2070   -47.3920    86.1260    22.3820     6.4210     4.5420     6.2270 
   74.7500     2.2160   -47.3670    85.1470    22.4950     6.8540     4.7270     6.4390 
   74.8750     2.2240   -47.2580    85.7190    22.5840     7.2530     4.9470     6.6190 
   75.0000     2.2170   -47.1220    86.9700    22.6140     7.7030     5.1750     6.8310 
   75.1250     2.2000   -46.9580    88.7520    22.6380     7.9150     5.3820     7.1360 
   75.2500     2.1860   -46.7780    88.5700    22.5910     8.0350     5.5610     7.4890 
   75.3750     2.1800   -46.6250    84.9300    22.4900     8.1860     5.7250     7.8250 
   75.5000     2.1710   -46.5550    80.6550    22.3950     8.5270     5.9010     8.1260 
   75.6250     2.1480   -46.5900    79.8160    22.3490     9.0130     6.1220     8.4310 
   75.7500     2.1240   -46.6990    80.4740    22.2450     9.4270     6.3630     8.7650 
   75.8750     2.1150   -46.8620    80.6130    21.9720     9.3260     6.5620     9.0720 
   76.0000     2.1310   -46.9820    79.5090    21.5700     8.4870     6.6490     9.2560 
   76.1250     2.1630   -47.0280    77.7030    21.5530     7.3510     6.5780     9.2660 
   76.2500     2.1860   -47.1260    78.3020    21.9400     6.6160     6.4050     9.1230 
   76.3750     2.1960   -47.2320    81.7870    22.4090     6.6510     6.1910     8.8220 
   76.5000     2.1990   -47.2570    85.4340    22.5650     7.2160     5.9960     8.3920 
   76.6250     2.1960   -47.2510    87.6240    22.4920     7.4890     5.8760     7.9520 
   76.7500     2.1840   -47.2870    88.5990    22.4070     7.2690     5.8150     7.6310 
   76.8750     2.1650   -47.3420    87.6420    22.3930     6.8810     5.7690     7.4630 
   77.0000     2.1500   -47.4760    84.3290    22.3880     6.5270     5.6630     7.3760 
   77.1250     2.1480   -47.6330    81.3890    22.3670     6.0810     5.4270     7.1880 
   77.2500     2.1450   -47.7450    82.6670    22.4080     5.4430     5.1220     6.8560 
   77.3750     2.1240   -47.8560    86.3300    22.6150     4.8960     4.8640     6.5320 
