~V
VERS. 2.00: Ver 2.00
~W
STRT.M 51.0000:
STOP.M 242.0000:
STEP.M 0.1250:
NULL. -999.2500:
UWI. F10056:
~C
DEPT.M :
GR.API :
RML.OHMM :
RI. :
RXO.OHMM :
CALI.CM :
SP.MV :
DEN.GM/CC :
~A
# ...
  174.7500    49.7050   196.2880   191.7520    98.0300    24.5820   -13.6600     2.3080 
  174.8750    47.4540   243.0390   236.2530   118.0960    24.5030   -13.5980     2.4020 
  175.0000    46.4390   289.0180   278.7360   148.7910    24.4480   -13.3720     2.5000 
  175.1250    45.8170   299.6160   291.2500   159.2640    24.4260   -13.0980     2.5490 
  175.2500    46.0040   264.8330   264.5210   154.0620    24.4400   -12.9050     2.5330 
  175.3750    48.4830   208.9300   213.7460   145.7730    24.5360   -12.6100     2.4630 
  175.5000    53.5940   159.4720   162.9690   106.7770    24.7370   -12.2000     2.3730 
  175.6250    57.5670   128.5040   128.2980    60.3130    24.8270   -11.8790     2.3020 
  175.7500    58.9880   110.6100   107.7940    46.8130    24.8010   -11.4550     2.2590 
  175.8750    60.5450   101.6280    97.4600    47.4170    24.6940   -11.0570     2.2340 
  176.0000    63.6900    98.3250    93.5630    52.3080    24.6200   -10.7300     2.2160 
  176.1250    64.8650    99.1660    94.2170    60.0470    24.6250   -10.3640     2.2040 
  176.2500    62.0330   103.0840    98.0940    67.8540    24.6730    -9.9440     2.2120 
  176.3750    57.9740   110.4450   105.4880    74.5930    24.7420    -9.6160     2.2570 
  176.5000    55.6700   119.8950   115.1640    73.4790    24.7670    -9.3410     2.3470 
  176.6250    54.1210   121.8350   118.8050    73.8650    24.6500    -9.0260     2.4710 
  176.7500    52.3700   106.3230   106.6350    87.8850    24.4420    -8.6910     2.5940 
  176.8750    50.8570    76.8610    79.1540   114.3670    24.2760    -8.2590     2.6850 
  177.0000    50.5440    47.6220    49.0010    95.4870    24.1180    -7.7560     2.7270 
  177.1250    52.4270    28.6050    28.5390    35.6660    23.9870    -7.0240     2.7170 
  177.2500    56.5110    16.7460    16.8930    14.8540    23.9310    -6.0730     2.6790 
  177.3750    61.9800    10.2090    10.9080     8.2680    23.9420    -4.9330     2.6320 
  177.5000    65.6160     7.3500     7.9130     6.9840    23.9370    -3.6840     2.5840 
  177.6250    63.6810     6.1060     6.5180     6.1410    23.9090    -2.4620     2.5400 
  177.7500    58.6780     5.5610     5.8270     5.6040    23.9630    -1.3370     2.4950 
  177.8750    53.6070     5.3790     5.5580     5.1570    24.0720    -0.2940     2.4490 
  178.0000    50.8380     5.3630     5.5270     4.8600    24.0970     0.6720     2.4070 
  178.1250    51.9930     5.4210     5.6290     4.8580    24.0930     1.4050     2.3770 
  178.2500    53.1170     5.5090     5.7830     4.8640    24.1220     1.9010     2.3630 
  178.3750    51.2360     5.6070     5.9500     4.7640    24.1520     2.2100     2.3620 
  178.5000    47.1530     5.7000     6.0960     4.7360    24.1870     2.3860     2.3670 
  178.6250    44.9410     5.7730     6.1900     4.8320    24.2510     2.5650     2.3740 
  178.7500    44.8460     5.8230     6.2260     4.9400    24.2550     2.7620     2.3800 
  178.8750    45.5690     5.8560     6.2130     5.0760    24.2040     2.8870     2.3870 
  179.0000    46.5400     5.8920     6.1710     5.1790    24.1160     2.9410     2.3960 
  179.1250    45.7010     5.9590     6.1260     5.2140    24.0780     2.9400     2.4070 
  179.2500    43.2450     6.0680     6.1000     5.2580    24.0610     2.8470     2.4190 
  179.3750    42.3490     6.2210     6.1020     5.3650    24.0690     2.6570     2.4290 
  179.5000    44.2550     6.4170     6.1410     5.4640    24.1130     2.4060     2.4380 
  179.6250    48.8880     6.6480     6.2170     5.5870    24.1650     2.0980     2.4490 
  179.7500    54.3390     6.8890     6.3070     5.8290    24.2110     1.7420     2.4610 
  179.8750    60.4520     7.1310     6.3990     6.0860    24.2310     1.2600     2.4730 
  180.0000    67.4340     7.3830     6.4960     6.2950    24.2430     0.6040     2.4810 
  180.1250    74.6880     7.6710     6.6180     6.3940    24.2750    -0.2820     2.4810 
  180.2500    82.1140     8.0070     6.7740     6.3890    24.3390    -1.3330     2.4720 
  180.3750    88.3950     8.3900     6.9680     6.6740    24.4810    -2.5020     2.4550 
  180.5000    91.8310     8.8030     7.1890     7.4710    24.6950    -3.7790     2.4320 
  180.6250    90.2090     9.2100     7.4210     8.0800    24.9670    -5.2120     2.4060 
  180.7500    86.4970     9.5850     7.6440     8.1330    25.2580    -6.6650     2.3820 
  180.8750    85.9810     9.9310     7.8550     8.3450    25.4740    -7.9510     2.3640 
  181.0000    88.3300    10.2740     8.0650     8.4500    25.5260    -9.0980     2.3570 
  181.1250    87.6190    10.6610     8.3020     8.4290    25.4990   -10.0680     2.3630 
  181.2500    84.0550    11.1150     8.5930     8.5150    25.4330   -10.8120     2.3790 
  181.3750    82.6590    11.6300     8.9500     8.3710    25.3580   -11.4430     2.3960 
  181.5000    85.4510    12.1690     9.3630     7.8980    25.2610   -12.0920     2.4050 
  181.6250    87.0410    12.6820     9.8080     8.2220    25.2210   -12.7360     2.3990 
  181.7500    84.0260    13.1560    10.2560     8.8070    25.2790   -13.4000     2.3830 
  181.8750    79.9250    13.6160    10.7030     9.2310    25.3750   -14.1300     2.3660 
  182.0000    77.3200    14.1030    11.1530     9.4010    25.3550   -14.8830     2.3560 
  182.1250    75.8850    14.6660    11.6250     9.6650    25.2470   -15.5610     2.3610 
  182.2500    73.8480    15.2860    12.1170    10.1190    25.1640   -16.2550     2.3750 
  182.3750    70.5170    15.8650    12.5740    11.0160    25.1140   -16.8730     2.3920 
  182.5000    69.1310    16.2240    12.8780    11.5580    25.0520   -17.2140     2.4040 
  182.6250    72.0240    16.1070    12.8290    12.0860    24.9820   -17.1990     2.4070 
  182.7500    77.2280    15.5220    12.4110    12.0310    24.9610   -16.9190     2.4010 
  182.8750    82.3460    14.5410    11.6650    12.1740    25.0300   -16.4010     2.3870 
  183.0000    87.4900    13.2960    10.6890    10.9130    25.0930   -15.6080     2.3690 
  183.1250    93.4820    11.9380     9.6080     9.9900    25.1020   -14.5390     2.3520 
  183.2500    96.4280    10.6380     8.5690     9.3700    24.9850   -13.2100     2.3440 
  183.3750    92.9900     9.5090     7.6640     8.6390    24.6480   -11.6720     2.3490 
  183.5000    82.7200     8.6510     6.9620     7.1680    24.1320   -10.1000     2.3670 
  183.6250    70.2730     8.1740     6.5390     5.8820    23.8010    -8.6300     2.3940 
  183.7500    62.6500     7.9970     6.3430     5.4090    23.7400    -7.3770     2.4180 
  183.8750    61.0710     8.0260     6.3260     5.5000    23.7220    -6.3010     2.4310 
  184.0000    60.5190     8.1300     6.4120     6.0390    23.6340    -5.3980     2.4310 
  184.1250    56.5930     8.1430     6.4940     6.3130    23.4840    -4.8310     2.4210 
  184.2500    51.4730     8.0020     6.4930     6.2000    23.3430    -4.6290     2.4110 
  184.3750    47.9200     7.7490     6.3990     5.7810    23.2330    -4.6970     2.4070 
  184.5000    46.6220     7.4800     6.2580     5.6600    23.1260    -4.9240     2.4090 
  184.6250    46.0260     7.2940     6.1330     5.6800    22.9980    -5.2100     2.4160 
  184.7500    45.7400     7.1940     6.0530     5.8590    22.9600    -5.4800     2.4230 
  184.8750    46.0600     7.1460     6.0120     5.7330    23.0940    -5.7590     2.4260 
  185.0000    45.7700     7.1040     5.9860     5.7120    23.3140    -6.0290     2.4280 
  185.1250    44.8190     7.0310     5.9480     5.8480    23.5520    -6.1570     2.4290 
  185.2500    45.8580     6.9160     5.8840     5.8510    23.8050    -6.1300     2.4310 
  185.3750    49.5080     6.7650     5.8000     5.7810    24.0150    -6.0320     2.4370 
  185.5000    54.4910     6.6100     5.7190     5.7270    24.1660    -5.9130     2.4440 
  185.6250    60.7030     6.5360     5.7000     5.6470    24.2150    -5.7900     2.4510 
  185.7500    67.1510     6.6150     5.7940     5.4680    24.2150    -5.6590     2.4570 
  185.8750    71.6370     6.8880     6.0320     5.5960    24.1700    -5.5490     2.4560 
