~V
VERS. 2.00: Ver 2.00
~W
STRT.M 55.0000:
STOP.M 247.0000:
STEP.M 0.1250:
NULL. -999.2500:
UWI. F10032:
~C
DEPT.M :
GR.API :
RML.OHMM :
RI. :
RXO.OHMM :
CALI.CM :
DEN.GM/CC :
SP.MV :
~A
   55.0000    45.0140     0.5270     0.1130  6248.0470    25.6780     2.3670    33.4980 
   55.1250    46.9780     0.1550     0.0790    97.4170    25.6560     2.4480    31.6860 
   55.2500    48.5130     0.0160     0.0650    10.5990    25.4810     2.5170    28.9390 
   55.3750    52.2170     0.0270     0.0620     3.8330    24.9780     2.5630    25.2080 
   55.5000    62.0490     0.1590     0.0770     3.6230    24.2020     2.5770    20.6930 
   55.6250    77.1200     0.4240     0.1380     5.9490    23.8190     2.5520    15.7460 
   55.7500    87.6080     2.5790     0.2580     6.5440    23.8800     2.4980    10.6840 
   55.8750    90.6220     5.3030     1.8610     6.3890    24.2210     2.4300     5.7080 
   56.0000    91.6610     5.8590     3.1800     6.0510    24.6180     2.3660     1.0830 
   56.1250    96.1920     5.5750     4.0260     5.9080    24.8330     2.3250    -2.8570 
   56.2500    99.2360     5.3600     4.6890     6.0550    24.7530     2.3040    -5.9390 
   56.3750    95.8100     5.5650     5.2680     6.6840    24.4940     2.2950    -8.0880 
   56.5000    88.9720     6.1420     5.8180     7.7480    24.1650     2.2900    -9.5250 
   56.6250    85.9840     6.7760     6.2230     8.0150    24.1230     2.2850   -10.5700 
   56.7500    88.1440     7.1220     6.3900     7.3380    24.3660     2.2810   -11.3990 
   56.8750    92.0130     7.0980     6.3490     6.4590    24.6490     2.2790   -12.1080 
   57.0000    94.2180     6.8570     6.2050     6.0000    24.7940     2.2800   -12.8030 
   57.1250    94.9730     6.6580     6.0620     5.8850    24.7870     2.2810   -13.4180 
   57.2500    94.9960     6.6480     6.0000     5.9730    24.7330     2.2800   -14.0020 
   57.3750    93.0970     6.8560     6.0590     6.3970    24.6630     2.2730   -14.6460 
   57.5000    87.4690     7.2280     6.2190     7.0330    24.6630     2.2590   -15.3050 
   57.6250    80.6310     7.6100     6.4190     8.0180    24.0110     2.2360   -15.8800 
   57.7500    78.4700     7.8390     6.6010     8.7140    23.4720     2.2130   -16.4220 
   57.8750    80.3890     7.8610     6.7330     8.6750    23.1930     2.1990   -16.8490 
   58.0000    82.5710     7.7320     6.7930     8.8660    23.1170     2.2010   -17.0630 
   58.1250    84.1560     7.6000     6.8040     8.2930    23.2920     2.2220   -17.1240 
   58.2500    87.7790     7.6080     6.8480     7.1940    23.7270     2.2480   -17.1270 
   58.3750    91.8940     7.8050     6.9560     6.8460    24.1520     2.2610   -17.0250 
   58.5000    92.6800     8.1410     7.1050     7.4020    24.2620     2.2550   -16.8550 
   58.6250    90.6330     8.4760     7.2420     7.8690    23.9370     2.2330   -16.7270 
   58.7500    88.2530     8.6660     7.3120     8.5350    23.5930     2.2180   -16.6050 
   58.8750    85.2180     8.6310     7.2480     9.0420    23.4840     2.2230   -16.5330 
   59.0000    83.5810     8.3680     7.0300     8.4780    23.6870     2.2470   -16.6110 
   59.1250    88.2370     7.9260     6.7110     7.1840    23.9810     2.2740   -16.8250 
   59.2500    93.6040     7.4010     6.3620     6.7030    24.3390     2.2840   -17.0900 
   59.3750    93.2150     6.8870     6.0220     6.8170    24.6050     2.2720   -17.4430 
   59.5000    88.7280     6.5990     5.8140     7.1630    24.6760     2.2410   -17.9050 
   59.6250    86.3380     6.9640     6.0320     7.7930    24.6090     2.2080   -18.4930 
   59.7500    85.3630     8.1600     6.8060     8.0120    24.6100     2.1880   -19.2140 
   59.8750    82.0370    10.2770     8.2320     9.2380    24.6830     2.1970   -20.0280 
   60.0000    74.9450    13.1160    10.2810    14.0490    24.7490     2.2390   -20.8410 
   60.1250    66.9170    15.6390    12.4310    26.6090    24.7270     2.3130   -21.6210 
   60.2500    63.5330    16.4270    13.6040    29.1160    24.4990     2.3890   -22.4100 
   60.3750    65.3450    15.1440    13.2670    19.0270    24.0150     2.4390   -23.1760 
   60.5000    67.6370    12.8280    11.8650    12.7470    23.5270     2.4450   -23.8440 
   60.6250    68.9250    10.8770    10.2830    11.6080    23.2390     2.4010   -24.3550 
   60.7500    72.1820     9.7760     9.0820    12.0710    23.1070     2.3360   -24.6860 
   60.8750    75.3500     9.4470     8.3920    12.6840    23.0590     2.2720   -24.8660 
   61.0000    75.8130     9.6100     8.1550    12.9620    23.0130     2.2240   -24.9300 
   61.1250    76.1890     9.9090     8.1910    12.1920    22.8710     2.1980   -24.8770 
   61.2500    79.2070    10.0650     8.2570    11.2510    22.7010     2.1850   -24.7380 
   61.3750    80.5800    10.0300     8.2730    10.6560    22.7520     2.1820   -24.5210 
   61.5000    78.2110     9.8670     8.2080    10.5290    23.0340     2.1880   -24.2590 
   61.6250    76.6000     9.6450     8.0640     9.7510    23.2350     2.2020   -24.0640 
   61.7500    78.4510     9.4300     7.9230     9.1590    23.4170     2.2190   -24.0240 
   61.8750    81.4340     9.2630     7.8210     9.1300    23.6530     2.2320   -24.1220 
   62.0000    82.2730     9.1730     7.7470     9.3360    23.9100     2.2360   -24.3380 
   62.1250    81.3280     9.1930     7.7230     9.4160    24.0460     2.2270   -24.7050 
   62.2500    79.3780     9.3260     7.8100     9.8240    23.8780     2.2120   -25.2020 
   62.3750    75.9940     9.5860     8.0370    10.4790    23.6450     2.2000   -25.8230 
   62.5000    72.3970    10.0000     8.3860    10.7510    23.5070     2.1960   -26.5600 
   62.6250    70.3630    10.6010     8.8510    10.9980    23.4390     2.2020   -27.3340 
   62.7500    69.7750    11.2760     9.3700    11.3980    23.3930     2.2150   -28.0310 
   62.8750    68.4930    11.8600     9.8320    11.8430    23.4460     2.2310   -28.6690 
   63.0000    66.3590    12.1650    10.1010    12.5170    23.5030     2.2490   -29.2880 
   63.1250    64.2810    12.0030    10.0330    13.2790    23.4220     2.2640   -29.8680 
   63.2500    62.3450    11.4890     9.6750    13.7020    23.3170     2.2710   -30.3560 
   63.3750    61.2210    10.8140     9.1370    13.4820    23.3670     2.2670   -30.7620 
   63.5000    60.7700    10.2100     8.6000    13.1850    23.5610     2.2550   -31.0770 
   63.6250    63.2590     9.8760     8.2630    12.9400    23.6230     2.2380   -31.2950 
   63.7500    67.2570     9.8060     8.1190    12.6270    23.6580     2.2220   -31.5040 
   63.8750    68.6260     9.9330     8.0960    12.3860    23.6660     2.2080   -31.7170 
   64.0000    65.0020    10.1450     8.1370    12.5010    23.6670     2.1950   -31.9010 
   64.1250    59.7910    10.3210     8.2230    12.7440    23.6800     2.1830   -31.9940 
   64.2500    58.9570    10.4140     8.3130    12.6600    23.6950     2.1730   -32.0100 
   64.3750    61.0480    10.4110     8.3630    12.6220    23.7170     2.1690   -31.9810 
   64.5000    62.9850    10.3040     8.3470    12.7050    23.7510     2.1700   -31.9250 
   64.6250    63.4390    10.1000     8.2510    12.6210    23.7550     2.1700   -31.8010 
   64.7500    62.3720     9.8840     8.1180    12.3460    23.7150     2.1670   -31.5770 
   64.8750    61.2040     9.7540     8.0170    11.9570    23.6410     2.1600   -31.2610 
   65.0000    60.5540     9.8040     8.0240    11.4600    23.5860     2.1530   -30.8870 
   65.1250    61.9810    10.1140     8.1940    11.1070    23.5650     2.1550   -30.5320 
   65.2500    65.5610    10.5650     8.4530    11.4830    23.5700     2.1680   -30.2310 
   65.3750    68.8630    10.9830     8.7210    12.6020    23.5930     2.1930   -29.9260 
   65.5000    68.3420    11.1780     8.9100    13.8540    23.6610     2.2190   -29.5870 
   65.6250    62.6810    10.9850     8.8870    13.7810    23.8590     2.2310   -29.2780 
   65.7500    59.1640    10.5290     8.6610    12.4350    24.1250     2.2240   -29.0140 
   65.8750    61.6150     9.9940     8.3330    11.4440    24.3470     2.1990   -28.7220 
   66.0000    66.7670     9.5530     8.0220    11.0920    24.4170     2.1660   -28.3540 
   66.1250    68.3240     9.3170     7.7980    11.0140    24.3250     2.1430   -27.8690 
