~V
VERS. 2.00: Ver 2.00
~W
STRT.M 56.0000:
STOP.M 235.0000:
STEP.M 0.1250:
NULL. -999.2500:
UWI. F10014:
~C
DEPT.M :
GR.API :
RML.OHMM :
RI. :
RXO.OHMM :
CALI.CM :
DEN.GM/CC :
SP.MV :
~A
# ...
  123.5000    62.1060    28.1400    28.0650    31.0920    25.5200     2.1870    -6.3890 
  123.6250    58.0470    29.8830    29.7990    31.3910    25.5070     2.1920    -6.2230 
  123.7500    56.0620    31.6750    31.6180    32.0290    25.4850     2.1930    -6.0340 
  123.8750    55.0140    33.5090    33.4630    34.1270    25.4750     2.1910    -5.8150 
  124.0000    53.6630    35.4330    35.3420    37.7910    25.5100     2.1810    -5.6050 
  124.1250    52.5460    37.5010    37.2840    39.7260    25.5850     2.1630    -5.4590 
  124.2500    53.9950    39.6850    39.2720    41.7640    25.6220     2.1450    -5.3780 
  124.3750    56.5250    42.0260    41.3430    48.0040    25.5160     2.1400    -5.3780 
  124.5000    57.7720    44.7270    43.6780    54.8060    25.2780     2.1580    -5.4460 
  124.6250    59.8020    48.3300    46.7920    52.7910    25.1860     2.2030    -5.5900 
  124.7500    63.3790    53.0060    50.9020    51.6540    25.1580     2.2640    -5.7610 
  124.8750    65.4530    58.5440    55.8720    52.8070    25.0970     2.3310    -5.9030 
  125.0000    64.3450    64.0800    60.9840    56.9080    24.9710     2.3940    -6.0200 
  125.1250    63.4380    67.6610    64.5950    66.1440    24.9040     2.4360    -6.1620 
  125.2500    64.0570    68.1020    65.5780    77.2940    24.9050     2.4480    -6.3430 
  125.3750    64.1250    65.3480    63.6730    70.9500    25.0150     2.4310    -6.5630 
  125.5000    63.5670    60.5920    59.6890    58.0250    25.0860     2.3970    -6.8030 
  125.6250    65.2740    55.6030    55.0590    51.1330    25.1170     2.3650    -6.9510 
  125.7500    67.1450    51.5600    51.0540    48.5720    25.1770     2.3460    -7.0440 
  125.8750    67.4980    48.6110    48.0060    49.4450    25.2050     2.3370    -7.1980 
  126.0000    67.4140    46.3210    45.6620    48.9450    25.1700     2.3340    -7.4220 
  126.1250    67.6770    43.9600    43.4310    48.2110    25.0920     2.3320    -7.6150 
  126.2500    67.1530    41.1340    40.8830    43.7470    25.0060     2.3280    -7.7430 
  126.3750    65.6030    37.9550    38.0560    40.8840    24.9660     2.3170    -7.8230 
  126.5000    63.8120    34.8350    35.2720    38.8090    25.0200     2.2980    -7.8590 
  126.6250    62.7000    32.4670    33.1250    32.4430    25.0790     2.2720    -7.8960 
  126.7500    61.4840    31.1740    31.9180    30.0210    25.0790     2.2460    -7.9270 
  126.8750    60.3230    31.0210    31.7450    30.0010    24.9700     2.2280    -7.8900 
  127.0000    58.6920    31.7690    32.4470    32.8050    24.7450     2.2180    -7.7680 
  127.1250    57.1210    32.8860    33.6000    35.0030    24.5450     2.2100    -7.6840 
  127.2500    56.9200    33.4860    34.3520    37.5810    24.6780     2.2000    -7.6830 
  127.3750    57.7400    32.7840    33.8460    36.3580    24.8400     2.1880    -7.7370 
  127.5000    59.4160    30.3490    31.5170    31.1210    24.7710     2.1770    -7.8480 
  127.6250    60.8700    26.4270    27.5870    25.9070    24.5970     2.1750    -8.0150 
  127.7500    60.8540    22.3630    23.5100    23.0560    24.4780     2.1810    -8.2650 
  127.8750    61.0830    19.0420    20.1530    19.3330    24.3970     2.1940    -8.6040 
  128.0000    63.8770    16.9080    17.8800    13.6280    24.3570     2.2070    -8.9320 
  128.1250    68.0670    16.1610    16.8520    12.1610    24.4300     2.2170    -9.1280 
  128.2500    68.8380    16.2320    16.6340    16.1100    24.5900     2.2240    -9.2350 
  128.3750    66.0750    16.6400    16.8660    22.1940    24.6610     2.2320    -9.2920 
  128.5000    63.4630    16.9460    17.1540    24.1340    24.6170     2.2380    -9.3230 
  128.6250    62.1770    16.8660    17.1680    20.7180    24.6540     2.2350    -9.3820 
  128.7500    61.8530    16.5890    16.9650    19.4270    24.8080     2.2180    -9.4140 
  128.8750    62.4720    16.4310    16.7870    16.4890    24.9020     2.1900    -9.3830 
  129.0000    63.5700    16.6520    16.8810    13.3100    24.8660     2.1630    -9.3970 
  129.1250    64.1700    17.3340    17.3760    15.4370    25.0300     2.1500    -9.5320 
  129.2500    63.6860    18.1700    18.0500    21.7840    25.1570     2.1540    -9.7380 
  129.3750    63.1110    18.9260    18.6980    28.2420    25.1550     2.1690    -9.9610 
  129.5000    61.9080    19.4880    19.1960    23.1110    25.0310     2.1840   -10.1520 
  129.6250    60.4020    19.8660    19.5130    18.6520    24.9440     2.1910   -10.2760 
  129.7500    60.5760    20.2510    19.7850    17.7890    24.9460     2.1880   -10.3450 
  129.8750    60.9720    20.8610    20.1950    20.3480    25.0110     2.1790   -10.3930 
  130.0000    59.8590    21.8810    20.9340    21.8940    25.0550     2.1740   -10.4300 
  130.1250    58.0700    23.3970    22.1450    21.1470    25.0440     2.1880   -10.4600 
  130.2500    57.8010    25.1080    23.5990    22.3360    25.0580     2.2190   -10.4500 
  130.3750    58.0810    26.6530    24.9840    28.9350    25.0620     2.2520   -10.4100 
  130.5000    56.8710    27.6330    25.9220    49.4850    24.9830     2.2700   -10.3730 
  130.6250    56.6760    27.6080    25.9890    51.9340    24.8740     2.2580   -10.3290 
  130.7500    57.8160    26.8010    25.3430    35.8270    24.8480     2.2310   -10.2880 
  130.8750    59.0390    25.6050    24.3050    23.9440    24.8250     2.2070   -10.2900 
  131.0000    59.9770    24.4790    23.2640    20.2180    24.7490     2.1970   -10.3280 
  131.1250    60.4050    23.8360    22.5830    20.6220    24.7550     2.2010   -10.3370 
  131.2500    59.9670    23.6680    22.3090    21.0840    24.8070     2.2070   -10.3050 
  131.3750    58.8940    23.8200    22.3570    20.9560    24.8590     2.2130   -10.2360 
  131.5000    57.9250    24.0940    22.5760    20.6660    24.8180     2.2200   -10.2030 
  131.6250    57.0750    24.3400    22.8320    20.8270    24.7400     2.2230   -10.2470 
  131.7500    57.9170    24.4880    23.0300    21.3830    24.7140     2.2140   -10.3250 
  131.8750    60.2490    24.4960    23.1140    21.5520    24.7930     2.1870   -10.3780 
  132.0000    61.2560    24.3600    23.0580    21.6860    24.9350     2.1500   -10.3790 
  132.1250    59.5200    24.1170    22.8800    21.5710    25.0840     2.1240   -10.3650 
  132.2500    57.6960    23.8890    22.6790    21.2090    25.1900     2.1180   -10.3730 
  132.3750    57.4100    23.7840    22.5500    20.2460    25.2780     2.1280   -10.4420 
  132.5000    58.7300    23.8880    22.5740    20.6160    25.3720     2.1430   -10.4760 
  132.6250    60.2400    24.2580    22.8200    22.1690    25.4640     2.1510   -10.4200 
  132.7500    60.6350    24.8020    23.2340    23.2430    25.4910     2.1520   -10.2970 
  132.8750    60.5300    25.4690    23.7860    23.4870    25.4730     2.1530   -10.1440 
  133.0000    60.5450    26.2510    24.4700    23.8410    25.4470     2.1590    -9.9870 
  133.1250    59.5700    27.2170    25.3410    24.6450    25.5170     2.1710    -9.8040 
  133.2500    57.4310    28.3670    26.3960    25.1300    25.4190     2.1830    -9.5730 
  133.3750    55.5420    29.6320    27.5880    26.4770    25.1430     2.1910    -9.2650 
  133.5000    53.8500    30.8320    28.7720    29.2900    24.9000     2.1910    -8.9200 
  133.6250    52.7940    31.6330    29.6540    34.5360    25.0070     2.1780    -8.5680 
  133.7500    54.4870    31.8940    30.0740    33.8130    25.1900     2.1540    -8.2280 
  133.8750    56.6770    31.6440    30.0130    30.7060    25.2880     2.1250    -7.8660 
  134.0000    57.3880    31.0800    29.6130    28.3100    25.3060     2.1010    -7.4670 
  134.1250    55.7890    30.4960    29.1130    27.5940    25.2460     2.0920    -7.0970 
  134.2500    54.1650    30.1210    28.7410    27.6880    25.1630     2.0980    -6.7970 
  134.3750    53.8190    30.0200    28.5820    27.8620    25.1130     2.1170    -6.5360 
  134.5000    54.5550    30.1410    28.6170    28.5930    25.1370     2.1430    -6.2750 
  134.6250    55.0440    30.3710    28.7670    28.8300    25.1590     2.1670    -6.0680 
