~V
VERS. 2.00: Ver 2.00
~W
STRT.M 57.0000:
STOP.M 307.0000:
STEP.M 0.1250:
NULL. -999.2500:
UWI. F10042:
~C
DEPT.M :
GR.API :
RML.OHMM :
RI. :
RXO.OHMM :
CALI.CM :
DEN.GM/CC :
SP.MV :
~A
   57.0000    76.0720     1.0440     0.3770     4.5870    24.8390     2.5700   -12.0370 
   57.1250    84.2520     1.3900     0.7080     4.7300    24.6960     2.4900    -8.8770 
   57.2500    90.7120     1.9450     1.2390     4.3520    24.6710     2.3940    -5.7540 
   57.3750    93.5940     2.6860     1.9490     4.0110    24.6890     2.3160    -2.8650 
   57.5000    94.2030     3.5300     2.7560     3.8770    24.7120     2.2670    -0.4350 
   57.6250    93.8790     4.4030     3.5910     3.9800    24.6940     2.2420     1.0540 
   57.7500    89.7550     5.3440     4.4920     4.4140    24.5990     2.2250     1.5340 
   57.8750    80.3280     6.4660     5.5650     5.1910    24.4610     2.2130     1.2170 
   58.0000    71.4390     7.8090     6.8500     6.0610    24.3610     2.2070     0.4700 
   58.1250    69.8080     9.1390     8.1240     6.7940    24.3450     2.2120    -0.2650 
   58.2500    72.0280    10.0060     8.9530     7.9040    24.3560     2.2230    -0.9110 
   58.3750    76.3740    10.1590     9.0990     9.3190    24.3650     2.2360    -1.4710 
   58.5000    83.2510     9.6790     8.6410    10.5870    24.3670     2.2410    -1.8190 
   58.6250    89.6740     8.8470     7.8440     7.3820    24.3620     2.2320    -1.9450 
   58.7500    91.4510     8.0150     7.0480     5.9170    24.3810     2.2150    -1.8920 
   58.8750    90.4020     7.3350     6.3970     5.4430    24.4860     2.2040    -1.7140 
   59.0000    91.3270     6.8930     5.9740     5.3800    24.6790     2.2050    -1.4730 
   59.1250    93.4890     6.8010     5.8860     5.3490    24.8460     2.2140    -1.3500 
   59.2500    92.8570     6.9890     6.0660     5.6120    24.8840     2.2130    -1.3860 
   59.3750    89.7050     7.3410     6.4030     5.9110    24.8140     2.1940    -1.5230 
   59.5000    86.7000     7.6750     6.7220     6.1650    24.6140     2.1630    -1.8450 
   59.6250    86.0210     7.7920     6.8350     6.2880    24.5880     2.1390    -2.1300 
   59.7500    88.2880     7.6680     6.7160     6.1640    24.5450     2.1340    -2.3180 
   59.8750    93.2970     7.3560     6.4170     5.5310    24.5140     2.1470    -2.5310 
   60.0000    99.7640     6.9840     6.0620     4.9900    24.5530     2.1660    -2.8170 
   60.1250   104.3650     6.7310     5.8190     4.9600    24.6490     2.1810    -3.1010 
   60.2500   104.7340     6.6900     5.7800     5.3870    24.7230     2.1950    -3.3550 
   60.3750   101.6230     6.9110     5.9910     5.6800    24.7500     2.2140    -3.5700 
   60.5000    97.3800     7.3910     6.4510     6.1980    24.7470     2.2390    -3.7880 
   60.6250    90.7480     8.0700     7.1010     6.9190    24.7040     2.2590    -4.2400 
   60.7500    80.7370     8.7380     7.7400     7.8490    24.6810     2.2590    -4.8960 
   60.8750    70.3020     9.2120     8.1930     8.0580    24.7230     2.2340    -5.6710 
   61.0000    63.7360     9.3780     8.3520     8.0080    24.7830     2.1920    -6.4160 
   61.1250    62.6530     9.1990     8.1810     7.9750    24.8260     2.1520    -7.0580 
   61.2500    66.4710     8.8390     7.8360     7.8620    24.9230     2.1280    -7.5470 
   61.3750    74.1620     8.4100     7.4260     7.5690    25.0740     2.1220    -7.8810 
   61.5000    81.1420     7.9930     7.0270     6.9980    25.1930     2.1320    -8.0520 
   61.6250    83.0680     7.6520     6.7010     6.7260    25.2650     2.1540    -7.9580 
   61.7500    82.8930     7.4110     6.4700     6.6170    25.3040     2.1810    -7.6670 
   61.8750    84.2370     7.2790     6.3440     6.3060    25.3790     2.2070    -7.2660 
   62.0000    86.8490     7.2440     6.3100     6.1390    25.4560     2.2250    -6.8750 
   62.1250    86.1440     7.2800     6.3450     6.3970    25.4500     2.2260    -6.6070 
   62.2500    82.6840     7.3570     6.4180     6.9350    25.4100     2.2120    -6.4460 
   62.3750    81.0800     7.4910     6.5460     6.8760    25.4240     2.1960    -6.4340 
   62.5000    82.5100     7.7130     6.7590     6.8410    25.4560     2.1910    -6.5160 
   62.6250    83.3730     8.0490     7.0800     6.8620    25.4910     2.2080    -6.7300 
   62.7500    81.7520     8.4290     7.4440     7.6570    25.5140     2.2330    -7.1040 
   62.8750    77.8250     8.7510     7.7520     8.6770    25.5230     2.2470    -7.5530 
   63.0000    72.8410     8.8980     7.8930    10.0610    25.5070     2.2360    -8.0390 
   63.1250    71.2500     8.7730     7.7730     8.9700    25.4800     2.2010    -8.4480 
   63.2500    74.6560     8.4860     7.4990     7.9380    25.4670     2.1650    -8.8370 
   63.3750    78.8920     8.1680     7.1950     7.1950    25.4780     2.1420    -9.2020 
   63.5000    79.6060     7.9380     6.9740     7.0780    25.5030     2.1360    -9.5430 
   63.6250    76.0470     7.8950     6.9330     6.9260    25.4980     2.1410    -9.9500 
   63.7500    71.8570     8.0220     7.0550     7.3540    25.4130     2.1480   -10.3440 
   63.8750    70.0070     8.2870     7.3080     7.5460    25.1990     2.1530   -10.7040 
   64.0000    70.9200     8.6340     7.6400     7.2020    24.8380     2.1540   -11.0530 
   64.1250    72.1950     8.9890     7.9800     7.8150    24.5480     2.1480   -11.3840 
   64.2500    73.0800     9.2660     8.2450     8.6410    24.3930     2.1340   -11.6520 
   64.3750    73.0070     9.3920     8.3660     8.5430    24.2670     2.1150   -11.8640 
   64.5000    70.9390     9.3210     8.2970     7.6460    24.0350     2.0970   -12.0640 
   64.6250    68.0240     9.0330     8.0220     7.1950    23.7540     2.0870   -12.1650 
   64.7500    68.2920     8.6280     7.6340     7.1550    23.4880     2.0900   -12.1440 
   64.8750    72.2980     8.1950     7.2200     6.9340    23.3490     2.1050   -12.0270 
   65.0000    77.6740     7.8230     6.8640     6.5950    23.3550     2.1280   -11.8180 
   65.1250    80.5860     7.6070     6.6570     6.6300    23.5430     2.1490   -11.6320 
   65.2500    79.1550     7.5810     6.6330     6.9850    23.9310     2.1560   -11.4750 
   65.3750    75.0230     7.7980     6.8400     7.3370    24.3810     2.1410   -11.4190 
   65.5000    72.7300     8.2810     7.3020     7.5830    24.7460     2.1130   -11.4790 
   65.6250    74.2800     9.0100     8.0000     7.8080    24.9390     2.0970   -11.5680 
   65.7500    74.2930     9.7970     8.7530     7.8430    25.0340     2.1160   -11.6810 
   65.8750    71.0790    10.4520     9.3800     8.0550    25.0450     2.1710   -11.7950 
   66.0000    67.3680    10.8020     9.7150     8.2540    24.9740     2.2390   -11.9640 
   66.1250    66.3760    10.7220     9.6390     8.4700    24.9420     2.2800   -12.1540 
   66.2500    66.4930    10.3710     9.3020     8.6190    24.9980     2.2760   -12.3270 
   66.3750    66.7210     9.8710     8.8240     8.7530    25.0920     2.2370   -12.4250 
   66.5000    68.2860     9.3020     8.2790     8.9410    25.2290     2.1890   -12.4300 
   66.6250    71.0580     8.6780     7.6830     9.1940    25.3130     2.1640   -12.3800 
   66.7500    74.4320     7.9990     7.0330     8.9310    25.3580     2.1690   -12.2840 
   66.8750    79.7160     7.2840     6.3480     7.7000    25.4130     2.1960   -12.1070 
   67.0000    86.7130     6.6140     5.7070     5.9350    25.5220     2.2280   -11.7650 
   67.1250    90.1260     6.1530     5.2660     4.9840    25.6970     2.2470   -11.3750 
   67.2500    87.8080     5.9780     5.0990     4.7830    25.8020     2.2460   -11.1130 
   67.3750    83.7030     6.1390     5.2530     5.1030    25.7960     2.2340   -11.0340 
   67.5000    80.5430     6.6510     5.7420     6.1590    25.6850     2.2210   -11.1190 
   67.6250    76.2960     7.4980     6.5530     7.1760    25.5910     2.2190   -11.3540 
   67.7500    70.2160     8.4640     7.4770     8.1510    25.5630     2.2220   -11.6780 
   67.8750    65.0550     9.3280     8.3040     8.6380    25.6390     2.2240   -12.1070 
   68.0000    63.0630     9.8850     8.8370     8.5900    25.7850     2.2150   -12.6830 
   68.1250    63.3490    10.0000     8.9470     8.6050    25.8490     2.1960   -13.2620 
