~V
VERS. 2.00: Ver 2.00
~W
STRT.M 64.0000:
STOP.M 287.0000:
STEP.M 0.1250:
NULL. -999.2500:
UWI. F10052:
~C
DEPT.M :
SP.MV :
DEN.GM/CC :
GR.API :
RML.OHMM :
RI. :
RXO.OHMM :
CALI.CM :
~A
# ...
  232.7500   -25.0860     2.6230    55.4390   206.0090   177.3720    76.0580    24.3090 
  232.8750   -25.0300     2.6170    55.3850   137.2920   134.7330    73.7960    24.1460 
  233.0000   -24.9340     2.6290    55.5520    78.1430    88.2220    75.8140    24.0010 
  233.1250   -24.8410     2.6520    58.7990    43.2930    50.6750    64.7110    23.9030 
  233.2500   -24.7640     2.6670    59.7380    24.2230    27.0710    38.8550    23.8560 
  233.3750   -24.6950     2.6580    56.2670    14.3100    14.4790    16.3820    23.8640 
  233.5000   -24.6420     2.6190    52.5960     9.3370     8.4100     6.6280    23.9160 
  233.6250   -24.6110     2.5580    49.6240     6.4080     5.9100     5.0110    23.9750 
  233.7500   -24.6030     2.4960    46.5350     5.2020     4.8050     4.6670    24.0050 
  233.8750   -24.6030     2.4480    45.2850     5.0330     4.5050     4.6900    24.0060 
  234.0000   -24.6360     2.4210    47.6270     5.2110     4.7050     4.7300    24.0020 
  234.1250   -24.7110     2.4130    53.9210     5.6360     5.2390     4.8980    24.0090 
  234.2500   -24.7980     2.4160    61.2220     6.2130     5.9180     5.1900    24.0200 
  234.3750   -24.8810     2.4250    69.8660     6.8840     6.6610     5.6380    24.0290 
  234.5000   -24.9480     2.4360    80.1320     7.5580     7.3880     6.2360    24.0380 
  234.6250   -25.0030     2.4410    88.8320     8.0550     7.9350     6.9650    24.0530 
  234.7500   -25.0520     2.4400    92.1440     8.2830     8.1840     7.7820    24.0700 
  234.8750   -25.1010     2.4340    91.2680     8.2360     8.0930     8.3020    24.0810 
  235.0000   -25.1440     2.4250    92.4980     8.0210     7.7450     7.9050    24.0840 
  235.1250   -25.1690     2.4170    96.2530     7.8390     7.3250     6.7750    24.0840 
  235.2500   -25.1870     2.4110    98.8140     7.8460     7.0190     6.3440    24.0850 
  235.3750   -25.2010     2.4080   100.1630     8.1000     6.8970     6.5360    24.0800 
  235.5000   -25.2060     2.4070    99.5880     8.6130     6.9620     7.0310    24.0640 
  235.6250   -25.2020     2.4010    93.9570     9.3840     7.2300     7.5910    24.0400 
  235.7500   -25.1970     2.3830    87.4980    10.3400     7.6880     7.9430    24.0180 
  235.8750   -25.1930     2.3540    85.3800    11.7440     8.3910     8.2190    24.0020 
  236.0000   -25.1880     2.3280    86.1540    13.4260     9.4200     8.8440    23.9850 
  236.1250   -25.1820     2.3290    84.8350    14.7120    10.8810    10.7660    23.9410 
  236.2500   -25.1670     2.3670    81.0930    15.8920    12.5870    14.7140    23.8490 
  236.3750   -25.1480     2.4320    77.5700    17.1500    14.1700    18.8070    23.7030 
  236.5000   -25.1160     2.4880    76.2700    17.7850    15.1010    20.0680    23.5160 
  236.6250   -25.0370     2.4960    77.9290    16.9850    14.8290    18.6820    23.3060 
  236.7500   -24.9270     2.4680    82.2060    15.3910    13.7190    15.8570    23.0940 
  236.8750   -24.8130     2.4280    85.4890    13.2080    12.2770    13.1700    22.9090 
  237.0000   -24.7140     2.3920    85.3630    11.7530    10.9510    11.7550    22.7970 
  237.1250   -24.6070     2.3650    85.6680    11.1010    10.0610    10.7210    22.8140 
  237.2500   -24.4910     2.3480    90.1230    10.9900     9.6030     9.5480    22.9160 
  237.3750   -24.3850     2.3470    94.3190    11.3150     9.5260     8.8780    23.0300 
  237.5000   -24.2930     2.3690    93.4730    11.8650     9.7080     9.0820    23.0900 
  237.6250   -24.2550     2.4050    91.1600    12.2210     9.9110    10.1520    23.0700 
  237.7500   -24.2390     2.4310    92.2940    11.9970     9.8380    10.9090    23.0180 
  237.8750   -24.2220     2.4350    94.0310    11.0920     9.3350     9.8010    22.9620 
  238.0000   -24.1840     2.4220    92.6190     9.7800     8.4790     8.2330    22.9080 
  238.1250   -24.1430     2.4100    90.5970     8.5710     7.5510     7.0910    22.8500 
  238.2500   -24.1020     2.4140    86.5120     7.7490     6.8150     6.3490    22.7910 
  238.3750   -24.0430     2.4310    80.5220     7.3420     6.3590     5.9600    22.7380 
  238.5000   -23.9830     2.4450    76.4860     7.2630     6.1600     5.9810    22.6970 
  238.6250   -23.9240     2.4480    77.1720     7.3630     6.1310     6.1900    22.6680 
  238.7500   -23.8580     2.4430    76.2460     7.4150     6.1210     6.1400    22.6470 
  238.8750   -23.8020     2.4310    70.1960     7.3040     6.0630     5.8240    22.6370 
  239.0000   -23.7700     2.4110    63.2210     7.0300     5.9500     5.5160    22.6520 
  239.1250   -23.7690     2.3820    59.3520     6.7210     5.8210     5.3350    22.7130 
  239.2500   -23.7920     2.3540    56.7050     6.5270     5.7210     5.2570    22.8140 
  239.3750   -23.8610     2.3380    53.8120     6.4920     5.6620     5.2730    22.9460 
  239.5000   -23.9540     2.3450    50.1550     6.5610     5.6340     5.3250    23.1000 
  239.6250   -24.0330     2.3780    47.1020     6.6070     5.6170     5.3800    23.2610 
  239.7500   -24.1100     2.4170    48.6160     6.5440     5.5840     5.4720    23.3990 
  239.8750   -24.1680     2.4450    54.0690     6.3710     5.5200     5.5860    23.4880 
  240.0000   -24.2110     2.4530    60.2460     6.1490     5.4220     5.6190    23.5280 
  240.1250   -24.2460     2.4400    64.8730     5.9740     5.3100     5.4970    23.5330 
  240.2500   -24.2880     2.4200    69.6070     5.8920     5.2300     5.4020    23.5330 
  240.3750   -24.3150     2.4020    73.5900     5.9160     5.2160     5.3730    23.5400 
  240.5000   -24.3280     2.3900    75.5130     6.0420     5.2860     5.4860    23.5680 
  240.6250   -24.3570     2.3860    75.2870     6.3030     5.4620     5.8250    23.6350 
  240.7500   -24.4040     2.3840    73.4430     6.7350     5.7560     6.3170    23.7360 
  240.8750   -24.4750     2.3830    71.4760     7.3890     6.2060     6.7690    23.8670 
  241.0000   -24.5540     2.3830    71.6350     8.2550     6.8330     7.5820    24.0200 
  241.1250   -24.6240     2.3830    72.6210     9.2030     7.5880     9.8070    24.1780 
  241.2500   -24.6860     2.3820    72.7050     9.9370     8.2700    13.0320    24.3040 
  241.3750   -24.7420     2.3780    74.1930    10.1730     8.6530    14.0900    24.3760 
  241.5000   -24.8050     2.3700    77.1840     9.7960     8.5810    11.7600    24.4010 
  241.6250   -24.8690     2.3600    78.0950     8.9870     8.0780     8.7520    24.4070 
  241.7500   -24.9370     2.3540    78.3920     8.2420     7.4970     7.1610    24.4150 
  241.8750   -25.0080     2.3540    82.5440     7.8350     7.0900     7.0210    24.4260 
  242.0000   -25.0800     2.3600    88.7790     7.8580     6.9980     7.4690    24.4370 
  242.1250   -25.1510     2.3660    88.0850     8.2880     7.2780     7.8760    24.4450 
  242.2500   -25.2120     2.3660    84.0940     8.8450     7.7440     8.4580    24.4500 
  242.3750   -25.2730     2.3590    84.0800     9.2920     8.2020     9.6420    24.4570 
  242.5000   -25.3430     2.3520    88.5010     9.4630     8.4800    10.5270    24.4670 
  242.6250   -25.4230     2.3510    88.6850     9.3270     8.4860     9.3470    24.4830 
  242.7500   -25.4930     2.3540    84.2900     9.0920     8.3560     8.0190    24.5000 
  242.8750   -25.5320     2.3600    82.5800     8.9150     8.2260     7.5700    24.5050 
  243.0000   -25.5450     2.3660    84.7010     8.8930     8.2050     7.8140    24.4920 
  243.1250   -25.5750     2.3690    84.0120     9.0720     8.3810     8.3210    24.4600 
  243.2500   -25.6220     2.3680    80.7330     9.4080     8.7240     8.9190    24.4200 
  243.3750   -25.6830     2.3610    76.9900     9.9230     9.2190     9.6800    24.3710 
  243.5000   -25.7290     2.3500    75.0300    10.6860     9.8750    10.3780    24.3120 
  243.6250   -25.7570     2.3350    75.5280    11.8690    10.8220    11.3570    24.2470 
  243.7500   -25.8000     2.3200    77.8750    13.5100    12.1720    12.0600    24.1770 
  243.8750   -25.8700     2.3070    78.7550    15.6570    14.0620    12.8410    24.0930 
