~V
VERS. 2.00: Ver 2.00
~W
STRT.M 57.0000:
STOP.M 177.0000:
STEP.M 0.1250:
NULL. -999.2500:
UWI. F10011:
~C
DEPT.M :
DEN.GM/CC :
SP.MV :
GR.API :
CALI.CM :
RXO.OHMM :
RI. :
RML.OHMM :
~A
   57.0000     2.0750    63.9100    46.5600    24.6640     5.3420     0.0220     0.2830 
   57.1250     2.0720    65.6150    47.8900    25.2020    22.3340    -0.0160     0.0700 
   57.2500     2.0320    66.5750    48.6110    25.3860    21.8620    -0.0250     0.0260 
   57.3750     1.9820    66.3830    50.4920    25.3950     8.9190     0.0120     0.1240 
   57.5000     1.9990    64.7520    56.1300    25.3270     6.1750     0.1550     0.4050 
   57.6250     2.1210    61.4180    64.6710    25.2960    10.6460     0.6600     1.0890 
   57.7500     2.2330    56.7640    72.3690    25.4890    16.5900     1.9250     2.4690 
   57.8750     2.2550    50.8600    76.9900    25.8100    20.2490     4.5230     5.0010 
   58.0000     2.2010    43.8830    78.6760    26.0600    20.8080     8.5560     8.5810 
   58.1250     2.1420    36.3680    78.9000    26.1950    20.4980    12.7030    11.4640 
   58.2500     2.1080    29.1610    78.8440    26.1870    20.2610    15.6480    12.9520 
   58.3750     2.0900    22.9010    78.9190    26.0660    20.3190    17.5410    13.7970 
   58.5000     2.0800    17.9650    80.2320    25.9190    20.6620    18.9110    14.5790 
   58.6250     2.0800    14.5490    81.6920    25.7660    21.1910    20.0370    15.3530 
   58.7500     2.0850    12.0230    81.4150    25.7070    21.3180    21.0280    15.9630 
   58.8750     2.0880    10.0560    78.9320    25.8400    20.8650    21.8420    16.2920 
   59.0000     2.0870     8.4610    75.6440    26.0080    20.3360    22.4100    16.3500 
   59.1250     2.0960     7.0930    73.1680    26.0490    20.9290    22.6140    16.3290 
   59.2500     2.1160     5.8770    73.3130    26.0380    21.6170    22.5020    16.4480 
   59.3750     2.1340     4.7810    76.7160    25.9530    21.3180    22.1460    16.7470 
   59.5000     2.1370     3.8000    80.2540    25.7890    20.2690    21.6490    17.1250 
   59.6250     2.1270     2.9260    80.1730    25.6560    20.1350    21.1110    17.3710 
   59.7500     2.1240     2.1560    78.8260    25.7010    21.0670    20.6580    17.4710 
   59.8750     2.1290     1.4230    78.7570    25.6400    21.8800    20.4740    17.6470 
   60.0000     2.1250     0.6770    79.1630    25.6400    22.1220    20.8510    18.2600 
   60.1250     2.1100    -0.0820    77.6000    25.7990    22.4730    22.4490    19.9270 
   60.2500     2.1120    -0.8360    75.7100    25.6470    24.7820    25.8460    23.0270 
   60.3750     2.1570    -1.5160    73.3510    25.0310    33.5760    32.0250    28.1960 
   60.5000     2.2500    -2.1590    69.9940    24.2580    57.7540    41.9240    36.2620 
   60.6250     2.3820    -2.7480    66.0120    24.0430    97.3820    55.4790    48.0610 
   60.7500     2.5180    -3.3120    63.4240    24.0190   128.1020    68.0370    59.7270 
   60.8750     2.6240    -3.8310    64.4310    24.0250   134.4610    73.8300    64.2200 
   61.0000     2.6730    -4.2700    69.3420    23.9940   115.8690    69.6520    58.3470 
   61.1250     2.6560    -4.6220    74.9990    23.9440    82.4440    57.6240    47.4300 
   61.2500     2.5960    -4.8890    77.1850    23.8280    50.5600    45.0840    37.9720 
   61.3750     2.5000    -5.1740    75.9100    23.6360    32.2560    35.3430    31.2620 
   61.5000     2.3810    -5.4350    75.3300    23.5330    26.5470    29.0470    27.0990 
   61.6250     2.2680    -5.6590    77.5350    23.4930    25.9080    25.8450    25.1600 
   61.7500     2.1860    -5.8380    81.1090    23.5520    25.6800    24.3800    24.4930 
   61.8750     2.1420    -5.9430    84.5700    23.8220    25.2680    24.0790    24.6020 
   62.0000     2.1340    -6.0450    86.2220    24.3200    25.1620    24.4400    25.0130 
   62.1250     2.1460    -6.1730    84.8820    24.6860    25.2770    24.9730    25.3680 
   62.2500     2.1540    -6.2890    81.4020    24.8040    25.1760    25.3260    25.6410 
   62.3750     2.1500    -6.3960    77.8160    24.6560    24.7500    25.4340    25.9040 
   62.5000     2.1390    -6.5150    75.9390    24.5190    24.2530    25.3650    26.1350 
   62.6250     2.1310    -6.6810    76.5520    24.4930    23.7830    25.2420    26.2790 
   62.7500     2.1240    -6.8780    78.5100    24.4960    23.6130    25.1950    26.4110 
   62.8750     2.1200    -7.1060    79.9970    24.4250    24.2270    25.2780    26.5870 
   63.0000     2.1200    -7.3380    80.3340    24.3100    25.4930    25.4730    26.7780 
   63.1250     2.1230    -7.5500    80.7770    24.3030    26.0650    25.6840    26.8780 
   63.2500     2.1240    -7.7960    80.6440    24.3620    25.8000    25.7920    26.8510 
   63.3750     2.1220    -8.0920    79.3700    24.3790    25.2680    25.7470    26.7220 
   63.5000     2.1190    -8.4670    77.8890    24.4040    24.8010    25.5950    26.5760 
   63.6250     2.1180    -8.8940    77.5240    24.4150    24.0700    25.4730    26.5280 
   63.7500     2.1190    -9.4060    76.9660    24.3810    23.3580    25.4700    26.5420 
   63.8750     2.1190    -9.9690    76.5630    24.3610    22.4420    25.4550    26.3810 
   64.0000     2.1130   -10.5710    78.5460    24.4090    21.1500    25.0060    25.5680 
   64.1250     2.1040   -11.2010    82.2940    24.4020    19.7770    23.3590    23.3940 
   64.2500     2.0980   -11.8950    84.3040    24.3580    18.1670    20.5740    20.1550 
   64.3750     2.1050   -12.5980    84.6230    24.3480    16.3140    17.1870    16.5540 
   64.5000     2.1310   -13.3220    84.7020    24.2980    14.0560    13.9240    13.3190 
   64.6250     2.1750   -14.0820    88.0910    24.0630    11.5380    11.3950    10.9740 
   64.7500     2.2170   -14.8720    94.7230    23.7590     9.4380     9.6040     9.4180 
   64.8750     2.2460   -15.6800   103.0590    23.5490     8.1200     8.4630     8.5320 
   65.0000     2.2590   -16.4460   109.9460    23.4640     7.5300     7.8380     8.1460 
   65.1250     2.2650   -17.0880   111.5160    23.4090     7.4620     7.6190     8.1070 
   65.2500     2.2730   -17.4860   110.6570    23.3450     7.4500     7.5820     8.1810 
   65.3750     2.2810   -17.5860   111.1710    23.3240     7.3090     7.6290     8.2740 
   65.5000     2.2860   -17.4580   113.1080    23.3630     7.1260     7.7510     8.4150 
   65.6250     2.2850   -17.2370   113.9900    23.3490     7.0300     8.0590     8.8150 
   65.7500     2.2910   -16.8480   112.2630    23.2760     7.0970     8.5880     9.5560 
   65.8750     2.3150   -16.3820   108.7480    23.1040     7.6940     9.2820    10.5470 
   66.0000     2.3610   -15.8970   105.4280    22.8860     9.0470     9.9410    11.4860 
   66.1250     2.4060   -15.4210   105.3030    22.7740    10.3190    10.1890    11.8630 
   66.2500     2.4190   -15.0460   107.9300    22.6850     9.9600     9.9750    11.6360 
   66.3750     2.3980   -14.8580   110.7600    22.3160     8.5920     9.5240    11.1390 
   66.5000     2.3590   -14.7930   112.5210    21.6560     7.8440     9.1700    10.8410 
   66.6250     2.3240   -14.6930   112.9380    20.8010     8.3720     9.2070    11.0730 
   66.7500     2.2920   -14.5910   109.5050    20.0410     9.4000     9.5770    11.6130 
   66.8750     2.2600   -14.4980   103.3330    19.6080    10.2410    10.0610    12.1340 
   67.0000     2.2280   -14.4450    97.0050    19.4010    10.3910    10.3310    12.2930 
   67.1250     2.2150   -14.4200    94.5040    19.2000     9.7730    10.0700    11.8950 
   67.2500     2.2280   -14.4050    96.3780    18.9130     8.9920     9.4560    11.2500 
   67.3750     2.2570   -14.4170   101.4030    18.4750     8.5430     8.7600    10.6360 
   67.5000     2.2750   -14.4020   106.1470    17.7760     8.4330     8.2050    10.1990 
   67.6250     2.2630   -14.3940   107.6610    16.8850     8.5520     7.8980     9.9360 
   67.7500     2.2460   -14.4200   105.6050    16.0940     8.6940     7.7340     9.7180 
   67.8750     2.2430   -14.4190   102.2380    15.4660     8.8410     7.5970     9.4640 
   68.0000     2.2540   -14.4140   102.4080    15.0150     8.9900     7.3870     9.1610 
   68.1250     2.2650   -14.4360   108.2080    14.8320     9.1180     7.0940     8.9100 
