~V
VERS. 2.00: Ver 2.00
~W
STRT.M 51.0000:
STOP.M 262.0000:
STEP.M 0.1250:
NULL. -999.2500:
UWI. F10019:
~C
DEPT.M :
DEN.GM/CC :
SP.MV :
GR.API :
CALI.CM :
RXO.OHMM :
RI. :
RML.OHMM :
~A
# ...
  174.7500     2.4850    -2.7500    54.3920    24.4600    21.9660    18.3150    20.5520 
  174.8750     2.4850    -2.7270    56.2970    24.4320    25.0530    18.9550    21.0510 
  175.0000     2.4720    -2.7960    58.8920    24.3490    26.2710    19.0590    20.9140 
  175.1250     2.4520    -2.8460    59.5360    24.3480    25.2770    18.6480    20.2140 
  175.2500     2.4310    -2.9280    58.2090    24.4090    23.3060    17.8610    19.1540 
  175.3750     2.4080    -3.0140    56.1670    24.4390    21.2700    16.9450    18.0520 
  175.5000     2.3880    -3.1780    56.2200    24.3960    19.6670    16.2030    17.2770 
  175.6250     2.3770    -3.3120    56.7450    24.2940    18.9730    15.7900    16.9500 
  175.7500     2.3800    -3.4600    57.7220    24.1340    19.4680    15.7580    17.0720 
  175.8750     2.3890    -3.6050    59.2270    24.0110    20.8090    16.0750    17.5570 
  176.0000     2.3920    -3.6600    58.1870    23.8250    21.8290    16.6820    18.2750 
  176.1250     2.3910    -3.7400    55.6570    23.6650    22.2790    17.3940    19.0150 
  176.2500     2.3970    -3.7680    54.6500    23.6820    22.4030    18.0810    19.6530 
  176.3750     2.4180    -3.7640    55.1120    23.9280    22.8530    18.6360    20.1270 
  176.5000     2.4380    -3.6740    53.8940    24.0670    23.9490    18.9590    20.3890 
  176.6250     2.4400    -3.5900    52.4250    24.0100    24.6830    19.0700    20.4630 
  176.7500     2.4250    -3.4380    54.0640    23.9420    24.5750    19.0090    20.3630 
  176.8750     2.4110    -3.2450    57.3440    23.9150    24.0650    18.8580    20.1440 
  177.0000     2.4140    -3.1050    57.6570    23.9530    22.8970    18.7330    19.9410 
  177.1250     2.4280    -2.9280    55.6350    24.1270    21.7180    18.7210    19.8940 
  177.2500     2.4410    -2.7740    54.7390    24.4020    21.1430    18.8690    20.0750 
  177.3750     2.4430    -2.6050    56.6860    24.5720    22.0550    19.1740    20.4690 
  177.5000     2.4270    -2.4970    58.7640    24.5510    24.1770    19.5430    20.9230 
  177.6250     2.4040    -2.3730    57.5580    24.4700    25.5580    19.7870    21.2080 
  177.7500     2.3930    -2.3040    54.6210    24.4460    25.7690    19.7630    21.1720 
  177.8750     2.4020    -2.2880    53.0750    24.4500    25.4800    19.4160    20.7750 
  178.0000     2.4180    -2.2450    55.3060    24.4580    24.0580    18.7940    20.0830 
  178.1250     2.4170    -2.2330    58.6890    24.4940    21.9950    18.1220    19.3440 
  178.2500     2.3990    -2.2070    60.1610    24.5790    20.4700    17.5590    18.7350 
  178.3750     2.3820    -2.2210    58.4740    24.7190    20.1810    17.2080    18.3720 
  178.5000     2.3790    -2.2100    54.3690    24.7290    20.2800    17.1600    18.3440 
  178.6250     2.3870    -2.2720    53.0630    24.6220    20.6410    17.3780    18.5760 
  178.7500     2.4040    -2.3210    54.8980    24.4800    21.3450    17.8320    19.0140 
  178.8750     2.4280    -2.3360    57.4800    24.3740    22.0700    18.4530    19.6050 
  179.0000     2.4430    -2.3970    58.7680    24.2990    22.9130    19.1560    20.3190 
  179.1250     2.4360    -2.4370    58.9690    24.2270    23.8450    19.8300    21.0650 
  179.2500     2.4140    -2.4720    58.2310    24.1910    24.8120    20.3710    21.7110 
  179.3750     2.3980    -2.4590    57.0980    24.2140    25.0610    20.6770    22.0970 
  179.5000     2.3990    -2.5030    57.4270    24.1770    24.3870    20.6540    22.0680 
  179.6250     2.4040    -2.4950    58.4000    24.1090    23.8610    20.3900    21.7370 
  179.7500     2.4100    -2.5150    57.5490    24.0820    23.5120    19.9750    21.2430 
  179.8750     2.4200    -2.5500    56.3940    24.1290    22.8460    19.5160    20.7310 
  180.0000     2.4320    -2.5840    56.9980    24.3060    22.2720    19.1420    20.3410 
  180.1250     2.4400    -2.6380    58.1440    24.5670    21.4850    18.9190    20.1260 
  180.2500     2.4390    -2.6800    58.0830    24.7390    20.4490    18.8610    20.1110 
  180.3750     2.4270    -2.7820    57.4690    24.7210    19.9010    18.9480    20.2900 
  180.5000     2.4130    -2.8310    57.7710    24.4610    20.7040    19.1540    20.6250 
  180.6250     2.4100    -2.9430    57.7810    24.2180    21.9820    19.3990    20.9910 
  180.7500     2.4160    -3.0330    56.8990    24.0920    22.7220    19.6230    21.2890 
  180.8750     2.4220    -3.0930    57.6190    24.0740    22.3530    19.7730    21.4520 
  181.0000     2.4220    -3.1250    60.1000    24.0760    21.6810    19.7960    21.4290 
  181.1250     2.4170    -3.1600    60.6400    24.0630    21.5860    19.6920    21.2470 
  181.2500     2.4100    -3.2040    59.7090    24.0280    21.6890    19.4530    20.9090 
  181.3750     2.4040    -3.1660    59.3890    23.9810    21.3970    19.0840    20.4290 
  181.5000     2.4070    -3.1550    59.1660    23.9290    21.0520    18.6050    19.8640 
  181.6250     2.4170    -3.0900    57.4640    23.9570    20.8020    18.1040    19.3290 
  181.7500     2.4210    -3.0610    56.0000    24.0860    20.2410    17.6600    18.8950 
  181.8750     2.4140    -3.0320    56.7260    24.1830    19.4600    17.3350    18.5880 
  182.0000     2.4090    -2.9890    58.6950    24.1870    19.4080    17.1640    18.4120 
  182.1250     2.4110    -2.9280    60.4050    24.1560    20.2020    17.0820    18.2950 
  182.2500     2.4160    -2.8400    60.6500    24.1520    20.8320    17.0210    18.1680 
  182.3750     2.4140    -2.7940    59.5110    24.1560    20.5460    16.9000    17.9570 
  182.5000     2.4080    -2.7030    57.4040    24.2130    19.7470    16.6420    17.5830 
  182.6250     2.4030    -2.6570    53.8980    24.2430    19.3330    16.2680    17.0930 
  182.7500     2.4030    -2.5970    51.0830    24.2420    19.0010    15.8410    16.5830 
  182.8750     2.4070    -2.5620    51.9800    24.2160    18.5780    15.4590    16.1780 
  183.0000     2.4130    -2.5440    54.2090    24.1540    18.3740    15.2370    16.0100 
  183.1250     2.4210    -2.5530    54.4980    24.0730    18.9150    15.1910    16.0660 
  183.2500     2.4310    -2.6130    54.6290    24.0720    20.2190    15.3170    16.3090 
  183.3750     2.4400    -2.6410    56.5390    24.1630    21.4420    15.5710    16.6560 
  183.5000     2.4410    -2.7210    57.2100    24.2580    21.4160    15.8610    16.9710 
  183.6250     2.4390    -2.7670    55.4420    24.2820    20.6490    16.0780    17.1670 
  183.7500     2.4420    -2.8120    53.3070    24.3150    20.1540    16.1830    17.2580 
  183.8750     2.4460    -2.8120    52.3180    24.3690    20.0190    16.1930    17.3020 
  184.0000     2.4390    -2.7600    52.1580    24.4120    19.7880    16.1560    17.3460 
  184.1250     2.4260    -2.6780    52.7010    24.3730    19.3870    16.1380    17.3850 
  184.2500     2.4190    -2.5590    53.2970    24.3370    19.1180    16.1580    17.3970 
  184.3750     2.4210    -2.4710    53.3920    24.3770    19.2420    16.2090    17.3810 
  184.5000     2.4260    -2.2950    54.1630    24.4680    19.8390    16.2770    17.3680 
  184.6250     2.4240    -2.1260    55.2750    24.4850    20.6080    16.3450    17.3830 
  184.7500     2.4150    -1.9610    56.6940    24.4980    20.8210    16.4060    17.4250 
  184.8750     2.4020    -1.8490    57.7870    24.6060    20.2930    16.4720    17.4980 
  185.0000     2.3920    -1.7390    56.3050    24.6880    19.8580    16.5930    17.6470 
  185.1250     2.3890    -1.6590    52.3070    24.6240    20.1740    16.7580    17.8540 
  185.2500     2.3950    -1.6350    48.5040    24.5090    20.7500    16.8990    18.0270 
  185.3750     2.4040    -1.6050    48.5960    24.4520    21.0470    16.9190    18.0360 
  185.5000     2.4130    -1.6700    50.6530    24.4500    20.6620    16.7120    17.7410 
  185.6250     2.4290    -1.7330    50.2140    24.4450    19.5760    16.3270    17.2360 
  185.7500     2.4440    -1.8410    48.1060    24.4210    18.1860    15.8770    16.6950 
  185.8750     2.4360    -1.9340    48.2930    24.3510    17.4560    15.5150    16.3270 
