~V
VERS. 2.00: Ver 2.00
~W
STRT.M 50.0000:
STOP.M 212.0000:
STEP.M 0.1250:
NULL. -999.2500:
UWI. F10013:
~C
DEPT.M :
GR.API :
RML.OHMM :
RI. :
RXO.OHMM :
CALI.CM :
DEN.GM/CC :
SP.MV :
~A
# ...
  173.7500    64.9090     7.3880     7.3830     6.1920    22.5270     2.4840   -22.4920 
  173.8750    69.0150     6.4910     6.3420     6.2260    22.5330     2.4070   -22.4770 
  174.0000    69.1310     6.4290     6.1160     6.4830    22.5390     2.3410   -22.4780 
  174.1250    67.5110     7.0620     6.6130     7.3250    22.5990     2.3120   -22.4810 
  174.2500    67.8170     8.0340     7.5230     9.0790    22.7360     2.3130   -22.4850 
  174.3750    71.2290     9.0800     8.6070    10.9360    22.9610     2.3330   -22.4840 
  174.5000    75.6430     9.9440     9.5940    11.8390    23.2220     2.3570   -22.4920 
  174.6250    78.0040    10.3870    10.2020    11.8120    23.3720     2.3760   -22.5130 
  174.7500    78.5620    10.4640    10.4410    11.5750    23.4280     2.3890   -22.5510 
  174.8750    80.8490    10.3000    10.4110    11.4180    23.4370     2.3950   -22.6220 
  175.0000    87.6660    10.0610    10.2520    11.5480    23.4380     2.3960   -22.7020 
  175.1250    94.9780     9.8770    10.0600    11.7210    23.4380     2.3890   -22.8170 
  175.2500    97.6750     9.7600     9.8500    11.8220    23.4350     2.3800   -22.9480 
  175.3750    98.0090     9.6730     9.5930    11.9700    23.4280     2.3740   -23.0820 
  175.5000    99.7380     9.5880     9.2810    12.1030    23.4150     2.3740   -23.2230 
  175.6250   103.2280     9.5550     8.9740    11.8340    23.4290     2.3780   -23.3690 
  175.7500   104.7130     9.6820     8.8050    11.7640    23.4400     2.3800   -23.5450 
  175.8750   100.9750    10.1080     8.9240    11.8210    23.4560     2.3740   -23.7670 
  176.0000    92.8580    10.9880     9.4920    12.3380    23.4650     2.3610   -24.0500 
  176.1250    85.2230    12.5770    10.7800    15.1020    23.4750     2.3500   -24.3830 
  176.2500    81.2670    14.8430    12.8000    19.8590    23.4600     2.3550   -24.7680 
  176.3750    78.9300    17.6860    15.5280    23.6570    23.4400     2.3760   -25.1810 
  176.5000    76.6630    20.8330    18.7610    26.4730    23.4120     2.4040   -25.6150 
  176.6250    75.2100    24.1470    22.0570    34.1360    23.3680     2.4190   -26.0500 
  176.7500    73.9890    27.4410    24.9370    38.3030    23.3380     2.4090   -26.4700 
  176.8750    74.1300    30.2830    27.2120    38.6790    23.3290     2.3770   -26.8630 
  177.0000    75.4400    32.4030    28.9520    38.1390    23.2990     2.3380   -27.1860 
  177.1250    75.8980    34.0290    30.3370    38.3360    23.2780     2.3130   -27.4400 
  177.2500    74.8120    35.5090    31.5900    41.1640    23.2300     2.3080   -27.6360 
  177.3750    72.1060    36.8080    32.7650    45.2240    23.1530     2.3180   -27.7770 
  177.5000    68.6300    37.9910    33.8820    47.0340    23.0660     2.3290   -27.8660 
  177.6250    67.3090    39.3130    35.0090    44.0000    22.9960     2.3300   -27.9000 
  177.7500    69.2980    40.9630    36.2430    42.0240    22.9000     2.3250   -27.8910 
  177.8750    70.5980    42.8930    37.6140    43.4990    22.7030     2.3260   -27.8600 
  178.0000    68.3400    44.7760    39.0160    48.5140    22.4490     2.3380   -27.8500 
  178.1250    65.5540    45.9920    40.1390    53.4470    22.4450     2.3570   -27.8440 
  178.2500    64.3450    46.3650    40.8010    56.3530    22.7040     2.3670   -27.8390 
  178.3750    64.3930    46.1460    41.0670    55.0620    22.9400     2.3590   -27.8380 
  178.5000    65.3230    45.9730    41.3030    52.8240    23.0180     2.3380   -27.8400 
  178.6250    65.4070    46.7800    42.2180    52.1660    23.0520     2.3120   -27.8530 
  178.7500    64.2630    48.8510    44.1900    55.4040    23.1180     2.2920   -27.8660 
  178.8750    63.3620    51.9530    47.1840    60.3670    23.1820     2.2750   -27.8460 
  179.0000    63.9920    55.2020    50.5250    67.3570    23.2270     2.2630   -27.7750 
  179.1250    64.1590    56.7760    52.5170    74.2780    23.2440     2.2550   -27.6690 
  179.2500    63.9050    55.5480    51.8460    74.7670    23.2490     2.2520   -27.5450 
  179.3750    65.6730    51.3160    48.1150    68.5350    23.2490     2.2520   -27.4150 
  179.5000    69.5020    44.9990    42.1230    59.7310    23.2490     2.2540   -27.2770 
  179.6250    72.4620    38.3460    35.5850    46.8260    23.2490     2.2560   -27.1370 
  179.7500    75.2230    32.9550    30.1620    36.5770    23.2490     2.2580   -27.0130 
  179.8750    77.5600    29.5440    26.5610    30.9810    23.2490     2.2590   -26.9430 
  180.0000    77.6000    28.3750    25.0090    28.1840    23.2410     2.2620   -26.9680 
  180.1250    75.7470    29.9200    25.9460    28.9410    23.2220     2.2660   -27.0680 
  180.2500    74.5860    33.8450    29.1680    35.1680    23.2050     2.2700   -27.1890 
  180.3750    72.5990    40.1430    34.8350    46.3960    23.2070     2.2720   -27.3060 
  180.5000    66.4140    48.5830    42.9180    59.0380    23.1890     2.2690   -27.3980 
  180.6250    61.1090    58.5060    53.0220    67.4030    23.1580     2.2580   -27.4350 
  180.7500    62.0110    68.0560    63.2710    78.6910    23.1210     2.2440   -27.3900 
  180.8750    64.9560    75.3990    71.7510    89.8910    23.1040     2.2280   -27.2400 
  181.0000    65.2390    79.0080    76.7480    98.6350    23.1260     2.2150   -26.9730 
  181.1250    63.7200    77.6100    76.6500   105.0960    23.1410     2.2050   -26.6050 
  181.2500    65.0800    72.6230    72.5360   104.3790    23.1210     2.2000   -26.2020 
  181.3750    67.4600    65.2590    65.4510    91.3930    23.0800     2.1990   -25.7730 
  181.5000    66.8550    56.7660    56.7000    72.7730    23.0460     2.2050   -25.3340 
  181.6250    66.0430    48.3570    47.7250    58.3850    23.0250     2.2180   -24.9180 
  181.7500    68.4230    40.9620    39.7690    50.5450    23.0680     2.2350   -24.5570 
  181.8750    71.8070    35.1670    33.5100    41.9240    23.1770     2.2540   -24.2690 
  182.0000    73.0590    31.3680    29.2950    32.3710    23.2790     2.2720   -24.0540 
  182.1250    72.4180    30.2670    27.6680    29.3210    23.3220     2.2840   -23.9210 
  182.2500    71.0220    31.8130    28.5130    31.9780    23.3190     2.2920   -23.8330 
  182.3750    67.8320    36.4200    32.3480    40.3600    23.2820     2.2900   -23.8000 
  182.5000    63.8850    44.5700    39.9320    49.9910    23.2020     2.2760   -23.8130 
  182.6250    60.8270    56.9360    52.3600    64.1880    23.1790     2.2560   -23.8480 
  182.7500    57.8880    71.2890    67.4430   100.3080    23.1200     2.2500   -23.8870 
  182.8750    54.7040    83.9340    81.4520   126.6040    22.9400     2.2710   -23.9030 
  183.0000    53.4410    90.3730    89.7770   117.9650    22.7030     2.3150   -23.8760 
  183.1250    55.4980    87.3410    88.5970   117.3560    22.7310     2.3550   -23.7970 
  183.2500    59.1750    79.4750    81.7040   104.6330    23.0160     2.3620   -23.6880 
  183.3750    62.6140    71.6270    73.6790    83.4670    23.2930     2.3330   -23.5610 
  183.5000    63.6160    67.2990    68.3630    85.2820    23.4040     2.2900   -23.4270 
  183.6250    62.0570    68.4800    68.2040    84.4050    23.3870     2.2720   -23.2920 
  183.7500    60.1710    73.2110    71.5630    88.3520    23.3380     2.2940   -23.1470 
  183.8750    58.4530    78.4870    75.6590   117.7600    23.2910     2.3480   -22.9940 
  184.0000    57.0940    79.9410    76.4650   162.6390    23.2520     2.4070   -22.8500 
  184.1250    59.8590    72.5750    69.2280   167.7840    23.2540     2.4340   -22.7140 
  184.2500    68.0100    58.6480    55.7220   115.4960    23.2750     2.4230   -22.5670 
  184.3750    76.9060    42.6370    40.0960    70.5050    23.2680     2.3810   -22.3920 
  184.5000    80.0630    28.7340    26.5110    46.5100    23.2020     2.3290   -22.1870 
  184.6250    76.1380    19.4090    17.4880    29.6170    23.0710     2.2910   -21.9930 
  184.7500    70.8130    13.3820    11.8900    15.3090    23.0420     2.2700   -21.8670 
  184.8750    69.2930     9.5970     8.7170     8.2150    23.0700     2.2650   -21.8380 
