~V
VERS. 2.00: Ver 2.00
~W
STRT.M 56.0000:
STOP.M 261.0000:
STEP.M 0.1250:
NULL. -999.2500:
UWI. F10028:
~C
DEPT.M :
GR.API :
RML.OHMM :
RI. :
RXO.OHMM :
CALI.CM :
DEN.GM/CC :
SP.MV :
~A
# ...
  146.0000    55.2850    24.3440    23.8140    26.2990    25.1240     2.1460     4.9440 
  146.1250    55.7470    23.9930    23.4070    25.0610    24.9380     2.1350     4.9340 
  146.2500    56.8550    23.3500    22.7560    23.9360    24.8610     2.1210     4.8150 
  146.3750    59.5750    22.4680    21.9080    22.6860    24.8360     2.1060     4.5820 
  146.5000    62.9720    21.4760    20.9530    20.8460    24.7850     2.0950     4.2640 
  146.6250    64.4330    20.6090    20.0750    19.6400    24.7260     2.0930     3.9120 
  146.7500    64.0260    20.0530    19.4410    18.9160    24.6970     2.0990     3.6050 
  146.8750    63.1600    19.9380    19.1770    17.8980    24.7480     2.1120     3.3600 
  147.0000    62.1500    20.3420    19.3710    16.8000    24.8080     2.1240     3.2090 
  147.1250    60.8270    21.3100    20.1010    17.7530    24.8180     2.1280     3.2030 
  147.2500    59.0750    22.5600    21.1480    20.6290    24.7550     2.1270     3.2850 
  147.3750    57.5720    23.8010    22.2600    22.4050    24.4870     2.1250     3.4420 
  147.5000    58.7010    24.7260    23.1420    22.7300    24.1700     2.1300     3.6580 
  147.6250    63.5060    25.0380    23.4760    23.1930    24.0460     2.1400     3.9120 
  147.7500    67.7190    24.8750    23.3420    23.2130    24.0450     2.1480     4.1630 
  147.8750    67.5270    24.4650    22.9320    22.1060    24.0240     2.1510     4.4020 
  148.0000    63.2340    24.0540    22.4720    20.8570    23.9860     2.1470     4.6180 
  148.1250    59.4270    23.8270    22.1500    20.6960    24.0040     2.1390     4.7610 
  148.2500    59.3690    23.7760    22.0010    21.0160    24.0410     2.1290     4.8820 
  148.3750    61.4670    23.8540    22.0150    21.2570    24.0980     2.1180     4.9820 
  148.5000    61.3540    24.0090    22.1650    21.5230    24.1380     2.1090     5.0670 
  148.6250    58.4520    24.1980    22.4130    20.9160    23.9720     2.1060     5.1250 
  148.7500    56.7170    24.3460    22.6580    20.5600    23.8780     2.1060     5.0980 
  148.8750    57.4540    24.3530    22.7900    21.3670    24.0320     2.1070     4.9660 
  149.0000    58.9200    24.0810    22.6640    22.4870    24.4120     2.1030     4.7140 
  149.1250    58.3660    23.3050    22.0580    22.5300    24.6450     2.1000     4.3540 
  149.2500    56.3810    22.0540    20.9900    20.8900    24.6520     2.1050     3.8970 
  149.3750    54.5990    20.4530    19.5650    18.7820    24.5250     2.1250     3.3550 
  149.5000    56.5790    18.6890    17.9530    17.0990    24.3810     2.1580     2.7710 
  149.6250    63.3860    16.9050    16.2850    15.5860    24.2380     2.1950     2.1560 
  149.7500    69.6630    15.1750    14.6550    14.0330    24.0830     2.2220     1.5750 
  149.8750    73.9360    13.5560    13.1330    13.3310    24.0050     2.2350     1.0650 
  150.0000    78.7670    12.1420    11.8100    12.7450    24.0390     2.2320     0.6430 
  150.1250    86.5430    11.1340    10.8480    11.1430    24.2270     2.2180     0.2720 
  150.2500    92.2630    10.5930    10.2710     9.2050    24.4640     2.1980    -0.0870 
  150.3750    90.6840    10.5210    10.0790     8.5810    24.6420     2.1770    -0.4470 
  150.5000    81.7570    10.7920    10.1940     9.2660    24.7190     2.1570    -0.8120 
  150.6250    72.4970    11.1560    10.4530    10.0220    24.7430     2.1450    -1.1350 
  150.7500    68.3310    11.3220    10.6000    10.1600    24.7590     2.1430    -1.4240 
  150.8750    70.3900    11.1470    10.4750     9.6910    24.7530     2.1530    -1.7000 
  151.0000    75.0000    10.6720    10.0750     8.9370    24.6910     2.1700    -1.9520 
  151.1250    77.4360    10.1330     9.5780     8.7090    24.6260     2.1880    -2.1450 
  151.2500    78.5150     9.8040     9.2270     8.7890    24.5950     2.1990    -2.2660 
  151.3750    80.2740     9.8170     9.1460     8.9770    24.5930     2.2010    -2.2730 
  151.5000    81.5680    10.2160     9.3820     9.3270    24.6180     2.1940    -2.1710 
  151.6250    79.1560    11.0380     9.9740    10.4110    24.6620     2.1810    -1.9830 
  151.7500    74.1570    12.1370    10.8040    11.7610    24.6810     2.1680    -1.7720 
  151.8750    71.0170    13.3930    11.7780    12.4640    24.6610     2.1580    -1.5610 
  152.0000    70.7870    14.6570    12.7810    12.9810    24.6250     2.1550    -1.3620 
  152.1250    70.6960    15.7170    13.6450    13.1310    24.6160     2.1580    -1.1560 
  152.2500    68.7720    16.4560    14.2720    13.1170    24.5950     2.1620    -0.9100 
  152.3750    67.3420    16.8560    14.6400    12.9080    24.5770     2.1610    -0.6900 
  152.5000    68.8140    17.0070    14.8040    12.7970    24.6310     2.1530    -0.5250 
  152.6250    70.1610    17.0600    14.8570    12.9490    24.7100     2.1400    -0.4410 
  152.7500    68.7450    17.1850    14.9180    13.3070    24.7670     2.1280    -0.3400 
  152.8750    65.4690    17.4540    15.0450    13.9110    24.7770     2.1240    -0.2010 
  153.0000    62.4530    17.8480    15.2530    14.6600    24.7760     2.1280    -0.0540 
  153.1250    62.3150    18.2590    15.5140    15.1650    24.7580     2.1380     0.0740 
  153.2500    64.9170    18.5700    15.7700    15.2380    24.7370     2.1490     0.1820 
  153.3750    66.8340    18.7430    15.9930    15.2790    24.7130     2.1570     0.3030 
  153.5000    65.3650    18.8010    16.1880    15.2090    24.6820     2.1620     0.4290 
  153.6250    63.8210    18.8100    16.3900    15.1200    24.6720     2.1660     0.6200 
  153.7500    64.5060    18.8660    16.6430    15.6810    24.7050     2.1680     0.8360 
  153.8750    65.4450    19.1070    17.0160    17.0760    24.7540     2.1620     1.0270 
  154.0000    64.6360    19.7740    17.6580    18.7770    24.7820     2.1470     1.2210 
  154.1250    63.7600    21.1870    18.8260    19.8000    24.7910     2.1300     1.4290 
  154.2500    64.0670    22.9740    20.3460    20.2100    24.7970     2.1350     1.6060 
  154.3750    63.7260    24.2640    21.6170    20.9370    24.7830     2.1810     1.7240 
  154.5000    62.5750    23.8620    21.6240    23.8010    24.7140     2.2660     1.7990 
  154.6250    65.3840    20.8450    19.3490    30.4190    24.6540     2.3600     1.8180 
  154.7500    73.0840    16.6010    15.8190    28.4180    24.6800     2.4210     1.7820 
  154.8750    81.7160    12.5720    12.2890    15.4340    24.7290     2.4310     1.7050 
  155.0000    87.4880     9.6170     9.5560     8.2200    24.7050     2.3990     1.5920 
  155.1250    89.9500     8.0310     7.9120     7.0290    24.5370     2.3570     1.4720 
  155.2500    89.4040     7.3390     7.0250     7.5930    24.2230     2.3340     1.4010 
  155.3750    86.2340     7.2470     6.7120     7.6090    24.0560     2.3340     1.3750 
  155.5000    83.0940     7.4720     6.7870     6.9190    24.0190     2.3510     1.3840 
  155.6250    83.6640     7.7310     7.0420     6.8010    24.0230     2.3660     1.4010 
  155.7500    84.8050     7.8690     7.2690     7.4910    24.0440     2.3660     1.4010 
  155.8750    83.2220     7.9570     7.4600     9.3510    24.1580     2.3440     1.4130 
  156.0000    79.5940     8.2360     7.7670    12.0010    24.3970     2.3070     1.4290 
  156.1250    77.3770     9.1910     8.5490    10.1920    24.7300     2.2790     1.3920 
  156.2500    75.9460    11.0580    10.0410    10.0400    24.7930     2.2820     1.2660 
  156.3750    71.0190    13.8580    12.3690    14.2180    24.7700     2.3190     1.0890 
  156.5000    61.4810    17.0820    15.2450    29.6730    24.7590     2.3730     0.8900 
  156.6250    54.0210    19.1270    17.2940    43.3720    24.7160     2.4110     0.6590 
  156.7500    55.0660    18.7510    17.1810    36.9320    24.5690     2.4140     0.4460 
  156.8750    63.1120    16.1610    15.0500    21.7030    24.3510     2.3870     0.2580 
  157.0000    72.4060    12.8090    12.2220    11.8600    24.2090     2.3480     0.0750 
  157.1250    79.9540    10.2210     9.9500     9.1520    24.1430     2.3210    -0.1100 
