~V
VERS. 2.00: Ver 2.00
~W
STRT.M 50.0000:
STOP.M 216.0000:
STEP.M 0.1250:
NULL. -999.2500:
UWI. F10015:
~C
DEPT.M :
GR.API :
RML.OHMM :
RI. :
RXO.OHMM :
CALI.CM :
DEN.GM/CC :
SP.MV :
~A
# ...
  140.0000    51.2520    23.9510    22.5550    23.1810    24.5620     2.5430    -7.7790 
  140.1250    53.1770    22.9220    21.5390    22.8240    24.5620     2.5590    -7.9890 
  140.2500    54.0050    21.3820    20.0100    20.4050    24.5620     2.5640    -8.2040 
  140.3750    53.1360    19.6310    18.2940    17.5250    24.5620     2.5570    -8.3910 
  140.5000    51.4260    18.0800    16.7680    15.5810    24.5620     2.5430    -8.5330 
  140.6250    50.2920    16.8860    15.5600    13.9850    24.5590     2.5250    -8.6450 
  140.7500    50.4680    16.1850    14.7970    13.0590    24.5460     2.5070    -8.7310 
  140.8750    51.8310    16.0110    14.5230    13.0530    24.5230     2.4890    -8.7960 
  141.0000    53.2200    16.2180    14.6300    13.1700    24.5010     2.4730    -8.8500 
  141.1250    53.6460    16.8700    15.2050    13.5170    24.4950     2.4690    -8.8540 
  141.2500    52.6370    17.7310    15.9960    14.5770    24.4940     2.4710    -8.8250 
  141.3750    51.2300    18.7240    16.9220    15.5030    24.4940     2.4770    -8.7500 
  141.5000    50.3220    19.7010    17.8460    16.2420    24.4940     2.4820    -8.6640 
  141.6250    50.3170    20.4530    18.5740    16.8930    24.4940     2.4810    -8.6050 
  141.7500    50.7840    20.7080    18.8590    17.0620    24.4940     2.4710    -8.5630 
  141.8750    51.8790    20.2870    18.5230    17.0460    24.4830     2.4580    -8.5210 
  142.0000    53.8930    19.3570    17.7010    16.5420    24.4440     2.4490    -8.4530 
  142.1250    57.2570    18.2270    16.6730    15.5590    24.3960     2.4430    -8.3840 
  142.2500    60.7750    17.1870    15.6930    14.6390    24.3590     2.4430    -8.3140 
  142.3750    62.6620    16.4690    14.9630    14.1220    24.3460     2.4490    -8.2480 
  142.5000    61.5950    16.2160    14.6080    13.4180    24.3440     2.4600    -8.2150 
  142.6250    58.7040    16.9220    15.0410    13.5540    24.3420     2.4740    -8.1140 
  142.7500    56.5910    18.2720    16.0280    14.6330    24.3410     2.4830    -8.0250 
  142.8750    54.7790    20.1950    17.5680    16.6280    24.3390     2.4820    -7.9360 
  143.0000    53.3750    22.3460    19.4110    18.9360    24.3310     2.4700    -7.8330 
  143.1250    52.7940    24.1700    21.1030    20.8520    24.3090     2.4490    -7.7200 
  143.2500    53.4920    24.9550    22.0350    22.0340    24.2660     2.4250    -7.6340 
  143.3750    53.2090    24.2280    21.6680    21.3050    24.1860     2.4120    -7.5520 
  143.5000    52.2760    22.5170    20.3560    18.7470    24.0340     2.4190    -7.4870 
  143.6250    51.9890    20.5570    18.7230    16.1050    23.8500     2.4390    -7.4650 
  143.7500    52.8530    18.9310    17.2620    14.3960    23.6810     2.4630    -7.4970 
  143.8750    54.5370    17.9720    16.2690    13.8960    23.5600     2.4830    -7.5640 
  144.0000    55.8350    17.6680    15.7890    14.1170    23.4710     2.4910    -7.6090 
  144.1250    56.3750    18.1170    15.9960    15.0240    23.2930     2.4760    -7.7020 
  144.2500    56.1250    18.8020    16.4860    16.4560    23.1190     2.4500    -7.7210 
  144.3750    55.2730    19.5760    17.1470    17.4190    23.0270     2.4190    -7.7220 
  144.5000    53.8090    20.3430    17.8710    17.4240    22.9810     2.3910    -7.7190 
  144.6250    52.2350    21.0670    18.5890    16.8000    22.8550     2.3720    -7.7070 
  144.7500    52.2700    21.7760    19.2950    17.0080    22.4570     2.3690    -7.6960 
  144.8750    55.5610    22.5060    20.0110    16.5330    21.7180     2.3770    -7.6560 
  145.0000    58.6430    23.1470    20.6510    15.4720    20.9450     2.3880    -7.6820 
  145.1250    59.3520    23.5430    21.0830    15.0060    20.3310     2.3990    -7.7490 
  145.2500    57.1910    23.4800    21.1100    15.1130    19.8690     2.4120    -7.8540 
  145.3750    53.2380    22.8420    20.6200    15.0170    19.4670     2.4260    -7.9910 
  145.5000    50.0620    21.7840    19.7340    13.6190    19.0670     2.4420    -8.1360 
  145.6250    50.7660    20.6650    18.7350    12.3840    19.0010     2.4560    -8.3120 
  145.7500    52.3800    19.9010    17.9930    12.3300    19.2120     2.4660    -8.4390 
  145.8750    52.1620    19.7040    17.7000    13.0450    19.7620     2.4750    -8.5390 
  146.0000    50.1300    20.0260    17.8500    14.5140    20.5730     2.4850    -8.6060 
  146.1250    48.1600    20.6750    18.3350    16.5640    21.4740     2.4960    -8.6360 
  146.2500    49.0860    21.4360    19.0320    18.3200    22.2380     2.5060    -8.6610 
  146.3750    51.5840    21.9610    19.6380    18.2240    22.6650     2.5080    -8.7110 
  146.5000    52.2900    22.1550    19.9880    18.7500    23.0070     2.4940    -8.6740 
  146.6250    51.8310    22.1090    20.1150    19.5890    23.3270     2.4700    -8.6210 
  146.7500    50.8800    21.8890    20.0470    20.1660    23.6110     2.4460    -8.5790 
  146.8750    49.9760    21.5640    19.8370    19.9760    23.8130     2.4300    -8.5500 
  147.0000    49.3380    21.2400    19.5900    18.9250    23.9040     2.4280    -8.5240 
  147.1250    49.7350    21.0820    19.4360    18.2010    23.9250     2.4430    -8.4540 
  147.2500    50.1810    21.1050    19.4080    17.8930    23.9640     2.4590    -8.3760 
  147.3750    49.7130    21.2800    19.4980    18.3180    24.0070     2.4720    -8.3050 
  147.5000    48.9480    21.4700    19.6070    19.0620    24.0420     2.4830    -8.2380 
  147.6250    48.9790    21.4790    19.5860    19.4910    24.0640     2.4920    -8.1500 
  147.7500    50.2690    21.1040    19.2650    19.2640    24.0910     2.5020    -7.9900 
  147.8750    50.6250    20.4410    18.6910    18.6590    24.1150     2.5090    -7.8450 
  148.0000    51.1340    19.8910    18.1630    16.9590    24.1240     2.5090    -7.6950 
  148.1250    52.1160    19.6480    17.8440    15.8370    24.1260     2.5050    -7.5430 
  148.2500    53.0170    19.8320    17.8540    16.1070    24.1260     2.4980    -7.3790 
  148.3750    53.1630    20.4160    18.2110    17.7450    24.1260     2.4920    -7.2010 
  148.5000    52.5280    21.1570    18.7660    19.9170    24.1260     2.4890    -7.0300 
  148.6250    51.7350    21.6920    19.2960    19.6790    24.1260     2.4900    -6.9130 
  148.7500    51.7160    22.0270    19.7020    18.7390    24.1260     2.4910    -6.8150 
  148.8750    51.2330    22.3150    20.0470    18.3940    24.1260     2.4900    -6.7380 
  149.0000    50.1470    22.6850    20.4150    18.7140    24.1260     2.4860    -6.6900 
  149.1250    49.5660    23.1900    20.8540    19.5800    24.1260     2.4800    -6.6740 
  149.2500    51.9950    23.7420    21.3210    21.7200    24.1260     2.4760    -6.6910 
  149.3750    54.4260    23.9510    21.5360    25.8450    24.1250     2.4730    -6.7400 
  149.5000    54.5940    23.5900    21.2860    25.7210    24.1200     2.4710    -6.7940 
  149.6250    54.3720    22.8890    20.7290    22.1320    24.1080     2.4720    -6.8590 
  149.7500    53.8750    22.1450    20.0810    18.3750    24.0880     2.4760    -6.9340 
  149.8750    52.8350    21.6300    19.5560    17.2370    24.0660     2.4840    -7.0040 
  150.0000    51.9700    21.5070    19.3140    17.9670    24.0540     2.4950    -7.0250 
  150.1250    53.4280    21.9260    19.5400    19.5190    24.0570     2.5000    -7.0340 
  150.2500    54.7060    22.4500    19.9110    20.9550    24.0900     2.4990    -7.0360 
  150.3750    55.2540    22.8670    20.2560    21.8370    24.1820     2.4950    -7.0230 
  150.5000    54.7800    23.0920    20.4770    21.9140    24.3010     2.4920    -7.0100 
  150.6250    53.0260    23.1200    20.5330    21.1370    24.3930     2.4930    -7.0050 
  150.7500    49.5530    22.9820    20.4250    19.6780    24.4170     2.4980    -6.9880 
  150.8750    48.1290    22.7550    20.2090    18.6660    24.4170     2.5020    -6.9950 
  151.0000    48.9460    22.4590    19.9170    18.4850    24.4170     2.5010    -7.0320 
  151.1250    49.4360    22.1180    19.5790    18.3780    24.4170     2.4960    -7.0790 
