~V
VERS. 2.00: Ver 2.00
~W
STRT.M 55.0000:
STOP.M 181.0000:
STEP.M 0.1250:
NULL. -999.2500:
UWI. F10008:
~C
DEPT.M :
SP.MV :
GR.API :
RML.OHMM :
RI. :
RXO.OHMM :
CALI.CM :
DEN.GM/CC :
~A
# ...
  156.2500     0.0410    72.5780    13.4670    11.4690    10.4760    24.0550     2.3680 
  156.3750     0.1190    74.1030    13.2720    11.4070    10.4730    24.0040     2.3350 
  156.5000     0.1580    73.1040    13.0860    11.3260    10.9420    23.9580     2.3130 
  156.6250     0.1650    72.9540    12.9960    11.2420    12.4640    23.9320     2.2990 
  156.7500     0.1080    73.5800    13.0270    11.1860    14.0280    23.9330     2.2920 
  156.8750     0.0150    73.0190    13.1350    11.1620    15.1460    23.9780     2.2940 
  157.0000    -0.1040    70.2530    13.1990    11.1300    14.7980    24.0440     2.3070 
  157.1250    -0.2250    67.8490    13.0510    10.9900    14.8860    24.0690     2.3270 
  157.2500    -0.2350    66.9880    12.6900    10.7120    12.5130    24.0800     2.3470 
  157.3750    -0.2450    66.1590    12.2200    10.3360    10.4380    24.0660     2.3600 
  157.5000    -0.3450    64.8650    11.8260     9.9810     9.3060    24.0160     2.3680 
  157.6250    -0.5420    64.3250    11.7820     9.8410     9.4070    23.9630     2.3750 
  157.7500    -0.7480    64.5780    12.1300     9.9740    10.4020    23.9640     2.3850 
  157.8750    -0.9650    64.3140    12.7470    10.3320    13.1860    23.9970     2.4010 
  158.0000    -1.1910    64.2130    13.3530    10.7520    18.7350    24.0310     2.4210 
  158.1250    -1.3540    66.3160    13.5460    10.9500    27.6910    24.0420     2.4420 
  158.2500    -1.5410    68.7940    13.2140    10.7940    30.1530    24.0130     2.4540 
  158.3750    -1.7070    68.8230    12.4930    10.3450    24.0990    24.0270     2.4510 
  158.5000    -1.8020    66.7360    11.7080     9.8140    14.2790    24.0420     2.4330 
  158.6250    -1.8170    65.6860    11.2690     9.4690     9.8940    24.0330     2.4080 
  158.7500    -1.7690    66.4660    11.3030     9.4150     8.5220    23.9820     2.3890 
  158.8750    -1.6600    67.0030    11.7880     9.6710     8.2380    23.9490     2.3820 
  159.0000    -1.5470    66.2310    12.5520    10.1740     8.9330    23.9270     2.3880 
  159.1250    -1.5360    65.2740    13.2710    10.7670    10.0780    23.9140     2.3990 
  159.2500    -1.5810    65.5240    13.6750    11.2350    11.7390    23.9270     2.4060 
  159.3750    -1.6310    66.9120    13.7020    11.4720    13.2120    23.9360     2.4060 
  159.5000    -1.6950    68.6150    13.4400    11.4730    13.9940    23.8960     2.3970 
  159.6250    -1.7760    70.2810    13.0220    11.2670    11.6910    23.8700     2.3790 
  159.7500    -1.8530    70.4370    12.5840    10.9450     9.5700    23.8170     2.3540 
  159.8750    -1.9500    69.8140    12.1680    10.5570     8.5980    23.7470     2.3260 
  160.0000    -1.9840    69.9660    11.7950    10.1510     8.1080    23.7070     2.3000 
  160.1250    -1.8810    70.6410    11.4930     9.7810     8.1970    23.7110     2.2820 
  160.2500    -1.6880    69.9470    11.2700     9.4880     8.5220    23.7330     2.2720 
  160.3750    -1.4800    67.7150    11.1480     9.3140     8.8530    23.7510     2.2730 
  160.5000    -1.3120    66.6660    11.1380     9.2870     9.6430    23.7470     2.2830 
  160.6250    -1.1600    67.9870    11.2340     9.4190    10.2240    23.6720     2.3030 
  160.7500    -0.9900    69.1640    11.3850     9.6320     9.9320    23.5000     2.3270 
  160.8750    -0.8150    70.4440    11.5900     9.8800     9.8370    23.2500     2.3520 
  161.0000    -0.7420    72.1160    11.8850    10.1470    10.4610    23.0440     2.3740 
  161.1250    -0.7920    72.2910    12.3210    10.4630    11.4080    23.0420     2.3860 
  161.2500    -0.8890    70.7340    12.8720    10.8600    12.2410    23.2550     2.3860 
  161.3750    -1.0020    69.9560    13.4860    11.3440    12.6670    23.5270     2.3780 
  161.5000    -1.0170    70.3260    14.0990    11.8860    13.2170    23.6880     2.3680 
  161.6250    -0.8940    69.7500    14.6730    12.4260    14.5120    23.7770     2.3640 
  161.7500    -0.7520    69.4150    15.1850    12.9000    16.9880    23.8880     2.3690 
  161.8750    -0.6190    70.5680    15.5440    13.2100    19.5250    23.9910     2.3810 
  162.0000    -0.4730    70.9180    15.5910    13.2250    22.0620    24.0600     2.3960 
  162.1250    -0.2970    69.4410    15.1150    12.7920    22.5390    23.9630     2.4100 
  162.2500    -0.1780    69.0350    14.2430    12.0450    17.7280    23.8790     2.4180 
  162.3750    -0.1040    70.0110    13.2170    11.1810    13.7100    23.8870     2.4140 
  162.5000    -0.0770    71.5860    12.3600    10.4320    12.4870    23.9150     2.3960 
  162.6250    -0.1540    72.5910    12.0070    10.0410    15.3130    23.9090     2.3730 
  162.7500    -0.2620    72.5040    12.1390    10.0290    17.9180    23.8910     2.3590 
  162.8750    -0.2930    72.3260    12.6560    10.3770    15.8300    23.8950     2.3570 
  163.0000    -0.2310    73.7130    13.4190    11.0140    11.8600    23.9380     2.3700 
  163.1250    -0.1630    75.0700    14.3500    11.8710    10.5090    23.9830     2.3920 
  163.2500    -0.0640    74.1440    15.4030    12.8430    12.5630    24.0100     2.4190 
  163.3750     0.1060    72.6830    16.5490    13.8850    17.1300    24.0710     2.4470 
  163.5000     0.3330    73.3790    17.6950    14.9380    21.1660    24.1760     2.4730 
  163.6250     0.5660    75.2090    18.6190    15.8600    25.0620    24.2400     2.4930 
  163.7500     0.7250    74.4990    19.1590    16.5250    33.0830    24.2250     2.5060 
  163.8750     0.7990    72.0260    19.2540    16.8410    37.2640    24.1430     2.5080 
  164.0000     0.8290    70.9960    18.9730    16.7980    33.9740    24.0690     2.4980 
  164.1250     0.8280    72.3010    18.4420    16.4250    30.9360    24.0070     2.4710 
  164.2500     0.8130    72.4030    17.8150    15.8650    24.4400    23.9350     2.4370 
  164.3750     0.7220    70.4520    17.1200    15.1880    19.0290    23.8890     2.4050 
  164.5000     0.4800    68.1410    16.3380    14.4460    16.3280    23.9090     2.3870 
  164.6250     0.1410    67.3390    15.4220    13.6840    15.9350    24.0020     2.3910 
  164.7500    -0.2210    68.8290    14.4590    12.9590    14.4120    24.0180     2.4040 
  164.8750    -0.6290    72.5170    13.5840    12.3280    13.0250    23.9870     2.4150 
  165.0000    -1.1040    75.8010    12.9160    11.8350    12.4370    23.9200     2.4130 
  165.1250    -1.5980    76.9430    12.5450    11.5260    12.5610    23.8810     2.3930 
  165.2500    -2.0880    77.4900    12.4120    11.3810    11.5310    23.8740     2.3670 
  165.3750    -2.5330    78.7300    12.4900    11.4060    10.9040    23.8600     2.3470 
  165.5000    -2.8360    79.2620    12.7350    11.5890    11.1190    23.8420     2.3460 
  165.6250    -2.9840    75.9480    13.0530    11.8660    10.4340    23.8160     2.3670 
  165.7500    -3.0080    71.5710    13.2820    12.0870     9.9310    23.8160     2.3930 
  165.8750    -2.8850    69.9710    13.2600    12.0970    12.6600    23.8320     2.4060 
  166.0000    -2.6080    71.9050    12.8610    11.7810    19.1860    23.8980     2.3970 
  166.1250    -2.2690    73.5580    12.0760    11.1350    23.0790    23.9190     2.3680 
  166.2500    -1.9570    72.6790    11.2520    10.4460    12.8960    23.9170     2.3370 
  166.3750    -1.6600    71.2170    10.7350     9.9710     9.0180    23.9430     2.3190 
  166.5000    -1.3460    71.3930    10.7970     9.9050     9.3110    23.9890     2.3190 
  166.6250    -0.9920    72.1090    11.6610    10.4410    12.4990    24.0130     2.3380 
  166.7500    -0.7080    72.5200    13.0500    11.4560    17.5100    24.0060     2.3680 
  166.8750    -0.5600    73.5460    14.6060    12.7580    20.8160    23.9750     2.4020 
  167.0000    -0.5200    75.8410    15.9270    14.0380    22.3990    23.9550     2.4320 
  167.1250    -0.4900    76.4200    16.7020    14.9440    24.2040    23.9550     2.4430 
  167.2500    -0.4430    74.0780    17.1210    15.4680    22.7960    23.9700     2.4360 
  167.3750    -0.4160    71.0150    17.4260    15.7550    18.9180    23.9490     2.4180 
