~V
VERS. 2.00: Ver 2.00
~W
STRT.M 55.0000:
STOP.M 181.0000:
STEP.M 0.1250:
NULL. -999.2500:
UWI. F10008:
~C
DEPT.M :
SP.MV :
GR.API :
RML.OHMM :
RI. :
RXO.OHMM :
CALI.CM :
DEN.GM/CC :
~A
# ...
   88.7500    -1.3320    77.6810     8.4900     7.9890    12.8440    24.5480     2.3870 
   88.8750    -1.3840    77.0290     8.9440     8.3130    14.6500    24.3280     2.4260 
   89.0000    -1.4260    78.5970    10.2110     9.1560    12.6550    24.2980     2.4370 
   89.1250    -1.5690    78.8340    13.1520    11.1420    14.8280    24.3100     2.4040 
   89.2500    -1.7920    74.2010    17.8500    14.5780    24.8010    24.3010     2.3420 
   89.3750    -2.0460    66.6150    23.9430    19.5230    41.8830    24.2530     2.2720 
   89.5000    -2.2790    60.7480    30.0230    25.0940    51.4540    24.1790     2.2120 
   89.6250    -2.4520    59.6110    33.0960    28.7300    48.7790    24.1370     2.1760 
   89.7500    -2.6520    59.9520    32.4840    29.2570    42.2910    24.1230     2.1560 
   89.8750    -2.8820    60.3320    29.8780    27.7120    36.7780    24.1360     2.1470 
   90.0000    -3.1320    61.3140    27.7390    26.0000    31.3880    24.1770     2.1420 
   90.1250    -3.2480    62.6250    28.1140    25.8470    28.2890    24.2500     2.1390 
   90.2500    -3.3000    60.9770    31.2370    27.8250    31.8510    24.2650     2.1370 
   90.3750    -3.4120    56.9560    37.1760    32.3430    44.4080    24.2810     2.1360 
   90.5000    -3.6020    54.3760    45.6590    39.5010    65.4090    24.3660     2.1300 
   90.6250    -3.7810    53.9340    55.7980    48.7790    78.2800    24.5190     2.1190 
   90.7500    -3.8800    53.4530    65.3390    57.9790    83.8520    24.6610     2.1030 
   90.8750    -3.9040    52.2890    72.3100    65.1490    85.4290    24.6920     2.0870 
   91.0000    -3.8770    51.1450    75.2610    68.8360    83.9970    24.6230     2.0730 
   91.1250    -3.8850    51.6920    72.7160    67.5410    84.3250    24.5960     2.0670 
   91.2500    -3.9240    52.4590    65.8730    62.1060    80.7710    24.5900     2.0660 
   91.3750    -3.9270    52.3920    56.3130    53.7510    70.5930    24.6650     2.0700 
   91.5000    -3.8700    52.6800    46.3380    44.5360    52.5090    24.7670     2.0740 
   91.6250    -3.8060    57.2570    38.4180    36.8690    34.2360    24.6960     2.0790 
   91.7500    -3.7460    63.3960    33.2050    31.5850    27.9430    24.3920     2.0860 
   91.8750    -3.6710    66.0130    30.7120    28.7260    27.0210    24.2170     2.0940 
   92.0000    -3.6490    64.6770    30.6460    28.0320    29.4050    24.1960     2.1020 
   92.1250    -3.7140    62.1820    32.7860    29.4220    32.3720    24.2650     2.1070 
   92.2500    -3.8200    60.5130    36.0800    32.1050    36.4300    24.3030     2.1070 
   92.3750    -3.9560    59.2780    39.7760    35.4920    41.1660    24.3150     2.1020 
   92.5000    -4.0780    58.5730    43.2970    39.0010    45.2070    24.2940     2.0940 
   92.6250    -4.1790    59.6900    46.2290    42.1540    47.9920    24.2130     2.0880 
   92.7500    -4.3500    62.0310    48.3960    44.6930    49.3300    24.0910     2.0890 
   92.8750    -4.5870    64.0370    49.4520    46.2590    51.6450    24.0200     2.0970 
   93.0000    -4.7830    64.1050    49.0180    46.4240    56.9310    24.0000     2.1110 
   93.1250    -4.9110    64.4890    46.7460    44.6960    58.2830    24.0000     2.1230 
   93.2500    -4.9950    65.5270    43.4440    41.7400    50.5650    24.0000     2.1350 
   93.3750    -5.0490    64.9810    40.0080    38.3800    42.3420    23.9900     2.1480 
   93.5000    -5.1390    62.1070    37.2500    35.4540    38.6820    23.9560     2.1680 
   93.6250    -5.2010    59.3240    35.8540    33.7010    38.2040    23.8910     2.1900 
   93.7500    -5.1460    58.9390    35.6790    33.1000    36.9480    23.8650     2.2040 
   93.8750    -5.0350    60.6680    36.4240    33.4670    38.5500    23.8760     2.2040 
   94.0000    -4.9110    62.6140    37.5460    34.4100    39.8280    23.8960     2.1880 
   94.1250    -4.7750    62.3430    38.3490    35.4040    39.6360    23.8840     2.1640 
   94.2500    -4.6390    61.0180    38.5580    36.0640    39.8980    23.8500     2.1430 
   94.3750    -4.5330    61.7460    38.2790    36.3060    39.4460    23.7870     2.1290 
   94.5000    -4.4210    64.8380    37.8210    36.2510    37.2710    23.7210     2.1200 
   94.6250    -4.3120    65.5250    37.6030    36.1870    35.0450    23.6480     2.1160 
   94.7500    -4.2460    62.3590    37.8350    36.4250    34.1580    23.5720     2.1170 
   94.8750    -4.2160    58.0780    38.5630    37.1300    34.7260    23.4950     2.1220 
   95.0000    -4.2190    56.4720    39.6550    38.2710    36.2900    23.4270     2.1270 
   95.1250    -4.2760    58.4830    40.5710    39.3950    37.8750    23.3820     2.1270 
   95.2500    -4.3400    59.3750    40.4860    39.6660    38.8020    23.3670     2.1180 
   95.3750    -4.3180    58.7170    38.7590    38.4060    39.5710    23.3800     2.1020 
   95.5000    -4.2600    58.8790    35.3470    35.5170    38.6970    23.4370     2.0860 
   95.6250    -4.2760    61.0190    30.9930    31.6410    33.4110    23.5690     2.0780 
   95.7500    -4.3300    61.9290    27.0620    28.0250    26.6520    23.7580     2.0810 
   95.8750    -4.3690    60.9840    24.3550    25.3500    21.9380    23.9140     2.0910 
   96.0000    -4.3670    61.6780    23.1910    23.8930    21.0190    23.9470     2.1020 
   96.1250    -4.3030    65.9470    23.6590    23.8070    22.5590    23.8100     2.1090 
   96.2500    -4.2500    70.1080    25.0230    24.6400    25.6290    23.6090     2.1100 
   96.3750    -4.3020    70.1870    26.6730    26.0040    28.3610    23.5320     2.1080 
   96.5000    -4.4010    66.7210    28.0580    27.4310    30.0480    23.7150     2.1060 
   96.6250    -4.4240    64.5560    28.8360    28.4700    30.9070    23.9460     2.1050 
   96.7500    -4.4110    64.4450    29.2410    29.1050    31.1650    24.0870     2.1070 
   96.8750    -4.4480    63.1140    29.5350    29.4950    31.1750    24.1310     2.1130 
   97.0000    -4.5820    61.1190    29.9200    29.8410    31.6910    24.0550     2.1180 
   97.1250    -4.7800    61.9390    30.5380    30.3050    33.7900    23.9700     2.1170 
   97.2500    -4.9410    64.5520    31.3440    30.8910    35.6950    23.9680     2.1090 
   97.3750    -5.0320    65.3170    32.2670    31.5220    37.4810    24.0580     2.1000 
   97.5000    -5.0520    64.0770    33.2050    32.1080    41.1120    24.2480     2.0940 
   97.6250    -5.0600    63.7060    34.0160    32.5550    45.8490    24.4090     2.0920 
   97.7500    -5.1060    62.8130    34.6420    32.8660    47.0670    24.5310     2.0900 
   97.8750    -5.1460    61.1500    35.1300    33.0920    41.9410    24.5710     2.0880 
   98.0000    -5.1790    60.8400    35.6310    33.3360    37.9730    24.5760     2.0860 
   98.1250    -5.2380    61.7470    36.3490    33.7360    36.8970    24.6470     2.0870 
   98.2500    -5.3340    61.0640    37.3310    34.3320    37.0720    24.7730     2.0910 
   98.3750    -5.4090    60.1000    38.5160    35.0880    37.3460    24.7340     2.0960 
   98.5000    -5.4750    63.0590    39.6980    35.8720    38.1920    24.2240     2.0990 
   98.6250    -5.5670    68.1550    40.5380    36.4500    39.5120    23.7010     2.1030 
   98.7500    -5.6590    69.3890    40.9290    36.7340    40.0590    23.3640     2.1070 
   98.8750    -5.7170    66.7620    40.9380    36.7470    40.3640    23.3100     2.1130 
   99.0000    -5.6700    64.1090    40.7460    36.5990    39.8410    23.4710     2.1170 
   99.1250    -5.5150    63.1110    40.6620    36.5010    39.2890    23.6950     2.1170 
   99.2500    -5.3610    62.1860    40.9900    36.6840    39.5540    23.8290     2.1090 
   99.3750    -5.2620    62.9420    41.8910    37.3040    40.6150    23.9220     2.0950 
   99.5000    -5.2130    65.7970    43.3810    38.4110    41.5100    24.0970     2.0850 
   99.6250    -5.1460    66.4870    45.3730    39.9650    42.1180    24.3210     2.1050 
   99.7500    -5.0220    63.9810    47.4670    41.6580    44.4050    24.3820     2.1610 
   99.8750    -4.8670    60.4910    49.2840    43.2060    48.9280    24.2910     2.2400 
