~V
VERS. 2.00: Ver 2.00
~W
STRT.M 57.0000:
STOP.M 257.0000:
STEP.M 0.1250:
NULL. -999.2500:
UWI. F10004:
~C
DEPT.M :
GR.API :
RML.OHMM :
RI. :
RXO.OHMM :
CALI.CM :
DEN.GM/CC :
SP.MV :
~A
# ...
  158.2500    53.2860    51.9240    49.5450    39.4170    23.8310     2.4290     0.2940 
  158.3750    52.6680    54.0870    51.3540    45.2370    23.4460     2.4710     0.4000 
  158.5000    52.7520    55.4940    52.6400    48.8740    23.1350     2.5090     0.4540 
  158.6250    53.0770    55.4700    52.7600    45.8800    23.2550     2.5370     0.4540 
  158.7500    53.3010    54.4590    52.0040    42.8000    23.5430     2.5630     0.4040 
  158.8750    53.2350    53.1590    50.9360    41.7900    23.7540     2.5930     0.3320 
  159.0000    52.6250    52.3060    50.2100    46.2880    23.8790     2.6250     0.2510 
  159.1250    51.7840    52.5350    50.4720    58.9470    23.8840     2.6540     0.1770 
  159.2500    51.0100    53.7080    51.6940    65.8090    23.8500     2.6730     0.1150 
  159.3750    49.9870    55.5480    53.6510    64.5950    23.8410     2.6800     0.0860 
  159.5000    48.5670    57.6160    55.9160    65.2130    23.8630     2.6780     0.0840 
  159.6250    47.8760    59.0160    57.6340    61.3800    23.8890     2.6750     0.1030 
  159.7500    48.9670    58.6880    57.7700    58.6000    23.9650     2.6790     0.1310 
  159.8750    50.6900    55.7410    55.4240    59.9390    23.9850     2.6890     0.1600 
  160.0000    52.2110    50.0920    50.4310    57.7710    23.9920     2.6930     0.1910 
  160.1250    54.8420    42.7330    43.5920    40.0780    23.6640     2.6750     0.2210 
  160.2500    57.4000    35.6890    36.7930    25.3570    23.4480     2.6340     0.2330 
  160.3750    57.5010    30.0620    31.0980    19.8630    23.3880     2.5870     0.2080 
  160.5000    54.0730    26.1850    26.9030    23.7360    23.6360     2.5580     0.1650 
  160.6250    51.9670    23.9060    24.1890    28.2940    24.0320     2.5690     0.0940 
  160.7500    54.4430    22.3110    22.2250    24.6110    24.2150     2.6000     0.0200 
  160.8750    59.7710    20.8970    20.5940    19.1320    24.2070     2.6210    -0.0400 
  161.0000    64.5400    19.4470    19.0840    19.9570    24.0950     2.6110    -0.1060 
  161.1250    68.0010    18.1170    17.8010    17.5800    23.9690     2.5680    -0.1830 
  161.2500    70.8190    17.2550    16.9800    15.8370    23.8910     2.5260    -0.2660 
  161.3750    70.7690    17.1570    16.8390    16.6460    23.8400     2.5080    -0.3440 
  161.5000    65.6510    17.9530    17.4880    20.1630    23.8040     2.5200    -0.4130 
  161.6250    58.6700    19.6980    19.0410    22.9310    23.7850     2.5490    -0.4630 
  161.7500    55.0360    21.9960    21.2110    23.9870    23.7730     2.5700    -0.5060 
  161.8750    55.0190    24.5110    23.7210    24.3430    23.7800     2.5780    -0.5540 
  162.0000    55.5780    26.8600    26.1990    26.8430    23.8000     2.5760    -0.5860 
  162.1250    54.5420    28.5710    28.1200    30.5120    24.0730     2.5720    -0.6050 
  162.2500    54.1760    29.5650    29.2880    30.6880    24.4440     2.5730    -0.6090 
  162.3750    55.5990    29.9320    29.7350    27.9810    24.3190     2.5800    -0.6120 
  162.5000    57.2350    29.9240    29.6900    26.5440    23.9410     2.5910    -0.6310 
  162.6250    57.8850    29.8390    29.4260    28.5300    23.6020     2.6030    -0.6530 
  162.7500    57.9360    29.8400    29.1650    30.0440    23.5400     2.6120    -0.6720 
  162.8750    58.5100    29.8760    28.9340    29.2060    23.5280     2.6130    -0.7000 
  163.0000    58.7430    29.7920    28.6550    30.9500    23.5350     2.6060    -0.7620 
  163.1250    57.2150    29.3910    28.1780    29.0630    23.5140     2.5940    -0.8280 
  163.2500    54.6360    28.7340    27.5100    24.2210    23.4340     2.5830    -0.8850 
  163.3750    52.6700    27.9830    26.7550    21.4650    23.3210     2.5740    -0.9240 
  163.5000    52.6870    27.3420    26.0750    21.9140    23.2250     2.5640    -0.9290 
  163.6250    53.9040    26.9990    25.6580    22.4160    23.2130     2.5510    -0.9190 
  163.7500    56.1720    26.9350    25.5120    22.4590    23.2940     2.5380    -0.8990 
  163.8750    59.5280    27.0950    25.5940    22.0910    23.4480     2.5320    -0.8750 
  164.0000    62.1230    27.3850    25.8190    21.4680    23.5290     2.5380    -0.8450 
  164.1250    61.1230    27.6810    26.0670    22.0380    23.4820     2.5540    -0.8250 
  164.2500    58.3790    27.8430    26.2040    24.2080    23.3940     2.5630    -0.8160 
  164.3750    57.7600    27.7860    26.1560    25.6240    23.4180     2.5580    -0.8160 
  164.5000    59.7900    27.5090    25.9220    25.6530    23.5690     2.5400    -0.8350 
  164.6250    60.5760    27.1560    25.6260    25.8490    23.7490     2.5240    -0.8600 
  164.7500    59.6240    26.9990    25.5080    25.5520    23.9400     2.5180    -0.9070 
  164.8750    58.3350    27.2570    25.7580    26.1080    24.1360     2.5180    -0.9620 
  165.0000    56.6000    28.0590    26.4760    29.8670    24.2850     2.5110    -0.9900 
  165.1250    55.2290    29.4610    27.7350    32.1370    24.3190     2.4870    -0.9880 
  165.2500    56.7280    31.1850    29.3280    32.9020    24.3150     2.4580    -0.9820 
  165.3750    60.5140    32.9490    31.0170    33.1070    24.3550     2.4390    -0.9810 
  165.5000    62.3470    34.4140    32.4810    36.4710    24.3960     2.4430    -0.9860 
  165.6250    60.2340    35.0950    33.2480    40.1530    24.4180     2.4720    -1.0160 
  165.7500    58.3400    34.8980    33.1900    41.0650    24.3790     2.5080    -1.0390 
  165.8750    58.3660    33.9050    32.3610    36.1870    24.3460     2.5380    -1.0530 
  166.0000    57.8460    32.4530    31.0520    31.1380    24.3370     2.5600    -1.0920 
  166.1250    54.8740    31.1310    29.7540    26.9680    24.3440     2.5770    -1.1810 
  166.2500    54.5990    30.4230    28.9110    26.4830    24.3000     2.5940    -1.3010 
  166.3750    59.1490    30.5000    28.7280    28.9380    24.1990     2.6120    -1.4390 
  166.5000    64.0740    31.2200    29.1760    32.7590    24.1610     2.6250    -1.5950 
  166.6250    63.9060    32.1660    29.9900    37.0030    24.1630     2.6220    -1.7650 
  166.7500    60.9070    32.8340    30.6840    37.8110    24.1660     2.6040    -1.9530 
  166.8750    58.0640    33.0480    31.0060    32.4970    24.1760     2.5790    -2.1500 
  167.0000    55.6470    32.9340    30.9750    29.0200    24.1690     2.5630    -2.3420 
  167.1250    54.4340    32.9020    30.8950    28.5590    24.1340     2.5720    -2.5300 
  167.2500    54.4490    33.3110    31.1300    29.9850    24.0900     2.5980    -2.7060 
  167.3750    55.6110    34.2640    31.8330    31.8720    24.0730     2.6250    -2.8590 
  167.5000    58.5170    35.6140    32.9520    33.9050    24.0580     2.6350    -2.9910 
  167.6250    59.4000    37.0020    34.2410    34.6460    24.0420     2.6160    -3.0900 
  167.7500    56.4020    38.0520    35.3290    36.8240    23.9960     2.5800    -3.1600 
  167.8750    53.1990    38.5720    35.9960    38.1190    23.8850     2.5400    -3.2110 
  168.0000    53.1050    38.5260    36.1650    37.6090    23.7490     2.5080    -3.2370 
  168.1250    55.2660    37.9880    35.8500    36.9160    23.7530     2.4920    -3.2120 
  168.2500    56.0320    37.2960    35.3410    37.8250    23.8950     2.4870    -3.1400 
  168.3750    56.1240    36.7030    34.8590    35.3040    24.0210     2.4920    -3.0510 
  168.5000    57.1630    36.3950    34.5600    30.8490    24.0570     2.5060    -2.9400 
  168.6250    58.6870    36.4740    34.5320    29.0330    24.0040     2.5320    -2.8170 
  168.7500    58.0890    36.7410    34.6640    32.1790    23.9200     2.5660    -2.6910 
  168.8750    54.6030    36.9620    34.7980    35.2320    23.8610     2.6000    -2.5560 
  169.0000    51.8460    36.9020    34.7440    33.3190    23.8770     2.6240    -2.4050 
  169.1250    54.3910    36.3170    34.2720    30.7840    23.9720     2.6260    -2.2350 
  169.2500    58.7800    35.2700    33.3940    31.1590    24.0820     2.6080    -2.0520 
  169.3750    61.0590    33.9080    32.2090    32.1880    24.2010     2.5750    -1.8420 
