~V
VERS. 2.00: Ver 2.00
~W
STRT.M 51.0000:
STOP.M 262.0000:
STEP.M 0.1250:
NULL. -999.2500:
UWI. F10019:
~C
DEPT.M :
DEN.GM/CC :
SP.MV :
GR.API :
CALI.CM :
RXO.OHMM :
RI. :
RML.OHMM :
~A
# ...
   62.2500     1.9710   -71.7870    45.3360    24.5900     0.7870     0.1870     2.0180 
   62.3750     1.9800   -72.6820    45.7560    24.4240     0.9570     0.1620     2.0320 
   62.5000     1.9750   -73.2900    46.5790    24.1140     1.1010     0.1130     1.6010 
   62.6250     1.9740   -73.4140    49.0670    23.8640     1.2080     0.0550     1.0240 
   62.7500     1.9890   -72.6180    53.4230    23.6970     1.2870     0.0070     0.6010 
   62.8750     2.0040   -70.4670    58.6750    23.6100     1.3340    -0.0220     0.3690 
   63.0000     1.9930   -66.4140    63.2940    23.5860     1.4010    -0.0290     0.2910 
   63.1250     1.9990   -60.9850    66.5700    23.5650     1.6630    -0.0020     0.3140 
   63.2500     2.0780   -54.5950    71.3500    23.5280     2.3110     0.1010     0.4510 
   63.3750     2.2150   -47.5990    79.2350    23.4920     4.2830     0.3600     0.7620 
   63.5000     2.3040   -40.3560    87.5550    23.5200     5.5140     0.9300     1.4150 
   63.6250     2.3040   -33.3280    94.7430    23.5970     5.7310     1.7880     2.3420 
   63.7500     2.2550   -26.9670   100.8250    23.7260     5.3040     2.7520     3.1880 
   63.8750     2.2140   -21.7220   104.4820    23.9400     5.2820     3.5890     3.6770 
   64.0000     2.2060   -17.9920   101.3580    24.2280     5.9130     4.2450     3.9860 
   64.1250     2.2120   -15.3570    94.7170    24.5900     7.0720     4.8730     4.3900 
   64.2500     2.2110   -13.4950    90.0120    24.8660     8.3200     5.5130     4.9180 
   64.3750     2.1900   -12.1390    89.1200    25.0120     8.9010     6.0610     5.4380 
   64.5000     2.1600   -11.1830    90.8820    25.0020     8.4540     6.2640     5.6180 
   64.6250     2.1500   -10.4370    93.0080    24.8770     7.2910     6.1000     5.3840 
   64.7500     2.1700    -9.8610    97.1500    24.6530     6.1310     5.7430     4.9660 
   64.8750     2.2070    -9.3580   105.1630    24.4550     5.5520     5.4840     4.6880 
   65.0000     2.2540    -8.9200   112.6650    24.3680     6.0680     5.6590     4.8430 
   65.1250     2.3060    -8.5070   112.5790    24.3220     7.8380     6.3460     5.5120 
   65.2500     2.3550    -8.1390   103.9470    24.2810    11.2870     7.5400     6.7730 
   65.3750     2.3840    -7.8330    90.4200    24.2700    14.3270     9.0370     8.5170 
   65.5000     2.3630    -7.5550    78.1590    24.2460    13.7530    10.2390    10.0520 
   65.6250     2.3040    -7.2900    72.1530    24.1180    11.1970    10.6440    10.6400 
   65.7500     2.2360    -7.0110    72.3710    23.9690     9.5190    10.2640    10.3340 
   65.8750     2.1820    -6.7220    73.5800    23.8670     8.9170     9.4970     9.6750 
   66.0000     2.1550    -6.4750    71.3690    23.8080     8.6830     8.7970     9.1510 
   66.1250     2.1450    -6.2710    69.3760    23.8500     8.5260     8.3520     8.8850 
   66.2500     2.1450    -6.0440    70.8100    23.8640     8.4280     8.1460     8.8150 
   66.3750     2.1460    -5.7890    74.2770    23.8080     8.3780     8.0820     8.8160 
   66.5000     2.1440    -5.5210    75.1880    23.8180     8.3600     8.0650     8.7850 
   66.6250     2.1400    -5.3130    73.9140    23.8860     8.3130     8.0350     8.7040 
   66.7500     2.1330    -5.1200    73.2890    23.9280     8.1670     7.9830     8.5890 
   66.8750     2.1240    -4.9840    74.2810    23.9080     7.9910     7.9120     8.4720 
   67.0000     2.1120    -4.8680    76.2110    23.8230     7.8620     7.8390     8.3920 
   67.1250     2.1050    -4.7610    77.0050    23.7190     7.8120     7.7800     8.3590 
   67.2500     2.1070    -4.6730    75.7650    23.6740     7.8890     7.7410     8.3670 
   67.3750     2.1140    -4.5870    72.2890    23.6340     8.0710     7.7180     8.3870 
   67.5000     2.1160    -4.5750    68.5940    23.5460     8.2290     7.7010     8.3920 
   67.6250     2.1090    -4.5450    67.7740    23.4480     8.2740     7.6830     8.3830 
   67.7500     2.1020    -4.5140    68.9670    23.3940     8.2920     7.6620     8.3770 
   67.8750     2.1010    -4.4530    70.7870    23.3740     8.3580     7.6410     8.3860 
   68.0000     2.1030    -4.4010    71.2140    23.4110     8.4440     7.6140     8.4130 
   68.1250     2.1010    -4.3530    69.6690    23.5190     8.5040     7.5750     8.4440 
   68.2500     2.0960    -4.3080    68.1590    23.7010     8.5890     7.5160     8.4670 
   68.3750     2.0960    -4.2460    68.4360    23.8620     8.6970     7.4360     8.4680 
   68.5000     2.1010    -4.1120    70.2390    23.8930     8.6600     7.3430     8.4340 
   68.6250     2.1060    -3.9740    71.1330    23.8200     8.5260     7.2480     8.3610 
   68.7500     2.1090    -3.8000    70.8810    23.6720     8.4400     7.1540     8.2610 
   68.8750     2.1090    -3.6480    71.6310    23.5450     8.4880     7.0700     8.1920 
   69.0000     2.1020    -3.4630    74.0330    23.4940     8.5990     7.0200     8.2410 
   69.1250     2.0950    -3.2420    76.0620    23.5000     8.7120     7.0250     8.4040 
   69.2500     2.1020    -3.0580    75.2120    23.5460     9.2600     7.1030     8.6240 
   69.3750     2.1330    -2.9590    72.9000    23.6740    11.4170     7.2460     8.8220 
   69.5000     2.1780    -2.8580    71.7390    23.8760    12.3220     7.4080     8.9070 
   69.6250     2.2060    -2.7270    71.8330    23.9650    11.3550     7.5150     8.8700 
   69.7500     2.2050    -2.5870    72.3450    23.9680     9.8210     7.5240     8.7550 
   69.8750     2.1810    -2.4160    73.1790    23.9630     9.2980     7.4320     8.6320 
   70.0000     2.1450    -2.2860    74.3940    23.9310     9.2490     7.2870     8.5790 
   70.1250     2.1170    -2.2300    74.7320    23.8940     9.1950     7.1660     8.6110 
   70.2500     2.1100    -2.1320    73.9690    23.8710     9.1350     7.1020     8.6950 
   70.3750     2.1210    -1.9830    73.1470    23.8640     9.0030     7.0940     8.7680 
   70.5000     2.1360    -1.9090    72.8130    23.8150     8.8100     7.1200     8.7480 
   70.6250     2.1400    -1.8420    72.6160    23.6700     8.7100     7.1440     8.6300 
   70.7500     2.1350    -1.7890    72.0480    23.4990     8.7490     7.1590     8.4630 
   70.8750     2.1290    -1.7630    72.5890    23.5120     8.8780     7.1660     8.3200 
   71.0000     2.1240    -1.7230    73.5810    23.6510     8.9100     7.1700     8.2950 
   71.1250     2.1170    -1.6870    71.6550    23.7820     8.7900     7.1690     8.3830 
   71.2500     2.1090    -1.6820    67.0910    23.8460     8.5900     7.1650     8.5270 
   71.3750     2.1030    -1.6720    65.6680    23.7690     8.4840     7.1670     8.6540 
   71.5000     2.0960    -1.6230    69.2000    23.5830     8.5180     7.1940     8.7420 
   71.6250     2.0870    -1.6260    71.9520    23.4850     8.5940     7.2670     8.8590 
   71.7500     2.0760    -1.6650    72.9370    23.5010     8.6420     7.3970     9.0750 
   71.8750     2.0720    -1.6410    73.3550    23.5910     8.6720     7.5680     9.4060 
   72.0000     2.0830    -1.6330    73.0170    23.7710     8.7090     7.7380     9.7730 
   72.1250     2.1040    -1.6010    72.8290    23.9360     8.7760     7.8480    10.0380 
   72.2500     2.1260    -1.5470    75.0040    24.0320     8.8180     7.8630    10.1140 
   72.3750     2.1380    -1.5250    78.9000    24.0560     8.7800     7.7720     9.9970 
   72.5000     2.1380    -1.4900    78.6310    24.0240     8.6910     7.5920     9.7320 
   72.6250     2.1340    -1.4250    75.3250    23.9790     8.6540     7.3900     9.4250 
   72.7500     2.1290    -1.3590    72.8590    23.9820     8.7160     7.2120     9.1580 
   72.8750     2.1220    -1.3540    72.5050    24.0370     8.8550     7.0950     8.9990 
   73.0000     2.1150    -1.3800    72.0340    24.0880     8.9650     7.0620     9.0090 
   73.1250     2.1080    -1.4340    71.2700    24.1410     8.9800     7.0780     9.1470 
   73.2500     2.0980    -1.5050    72.0180    24.1770     9.0070     7.1150     9.3390 
   73.3750     2.0870    -1.5370    73.9820    24.1580     9.1150     7.1530     9.5010 
