~V
VERS. 2.00: Ver 2.00
~W
STRT.M 50.0000:
STOP.M 207.0000:
STEP.M 0.1250:
NULL. -999.2500:
UWI. F10009:
~C
DEPT.M :
GR.API :
RML.OHMM :
RI. :
RXO.OHMM :
CALI.CM :
DEN.GM/CC :
SP.MV :
~A
# ...
  162.5000    66.3140    11.8050    10.9020     8.8760    22.5220     2.4250   -11.2920 
  162.6250    74.1860     8.9090     8.2710     6.0090    22.6530     2.4080   -11.2710 
  162.7500    78.6950     8.0040     7.3100     5.8930    22.8770     2.4020   -11.2900 
  162.8750    78.4790     8.1380     7.3430     6.5530    23.1750     2.4010   -11.3880 
  163.0000    76.7140     8.7300     7.9230     7.2170    23.4780     2.4010   -11.5470 
  163.1250    77.2430     9.3750     8.6790     7.4800    23.6870     2.3990   -11.7180 
  163.2500    80.3650     9.8360     9.2900     7.5730    23.7670     2.3980   -11.8920 
  163.3750    85.0780    10.0590     9.6420     7.6050    23.7680     2.3980   -12.0500 
  163.5000    89.4760    10.0920     9.7470     7.6050    23.7490     2.3980   -12.1520 
  163.6250    93.2550     9.9970     9.6570     7.6560    23.7560     2.3980   -12.2280 
  163.7500    97.5810     9.8460     9.4620     7.7890    23.8010     2.3990   -12.3050 
  163.8750   102.1080     9.6640     9.1790     8.0220    23.8620     2.4010   -12.3620 
  164.0000   105.4150     9.4770     8.8250     8.2290    23.9140     2.4040   -12.4260 
  164.1250   108.1480     9.3540     8.4520     8.3780    23.9400     2.4100   -12.5370 
  164.2500   109.9130     9.4520     8.1870     8.6270    23.9390     2.4150   -12.6840 
  164.3750   109.0100    10.0030     8.2070     9.0800    23.9120     2.4170   -12.8760 
  164.5000   106.5350    11.2460     8.7340    10.1240    23.8500     2.4120   -13.1070 
  164.6250   103.5620    13.6060    10.1530    13.5850    23.7450     2.3970   -13.3360 
  164.7500    97.3370    16.9240    12.5410    19.7670    23.6130     2.3790   -13.5430 
  164.8750    88.4810    21.0590    15.9350    28.1250    23.4890     2.3650   -13.6990 
  165.0000    81.3960    25.6820    20.1600    38.0200    23.4080     2.3600   -13.7770 
  165.1250    78.3500    30.2280    24.7620    42.5700    23.3710     2.3650   -13.7660 
  165.2500    76.7400    34.5400    28.9710    41.3880    23.3360     2.3700   -13.6630 
  165.3750    75.3610    37.6800    32.1820    40.1120    23.2770     2.3700   -13.4590 
  165.5000    74.4490    39.2780    33.9690    41.0320    23.1850     2.3660   -13.1850 
  165.6250    73.9120    38.8160    33.8630    41.2360    23.0550     2.3660   -12.8380 
  165.7500    74.0560    36.6620    32.2280    40.2380    22.9440     2.3750   -12.4290 
  165.8750    74.2760    33.3030    29.4760    37.1400    22.9250     2.3910   -12.0010 
  166.0000    73.6420    29.6280    26.3360    32.0230    22.9890     2.4080   -11.5560 
  166.1250    73.9320    26.8520    23.7880    27.2210    23.0620     2.4160   -11.0650 
  166.2500    74.9860    25.3680    22.2160    24.3520    23.1200     2.4170   -10.5630 
  166.3750    74.5720    24.8940    21.4750    22.1730    23.1520     2.4190   -10.0490 
  166.5000    72.4100    24.7060    21.0560    19.1770    23.1580     2.4280    -9.4940 
  166.6250    70.0740    23.7400    20.1910    17.3180    23.1580     2.4420    -8.9210 
  166.7500    67.6440    21.6200    18.5040    15.7490    23.1530     2.4460    -8.3600 
  166.8750    65.4660    18.4940    16.0890    13.5170    23.1320     2.4320    -7.8010 
  167.0000    64.8630    15.0710    13.4180    11.1100    23.1070     2.4000    -7.2660 
  167.1250    66.6680    12.0270    11.1260    10.6130    23.0910     2.3610    -6.8110 
  167.2500    69.4460     9.8020     9.4450    10.6020    23.0570     2.3310    -6.4110 
  167.3750    72.3530     8.5990     8.3570    10.0760    22.9830     2.3160    -6.0910 
  167.5000    75.0150     8.1410     7.7400     8.4170    22.8550     2.3150    -5.8740 
  167.6250    75.4490     8.0270     7.4730     6.8770    22.6870     2.3270    -5.7550 
  167.7500    74.6570     8.0390     7.3710     6.4830    22.5430     2.3420    -5.6980 
  167.8750    74.0220     8.1150     7.3620     6.6400    22.4790     2.3550    -5.6750 
  168.0000    74.2340     8.2170     7.4080     6.8380    22.4820     2.3630    -5.6690 
  168.1250    75.4520     8.2710     7.4740     6.8910    22.5100     2.3610    -5.6490 
  168.2500    74.9810     8.2350     7.5150     6.7800    22.5180     2.3510    -5.6110 
  168.3750    72.0750     8.1360     7.4970     6.6670    22.5000     2.3370    -5.5540 
  168.5000    68.3570     8.0200     7.4090     6.6090    22.4660     2.3230    -5.4890 
  168.6250    67.1570     7.9230     7.2700     6.5430    22.4440     2.3170    -5.4110 
  168.7500    70.7060     7.9050     7.1490     6.5190    22.4660     2.3240    -5.3350 
  168.8750    76.8900     7.9910     7.1010     6.5560    22.5390     2.3470    -5.3000 
  169.0000    81.4850     8.1080     7.1570     6.7640    22.6370     2.3830    -5.2840 
  169.1250    82.1070     8.2600     7.3140     7.3990    22.7450     2.4220    -5.2740 
  169.2500    81.1400     8.4220     7.4950     8.3650    22.8580     2.4500    -5.2940 
  169.3750    80.3260     8.6010     7.6360     9.3880    22.9760     2.4610    -5.3140 
  169.5000    79.3980     8.6610     7.6930    10.1990    23.0880     2.4550    -5.3220 
  169.6250    78.5160     8.6220     7.6600    10.1950    23.1570     2.4400    -5.3530 
  169.7500    78.1070     8.5850     7.6020     9.6360    23.2190     2.4260    -5.3700 
  169.8750    78.2700     8.6250     7.5790     9.0920    23.2650     2.4180    -5.3640 
  170.0000    79.1100     8.7780     7.6270     8.9500    23.2940     2.4180    -5.3630 
  170.1250    80.0790     9.0210     7.7520     9.1750    23.3110     2.4240    -5.3550 
  170.2500    80.1610     9.2590     7.9010     9.3300    23.3200     2.4310    -5.3430 
  170.3750    78.6320     9.4230     8.0300     9.2820    23.3180     2.4370    -5.3480 
  170.5000    75.5940     9.4820     8.1110     9.2590    23.3080     2.4370    -5.3580 
  170.6250    72.5510     9.4410     8.1300     9.3440    23.2900     2.4330    -5.3760 
  170.7500    71.2470     9.3640     8.1110     9.3570    23.2710     2.4270    -5.4160 
  170.8750    71.4490     9.2920     8.0720     9.2570    23.2610     2.4240    -5.4600 
  171.0000    71.2300     9.2470     8.0330     9.0550    23.2600     2.4250    -5.5050 
  171.1250    71.0980     9.2530     8.0230     8.6620    23.2630     2.4280    -5.5590 
  171.2500    71.5650     9.3140     8.0600     8.6410    23.2690     2.4290    -5.5920 
  171.3750    71.4600     9.4330     8.1520     8.8630    23.2790     2.4260    -5.5980 
  171.5000    70.1770     9.5890     8.2890     9.1010    23.2920     2.4200    -5.5790 
  171.6250    69.6070     9.7210     8.4290     9.3660    23.3020     2.4160    -5.5270 
  171.7500    69.9020     9.7510     8.5080     9.6210    23.2950     2.4140    -5.4720 
  171.8750    68.6620     9.6250     8.4790     9.6610    23.2590     2.4130    -5.4160 
  172.0000    65.9170     9.3440     8.3240     9.3670    23.1940     2.4090    -5.3610 
  172.1250    67.6800     8.9530     8.0550     8.7640    23.1170     2.4000    -5.3400 
  172.2500    73.4840     8.5510     7.7430     8.1840    23.0570     2.3890    -5.3510 
  172.3750    77.4590     8.1920     7.4300     7.7880    23.0270     2.3770    -5.4060 
  172.5000    76.5070     7.8960     7.1480     7.5640    23.0110     2.3650    -5.5250 
  172.6250    72.7000     7.6730     6.9200     7.2580    22.9950     2.3560    -5.6780 
  172.7500    70.5280     7.5150     6.7510     6.8510    22.9810     2.3490    -5.8320 
  172.8750    70.2820     7.4330     6.6500     6.5540    22.9730     2.3470    -5.9940 
  173.0000    69.8140     7.4310     6.6180     6.6230    22.9730     2.3480    -6.1400 
  173.1250    68.0000     7.4970     6.6480     7.0350    22.9740     2.3490    -6.2550 
  173.2500    67.0080     7.5680     6.6980     7.4310    22.9770     2.3480    -6.3610 
  173.3750    68.7380     7.5990     6.7360     7.4730    22.9790     2.3450    -6.4390 
  173.5000    71.9790     7.5610     6.7320     7.1320    22.9810     2.3420    -6.4870 
  173.6250    73.9570     7.4400     6.6650     6.8690    22.9810     2.3410    -6.5150 
