~V
VERS. 2.00: Ver 2.00
~W
STRT.M 50.0000:
STOP.M 221.0000:
STEP.M 0.1250:
NULL. -999.2500:
UWI. F10024:
~C
DEPT.M :
GR.API :
RML.OHMM :
RI. :
RXO.OHMM :
CALI.CM :
DEN.GM/CC :
SP.MV :
~A
# ...
  207.5000    55.1220     7.5960     6.3770     7.8740    23.7800     2.4090    -5.9750 
  207.6250    57.1300     7.2940     6.1820     7.5310    23.7940     2.3990    -5.8730 
  207.7500    58.0790     6.9570     5.9610     7.0590    23.7640     2.3860    -5.7400 
  207.8750    57.4180     6.7040     5.7560     6.6530    23.7010     2.3760    -5.6300 
  208.0000    56.1700     6.5960     5.5950     6.3010    23.6020     2.3740    -5.5300 
  208.1250    56.1920     6.6370     5.5060     6.2830    23.5260     2.3850    -5.4930 
  208.2500    57.3420     6.7340     5.4910     6.3470    23.4890     2.4020    -5.4630 
  208.3750    57.9940     6.8310     5.5590     6.4650    23.4950     2.4190    -5.4280 
  208.5000    57.6300     6.9130     5.7150     6.5830    23.5290     2.4330    -5.3590 
  208.6250    56.9690     7.0140     5.9720     6.6380    23.6080     2.4410    -5.3280 
  208.7500    56.8400     7.1900     6.3000     6.7550    23.6830     2.4430    -5.3160 
  208.8750    56.8620     7.4720     6.6740     7.0260    23.7160     2.4380    -5.2950 
  209.0000    57.5220     7.8300     7.0490     7.4050    23.7240     2.4280    -5.2670 
  209.1250    58.0670     8.1500     7.3460     7.8310    23.7370     2.4140    -5.2220 
  209.2500    57.4220     8.3200     7.5000     8.0410    23.7360     2.4020    -5.2150 
  209.3750    57.8080     8.2990     7.4660     8.0940    23.6910     2.3940    -5.2640 
  209.5000    60.1200     8.1110     7.2400     8.1770    23.6060     2.3910    -5.3830 
  209.6250    61.4370     7.8250     6.8690     7.9000    23.5070     2.3870    -5.5280 
  209.7500    60.7410     7.5660     6.4940     7.3590    23.4630     2.3820    -5.6950 
  209.8750    61.0690     7.4130     6.2120     7.0940    23.4300     2.3770    -5.8290 
  210.0000    63.9930     7.4110     6.0720     7.0030    23.3710     2.3750    -5.9510 
  210.1250    65.1590     7.5700     6.1040     6.8160    23.2950     2.3780    -6.0000 
  210.2500    63.2210     7.7940     6.2490     6.9220    23.2110     2.3800    -6.0270 
  210.3750    61.2830     7.9860     6.4720     7.3810    23.0910     2.3770    -6.0270 
  210.5000    61.3480     8.0810     6.7270     7.7420    22.8580     2.3670    -6.0180 
  210.6250    61.9050     8.0770     6.9700     7.6660    22.5480     2.3540    -5.9840 
  210.7500    61.4390     8.0490     7.1600     7.5760    22.1610     2.3450    -5.9450 
  210.8750    59.9120     8.0220     7.2510     7.5280    21.7210     2.3410    -5.9010 
  211.0000    59.5610     7.9750     7.2040     7.4700    21.2600     2.3400    -5.8470 
  211.1250    59.5610     7.8530     6.9820     7.3430    20.7730     2.3350    -5.8400 
  211.2500    59.5610     7.6350     6.6560     7.1830    20.3750     2.3240    -5.8290 
  211.3750    59.5610     7.3370     6.3070     6.8610    20.0380     2.3130    -5.8320 
  211.5000    59.5610     7.0120     6.0080     6.5170    19.7130     2.3060    -5.8470 
  211.6250    59.5610     6.7400     5.8070     6.1890    19.4450     2.3070    -5.8760 
  211.7500    59.5610     6.5600     5.6770     6.1270    19.1970     2.3070    -5.9360 
  211.8750    59.5610     6.4860     5.6050     6.2860    18.9390     2.2990    -6.0230 
  212.0000    59.5610     6.5150     5.5870     6.5170    18.7360     2.2780    -6.1220 
  212.1250    59.5610     6.6440     5.6420     6.6580    18.6810     2.2520    -6.2330 
  212.2500    59.5610     6.8180     5.7470     6.6710    18.6950     2.2340    -6.3110 
  212.3750    59.5610     6.9870     5.8610     6.4780    18.5520     2.2300    -6.5610 
  212.5000    59.5610     7.0940     5.9290     6.2300    18.2110     2.2350    -6.7140 
  212.6250    59.5610     7.0580     5.8920     6.2320    17.8770     2.2390    -6.8820 
  212.7500    59.5610     6.8680     5.7620     6.2350    17.6940     2.2380    -7.0270 
  212.8750    59.5610     6.5490     5.5630     6.2370    17.6330     2.2340    -7.1780 
  213.0000    59.5610     6.1700     5.3320     6.2280    17.5900     2.2320    -7.3680 
  213.1250    59.5610     5.8230     5.1170     6.3920    17.5950     2.2360    -7.6080 
  213.2500    59.5610     5.5640     4.9420     6.4700    17.6600     2.2400    -7.9160 
  213.3750    59.5610     5.4080     4.8140     6.4610    17.7060     2.2370    -8.2820 
  213.5000    59.5610     5.3370     4.7300     6.4860    17.6110     2.2290    -8.7430 
  213.6250    59.5610     5.3220     4.6870     7.3320    17.2830     2.2220    -9.2040 
  213.7500    59.5610     5.3220     4.6750     8.0520    16.8630     2.2240    -9.5960 
  213.8750    59.5610     5.3270     4.6870     8.5370    16.6410     2.2400    -9.8750 
  214.0000    59.5610     5.3310     4.7160     8.5610    16.6650     2.2640    -9.9960 
  214.1250    59.5610     5.3270     4.7550     8.1630    16.7420     2.2870    -9.9850 
  214.2500    59.5610     5.3170     4.7860     7.5940    16.7360     2.3010    -9.8650 
  214.3750    59.5610     5.3020     4.7910     7.2120    16.6150     2.3050    -9.6250 
  214.5000    59.5610     5.2910     4.7630     7.1010    16.3690     2.3020    -9.2590 
  214.6250    59.5610     5.2950     4.7270     7.2430    15.9890     2.2950    -8.8870 
  214.7500    59.5610     5.3170     4.7110     7.2360    15.6170     2.2860    -8.6200 
  214.8750    59.5610     5.3460     4.7190     6.9530    15.3340     2.2770    -8.4720 
  215.0000    59.5610     5.3700     4.7410     6.7270    15.1680     2.2670    -8.4670 
  215.1250    59.5610     5.3740     4.7620     6.7580    15.2180     2.2580    -8.5630 
  215.2500    59.5610     5.3590     4.7660     6.9110    15.2770     2.2490    -8.7330 
  215.3750    59.5610     5.3310     4.7550     6.9890    15.2420     2.2400    -8.9720 
  215.5000    59.5610     5.3040     4.7490     6.9540    15.1770     2.2300    -9.3020 
  215.6250    59.5610     5.2920     4.7630     6.9920    15.1880     2.2200    -9.6680 
  215.7500    59.5610     5.3010     4.7780     6.9530    15.1320     2.2100   -10.0340 
  215.8750    59.5610     5.3260     4.7740     6.9620    15.0320     2.2020   -10.1440 
  216.0000    59.5610     5.3540     4.7430     6.8220    14.9680     2.1980    -9.8070 
  216.1250    59.5610     5.3700     4.6940     6.8870    14.9670     2.1990    -9.4480 
  216.2500    59.5610     5.3730     4.6540     6.8160    15.0280     2.2020    -9.0440 
  216.3750    59.5610     5.3690     4.6430     6.7200    15.1320     2.2060    -8.6060 
  216.5000    59.5610     5.3620     4.6620     6.7580    15.2240     2.2090    -8.0900 
  216.6250    59.5610     5.3550     4.6880     6.9450    15.2010     2.2130    -7.5040 
  216.7500    59.5610     5.3490     4.7040     7.0640    15.1310  -999.2500    -6.8680 
  216.8750    59.5610     5.3470     4.7080     7.0210    15.0490  -999.2500    -6.7380 
  217.0000    59.5610     5.3470     4.7080     6.9490    15.0180  -999.2500    -6.7380 
  217.1250    59.5610     5.3470     4.7080     6.7780    15.0410  -999.2500  -999.2500 
  217.2500    59.5610     5.3470     4.7080     6.6510    15.0730  -999.2500  -999.2500 
  217.3750    59.5610     5.3470     4.7080     6.5570    15.1100  -999.2500  -999.2500 
  217.5000    59.5610     5.3470     4.7080     6.4370    15.1080  -999.2500  -999.2500 
  217.6250    59.5610     5.3470     4.7080     6.3430    15.0270  -999.2500  -999.2500 
  217.7500    59.5610     5.3470     4.7080     6.4210    14.9180  -999.2500  -999.2500 
  217.8750    59.5610     5.3470     4.7080     6.6100    14.8130  -999.2500  -999.2500 
  218.0000    59.5610     5.3470     4.7080     6.2890    14.6490  -999.2500  -999.2500 
  218.1250    59.5610     5.3470     4.7080     5.4980    14.3620  -999.2500  -999.2500 
  218.2500    59.5610     5.3470     4.7080     5.0720    14.1990  -999.2500  -999.2500 
  218.3750    59.5610     5.3470     4.7080     4.9630    14.1470  -999.2500  -999.2500 
  218.5000    59.5610     5.3470     4.7080     4.9580    14.1430  -999.2500  -999.2500 
  218.6250    59.5610     5.3470     4.7080     4.9560    14.1430  -999.2500  -999.2500 
