~V
VERS. 2.00: Ver 2.00
~W
STRT.M 57.0000:
STOP.M 257.0000:
STEP.M 0.1250:
NULL. -999.2500:
UWI. F10004:
~C
DEPT.M :
GR.API :
RML.OHMM :
RI. :
RXO.OHMM :
CALI.CM :
DEN.GM/CC :
SP.MV :
~A
# ...
  147.0000    59.3380    34.7970    31.1420    25.4060    24.0750     2.1500    -0.6660 
  147.1250    59.2240    35.1580    31.3780    26.4150    24.0780     2.1480    -0.5100 
  147.2500    57.6450    36.3280    32.2590    28.1430    24.0640     2.1470    -0.3510 
  147.3750    56.4370    38.0500    33.6300    30.4960    24.0080     2.1490    -0.2250 
  147.5000    57.7830    39.9120    35.2040    32.0200    23.9580     2.1550    -0.1410 
  147.6250    58.5960    41.3150    36.5180    31.8060    23.9150     2.1640    -0.1160 
  147.7500    57.8520    41.9320    37.2400    31.3380    23.9180     2.1740    -0.1230 
  147.8750    59.4270    41.7030    37.2470    30.2570    23.7880     2.1840    -0.1520 
  148.0000    63.4530    40.8430    36.6530    26.6360    23.2560     2.1910    -0.2020 
  148.1250    63.5640    39.7080    35.7070    21.6000    22.9080     2.1880    -0.2860 
  148.2500    60.5580    38.6600    34.7450    18.1180    22.8540     2.1720    -0.4030 
  148.3750    60.7720    37.8300    33.9320    18.4480    22.8360     2.1460    -0.5300 
  148.5000    64.4460    37.2420    33.3360    19.2950    22.4280     2.1220    -0.6600 
  148.6250    66.8240    36.9160    33.0140    18.6920    21.4750     2.1150    -0.7800 
  148.7500    66.7340    36.8530    32.9570    18.5960    20.6070     2.1230    -0.8920 
  148.8750    65.1590    37.1380    33.2050    20.7100    20.2960     2.1390    -0.9940 
  149.0000    63.5450    37.8280    33.7880    24.1560    20.5460     2.1550    -1.0930 
  149.1250    62.8880    38.9490    34.7650    28.7220    21.1060     2.1730    -1.1800 
  149.2500    63.9390    40.2740    35.9870    34.1090    21.5960     2.1990    -1.2680 
  149.3750    65.5990    41.5590    37.2530    38.2490    21.8840     2.2300    -1.3510 
  149.5000    66.4110    42.5130    38.2910    39.3200    22.0600     2.2520    -1.4470 
  149.6250    65.9460    42.7420    38.7210    40.2330    22.1500     2.2490    -1.5760 
  149.7500    64.0800    42.1820    38.4520    40.8570    22.1710     2.2260    -1.6540 
  149.8750    62.6570    40.8660    37.5020    36.2270    22.0960     2.1990    -1.6810 
  150.0000    63.0800    39.0330    36.0750    30.1590    21.9090     2.1830    -1.7210 
  150.1250    64.0050    37.1910    34.5820    26.2700    21.7790     2.1910    -1.7880 
  150.2500    64.4080    35.8970    33.5000    23.2470    21.6900     2.2140    -1.8280 
  150.3750    65.6930    35.4800    33.1210    20.1590    21.5930     2.2370    -1.8350 
  150.5000    67.7330    36.0330    33.5540    18.3520    21.4010     2.2430    -1.8350 
  150.6250    66.9920    37.4650    34.8010    20.3740    21.1580     2.2210    -1.8330 
  150.7500    62.8970    39.1610    36.4000    22.9540    21.0120     2.1820    -1.7980 
  150.8750    59.3650    40.5310    37.8640    23.2050    21.2140     2.1420    -1.7390 
  151.0000    58.5920    40.9570    38.6140    20.3650    21.5940     2.1150    -1.6870 
  151.1250    58.1130    39.7280    37.9140    17.8060    21.5690     2.1090    -1.6150 
  151.2500    58.1700    37.1430    35.9040    16.1290    21.0150     2.1140    -1.4980 
  151.3750    61.1850    33.8160    33.0900    14.4120    20.0660     2.1270    -1.2010 
  151.5000    67.5300    30.6570    30.2910    12.8930    19.1360     2.1450    -0.9560 
  151.6250    71.9810    28.8200    28.5110    12.4240    18.6530     2.1680    -0.8460 
  151.7500    72.4410    28.6870    28.1310    12.8210    18.5660     2.1900    -0.7590 
  151.8750    70.4700    30.2820    29.2880    14.5370    18.7470     2.2050    -0.6410 
  152.0000    67.1320    33.1240    31.7400    18.1940    19.2200     2.2140    -0.5180 
  152.1250    64.4380    36.0000    34.5910    22.5560    20.0450     2.2210    -0.4150 
  152.2500    64.5720    37.4170    36.3480    25.4010    20.9760     2.2230    -0.3060 
  152.3750    67.2230    36.5980    36.0630    28.2470    21.6720     2.2150    -0.2310 
  152.5000    68.2140    33.8060    33.7680    30.8810    21.9800     2.1940    -0.0970 
  152.6250    64.7030    30.2500    30.4870    23.8780    21.9710     2.1670     0.0970 
  152.7500    59.7610    27.4150    27.6970    20.0790    22.0080     2.1480     0.2590 
  152.8750    56.4760    26.0040    26.0890    20.7520    22.2370     2.1440     0.3310 
  153.0000    55.3740    26.2870    25.9430    24.6720    22.6480     2.1540     0.3510 
  153.1250    55.4830    28.6160    27.6610    29.6330    23.1210     2.1720     0.4020 
  153.2500    56.0110    32.6520    31.0650    33.9650    23.5400     2.2000     0.4650 
  153.3750    57.0730    38.1700    36.0840    38.8970    23.7910     2.2460     0.4990 
  153.5000    58.3760    44.5910    42.2940    52.8350    23.8860     2.3140     0.5020 
  153.6250    58.4300    50.6230    48.5690    66.3480    23.8690     2.3880     0.5000 
  153.7500    56.3900    54.7870    53.3090    67.5810    23.7210     2.4480     0.5000 
  153.8750    53.6510    56.1560    55.4100    52.7550    23.3760     2.4830     0.5000 
  154.0000    51.7640    54.7850    54.7120    44.6010    22.9530     2.5000     0.5000 
  154.1250    52.8840    51.7260    52.0160    42.0210    22.5190     2.5070     0.5000 
  154.2500    56.7030    48.8810    49.1750    39.9310    22.2500     2.5000     0.5050 
  154.3750    60.3750    47.2560    47.2390    38.5580    22.0330     2.4640     0.4960 
  154.5000    60.6380    47.2610    46.7270    41.5260    21.8170     2.3910     0.4160 
  154.6250    56.6040    49.1190    47.9840    50.9910    21.6870     2.2960     0.0480 
  154.7500    53.3170    52.2800    50.5900    57.0630    21.6680     2.2290     0.1320 
  154.8750    53.3190    56.3760    54.2510    52.7200    21.7970     2.2250     0.1670 
  155.0000    55.7190    60.9010    58.5190    50.8450    22.0450     2.2900     0.1540 
  155.1250    56.3120    64.9860    62.6210    52.3490    22.4250     2.3900     0.0730 
  155.2500    53.7940    67.8760    65.7630    56.0290    22.9900     2.4690    -0.1210 
  155.3750    51.8340    69.2790    67.5600    61.2890    23.6780     2.5000    -0.3620 
  155.5000    53.5140    69.5650    68.2120    69.4410    24.4030     2.4870    -0.6380 
  155.6250    57.7460    69.7360    68.4810    66.6210    24.2090     2.4560    -0.9430 
  155.7500    60.4280    70.7240    69.2540    64.3320    24.1250     2.4370    -1.2610 
  155.8750    58.6810    72.6420    70.7720    77.4640    23.9320     2.4390    -1.5970 
  156.0000    54.1260    74.8220    72.6320    91.1260    23.7460     2.4610    -1.9520 
  156.1250    53.1200    75.8490    73.7520    82.8360    23.4290     2.4960    -2.2990 
  156.2500    57.2240    75.1360    73.5180    62.8270    23.0830     2.5370    -2.5790 
  156.3750    60.9860    73.0660    72.0830    48.4580    22.8270     2.5780    -2.7940 
  156.5000    60.3420    70.7160    70.2160    46.7980    22.6780     2.6180    -2.9430 
  156.6250    58.4810    69.2760    68.9150    55.5070    22.6630     2.6530    -2.9980 
  156.7500    57.5460    68.7110    68.3250    63.7220    22.7440     2.6770    -2.9750 
  156.8750    55.6520    68.2610    67.8770    66.0190    22.8980     2.6820    -2.8640 
  157.0000    54.2580    66.9430    66.6940    57.7970    23.0890     2.6620    -2.6700 
  157.1250    56.6600    63.9570    63.9320    46.8150    23.3350     2.6090    -2.4050 
  157.2500    58.8870    59.9230    60.0270    42.3740    23.7060     2.5400    -2.1070 
  157.3750    58.0900    55.6970    55.7350    43.6050    24.1270     2.4700    -1.7720 
  157.5000    56.9450    52.0500    51.8580    44.6330    24.1380     2.4140    -1.4210 
  157.6250    57.9760    49.5610    49.0740    44.9720    24.1680     2.3800    -1.0690 
  157.7500    58.0470    48.1040    47.3260    42.5570    24.2060     2.3630    -0.7210 
  157.8750    56.5490    47.6320    46.5510    37.3500    24.2550     2.3580    -0.3950 
  158.0000    54.9480    48.1440    46.7020    33.5530    24.2110     2.3650    -0.1050 
  158.1250    54.1330    49.7360    47.8330    34.7060    24.0930     2.3900     0.1230 
