~V
VERS. 2.00: Ver 2.00
~W
STRT.M 51.0000:
STOP.M 262.0000:
STEP.M 0.1250:
NULL. -999.2500:
UWI. F10019:
~C
DEPT.M :
DEN.GM/CC :
SP.MV :
GR.API :
CALI.CM :
RXO.OHMM :
RI. :
RML.OHMM :
~A
# ...
  197.2500     2.3630    -2.5410    68.9810    24.2310    11.5580    10.8720    11.0400 
  197.3750     2.3620    -2.6110    74.9020    24.2620    13.1040    10.6360    10.9650 
  197.5000     2.3740    -2.6670    74.8000    24.1780    15.0110    10.7040    11.1750 
  197.6250     2.3780    -2.7910    71.2160    23.9780    14.8810    11.0360    11.5910 
  197.7500     2.3540    -2.9740    68.3540    23.8320    13.4550    11.6400    12.2560 
  197.8750     2.3060    -3.1230    70.6550    23.8470    13.2320    12.4830    13.2030 
  198.0000     2.2530    -3.3480    77.1770    23.9170    16.7430    13.4960    14.4010 
  198.1250     2.2170    -3.5530    80.6530    23.9120    21.5180    14.5420    15.6540 
  198.2500     2.2050    -3.7780    80.5410    23.8740    24.3230    15.5400    16.8240 
  198.3750     2.2110    -3.9710    79.4750    23.8490    23.5320    16.4380    17.8500 
  198.5000     2.2170    -4.1830    78.4310    23.7810    21.9670    17.2760    18.8100 
  198.6250     2.2090    -4.3400    74.9720    23.6180    24.2970    18.2290    19.9090 
  198.7500     2.1900    -4.4560    69.3580    23.4970    28.7540    19.4490    21.2850 
  198.8750     2.1730    -4.6240    66.3590    23.6470    30.8970    20.9810    22.9660 
  199.0000     2.1720    -4.7610    68.7320    24.1370    30.3750    22.7180    24.8580 
  199.1250     2.1830    -4.8740    72.1840    24.6600    30.9830    24.3650    26.7110 
  199.2500     2.1980    -4.9460    73.0370    24.9750    34.5980    25.7750    28.4200 
  199.3750     2.2070    -5.0630    71.8990    25.0720    39.4760    27.0400    30.0720 
  199.5000     2.1990    -5.1330    70.9610    25.0740    42.0970    28.4570    31.9110 
  199.6250     2.1790    -5.2030    70.6090    25.0820    42.1920    30.1470    33.9850 
  199.7500     2.1620    -5.2550    69.7640    25.1080    42.3860    31.9880    36.1160 
  199.8750     2.1570    -5.2160    67.9720    25.1610    43.4530    33.6480    37.8980 
  200.0000     2.1600    -5.1760    66.6000    25.1800    45.0920    34.4700    38.5730 
  200.1250     2.1600    -5.1030    66.3440    25.1670    45.6660    34.1830    37.9370 
  200.2500     2.1550    -5.0070    66.7760    25.1040    43.2630    32.9120    36.2400 
  200.3750     2.1540    -4.8070    67.1800    24.9870    37.8640    31.1880    34.1930 
  200.5000     2.1680    -4.6210    67.2250    24.8540    33.1790    29.7990    32.8090 
  200.6250     2.1920    -4.3830    66.6040    24.7620    33.0520    29.2520    32.6110 
  200.7500     2.2140    -4.1220    65.9990    24.6890    37.6390    29.7340    33.7270 
  200.8750     2.2190    -3.9410    68.1450    24.6450    43.7980    31.1600    35.9230 
  201.0000     2.2010    -3.7530    71.6590    24.6310    46.7450    33.2060    38.6440 
  201.1250     2.1740    -3.5600    72.1770    24.6460    47.3140    35.1700    41.0290 
  201.2500     2.1580    -3.3480    69.7490    24.6730    46.9250    36.5720    42.5810 
  201.3750     2.1680    -3.2270    67.4420    24.6680    46.5430    37.2240    43.2050 
  201.5000     2.2000    -3.0810    66.8080    24.4990    47.5200    37.2590    43.1210 
  201.6250     2.2280    -2.9710    65.9530    24.2490    49.4760    37.1240    42.7930 
  201.7500     2.2400    -2.9250    64.7410    24.0660    51.1940    36.9910    42.3550 
  201.8750     2.2370    -2.8490    63.2540    24.0490    51.0290    36.9000    41.8580 
  202.0000     2.2230    -2.7650    62.7090    24.0390    51.0770    36.9130    41.4820 
  202.1250     2.2070    -2.6570    64.0070    23.9790    52.7080    37.1790    41.4950 
  202.2500     2.1900    -2.5440    65.6600    23.9210    54.7980    37.9350    42.1960 
  202.3750     2.1680    -2.3550    65.2840    23.9400    55.1240    39.4010    43.7820 
  202.5000     2.1390    -2.2020    63.3480    24.0570    54.9820    41.4350    45.8840 
  202.6250     2.1180    -2.0100    63.7610    24.1830    58.2380    42.6000    46.5910 
  202.7500     2.1160    -1.7400    66.3820    24.3540    60.6780    40.8390    43.5230 
  202.8750     2.1300    -1.4640    68.4790    24.5760    56.5050    35.0590    36.0140 
  203.0000     2.1550    -1.2290    69.2550    24.7700    41.3790    26.7860    26.6340 
  203.1250     2.1930    -1.0590    70.7670    24.6760    25.0720    19.3260    18.7850 
  203.2500     2.2440    -0.8740    75.6490    24.3880    13.7770    13.8670    13.3370 
  203.3750     2.3010    -0.7510    82.4630    24.1030     8.7540    10.3790    10.0230 
  203.5000     2.3470    -0.6160    85.1050    23.9860     7.8060     8.5690     8.4550 
  203.6250     2.3680    -0.5340    84.1170    23.9690     7.7140     7.7330     7.8630 
  203.7500     2.3630    -0.5110    84.4980    23.9760     7.9480     7.6150     7.9400 
  203.8750     2.3460    -0.5060    87.4520    24.0150     8.4400     8.0240     8.4560 
  204.0000     2.3390    -0.5110    86.7180    24.0530     9.5180     8.7930     9.2240 
  204.1250     2.3460    -0.4910    82.2450    24.0510    10.7540     9.6350    10.0030 
  204.2500     2.3540    -0.5030    79.1840    24.0420    11.5650    10.3590    10.6320 
  204.3750     2.3490    -0.4640    78.9740    24.0340    11.8520    10.8330    10.9970 
  204.5000     2.3260    -0.4820    79.9500    24.0530    12.0350    10.9790    11.0420 
  204.6250     2.2980    -0.4910    80.3450    24.0530    12.4320    10.9390    10.9430 
  204.7500     2.2780    -0.4820    79.5850    24.0090    12.6630    10.8620    10.8810 
  204.8750     2.2700    -0.4700    80.4510    23.8830    12.5570    10.9000    11.0360 
  205.0000     2.2680    -0.4880    83.2260    23.7190    12.6520    11.2070    11.5760 
  205.1250     2.2620    -0.5740    84.3010    23.6200    13.2770    11.7990    12.4580 
  205.2500     2.2500    -0.6540    81.7240    23.6240    14.8900    12.6760    13.6310 
  205.3750     2.2350    -0.7810    77.4620    23.7220    17.4790    13.7960    15.0060 
  205.5000     2.2240    -0.8660    75.0670    23.8910    19.2620    15.0600    16.4340 
  205.6250     2.2130    -1.0070    75.5980    24.0140    20.3610    16.2740    17.7290 
  205.7500     2.1990    -1.1610    77.7320    24.0740    21.4860    17.2980    18.7640 
  205.8750     2.1870    -1.3480    78.3470    24.0730    22.6000    18.0520    19.4900 
  206.0000     2.1860    -1.4920    74.5000    24.0960    23.0390    18.4890    19.9300 
  206.1250     2.1930    -1.6380    70.0010    24.2010    23.0570    18.6670    20.2030 
  206.2500     2.2030    -1.8530    67.6700    24.2420    22.9090    18.5370    20.2410 
  206.3750     2.2150    -2.0440    68.0640    24.2000    22.2440    18.0190    19.8440 
  206.5000     2.2280    -2.2690    71.4510    24.1250    20.6070    17.0370    18.7670 
  206.6250     2.2420    -2.4980    77.0890    24.1400    18.5170    15.8150    17.2640 
  206.7500     2.2630    -2.7820    82.6770    24.1480    16.1820    14.6130    15.7420 
  206.8750     2.3030    -3.0200    83.9800    24.0960    14.0920    13.7230    14.6780 
  207.0000     2.3720    -3.2510    80.1890    24.0330    13.1590    13.5190    14.6160 
  207.1250     2.4420    -3.4710    75.7490    23.9620    13.6280    14.0920    15.5690 
  207.2500     2.4690    -3.6590    72.9360    23.9110    16.6140    15.5380    17.5140 
  207.3750     2.4300    -3.8190    71.9580    23.9080    22.5060    17.8520    20.3040 
  207.5000     2.3490    -3.9090    70.7220    23.9090    28.5550    20.8240    23.5260 
  207.6250     2.2840    -4.0080    69.0150    23.9040    31.1320    23.6660    26.3470 
  207.7500     2.2590    -4.0480    66.9780    23.9060    31.3730    25.6930    28.1430 
  207.8750     2.2670    -4.1050    65.1460    23.9160    31.9040    26.5810    28.7300 
  208.0000     2.2740    -4.1270    65.1250    23.9920    32.3750    26.4450    28.3860 
  208.1250     2.2620    -4.1300    67.2150    24.0850    31.7220    25.9650    27.8470 
  208.2500     2.2410    -4.1420    70.1130    24.1580    30.6150    25.4910    27.4490 
  208.3750     2.2300    -4.1480    70.3770    24.0870    30.0210    25.1500    27.2600 
