~V
VERS. 2.00: Ver 2.00
~W
STRT.M 56.0000:
STOP.M 269.0000:
STEP.M 0.1250:
NULL. -999.2500:
UWI. F10026:
~C
DEPT.M :
GR.API :
RML.OHMM :
RI. :
RXO.OHMM :
CALI.CM :
DEN.GM/CC :
SP.MV :
~A
# ...
  112.2500    75.4870     6.6470     6.0960     6.5130    23.9960     2.3060   -24.9260 
  112.3750    73.0140     6.8590     6.3540     6.8580    23.9640     2.2880   -25.0600 
  112.5000    76.9160     6.9700     6.5130     7.5690    23.9050     2.2730   -25.1790 
  112.6250    80.7630     6.9130     6.4970     8.0850    23.8780     2.2700   -25.2620 
  112.7500    78.6460     6.7210     6.3360     7.5030    23.8590     2.2810   -25.3390 
  112.8750    76.1980     6.4530     6.0850     6.9430    23.8220     2.3020   -25.4110 
  113.0000    78.8360     6.1940     5.8190     6.5310    23.7780     2.3220   -25.4800 
  113.1250    83.3180     6.0610     5.6350     6.0710    23.7840     2.3280   -25.5450 
  113.2500    84.7280     6.1040     5.5840     5.9040    23.7920     2.3170   -25.6450 
  113.3750    84.2180     6.3400     5.6890     6.3470    23.7840     2.2940   -25.7810 
  113.5000    82.1690     6.7450     5.9410     7.1500    23.7340     2.2680   -25.9440 
  113.6250    78.8030     7.2580     6.3080     7.8670    23.6700     2.2500   -26.1450 
  113.7500    76.4730     7.7530     6.6980     8.2940    23.6540     2.2400   -26.3510 
  113.8750    75.4050     8.1410     7.0470     8.4100    23.7120     2.2360   -26.5620 
  114.0000    74.6800     8.3800     7.3180     8.5730    23.7740     2.2370   -26.7570 
  114.1250    74.5400     8.5080     7.5280     9.1850    23.8180     2.2420   -26.9180 
  114.2500    74.8750     8.6700     7.7680     9.8080    23.8410     2.2510   -27.0330 
  114.3750    75.2480     8.9900     8.1240    10.2400    23.8490     2.2650   -27.1110 
  114.5000    75.8480     9.5520     8.6540    10.9240    23.8850     2.2780   -27.1490 
  114.6250    76.6840    10.4210     9.4050    14.5640    23.9960     2.2820   -27.1170 
  114.7500    76.0930    11.4770    10.2870    23.5660    24.1110     2.2770   -27.0310 
  114.8750    73.5740    12.5450    11.1710    29.3400    24.1140     2.2660   -26.8840 
  115.0000    69.9040    13.3550    11.8600    22.3690    23.9600     2.2560   -26.6860 
  115.1250    67.2350    13.4700    12.0190    14.8390    23.8730     2.2540   -26.4680 
  115.2500    66.8000    12.8010    11.5640    13.8400    23.9000     2.2590   -26.2750 
  115.3750    69.7110    11.4530    10.5540    14.3420    23.9500     2.2680   -26.1230 
  115.5000    75.5920     9.7570     9.2200    10.6940    23.8960     2.2780   -26.0400 
  115.6250    81.7570     8.1930     7.9080     7.6170    23.7470     2.2870   -26.0710 
  115.7500    85.2690     7.0680     6.8750     6.3020    23.5820     2.2910   -26.1940 
  115.8750    85.8890     6.4780     6.2230     5.8950    23.4620     2.2900   -26.3940 
  116.0000    85.5260     6.3880     5.9640     5.9930    23.3780     2.2810   -26.6400 
  116.1250    83.7430     6.7270     6.1000     6.5310    23.3300     2.2650   -26.8960 
  116.2500    80.9180     7.2660     6.4830     7.1150    23.3330     2.2470   -27.1190 
  116.3750    77.7900     7.8580     7.0050     7.5890    23.3820     2.2310   -27.2600 
  116.5000    73.9510     8.3540     7.5380     8.3370    23.4170     2.2210   -27.2880 
  116.6250    70.7650     8.5680     7.8940     8.7560    23.3470     2.2170   -27.1630 
  116.7500    70.3840     8.4650     7.9780     9.0510    23.3130     2.2190   -26.9400 
  116.8750    73.0850     8.0780     7.7650     8.9940    23.5120     2.2250   -26.6720 
  117.0000    77.2980     7.5190     7.3200     8.1380    23.8110     2.2350   -26.4040 
  117.1250    82.5310     6.9500     6.7770     6.7280    23.9120     2.2460   -26.1570 
  117.2500    86.9960     6.5060     6.3080     6.1530    23.8580     2.2540   -25.9470 
  117.3750    88.3480     6.2570     6.0130     6.7260    23.7710     2.2550   -25.8000 
  117.5000    86.9280     6.2380     5.9420     7.3200    23.8180     2.2520   -25.7270 
  117.6250    86.1340     6.4910     6.1290     7.0760    23.8050     2.2570   -25.7510 
  117.7500    84.5660     6.9270     6.4720     7.1130    23.8820     2.2740   -25.8040 
  117.8750    80.3260     7.4440     6.8680     7.2490    23.9000     2.2990   -25.8440 
  118.0000    74.2920     7.8870     7.1930     7.6930    23.7750     2.3190   -25.8450 
  118.1250    72.1810     8.0270     7.2870     8.0210    23.5340     2.3260   -25.8130 
  118.2500    75.9820     7.8020     7.1230     7.9320    23.3640     2.3230   -25.7750 
  118.3750    83.5360     7.2650     6.7360     7.2180    23.2970     2.3210   -25.7420 
  118.5000    90.6490     6.5800     6.2280     6.2780    23.2620     2.3270   -25.7110 
  118.6250    93.7690     5.9770     5.7340     5.6210    23.2240     2.3430   -25.6870 
  118.7500    94.1670     5.5780     5.3440     5.5660    23.2060     2.3570   -25.7030 
  118.8750    93.8950     5.3940     5.0870     6.1520    23.2640     2.3630   -25.7690 
  119.0000    94.8850     5.3710     4.9570     7.1510    23.3880     2.3600   -25.9020 
  119.1250    96.2480     5.4480     4.9590     6.4410    23.5170     2.3510   -26.1060 
  119.2500    95.2070     5.5900     5.0730     5.8320    23.7070     2.3400   -26.3420 
  119.3750    92.0480     5.8340     5.3160     5.6740    24.0230     2.3260   -26.5810 
  119.5000    87.9460     6.2380     5.7080     6.0100    24.4080     2.3050   -26.7880 
  119.6250    82.3470     6.8390     6.2660     7.1650    24.1210     2.2730   -26.8990 
  119.7500    75.4740     7.5090     6.8840     8.2550    23.9280     2.2350   -26.8980 
  119.8750    70.7750     8.0670     7.4250     9.1640    23.9320     2.2030   -26.7780 
  120.0000    71.4440     8.3230     7.7270     9.5400    24.1260     2.1900   -26.5570 
  120.1250    76.0050     8.1170     7.6360     9.1890    24.2880     2.2050   -26.2520 
  120.2500    82.1090     7.6030     7.2530     8.1790    24.2800     2.2390   -25.9010 
  120.3750    88.8460     6.9660     6.7210     7.0960    24.2170     2.2770   -25.5190 
  120.5000    94.2130     6.3920     6.1920     6.4270    24.2260     2.3100   -25.1540 
  120.6250    95.2970     6.0400     5.8060     6.2650    24.3730     2.3290   -24.8550 
  120.7500    94.4030     5.8960     5.5800     6.2400    24.5150     2.3360   -24.6420 
  120.8750    92.4900     5.8990     5.4820     6.2110    24.4310     2.3350   -24.5160 
  121.0000    89.2930     5.9570     5.4530     6.2430    24.2560     2.3280   -24.4530 
  121.1250    87.9400     6.0090     5.4570     6.4100    24.1840     2.3150   -24.4430 
  121.2500    89.7700     6.0950     5.5120     6.6600    24.2150     2.3060   -24.4630 
  121.3750    92.5210     6.3080     5.6870     6.8590    24.2710     2.3120   -24.5150 
  121.5000    92.4710     6.7150     6.0390     6.5410    24.2900     2.3390   -24.5890 
  121.6250    88.2510     7.2990     6.5710     7.2540    24.2340     2.3850   -24.6880 
  121.7500    83.3400     7.8570     7.1190     9.4790    24.0730     2.4310   -24.7880 
  121.8750    79.7240     8.1830     7.4990    12.9820    23.9350     2.4610   -24.8920 
  122.0000    79.3840     8.1360     7.5680    13.1870    23.7660     2.4670   -25.0050 
  122.1250    82.7250     7.7050     7.2770     8.9470    23.5080     2.4480   -25.1120 
  122.2500    86.8840     7.1560     6.8420     7.1640    23.3910     2.4190   -25.2250 
  122.3750    88.7680     6.7000     6.4410     7.4560    23.4330     2.3860   -25.3570 
  122.5000    86.6950     6.4690     6.1910     7.6590    23.5590     2.3560   -25.5000 
  122.6250    83.7550     6.5280     6.1470     6.7010    23.6280     2.3350   -25.6460 
  122.7500    82.1570     6.7530     6.2250     6.5410    23.5530     2.3240   -25.7880 
  122.8750    81.8690     7.0180     6.3450     7.3900    23.3680     2.3190   -25.9120 
  123.0000    82.9490     7.2030     6.4390     8.3130    23.1940     2.3130   -26.0140 
  123.1250    85.3760     7.2000     6.4470     7.6400    23.1280     2.3020   -26.1010 
  123.2500    87.2390     7.0290     6.3680     6.7830    23.0370     2.2910   -26.1520 
  123.3750    87.4900     6.7370     6.2130     6.3520    22.9320     2.2850   -26.1520 
