~V
VERS. 2.00: Ver 2.00
~W
STRT.M 50.0000:
STOP.M 212.0000:
STEP.M 0.1250:
NULL. -999.2500:
UWI. F10013:
~C
DEPT.M :
GR.API :
RML.OHMM :
RI. :
RXO.OHMM :
CALI.CM :
DEN.GM/CC :
SP.MV :
~A
   50.0000    47.2750     0.7870     0.2610     0.6320    22.7490     2.1990    73.4900 
   50.1250    49.4400     0.7750     0.2870     0.6330    22.7580     2.1860    73.3130 
   50.2500    50.4840     0.7700     0.3150     0.6320    22.7780     2.1820    72.7480 
   50.3750    48.9370     0.7740     0.3400     0.6270    22.7930     2.1920    71.7930 
   50.5000    46.0080     0.7790     0.3550     0.6190    22.7800     2.2120    70.4910 
   50.6250    45.5680     0.7820     0.3570     0.6140    22.7470     2.2360    68.9680 
   50.7500    47.1980     0.7820     0.3520     0.6160    22.7770     2.2580    67.2700 
   50.8750    48.3790     0.7770     0.3490     0.6270    22.9470     2.2830    65.5410 
   51.0000    48.9210     0.7690     0.3560     0.6440    23.3160     2.3160    63.9820 
   51.1250    50.1380     0.7630     0.3820     0.6620    23.7290     2.3610    62.7310 
   51.2500    51.9670     0.7610     0.4180     0.6710    23.8730     2.4100    61.8820 
   51.3750    53.0920     0.7600     0.4580     0.6730    23.6300     2.4530    61.6280 
   51.5000    51.6730     0.7600     0.4930     0.6720    23.2580     2.4800    61.9720 
   51.6250    48.1930     0.7620     0.5180     0.6670    23.0960     2.4880    62.8230 
   51.7500    45.2050     0.7680     0.5360     0.6570    23.0570     2.4870    63.9730 
   51.8750    44.5550     0.7840     0.5510     0.6440    23.0610     2.4890    65.1090 
   52.0000    45.3730     0.8090     0.5660     0.6310    23.0630     2.4940    65.9310 
   52.1250    46.7270     0.8360     0.5800     0.6270    23.0580     2.4940    66.1940 
   52.2500    48.7320     0.8520     0.5940     0.6290    23.0280     2.4740    65.6910 
   52.3750    49.8260     0.8540     0.6040     0.6320    22.9620     2.4230    64.2780 
   52.5000    48.8330     0.8480     0.6070     0.6330    22.9850     2.3430    62.1140 
   52.6250    47.6390     0.8410     0.5990     0.6310    23.3190     2.2460    59.3740 
   52.7500    49.6580     0.8350     0.5800     0.6320    23.8090     2.1510    56.4390 
   52.8750    54.2410     0.8290     0.5520     0.6360    24.1930     2.0720    53.6510 
   53.0000    58.6990     0.8230     0.5200     0.6420    24.3620     2.0140    51.1800 
   53.1250    60.1210     0.8170     0.4920     0.6470    24.4010     1.9800    49.2180 
   53.2500    58.6180     0.8120     0.4760     0.6510    24.3710     1.9620    47.8400 
   53.3750    57.3170     0.8100     0.4780     0.6550    24.2260     1.9530    47.0240 
   53.5000    59.4710     0.8090     0.4970     0.6610    23.9150     1.9510    46.6420 
   53.6250    62.9610     0.8060     0.5270     0.6620    23.5060     1.9550    46.5700 
   53.7500    63.3710     0.8020     0.5520     0.6650    23.1880     1.9660    46.5310 
   53.8750    60.2570     0.7980     0.5620     0.6670    23.0810     1.9800    46.4100 
   54.0000    55.8420     0.7950     0.5540     0.6710    23.2780     1.9960    46.2680 
   54.1250    53.7430     0.7880     0.5320     0.6950    23.7320     2.0140    46.1590 
   54.2500    54.1250     0.7710     0.5060     0.7390    24.1190     2.0300    46.2790 
   54.3750    55.1610     0.7420     0.4800     0.7870    24.3080     2.0380    46.8380 
   54.5000    55.1510     0.7030     0.4550     0.8170    24.3560     2.0320    47.9380 
   54.6250    54.9340     0.6700     0.4310     0.8270    24.3440     2.0060    49.8810 
   54.7500    55.2930     0.6560     0.4100     0.8260    24.3020     1.9680    52.6450 
   54.8750    56.0520     0.6670     0.3950     0.8160    24.1910     1.9330    56.1190 
   55.0000    56.9550     0.7000     0.3880     0.8060    23.9740     1.9160    60.0510 
   55.1250    56.7980     0.7470     0.3840     0.8100    23.6210     1.9260    64.0490 
   55.2500    55.3370     0.7910     0.3710     0.8310    23.2680     1.9470    67.7400 
   55.3750    52.5090     0.8260     0.3390     0.8740    22.9760     1.9650    70.9360 
   55.5000    48.1490     0.8580     0.2830     0.9290    22.7790     1.9710    73.4820 
   55.6250    45.6280     0.8980     0.2050     0.9740    22.6910     1.9690    75.0210 
   55.7500    46.5680     0.9250     0.1270     0.9550    22.7620     1.9800    75.5740 
   55.8750    48.7680     0.8650     0.0660     0.9290    22.9220     2.0190    75.2070 
   56.0000    48.4780     0.6070     0.0320     0.9060    23.0040     2.0990    73.9190 
   56.1250    46.8810     0.3840     0.0270     0.8870    22.8730     2.2220    71.4280 
   56.2500    47.9540     0.3010     0.0480     0.8310    22.5870     2.3640    67.7380 
   56.3750    51.0610     0.3880     0.1100     0.7710    22.2940     2.4940    62.7660 
   56.5000    54.6170     0.6580     0.2570     2.5240    22.1230     2.5750    56.6800 
   56.6250    58.9410     1.6720     0.8730     8.6500    22.2240     2.5660    49.6820 
   56.7500    62.1330     5.6070     3.5230    16.6270    22.6450     2.4870    42.2990 
   56.8750    62.7640    13.9830     9.6570    22.8970    23.2630     2.3710    34.7150 
   57.0000    62.1010    21.9710    16.7230    26.7110    23.7430     2.2580    27.1550 
   57.1250    62.0210    26.3820    21.9580    34.1470    23.8370     2.1850    20.1740 
   57.2500    61.0050    28.3860    25.0510    34.6430    23.7850     2.1500    14.1050 
   57.3750    57.8210    29.7260    27.0870    34.3480    23.7150     2.1370     9.1340 
   57.5000    55.0350    30.6420    28.6440    34.8600    23.6680     2.1300     5.2350 
   57.6250    55.4690    31.0790    29.8680    34.8910    23.6680     2.1200     2.3090 
   57.7500    55.7220    31.3050    30.6540    34.9300    23.7010     2.1100    -0.0610 
   57.8750    55.9890    31.5350    30.8420    34.2930    23.7800     2.1040    -2.0190 
   58.0000    57.4220    31.5030    30.4140    33.0410    23.8250     2.1040    -3.6600 
   58.1250    57.8460    30.6700    29.5150    31.2680    23.7860     2.1070    -4.9910 
   58.2500    55.7240    29.3640    28.5590    29.4910    23.6880     2.1090    -6.1330 
   58.3750    54.2960    28.6660    27.8430    28.6390    23.6480     2.1070    -7.0920 
   58.5000    56.3040    28.6550    27.5590    29.4620    23.6500     2.1010    -7.9290 
   58.6250    58.6860    29.0860    27.8070    31.0200    23.6630     2.0920    -8.6210 
   58.7500    57.4800    29.6300    28.3390    32.5620    23.6480     2.0820    -9.2450 
   58.8750    55.9540    30.0520    28.8960    33.6800    23.5970     2.0750    -9.7970 
   59.0000    56.9200    30.1880    29.2350    33.4760    23.4940     2.0710   -10.2930 
   59.1250    60.4400    29.9780    29.1800    31.7250    23.3550     2.0770   -10.7850 
   59.2500    62.7010    29.6370    28.8670    30.4160    23.1930     2.0880   -11.2010 
   59.3750    62.7920    29.3600    28.4710    29.9310    22.9330     2.1030   -11.5980 
   59.5000    62.6840    29.2890    28.1560    29.1360    22.6090     2.1150   -11.9560 
   59.6250    63.0580    29.4690    28.0230    28.3530    22.4600     2.1220   -12.2980 
   59.7500    63.2170    29.7190    27.9820    27.8500    22.4470     2.1230   -12.6100 
   59.8750    62.7290    29.8440    27.9000    27.7230    22.4110     2.1180   -12.9270 
   60.0000    62.4460    29.6840    27.6470    28.2890    22.3480     2.1060   -13.2280 
   60.1250    63.8740    29.1880    27.1630    27.9740    22.2540     2.0850   -13.4920 
   60.2500    66.3880    28.6380    26.6320    26.1160    22.0140     2.0560   -13.7910 
   60.3750    68.3970    28.3720    26.3040    23.9450    21.6320     2.0330   -14.0470 
   60.5000    69.1730    28.6900    26.4260    22.3200    21.2570     2.0380   -14.2980 
   60.6250    68.5450    29.8020    27.2200    20.9870    21.0720     2.1020   -14.5600 
   60.7500    65.5790    31.3380    28.4460    19.9120    20.9410     2.2170   -14.7760 
   60.8750    60.4020    32.7820    29.7260    19.7650    21.0480     2.3480   -14.9680 
   61.0000    56.9200    33.5480    30.5720    21.0600    21.6160     2.4460   -15.1370 
   61.1250    57.8670    33.1130    30.4660    24.0980    22.5730     2.4520   -15.2430 
