~V
VERS. 2.00: Ver 2.00
~W
STRT.M 55.0000:
STOP.M 310.0000:
STEP.M 0.1250:
NULL. -999.2500:
UWI. F10049:
~C
DEPT.M :
GR.API :
RML.OHMM :
RI. :
RXO.OHMM :
CALI.CM :
DEN.GM/CC :
SP.MV :
~A
# ...
  302.5000    48.6790     5.1060     4.9030     4.1320    25.3360     2.4080     1.7080 
  302.6250    48.6790     4.9560     4.8150     4.1660    25.4660     2.4150     1.7500 
  302.7500    48.6790     4.7950     4.7250     4.2280    25.4170     2.4190     1.6240 
  302.8750    48.6790     4.6770     4.6440     4.2920    25.1320     2.4130     1.4930 
  303.0000    48.6790     4.6330     4.5780     4.4340    24.9410     2.3960     1.2720 
  303.1250    48.6790     4.6570     4.5330     4.5650    24.9370     2.3740     0.9110 
  303.2500    48.6790     4.7000     4.5080     4.9750    25.0670     2.3570     0.4090 
  303.3750    48.6790     4.7450     4.5010     6.1530    25.2240     2.3490    -0.1880 
  303.5000    48.6790     4.7980     4.5090     8.0930    24.8770     2.3500    -0.8230 
  303.6250    48.6790     4.8650     4.5220     7.1770    24.5600     2.3540    -1.3520 
  303.7500    48.6790     4.9170     4.5280     5.2750    24.4040     2.3540    -1.6490 
  303.8750    48.6790     4.9140     4.5230     4.5520    24.3880     2.3460    -1.8300 
  304.0000    48.6790     4.8380     4.5110     4.6200    24.3550     2.3330    -1.9710 
  304.1250    48.6790     4.7140     4.4900     4.6900    24.2400     2.3230    -2.0100 
  304.2500    48.6790     4.6050     4.4700     4.6250    24.0800     2.3220    -1.8970 
  304.3750    48.6790     4.5410     4.4560     4.5790    24.0240     2.3330    -1.7090 
  304.5000    48.6790     4.5160     4.4500     4.5660    24.1270     2.3510    -1.5080 
  304.6250    48.6790     4.5140     4.4500     4.6080    24.3450     2.3680    -1.3370 
  304.7500    48.6790     4.5140     4.4500     4.6790    24.4540     2.3790    -1.2530 
  304.8750    48.6790     4.5140     4.4500     4.7830    24.4950     2.3830    -1.2290 
  305.0000    48.6790     4.5140     4.4500     4.8280    24.5160     2.3860    -1.1850 
  305.1250    48.6790     4.5140     4.4500     4.6750    24.5510     2.3910    -1.1520 
  305.2500    48.6790     4.5140     4.4500     4.8140    24.5970     2.4000    -1.1280 
  305.3750    48.6790     4.5140     4.4500     5.4400    24.5860     2.4110    -1.0240 
  305.5000    48.6790     4.5140     4.4500     6.4310    24.5030     2.4210    -0.8500 
  305.6250    48.6790     4.5140     4.4500     7.8930    24.4090     2.4310    -0.7910 
  305.7500    48.6790     4.5140     4.4500    10.4960    24.3800     2.4400    -0.8870 
  305.8750    48.6790     4.5140     4.4500    12.4260    24.3910     2.4470    -1.0280 
  306.0000    48.6790     4.5140     4.4500    12.0610    24.3910     2.4490    -1.1850 
  306.1250    48.6790     4.5140     4.4500    10.5170    24.3840     2.4470    -1.2730 
  306.2500    48.6790     4.5140     4.4500    11.0020    24.3850     2.4430    -1.3630 
  306.3750    48.6790     4.5140     4.4500    13.0980    24.3790     2.4390    -1.5140 
  306.5000    48.6790     4.5140     4.4500    14.7790    24.3570     2.4350    -1.7360 
  306.6250    48.6790     4.5140     4.4500    14.9070    24.2580     2.4280    -1.7860 
  306.7500    48.6790     4.5140     4.4500    10.7620    24.2730     2.4190    -1.7230 
  306.8750    48.6790     4.5140     4.4500     9.8230    24.3040     2.4130    -1.6740 
  307.0000    48.6790     4.5140     4.4500    11.5650    24.2810     2.4140    -1.6080 
  307.1250    48.6790     4.5140     4.4500    13.1720    24.1360     2.4190    -1.6270 
  307.2500    48.6790     4.5140     4.4500    11.3670    23.9570     2.4190    -1.6290 
  307.3750    48.6790     4.5140     4.4500     8.5330    23.7670     2.4090    -1.6150 
  307.5000    48.6790     4.5140     4.4500     6.2550    23.6460     2.3860    -1.6150 
  307.6250    48.6790     4.5140     4.4500     4.8240    23.6080     2.3490  -999.2500 
  307.7500    48.6790     4.5140     4.4500     4.4520    23.5270     2.2950  -999.2500 
  307.8750    48.6790     4.5140     4.4500     4.5230    22.7970     2.2250  -999.2500 
  308.0000    48.6790     4.5140     4.4500     4.9100    20.8700     2.1460  -999.2500 
  308.1250    48.6790     4.5140     4.4500     5.1300    17.7800     2.0730  -999.2500 
  308.2500    48.6790     4.5140     4.4500     5.2040    16.4090     2.0190  -999.2500 
  308.3750    48.6790     4.5140     4.4500     5.2030    16.0770     1.9880  -999.2500 
  308.5000    48.6790     4.5140     4.4500     5.2020    16.0740     1.9770  -999.2500 
  308.6250    48.6790     4.5140     4.4500     5.2010    16.0730     1.9770  -999.2500 
  308.7500    48.6790     4.5140     4.4500     5.2010    16.0700     1.9810  -999.2500 
  308.8750    48.6790     4.5140     4.4500     5.2030    16.0690     1.9850  -999.2500 
  309.0000    48.6790     4.5140     4.4500     5.2020    16.0690     1.9880  -999.2500 
  309.1250    48.6790     4.5140     4.4500     5.2010    16.0670     1.9890  -999.2500 
  309.2500    48.6790     4.5140     4.4500     5.2010    16.0660     1.9880  -999.2500 
  309.3750    48.6790     4.5140     4.4500     5.2020    16.0660     1.9860  -999.2500 
  309.5000    48.6790     4.5140     4.4500     5.2020    16.0660     1.9830  -999.2500 
  309.6250  -999.2500  -999.2500  -999.2500  -999.2500  -999.2500     1.9810  -999.2500 
  309.7500  -999.2500  -999.2500  -999.2500  -999.2500  -999.2500     1.9790  -999.2500 
  309.8750  -999.2500  -999.2500  -999.2500  -999.2500  -999.2500     1.9790  -999.2500 
  310.0000  -999.2500  -999.2500  -999.2500  -999.2500  -999.2500     1.9790  -999.2500 
