~V
VERS. 2.00: Ver 2.00
~W
STRT.M 64.0000:
STOP.M 260.0000:
STEP.M 0.1250:
NULL. -999.2500:
UWI. F10016:
~C
DEPT.M :
GR.API :
RML.OHMM :
RI. :
RXO.OHMM :
CALI.CM :
DEN.GM/CC :
SP.MV :
~A
# ...
   86.5000    88.0430     8.6590     8.2560     8.6600    24.3790     2.2380   -14.8870 
   86.6250    87.2140     8.9450     8.5930     9.4090    24.3250     2.2240   -14.9180 
   86.7500    84.5660     9.3310     8.9580     9.8160    24.1510     2.2070   -14.9470 
   86.8750    83.9520     9.7940     9.3520    10.0020    23.8480     2.1870   -14.9670 
   87.0000    85.1800    10.2240     9.7060    10.1920    23.7480     2.1650   -14.9530 
   87.1250    85.6840    10.4130     9.8380    10.2820    23.9360     2.1490   -14.8340 
   87.2500    87.8270    10.2580     9.6530     9.9680    24.1740     2.1470   -14.6450 
   87.3750    92.8130     9.7340     9.1450     9.1250    24.2670     2.1630   -14.4280 
   87.5000    97.9420     8.9070     8.4000     7.9060    24.2910     2.1890   -14.2390 
   87.6250    98.9330     7.9170     7.5660     7.3990    24.3290     2.2090   -14.0630 
   87.7500    96.4840     7.0500     6.8480     7.4330    24.3800     2.2150   -13.8790 
   87.8750    93.1300     6.6170     6.4500     7.8850    24.4280     2.2180   -13.6940 
   88.0000    90.1500     6.9660     6.5960     8.2000    24.4510     2.2430   -13.5670 
   88.1250    84.1290     8.6560     7.7000    10.8730    24.4160     2.3140   -13.5760 
   88.2500    75.2160    11.6990     9.8960    22.3140    24.3070     2.4090   -13.6620 
   88.3750    66.7580    15.8820    13.2610    46.0350    24.1560     2.4910   -13.7970 
   88.5000    61.7230    20.3610    17.3880    66.2840    24.0330     2.5190   -13.9700 
   88.6250    61.7490    23.2890    20.8600    46.2340    23.9890     2.4700   -14.1910 
   88.7500    64.6480    23.6660    22.3120    27.7780    24.1430     2.3770   -14.4270 
   88.8750    67.4270    21.7450    21.4980    18.9890    24.4510     2.2790   -14.6270 
   89.0000    68.0990    18.7350    19.2550    16.3760    24.7060     2.2090   -14.7750 
   89.1250    68.6580    15.9760    16.7590    15.4870    24.8360     2.1870   -14.8820 
   89.2500    71.9300    13.9570    14.7040    13.4250    24.7890     2.2000   -14.9760 
   89.3750    76.6610    12.6260    13.1920    10.9950    24.6310     2.2270   -15.0340 
   89.5000    80.3870    11.8310    12.1760     9.5020    24.5010     2.2490   -15.0550 
   89.6250    80.2290    11.5850    11.6960    10.3690    24.5160     2.2510   -15.0800 
   89.7500    76.2480    11.8500    11.7010    12.1380    24.7020     2.2410   -15.1010 
   89.8750    71.3790    12.6630    12.2340    13.4180    25.0390     2.2300   -15.1180 
   90.0000    68.2180    13.9900    13.3090    13.6950    25.3370     2.2220   -15.1530 
   90.1250    66.7120    15.6790    14.8880    14.6220    25.2840     2.2120   -15.1860 
   90.2500    66.3470    17.3070    16.5920    16.3360    24.9900     2.1900   -15.1920 
   90.3750    66.0300    18.4840    18.0140    16.8680    24.7670     2.1570   -15.2120 
   90.5000    64.0940    18.9250    18.7870    16.2350    24.7090     2.1230   -15.2500 
   90.6250    60.4210    18.4930    18.6610    15.6500    24.6440     2.1040   -15.2290 
   90.7500    58.7310    17.6150    17.9820    16.1280    24.5640     2.1020   -15.1890 
   90.8750    61.1600    16.6690    17.0840    16.7990    24.5350     2.1110   -15.1900 
   91.0000    66.3880    15.9440    16.2630    17.0330    24.5220     2.1190   -15.2070 
   91.1250    69.5240    15.5930    15.7390    16.8860    24.5450     2.1190   -15.2050 
   91.2500    69.5350    15.4670    15.4720    16.6610    24.6240     2.1120   -15.1920 
   91.3750    68.8270    15.4120    15.3510    16.3950    24.7240     2.1030   -15.1820 
   91.5000    68.7060    15.2970    15.2290    16.2280    24.7540     2.0990   -15.1760 
   91.6250    66.6860    15.0440    14.9890    15.8520    24.6920     2.1040   -15.1780 
   91.7500    63.7440    14.7060    14.6640    15.5270    24.6120     2.1170   -15.1760 
   91.8750    62.8170    14.3520    14.3290    15.0910    24.5560     2.1340   -15.1650 
   92.0000    64.7510    14.0500    14.0530    14.2050    24.5140     2.1500   -15.1580 
   92.1250    67.3600    13.8840    13.8860    13.9660    24.4710     2.1590   -15.1770 
   92.2500    68.3070    13.8540    13.8100    13.9870    24.4500     2.1580   -15.2120 
   92.3750    68.5810    13.8850    13.7970    14.0450    24.4990     2.1460   -15.2520 
   92.5000    70.5540    13.8820    13.7980    14.0340    24.5850     2.1300   -15.2980 
   92.6250    73.7410    13.8640    13.7700    14.1650    24.6360     2.1190   -15.3720 
   92.7500    74.8370    13.9170    13.7390    14.2570    24.6420     2.1210   -15.4560 
   92.8750    74.0850    14.0780    13.7710    14.3230    24.6250     2.1350   -15.5080 
   93.0000    75.1410    14.3730    13.9310    14.4320    24.5580     2.1530   -15.5350 
   93.1250    79.2220    14.8410    14.2580    14.7440    24.5280     2.1700   -15.5540 
   93.2500    81.6690    15.3520    14.6850    15.1600    24.5230     2.1820   -15.5690 
   93.3750    80.3390    15.7520    15.1510    15.2990    24.5220     2.1890   -15.5520 
   93.5000    76.5080    15.9870    15.5890    15.5340    24.4920     2.1890   -15.5110 
   93.6250    74.7270    16.1010    15.9120    15.7560    24.4810     2.1820   -15.4500 
   93.7500    75.5160    16.1980    16.1020    15.8890    24.4890     2.1720   -15.3850 
   93.8750    75.2930    16.2930    16.1790    16.0270    24.5340     2.1650   -15.3400 
   94.0000    73.3360    16.3600    16.1940    16.2170    24.5720     2.1640   -15.3270 
   94.1250    71.6110    16.2930    16.1800    16.3530    24.5810     2.1690   -15.3290 
   94.2500    72.1700    16.2040    16.1270    16.3390    24.5800     2.1710   -15.3420 
   94.3750    73.2780    16.1410    16.0130    16.2420    24.5640     2.1630   -15.3930 
   94.5000    72.8510    16.1270    15.8500    16.1310    24.5220     2.1480   -15.4730 
   94.6250    70.3280    16.1860    15.6990    16.0190    24.5090     2.1370   -15.5660 
   94.7500    67.5510    16.2930    15.6210    16.0020    24.4770     2.1370   -15.6620 
   94.8750    66.4680    16.3600    15.6400    16.1630    24.4330     2.1470   -15.7580 
   95.0000    66.6530    16.3820    15.7420    16.4640    24.4430     2.1610   -15.8390 
   95.1250    65.2350    16.4180    15.8750    16.7200    24.4770     2.1690   -15.9170 
   95.2500    62.1070    16.5180    15.9680    16.8520    24.4990     2.1700   -15.9920 
   95.3750    59.7790    16.6690    15.9990    16.8840    24.4940     2.1670   -16.0570 
   95.5000    60.2270    16.8140    16.0030    16.8060    24.4680     2.1630   -16.1140 
   95.6250    62.4560    16.9020    16.0790    16.6360    24.4560     2.1610   -16.1960 
   95.7500    63.0270    16.9700    16.2900    16.5910    24.4910     2.1600   -16.2930 
   95.8750    61.3570    17.0550    16.6310    16.8410    24.5940     2.1610   -16.3730 
   96.0000    59.4700    17.2090    17.0470    17.3350    24.6880     2.1650   -16.4180 
   96.1250    60.3650    17.5400    17.4680    17.7450    24.7150     2.1670   -16.4310 
   96.2500    63.0650    18.0740    17.8630    17.9690    24.7070     2.1630   -16.4150 
   96.3750    64.8680    18.6780    18.2590    18.1830    24.7570     2.1550   -16.3860 
   96.5000    63.5490    19.2710    18.7070    18.5350    24.9510     2.1430   -16.3510 
   96.6250    59.1830    19.8240    19.2400    19.3990    25.1080     2.1340   -16.2870 
   96.7500    56.0750    20.3060    19.7170    21.0280    25.0150     2.1260   -16.1950 
   96.8750    56.5500    20.6580    19.8440    21.8730    24.8330     2.1210   -16.0900 
   97.0000    59.4650    20.3720    19.2590    21.9190    24.7440     2.1200   -15.9970 
   97.1250    64.1400    18.5670    17.6170    20.2380    24.7300     2.1280   -15.9170 
   97.2500    70.7980    15.5970    15.3370    15.9470    24.6710     2.1450   -15.8530 
   97.3750    79.6690    13.3870    12.9680    11.4100    24.5250     2.1700   -15.7890 
   97.5000    87.4210    12.2960    11.0790     9.7220    24.3490     2.2060   -15.7340 
   97.6250    88.8070    12.0090    10.3040    10.2210    24.2130     2.2630   -15.6800 
