~V
VERS. 2.00: Ver 2.00
~W
STRT.M 55.0000:
STOP.M 264.0000:
STEP.M 0.1250:
NULL. -999.2500:
UWI. F10017:
~C
DEPT.M :
DEN.GM/CC :
SP.MV :
GR.API :
CALI.CM :
RXO.OHMM :
RI. :
RML.OHMM :
~A
# ...
  111.2500     2.3610   -50.0810   105.3490    24.3030     5.9930     4.7890     6.1760 
  111.3750     2.3790   -50.0540   105.4590    24.2100     5.6940     4.7840     6.4600 
  111.5000     2.3720   -49.9960   101.6960    24.1480     5.8150     4.8530     6.6610 
  111.6250     2.3540   -49.9700    98.4240    24.1870     6.3460     4.9910     6.6560 
  111.7500     2.3450   -49.8980    99.8920    24.2140     6.8080     5.1770     6.5750 
  111.8750     2.3390   -49.7810   103.8610    24.2380     7.0250     5.4000     6.5640 
  112.0000     2.3210   -49.7090   103.9820    24.2510     7.1710     5.6460     6.6950 
  112.1250     2.2840   -49.6040    97.5500    24.2530     7.4790     5.8940     7.0240 
  112.2500     2.2410   -49.5260    90.8130    24.2530     7.9590     6.1290     7.4940 
  112.3750     2.2070   -49.4850    87.3260    24.2620     8.5240     6.3440     8.0020 
  112.5000     2.1910   -49.4100    86.4060    24.2870     8.9330     6.5460     8.4600 
  112.6250     2.1920   -49.3140    85.2350    24.3310     8.8660     6.7930     8.9060 
  112.7500     2.1990   -49.2670    82.0330    24.3310     8.7540     7.1650     9.4350 
  112.8750     2.2110   -49.2100    77.9950    24.2850     9.0230     7.7310    10.1010 
  113.0000     2.2380   -49.1170    76.2810    24.2220     9.6980     8.5030    10.8920 
  113.1250     2.2940   -48.9750    77.1050    24.2500    10.0820     9.3800    11.6650 
  113.2500     2.3460   -48.7630    76.7510    24.3020    10.0680    10.0880    12.1830 
  113.3750     2.3520   -48.5060    75.1870    24.2110     9.7510    10.3770    12.2960 
  113.5000     2.3020   -48.2020    75.5230    24.0360     9.5370    10.1550    12.0300 
  113.6250     2.2270   -47.8290    79.5730    24.0240     9.6250     9.5590    11.5230 
  113.7500     2.1710   -47.4180    82.6280    24.1250     9.8990     8.9150    10.9780 
  113.8750     2.1350   -46.9580    82.4490    23.9000    10.1090     8.3600    10.5050 
  114.0000     2.1170   -46.4760    81.1110    23.4150     9.9970     7.9290    10.1110 
  114.1250     2.1370   -46.1270    81.1750    23.2660     9.6470     7.5930     9.6800 
  114.2500     2.1910   -45.8140    83.6240    23.4910     9.0910     7.2650     9.1360 
  114.3750     2.2510   -45.5380    88.0820    23.9210     8.2730     6.9200     8.5450 
  114.5000     2.2810   -45.3230    92.6350    24.1980     7.4470     6.5910     8.0540 
  114.6250     2.2680   -45.2250    94.8100    24.2950     7.0780     6.3360     7.7940 
  114.7500     2.2450   -45.1980    95.7000    24.3370     7.1370     6.1560     7.7000 
  114.8750     2.2350   -45.2120    97.0690    24.3710     7.1680     6.0410     7.6740 
  115.0000     2.2390   -45.2500    98.5750    24.3860     7.2540     5.9780     7.5970 
  115.1250     2.2570   -45.2090    98.5640    24.3850     7.4770     5.9490     7.3820 
  115.2500     2.2910   -45.1580    99.5090    24.3690     7.5580     5.9200     7.0880 
  115.3750     2.3380   -45.0760   102.6470    24.3320     7.4860     5.8930     6.7900 
  115.5000     2.3710   -44.9330   107.2660    24.2820     7.7830     5.9100     6.6030 
  115.6250     2.3660   -44.6150   109.8750    24.2580     8.7650     6.0910     6.8080 
  115.7500     2.3420   -44.1730   107.7770    24.2520     8.6970     6.5240     7.5850 
  115.8750     2.3280   -43.6390   100.2290    24.2650     9.3880     7.2870     8.9970 
  116.0000     2.3230   -42.9750    89.3400    24.3080    12.6580     8.4050    10.8860 
  116.1250     2.2950   -42.2140    79.2300    24.3410    17.7070     9.8290    12.7800 
  116.2500     2.2390   -41.3640    73.0500    24.2200    18.3350    11.2430    14.0820 
  116.3750     2.1800   -40.4510    70.4640    23.8950    14.5730    12.3270    14.5120 
  116.5000     2.1510   -39.5770    68.6140    23.4100    11.2580    12.8870    14.2530 
  116.6250     2.1540   -38.8130    65.1180    23.0690    10.7140    12.9340    13.8190 
  116.7500     2.1570   -38.1490    62.0990    22.9190    11.1200    12.8120    13.5880 
  116.8750     2.1450   -37.6280    62.3380    22.9750    11.4600    12.6910    13.5620 
  117.0000     2.1210   -37.2160    65.9560    23.1540    11.5430    12.5950    13.5800 
  117.1250     2.1010   -36.9420    68.7560    23.3600    11.2150    12.4660    13.5080 
  117.2500     2.0890   -36.7590    66.9430    23.5200    10.6230    12.3350    13.4790 
  117.3750     2.0740   -36.6400    62.9750    23.5880    10.1780    12.3110    13.7210 
  117.5000     2.0530   -36.5270    60.3880    23.5990    11.0130    12.4880    14.3300 
  117.6250     2.0400   -36.4200    59.6210    23.5320    16.9470    12.8970    15.1430 
  117.7500     2.0450   -36.2340    58.7450    23.4820    26.9720    13.3850    15.7170 
  117.8750     2.0610   -35.9430    58.8120    23.5760    29.8550    13.7840    15.7530 
  118.0000     2.0810   -35.6480    62.0030    23.5470    21.7130    13.9570    15.3050 
  118.1250     2.0990   -35.3500    65.9670    23.1290    12.9710    13.8690    14.8150 
  118.2500     2.1110   -35.0900    67.4500    22.8300    10.2820    13.6730    14.6170 
  118.3750     2.1120   -34.8860    65.3870    22.7980     9.8030    13.4600    14.6650 
  118.5000     2.1030   -34.7520    61.2220    22.8430     9.9080    13.2420    14.6920 
  118.6250     2.0940   -34.7870    58.4000    22.8390    10.0440    12.9350    14.3350 
  118.7500     2.0930   -34.9840    59.1860    22.7420     9.9300    12.5670    13.6780 
  118.8750     2.1040   -35.3770    63.1210    22.5610     9.6080    12.3570    13.1880 
  119.0000     2.1350   -35.9290    65.9850    22.3910     9.5380    12.6970    13.5240 
  119.1250     2.1990   -36.5690    64.5570    22.5040    11.5650    14.3010    15.5820 
  119.2500     2.2930   -37.3010    61.9170    22.9680    20.7760    17.3890    19.4740 
  119.3750     2.4090   -38.1200    60.3790    23.6130    51.1850    21.6800    24.6140 
  119.5000     2.5220   -38.9360    58.6360    24.0860   101.8870    25.3590    28.3000 
  119.6250     2.5790   -39.6090    56.8130    24.2440   102.9380    24.4350    25.8220 
  119.7500     2.5640   -40.2200    60.7400    24.2550    61.6690    19.6360    19.6940 
  119.8750     2.4990   -40.7680    72.7920    24.2460    24.2350    14.1490    13.8760 
  120.0000     2.4250   -41.2180    88.4960    24.2510    10.2730     9.9930     9.9170 
  120.1250     2.3770   -41.5730    98.8240    24.3010     7.3980     7.6340     7.8040 
  120.2500     2.3620   -41.7640   103.9490    24.3300     6.5480     6.3670     6.6740 
  120.3750     2.3670   -41.8080   107.1540    24.3420     6.3710     5.8200     6.1420 
  120.5000     2.3780   -41.7790   108.5660    24.3480     6.1860     5.7030     5.9080 
  120.6250     2.3790   -41.6800   108.3020    24.3610     5.9430     5.7530     5.7480 
  120.7500     2.3720   -41.5620   106.3890    24.3780     5.6550     5.7370     5.5550 
  120.8750     2.3580   -41.3260   103.1040    24.3760     5.4410     5.5950     5.3640 
  121.0000     2.3380   -40.9250   101.7870    24.3470     5.3720     5.3750     5.2290 
  121.1250     2.3220   -40.4260   106.8610    24.2860     5.4280     5.2190     5.2060 
  121.2500     2.3210   -39.8240   114.4570    24.2450     5.5900     5.2650     5.3820 
  121.3750     2.3260   -38.9880   115.0460    24.2120     6.0640     5.6320     5.8930 
  121.5000     2.3150   -37.9660   107.3180    24.1760     7.0830     6.4300     6.8730 
  121.6250     2.2720   -36.8780    96.8090    24.0110     8.1310     7.8470     8.4730 
  121.7500     2.2190   -35.7090    87.0940    23.6380     8.8360     9.7890    10.4760 
  121.8750     2.1770   -34.6790    78.4120    23.1660     9.1540    12.0220    12.5590 
  122.0000     2.1520   -33.8790    71.5710    22.8720     9.2220    14.0290    14.2070 
  122.1250     2.1370   -33.2830    68.1990    22.8130     9.2130    14.9890    14.8070 
  122.2500     2.1240   -32.9370    67.7220    22.9850     9.2090    14.8700    14.5500 
  122.3750     2.1180   -32.8790    69.1130    23.2430     9.3310    14.0530    13.8510 
