~V
VERS. 2.00: Ver 2.00
~W
STRT.M 55.0000:
STOP.M 181.0000:
STEP.M 0.1250:
NULL. -999.2500:
UWI. F10008:
~C
DEPT.M :
SP.MV :
GR.API :
RML.OHMM :
RI. :
RXO.OHMM :
CALI.CM :
DEN.GM/CC :
~A
# ...
  167.5000    -0.4930    69.9760    17.7450    15.9460    17.9980    23.9040     2.4000 
  167.6250    -0.7500    71.3420    17.8820    15.9860    20.8000    23.8970     2.3960 
  167.7500    -1.0100    72.6870    17.5260    15.6940    22.1440    23.9240     2.4060 
  167.8750    -1.2400    71.7240    16.5650    14.9810    18.1070    23.9380     2.4230 
  168.0000    -1.4260    69.9470    15.2530    13.9990    15.2570    23.9230     2.4440 
  168.1250    -1.5290    70.9060    14.2130    13.1560    15.8090    23.9050     2.4600 
  168.2500    -1.6550    72.4630    13.9050    12.7810    16.0630    23.9310     2.4680 
  168.3750    -1.8210    73.0320    14.4790    13.0230    18.0540    23.9430     2.4650 
  168.5000    -1.9640    73.3610    15.7830    13.8600    25.2360    23.9320     2.4510 
  168.6250    -1.9840    74.6880    17.2790    15.0240    26.9880    23.8660     2.4350 
  168.7500    -1.9230    74.1490    18.1130    15.8370    25.5720    23.7830     2.4280 
  168.8750    -1.7820    71.1210    17.7580    15.7620    28.4060    23.7720     2.4340 
  169.0000    -1.6140    68.7410    16.3110    14.7350    44.7460    23.8620     2.4480 
  169.1250    -1.4670    67.7090    14.4850    13.2430    38.1290    23.9040     2.4570 
  169.2500    -1.2850    65.9120    13.0920    11.9730    27.0040    23.9000     2.4500 
  169.3750    -1.0690    64.2760    12.4470    11.2200    20.5250    23.9000     2.4260 
  169.5000    -0.8290    64.6120    12.5580    11.0490    12.4670    23.9000     2.3920 
  169.6250    -0.6780    67.2140    13.2330    11.4030    10.9230    23.8920     2.3690 
  169.7500    -0.6540    71.1720    13.9440    11.9170    13.6440    23.8370     2.3710 
  169.8750    -0.6910    75.9020    14.3090    12.2870    19.4010    23.7140     2.4010 
  170.0000    -0.7890    78.9880    14.1960    12.3470    19.7100    23.5840     2.4440 
  170.1250    -0.9770    79.1550    13.8680    12.2160    15.2750    23.5770     2.4730 
  170.2500    -1.2120    79.2080    13.8190    12.2380    12.7140    23.6300     2.4730 
  170.3750    -1.4520    78.7650    14.2870    12.6160    11.9150    23.6760     2.4460 
  170.5000    -1.7490    75.3950    15.2380    13.3850    12.8900    23.6320     2.4120 
  170.6250    -2.0290    73.3040    16.3180    14.3620    14.3950    23.6800     2.3940 
  170.7500    -2.1550    73.6760    16.9430    15.0770    16.2570    23.7690     2.3940 
  170.8750    -2.2250    73.6760    16.7740    15.1740    17.6080    23.8420     2.4040 
  171.0000    -2.2720    73.6760    15.8980    14.6160    14.7200    23.8340     2.4120 
  171.1250    -2.2810    73.6760    14.7220    13.6620    15.1700    23.7760     2.4060 
  171.2500    -2.2320    73.6760    13.6860    12.7030    17.5030    23.8060     2.3900 
  171.3750    -2.1380    73.6760    12.9050    11.8860    18.8980    23.8500     2.3690 
  171.5000    -2.0580    73.6760    12.3040    11.2180    17.0330    23.8480     2.3500 
  171.6250    -2.0020    73.6760    11.6930    10.6150    14.6840    23.7940     2.3350 
  171.7500    -2.0810    73.6760    10.9820     9.9870    13.0190    23.7550     2.3240 
  171.8750    -2.2710    73.6760    10.2320     9.3520    10.8260    23.7440     2.3160 
  172.0000    -2.4670    73.6760     9.5580     8.7700     8.9020    23.7340     2.3100 
  172.1250    -2.6250    73.6760     9.0640     8.3190     7.8410    23.7070     2.3010 
  172.2500    -2.7890    73.6760     8.7470     8.0080     7.6260    23.6950     2.2900 
  172.3750    -2.9340    73.6760     8.5910     7.8370     7.5910    23.6900     2.2800 
  172.5000    -2.9370    73.6760     8.5530     7.7800     7.3720    23.6860     2.2720 
  172.6250    -2.8950    73.6760     8.5650     7.7850     7.7250    23.6850     2.2680 
  172.7500    -2.8330    73.6760     8.5520     7.7760     8.5670    23.6850     2.2660 
  172.8750    -2.7210    73.6760     8.4860     7.7180     9.0660    23.6870     2.2640 
  173.0000    -2.6150    73.6760     8.3820     7.6140     9.3870    23.6860     2.2620 
  173.1250    -2.5110    73.6760     8.2860     7.4990     9.5390    23.6840     2.2600 
  173.2500    -2.2860    73.6760     8.2360     7.4040     8.8910    23.6870     2.2570 
  173.3750    -2.0310    73.6760     8.2360     7.3410     8.0560    23.7010     2.2550 
  173.5000    -1.8430    73.6760     8.2810     7.3080     7.9550    23.7350     2.2540 
  173.6250    -1.7050    73.6760     8.3680     7.3060     8.5690    23.7610     2.2550 
  173.7500    -1.5100    73.6760     8.4820     7.3230     8.7730    23.7830     2.2600 
  173.8750    -1.2050    73.6760     8.5990     7.3420     7.9030    23.7980     2.2680 
  174.0000    -0.8420    73.6760     8.6740     7.3290     7.9980    23.8080     2.2800 
  174.1250    -0.5550    73.6760     8.6210     7.2280     9.1470    23.8110     2.2930 
  174.2500    -0.3920    73.6760     8.4360     7.0460     9.4810    23.8120     2.3030 
  174.3750    -0.2400    73.6760     8.1870     6.8370     8.8870    23.8120     2.3090 
  174.5000    -0.0100    73.6760     8.0290     6.7050     8.7500    23.8120     2.3150 
  174.6250     0.3610    73.6760     8.2410     6.8360     9.5660    23.8140     2.3270 
  174.7500     0.8530    73.6760     8.9920     7.3400    10.9540    23.8260     2.3440 
  174.8750     1.3300    73.6760    10.3920     8.3300    13.5940    23.8480     2.3650 
  175.0000     1.7160    73.6760    12.3920     9.8450    16.3840    23.8530     2.3850 
  175.1250     2.1020    73.6760    14.6050    11.7230    19.7020    23.8280     2.4040 
  175.2500     2.4740    73.6760    16.2030    13.3010    24.2210    23.7980     2.4260 
  175.3750     2.7660    73.6760    16.4840    13.8980    26.9800    23.7460     2.4530 
  175.5000     2.9440    73.6760    15.3250    13.2530    25.0850    23.6660     2.4760 
  175.6250     3.0570    73.6760    13.3290    11.7450    24.0030    23.6220     2.4750 
  175.7500     2.9950    73.6760    11.5040    10.2190    22.5880    23.5900     2.4470 
  175.8750     2.8420    73.6760    10.2620     9.0380    20.0680    23.5350     2.4010 
  176.0000     2.6760    73.6760     9.6600     8.2960    14.7620    23.4450     2.3560 
  176.1250     2.5060    73.6760     9.5950     7.9830    12.5810    23.3840     2.3320 
  176.2500     2.3430    73.6760     9.7380     7.9010    12.0540    23.3510     2.3290 
  176.3750     2.2160    73.6760     9.9040     7.9210    11.8470    23.3250     2.3400 
  176.5000     2.0720    73.6760    10.0030     7.9550    12.1070    23.3020     2.3570 
  176.6250     1.8920    73.6760    10.0280     7.9670    13.1450    23.2780     2.3770 
  176.7500     1.7120    73.6760    10.0280     7.9670    14.5120    23.2460     2.3960 
  176.8750     1.4420    73.6760    10.0280     7.9670    15.3780    23.2300     2.4070 
  177.0000     1.1580    73.6760    10.0280     7.9670    14.8760    23.2160     2.4050 
  177.1250     0.9840    73.6760    10.0280     7.9670    13.7420    23.1870     2.3850 
  177.2500     0.8760    73.6760    10.0280     7.9670    11.3360    23.1320     2.3610 
  177.3750     0.7290    73.6760    10.0280     7.9670     9.6120    23.0780     2.3440 
  177.5000     0.5610    73.6760    10.0280     7.9670     8.9740    23.0410     2.3420 
  177.6250     0.4350    73.6760    10.0280     7.9670     9.0850    23.0020     2.3480 
  177.7500     0.3660    73.6760    10.0280     7.9670     9.1020    22.9420     2.3520 
  177.8750     0.4030    73.6760    10.0280     7.9670     9.1840    22.8720     2.3460 
  178.0000     0.4740    73.6760    10.0280     7.9670     9.5110    22.7860     2.3330 
  178.1250     0.4870    73.6760    10.0280     7.9670     9.9340    22.7020     2.3240 
  178.2500     0.5000    73.6760    10.0280     7.9670     9.8780    22.6380     2.3240 
  178.3750     0.5690    73.6760    10.0280     7.9670    10.1180    22.6100     2.3330 
  178.5000     0.6880    73.6760    10.0280     7.9670    10.2900    22.5970     2.3410 
  178.6250     0.8750    73.6760    10.0280     7.9670    10.1860    22.5230     2.3380 
