~V
VERS. 2.00: Ver 2.00
~W
STRT.M 55.0000:
STOP.M 279.0000:
STEP.M 0.1250:
NULL. -999.2500:
UWI. F10072:
~C
DEPT.M :
GR.API :
RML.OHMM :
RI. :
RXO.OHMM :
CALI.CM :
DEN.GM/CC :
SP.MV :
~A
# ...
  223.7500    74.7590    51.9240    55.0510    56.0100    24.7360     2.2550    -4.9080 
  223.8750    73.2130    53.2000    56.2870    57.3670    24.7110     2.2500    -5.0080 
  224.0000    71.4730    54.7280    58.0050    61.2870    24.6880     2.2400    -5.0790 
  224.1250    70.5860    55.9580    59.6390    60.4140    24.6780     2.2270    -5.2080 
  224.2500    69.6840    56.4120    60.5240    64.5080    24.6810     2.2150    -5.2470 
  224.3750    69.4800    55.9300    60.3610    66.1350    24.7120     2.2060    -5.3100 
  224.5000    70.6980    54.8050    59.3710    61.7400    24.7650     2.2020    -5.3340 
  224.6250    70.5650    53.9750    58.4030    56.0730    24.7950     2.2030    -5.3760 
  224.7500    68.4580    54.5210    58.4830    52.4340    24.7610     2.2070    -5.3910 
  224.8750    66.3170    57.2090    60.3930    50.4100    24.8600     2.2150    -5.3760 
  225.0000    64.4750    62.3230    64.6630    50.7950    25.1150     2.2270    -5.3610 
  225.1250    63.4110    69.7130    71.6650    68.3710    24.9610     2.2470    -5.3510 
  225.2500    63.3640    77.8360    80.0420    85.8040    24.8640     2.2680    -5.3610 
  225.3750    63.5360    85.3290    88.2430    98.0500    24.7660     2.2850    -5.4060 
  225.5000    62.3420    91.1350    94.7330    99.5400    24.7060     2.2950    -5.4880 
  225.6250    60.8380    94.7730    98.4510   102.7000    24.6870     2.2950    -5.5100 
  225.7500    61.4110    97.4740   100.5060   112.9040    24.7140     2.2870    -5.5820 
  225.8750    62.2360   100.4840   102.2170   117.2390    24.7500     2.2720    -5.6140 
  226.0000    61.8230   104.8710   104.8510   113.7110    24.7870     2.2510    -5.6630 
  226.1250    62.3850   111.6410   109.7040   119.2180    24.8250     2.2240    -5.7370 
  226.2500    63.1760   120.5540   116.9370   140.7590    24.8920     2.2010    -5.7500 
  226.3750    62.1000   131.1900   126.4950   144.9710    24.9560     2.1840    -5.7280 
  226.5000    59.8200   142.5640   137.7130   144.0140    24.9550     2.1760    -5.7170 
  226.6250    60.7190   152.5900   148.8960   155.5050    24.9250     2.1730    -5.7030 
  226.7500    63.6430   159.2130   157.7310   184.0090    24.8700     2.1700    -5.7100 
  226.8750    65.3200   160.8930   162.1860   209.3790    24.7910     2.1660    -5.7010 
  227.0000    65.5960   157.1560   160.7960   216.6100    24.7280     2.1620    -5.6760 
  227.1250    66.3200   148.6120   152.9330   193.2840    24.6900     2.1650    -5.6210 
  227.2500    66.2560   138.7690   142.2740   177.0050    24.6790     2.1750    -5.6290 
  227.3750    63.7680   130.3890   132.1050   162.9010    24.7320     2.1900    -5.6930 
  227.5000    61.0770   125.5220   124.9460   134.0610    25.0050     2.2030    -5.7500 
  227.6250    61.6970   125.9890   123.0820   118.7980    25.4040     2.2060    -5.9160 
  227.7500    62.6860   131.1120   126.1960   148.5470    25.4200     2.1940    -5.9990 
  227.8750    60.3750   140.4110   133.8290   213.7620    25.1490     2.1720    -6.0610 
  228.0000    55.8750   153.0750   145.0010   237.8360    24.9950     2.1590    -6.1260 
  228.1250    54.5550   168.0230   158.8000   202.3920    25.0530     2.1810    -6.1400 
  228.2500    56.5590   182.6950   173.3450   180.7310    25.0310     2.2390    -6.1830 
  228.3750    59.0180   194.1980   186.6060   205.6130    24.7150     2.3100    -6.0760 
  228.5000    60.1260   199.1440   195.6270   273.1550    24.3440     2.3600    -5.9780 
  228.6250    58.5750   192.8480   195.0250   299.2310    24.2490     2.3530    -5.7750 
  228.7500    55.2760   176.3890   183.4360   292.9040    24.3460     2.3030    -5.5450 
  228.8750    52.8240   152.3450   161.9560   232.1620    24.3950     2.2370    -5.4360 
  229.0000    53.2690   125.2480   135.2310   151.2760    24.4440     2.1850    -5.3340 
  229.1250    56.9790   100.3300   109.4280   113.4040    24.5380     2.1660    -5.1880 
  229.2500    61.0090    79.8780    87.8330    97.1890    24.5790     2.1710    -5.0550 
  229.3750    63.4600    64.2020    71.1120    77.2360    24.4810     2.1900    -4.9380 
  229.5000    64.0960    52.7180    58.8180    62.6940    24.4700     2.2120    -4.7360 
  229.6250    64.8290    44.9420    50.4040    59.0600    24.5970     2.2230    -4.6290 
  229.7500    66.2670    39.3680    44.2060    64.8570    24.6940     2.2170    -4.5550 
  229.8750    66.0830    35.3250    39.5150    64.2330    24.5990     2.1990    -4.3350 
  230.0000    63.6490    32.3580    35.8920    58.3610    24.4960     2.1810    -4.1660 
  230.1250    63.0190    30.3410    33.2010    45.6050    24.4370     2.1780    -4.0900 
  230.2500    65.5220    29.1150    31.2690    30.5940    24.3780     2.1890    -3.9270 
  230.3750    68.8330    28.7800    30.2320    24.3380    24.4410     2.2070    -3.8850 
  230.5000    70.0720    29.3930    30.2340    25.5460    24.6300     2.2270    -3.8900 
  230.6250    67.2040    30.9500    31.5040    29.3720    24.7680     2.2430    -3.8320 
  230.7500    61.9180    32.9410    33.6320    36.2900    24.7370     2.2570    -3.8230 
  230.8750    58.5520    34.9180    36.0890    42.2300    24.6620     2.2630    -3.8750 
  231.0000    60.1230    36.4590    38.1980    44.6040    24.2860     2.2580    -3.9310 
  231.1250    63.8580    37.2070    39.2440    36.3510    23.9530     2.2400    -3.9470 
  231.2500    64.5530    37.3760    39.3680    29.7540    23.7030     2.2170    -4.0350 
  231.3750    62.9840    37.2840    38.9670    27.1860    23.6110     2.2000    -4.0620 
  231.5000    62.1480    37.2500    38.4970    29.9830    23.6450     2.1920    -4.1120 
  231.6250    61.5220    37.4670    38.3090    33.0400    23.6720     2.1930    -4.2080 
  231.7500    62.4850    37.8160    38.3910    36.6250    23.5830     2.1960    -4.2700 
  231.8750    65.1910    38.1020    38.5820    37.5870    23.4640     2.1980    -4.3920 
  232.0000    66.9160    38.1860    38.6800    35.9580    23.4270     2.1990    -4.5420 
  232.1250    64.8460    38.0930    38.5560    36.3310    23.5370     2.1970    -4.7130 
  232.2500    63.0880    38.1100    38.3820    36.1400    23.6550     2.1940    -4.8240 
  232.3750    64.6960    38.5300    38.4050    34.1760    23.7300     2.1890    -4.9950 
  232.5000    66.8850    39.5380    38.8160    32.3580    23.7270     2.1890    -5.1930 
  232.6250    66.9990    41.1340    39.7560    36.5160    23.7330     2.2010    -5.3250 
  232.7500    66.2110    42.8610    41.0300    44.9410    23.9500     2.2250    -5.4720 
  232.8750    64.9150    44.3240    42.3820    45.5700    24.3720     2.2520    -5.6430 
  233.0000    62.6310    45.2900    43.4990    41.3210    24.8910     2.2700    -5.7100 
  233.1250    60.6820    45.7180    44.0400    39.8090    24.8090     2.2660    -5.7370 
  233.2500    60.8530    45.9010    44.0700    42.1110    24.7210     2.2440    -5.8410 
  233.3750    61.8480    45.9900    43.7760    44.3430    24.7090     2.2150    -5.8840 
  233.5000    62.0560    45.9930    43.3910    45.0040    24.7960     2.1900    -5.8370 
  233.6250    61.7570    45.7650    43.0310    41.2340    24.7880     2.1770    -5.8630 
  233.7500    61.2850    45.2570    42.5450    39.9460    24.7310     2.1730    -5.9250 
  233.8750    59.7870    44.4800    41.7390    39.4460    24.6910     2.1730    -5.8860 
  234.0000    57.4390    43.5100    40.5550    38.0250    24.6810     2.1730    -5.8510 
  234.1250    56.4740    42.4470    39.0940    36.5610    24.6850     2.1730    -5.8580 
  234.2500    57.6250    41.3960    37.6530    36.8990    24.7220     2.1750    -5.7600 
  234.3750    59.5780    40.4050    36.4090    34.5740    24.8060     2.1790    -5.6680 
  234.5000    61.2510    39.5060    35.4230    33.8340    24.9320     2.1880    -5.6160 
  234.6250    63.1390    38.7850    34.7230    34.2700    25.0780     2.1990    -5.4850 
  234.7500    66.1860    38.3390    34.2550    34.5810    25.1490     2.2090    -5.3840 
  234.8750    68.7620    38.3220    34.0800    34.7490    25.1570     2.2150    -5.3140 
