~V
VERS. 2.00: Ver 2.00
~W
STRT.M 55.0000:
STOP.M 314.0000:
STEP.M 0.1250:
NULL. -999.2500:
UWI. F10048:
~C
DEPT.M :
DEN.GM/CC :
GR.API :
RML.OHMM :
RI. :
RXO.OHMM :
CALI.CM :
SP.MV :
~A
   55.0000     2.2350    48.6940    -0.0450     0.3070     0.0330    25.2630    53.9090 
   55.1250     2.3850    50.0150    -0.3490     0.2830     0.4590    25.2300    49.5720 
   55.2500     2.5540    49.9200    -0.5130     0.2490     1.1050    25.1410    44.7050 
   55.3750     2.6870    50.1630    -0.5350     0.2160     2.0400    24.9680    39.4760 
   55.5000     2.7360    53.6030    -0.3690     0.2420     2.9830    24.6930    34.0480 
   55.6250     2.6920    59.5630     0.1720     0.4950     5.0610    24.3290    28.5880 
   55.7500     2.6090    63.6240     1.1690     1.1200     7.8430    23.9500    23.2840 
   55.8750     2.5160    64.5550     2.6230     2.2240    10.9000    23.5840    18.1000 
   56.0000     2.4310    63.1000     4.3490     3.7770    13.4620    23.2330    12.9970 
   56.1250     2.3630    60.9900     5.8800     5.5340    12.7640    22.9460     8.1360 
   56.2500     2.3150    59.5790     6.8510     7.0550    11.4890    22.7640     3.7750 
   56.3750     2.2850    59.8140     7.3030     8.1380    10.8930    22.7240     0.1870 
   56.5000     2.2750    61.6400     7.5760     8.8570    10.9380    22.8100    -2.5300 
   56.6250     2.2870    64.6910     7.9470     9.3770    11.2810    22.8830    -4.4220 
   56.7500     2.3100    66.2860     8.3760     9.8030    11.7010    22.9120    -5.8440 
   56.8750     2.3320    64.9550     8.7060    10.0890    11.9990    22.9200    -6.8910 
   57.0000     2.3430    61.3070     8.7840    10.1510    12.0630    22.9330    -7.5900 
   57.1250     2.3400    58.7340     8.5390     9.9100    11.8620    22.9620    -7.9910 
   57.2500     2.3290    60.5080     8.1780     9.5060    11.3030    22.9960    -8.1940 
   57.3750     2.3150    66.9740     7.9060     9.0900    10.4770    23.0120    -8.2370 
   57.5000     2.3000    72.7860     7.8380     8.7820     9.7070    23.0050    -8.1580 
   57.6250     2.2850    70.7700     7.9300     8.6160     9.5190    22.9610    -7.9490 
   57.7500     2.2710    65.1390     7.9280     8.4530    10.0320    22.9140    -7.6660 
   57.8750     2.2610    62.2900     7.6110     8.1400    10.3460    22.9450    -7.2830 
   58.0000     2.2610    63.5000     6.8940     7.5820     9.9140    23.0650    -6.8760 
   58.1250     2.2750    68.2660     5.9130     6.8120     8.5590    23.1520    -6.4840 
   58.2500     2.2950    76.9550     5.0650     6.0910     7.0820    23.1860    -6.1370 
   58.3750     2.3120    86.4700     4.6470     5.6640     6.2470    23.1940    -5.8510 
   58.5000     2.3200    90.5450     4.8180     5.7120     6.4910    23.1990    -5.5880 
   58.6250     2.3190    85.5240     5.6380     6.3560     8.1380    23.2290    -5.3030 
   58.7500     2.3210    76.9760     6.7700     7.3420    10.3120    23.3050    -4.9590 
   58.8750     2.3340    69.6430     7.8580     8.3610    12.0790    23.4450    -4.5930 
   59.0000     2.3580    65.3720     8.5270     9.0460    13.0630    23.6520    -4.2090 
   59.1250     2.3790    65.8430     8.4290     9.0050    12.5760    23.8780    -3.7820 
   59.2500     2.3850    73.0000     7.7760     8.3830    10.6050    24.0430    -3.3080 
   59.3750     2.3740    86.7930     6.8860     7.4770     7.9230    24.1130    -2.7990 
   59.5000     2.3550   100.3530     6.0730     6.6100     6.3670    24.1280    -2.3230 
   59.6250     2.3440   105.6820     5.5650     6.0150     5.9080    24.1280    -1.9870 
   59.7500     2.3440   104.4740     5.3520     5.6870     5.7660    24.1270    -1.8130 
   59.8750     2.3530    99.8520     5.3980     5.5830     5.7920    24.1260    -1.8410 
   60.0000     2.3640    95.3620     5.6350     5.6430     5.8820    24.1240    -2.0110 
   60.1250     2.3730    95.1040     5.9720     5.8130     6.0090    24.1120    -2.3180 
   60.2500     2.3800    99.1240     6.2740     6.0160     6.1160    24.0790    -2.7130 
   60.3750     2.3840   102.1360     6.4530     6.2010     6.2950    24.0230    -3.1680 
   60.5000     2.3830    98.9680     6.4820     6.3320     6.5860    23.9540    -3.5980 
   60.6250     2.3800    89.9970     6.4150     6.4010     6.9810    23.9050    -3.8880 
   60.7500     2.3780    82.4370     6.3950     6.4560     7.2000    23.9050    -4.1110 
   60.8750     2.3790    82.4050     6.5210     6.5470     7.0950    23.9290    -4.3380 
   61.0000     2.3800    86.8870     6.8110     6.7050     7.2300    23.9090    -4.5990 
   61.1250     2.3760    85.5720     7.1890     6.9280     7.8610    23.7600    -4.8590 
   61.2500     2.3630    78.3280     7.4940     7.1420     8.3740    23.5430    -5.0660 
   61.3750     2.3440    71.3700     7.6280     7.2780     8.4900    23.3350    -5.1960 
   61.5000     2.3280    69.8490     7.5580     7.2810     8.5650    23.1920    -5.2460 
   61.6250     2.3230    72.3890     7.2940     7.1120     8.0370    23.1290    -5.2890 
   61.7500     2.3290    75.9130     6.9450     6.8360     7.1630    23.1020    -5.3320 
   61.8750     2.3420    80.4170     6.5770     6.5130     6.5350    23.0820    -5.3060 
   62.0000     2.3540    84.9490     6.2350     6.2030     6.3010    23.0640    -5.2280 
   62.1250     2.3630    87.0080     5.9920     5.9760     6.2280    23.0590    -5.1520 
   62.2500     2.3710    85.9040     5.9150     5.8750     6.1460    23.0610    -5.1360 
   62.3750     2.3760    84.8320     6.0740     5.9490     6.2230    23.0680    -5.2310 
   62.5000     2.3780    85.6770     6.5010     6.2190     6.7300    23.0730    -5.4660 
   62.6250     2.3750    84.5720     7.1710     6.6810     7.7880    23.0810    -5.8520 
   62.7500     2.3690    79.4050     7.8950     7.2010     8.9160    23.1120    -6.2900 
   62.8750     2.3600    72.7320     8.4950     7.6440     9.8100    23.2090    -6.7460 
   63.0000     2.3510    69.9060     8.8200     7.8840    10.0390    23.3940    -7.2240 
   63.1250     2.3400    71.2070     8.7530     7.8110     9.0690    23.6710    -7.7000 
   63.2500     2.3270    71.7050     8.4360     7.5310     8.1280    23.9520    -8.1790 
   63.3750     2.3120    70.5220     8.0210     7.1690     7.7000    24.1220    -8.6310 
   63.5000     2.2970    69.6120     7.6580     6.8470     7.4720    24.1220    -9.1100 
   63.6250     2.2860    70.5610     7.4810     6.6710     7.4660    24.0040    -9.6820 
   63.7500     2.2810    71.7740     7.5070     6.6430     7.7300    23.8290   -10.3430 
   63.8750     2.2820    73.2520     7.7260     6.7480     8.2220    23.6320   -11.0680 
   64.0000     2.2840    74.9230     8.0970     6.9600     8.7390    23.4830   -11.8500 
   64.1250     2.2850    74.4760     8.6010     7.2740     8.9370    23.4110   -12.6900 
   64.2500     2.2830    71.0360     9.2020     7.6720     9.2670    23.3680   -13.5290 
   64.3750     2.2780    66.4700     9.9010     8.1590     9.8860    23.3350   -14.3310 
   64.5000     2.2740    64.6260    10.6900     8.7240    10.4620    23.2930   -15.0060 
   64.6250     2.2730    65.9410    11.5050     9.3260    10.8980    23.1870   -15.5120 
   64.7500     2.2760    66.7560    12.2050     9.8710    11.2440    23.0330   -15.9120 
   64.8750     2.2820    66.6840    12.6600    10.2700    11.4370    22.8710   -16.2390 
   65.0000     2.2880    66.7200    12.8010    10.4650    11.4480    22.7440   -16.4770 
   65.1250     2.2890    67.1270    12.6340    10.4300    11.3670    22.6840   -16.6350 
   65.2500     2.2850    66.0890    12.3400    10.2680    11.3650    22.6620   -16.7360 
   65.3750     2.2780    65.2930    12.0480    10.0670    11.4700    22.6490   -16.7910 
   65.5000     2.2720    65.8430    11.8400     9.8970    11.5470    22.6390   -16.8310 
   65.6250     2.2700    65.1160    11.7480     9.8070    11.5170    22.6440   -16.8460 
   65.7500     2.2720    63.2230    11.7210     9.7790    11.4190    22.6600   -16.8120 
   65.8750     2.2740    60.9420    11.7240     9.7920    11.3930    22.6820   -16.7240 
   66.0000     2.2730    60.2380    11.7350     9.8220    11.4210    22.7020   -16.5930 
   66.1250     2.2670    60.9110    11.7370     9.8550    11.5240    22.7280   -16.4450 
