~V
VERS. 2.00: Ver 2.00
~W
STRT.M 64.0000:
STOP.M 308.0000:
STEP.M 0.1250:
NULL. -999.2500:
UWI. F10040:
~C
DEPT.M :
GR.API :
RML.OHMM :
RI. :
RXO.OHMM :
CALI.CM :
DEN.GM/CC :
SP.MV :
~A
# ...
  142.7500    85.1550     4.5350     4.3550     4.3390    24.7870     2.3290     2.9110 
  142.8750    88.2180     4.3880     4.1500     4.1080    24.7990     2.3300     2.8880 
  143.0000    87.7600     4.2080     3.9270     3.9030    24.8390     2.3400     2.8810 
  143.1250    86.2650     3.9870     3.6870     3.7870    24.8670     2.3600     2.7650 
  143.2500    86.7840     3.7390     3.4390     3.6700    24.8580     2.3810     2.5050 
  143.3750    87.3920     3.5010     3.2120     3.6450    24.8570     2.3970     2.1270 
  143.5000    86.1710     3.3590     3.0710     3.7070    24.8710     2.4090     1.6780 
  143.6250    84.4760     3.4910     3.1490     3.9250    24.8570     2.4290     1.1660 
  143.7500    82.4600     4.0040     3.5270     4.5450    24.7700     2.4690     0.5340 
  143.8750    78.0800     4.9630     4.2710     6.7760    24.6710     2.5250    -0.2580 
  144.0000    70.6550     6.3000     5.3670    12.7270    24.6320     2.5750    -1.1900 
  144.1250    65.7110     7.6660     6.6140    18.5330    24.6400     2.5810    -2.2110 
  144.2500    65.9540     8.5280     7.5660    16.2810    24.6020     2.5350    -3.2680 
  144.3750    67.8090     8.5800     7.8980    10.5710    24.4900     2.4500    -4.3620 
  144.5000    67.8180     7.9160     7.5790     7.8360    24.4070     2.3570    -5.4500 
  144.6250    66.8750     6.9760     6.8780     7.4480    24.3140     2.2910    -6.4060 
  144.7500    68.0890     6.2390     6.2300     7.6830    24.3400     2.2570    -7.1870 
  144.8750    69.8350     5.8560     5.8150     7.9190    24.4210     2.2470    -7.8170 
  145.0000    69.2120     5.8020     5.6590     8.0470    24.7180     2.2500    -8.3250 
  145.1250    66.4710     5.9790     5.7100     8.2760    24.9010     2.2530    -8.6350 
  145.2500    64.5040     6.2140     5.8350     8.4300    24.9170     2.2550    -8.7430 
  145.3750    63.4170     6.4280     5.9780     8.4390    24.7780     2.2550    -8.6680 
  145.5000    62.5090     6.5970     6.1230     8.4380    24.6470     2.2560    -8.4840 
  145.6250    63.2310     6.7390     6.2700     8.4490    24.6090     2.2580    -8.2670 
  145.7500    64.8840     6.8820     6.4080     8.3800    24.6490     2.2610    -8.0170 
  145.8750    66.8450     6.9980     6.4990     8.2160    24.6740     2.2630    -7.6710 
  146.0000    69.4000     7.0120     6.4930     7.7890    24.6510     2.2660    -7.2140 
  146.1250    70.7220     6.7980     6.3080     7.1690    24.7260     2.2700    -6.7720 
  146.2500    71.1890     6.3720     5.9600     6.7380    24.8180     2.2780    -6.4360 
  146.3750    73.8180     5.8170     5.5020     6.6180    24.7940     2.2910    -6.2420 
  146.5000    80.1270     5.2770     5.0260     6.0050    24.8290     2.3070    -6.1830 
  146.6250    84.4100     4.9400     4.6600     4.8440    24.8960     2.3170    -6.2940 
  146.7500    82.1460     4.8660     4.4660     4.8630    24.7970     2.3170    -6.5800 
  146.8750    74.9090     5.0500     4.4700     5.7280    24.6490     2.3060    -7.0660 
  147.0000    66.5990     5.4210     4.6550     6.6690    24.6820     2.2860    -7.7090 
  147.1250    62.2460     5.8640     4.9810     7.3650    24.9410     2.2630    -8.3720 
  147.2500    61.3610     6.2540     5.3410     7.8670    24.9570     2.2460    -8.9750 
  147.3750    61.8580     6.5400     5.6550     8.0390    24.7100     2.2360    -9.4770 
  147.5000    62.6280     6.7160     5.8750     8.2070    24.5140     2.2340    -9.8880 
  147.6250    63.9050     6.7990     5.9880     8.4100    24.4760     2.2370   -10.1850 
  147.7500    65.6860     6.8310     6.0470     8.5490    24.3650     2.2390   -10.3270 
  147.8750    66.0140     6.8200     6.0850     8.6230    24.3230     2.2330   -10.2720 
  148.0000    64.0880     6.7750     6.1170     8.7100    24.5400     2.2180   -10.0650 
  148.1250    62.5230     6.7190     6.1500     8.3740    24.8430     2.2020    -9.8010 
  148.2500    62.4480     6.6840     6.1870     7.9720    24.7920     2.1900    -9.4970 
  148.3750    62.6710     6.6850     6.2260     8.0100    24.6440     2.1870    -9.1060 
  148.5000    62.2740     6.7090     6.2600     8.3870    24.4880     2.1910    -8.5690 
  148.6250    62.8960     6.7110     6.2590     8.1510    24.4830     2.2010    -7.8170 
  148.7500    64.0220     6.6380     6.1930     7.5550    24.6180     2.2160    -6.9180 
  148.8750    65.0510     6.4630     6.0390     7.0730    24.7240     2.2360    -5.9330 
  149.0000    69.5160     6.1870     5.7960     6.6700    24.6940     2.2610    -4.8830 
  149.1250    78.9950     5.8410     5.4820     6.3040    24.5490     2.2870    -3.7290 
  149.2500    86.5330     5.4980     5.1570     5.5560    24.5030     2.3090    -2.5480 
  149.3750    87.8360     5.2110     4.8720     4.9400    24.4760     2.3270    -1.4220 
  149.5000    85.3280     5.0200     4.6720     5.0650    24.4740     2.3470    -0.4090 
  149.6250    84.6130     4.9710     4.5980     5.7450    24.5880     2.3770     0.4230 
  149.7500    86.0750     5.0230     4.6210     6.0110    24.6650     2.4110     1.1350 
  149.8750    87.2210     5.1230     4.7000     5.8840    24.6620     2.4370     1.7650 
  150.0000    85.8700     5.2120     4.7830     6.4160    24.5090     2.4420     2.2890 
  150.1250    84.2270     5.2370     4.8110     5.7520    24.1690     2.4210     2.6410 
  150.2500    85.1950     5.2110     4.7820     5.4300    24.0410     2.3910     2.8870 
  150.3750    87.3140     5.1720     4.7230     5.1950    24.0830     2.3670     3.1010 
  150.5000    87.7870     5.1620     4.6740     5.4200    24.2040     2.3590     3.3260 
  150.6250    86.5040     5.2030     4.6720     5.9380    24.5410     2.3670     3.5370 
  150.7500    86.3230     5.2630     4.7060     6.1870    24.8240     2.3790     3.6710 
  150.8750    86.0650     5.3040     4.7520     5.7270    24.9230     2.3870     3.7370 
  151.0000    84.5870     5.2920     4.7810     5.5380    24.7530     2.3870     3.8090 
  151.1250    85.7190     5.2090     4.7690     5.6250    24.6890     2.3810     3.8890 
  151.2500    87.8600     5.0860     4.7190     5.3020    24.7630     2.3750     3.9520 
  151.3750    86.8100     4.9510     4.6430     5.1600    24.8580     2.3740     3.9870 
  151.5000    83.0680     4.8270     4.5580     5.2120    24.7570     2.3790     3.9860 
  151.6250    84.4240     4.7450     4.4970     5.0730    24.6850     2.3900     3.9830 
  151.7500    88.7870     4.7240     4.4800     4.8780    24.8030     2.4020     3.9980 
  151.8750    89.9010     4.7820     4.5190     5.2920    25.0400     2.4110     3.9760 
  152.0000    88.1610     4.9150     4.6130     6.1170    25.1550     2.4120     3.8640 
  152.1250    87.0700     5.0900     4.7480     6.9950    25.1130     2.4030     3.7080 
  152.2500    84.2350     5.2420     4.8870     6.2790    25.0510     2.3880     3.5800 
  152.3750    79.4200     5.3320     5.0010     5.7640    24.9900     2.3690     3.4740 
  152.5000    78.0790     5.3440     5.0610     5.8410    24.9050     2.3490     3.3810 
  152.6250    82.0290     5.2710     5.0360     5.8750    24.8280     2.3330     3.2700 
  152.7500    85.6860     5.1360     4.9360     5.6030    24.8190     2.3240     3.1400 
  152.8750    88.9350     4.9530     4.7820     5.0260    24.9040     2.3260     3.0380 
  153.0000    95.0290     4.7450     4.6010     4.6110    25.0120     2.3370     3.0090 
  153.1250   101.5470     4.5540     4.4260     4.4810    25.0690     2.3510     3.0210 
  153.2500   102.9490     4.4190     4.2820     4.4510    25.0850     2.3610     3.0030 
  153.3750   100.3800     4.3470     4.1740     4.4620    25.0850     2.3660     2.9110 
  153.5000    97.7410     4.3210     4.0980     4.6000    25.0840     2.3660     2.7400 
  153.6250    97.4070     4.3320     4.0510     4.5280    25.0780     2.3670     2.5500 
  153.7500    98.4330     4.4490     4.0370     4.4940    25.0620     2.3690     2.3440 
  153.8750    96.9810     4.7450     4.0760     4.5690    25.0320     2.3710     2.0550 
