~V
VERS. 2.00: Ver 2.00
~W
STRT.M 55.0000:
STOP.M 297.0000:
STEP.M 0.1250:
NULL. -999.2500:
UWI. F10076:
~C
DEPT.M :
DEN.GM/CC :
SP.MV :
GR.API :
CALI.CM :
RXO.OHMM :
RI. :
RML.OHMM :
~A
# ...
  201.2500     2.1390   -13.7590    71.3770    26.1860    88.0920    88.7160    87.6200 
  201.3750     2.1420   -13.6550    69.7600    26.2790    88.8670    93.6340    92.9090 
  201.5000     2.1350   -13.5660    67.0900    26.4280    88.5930    95.7180    95.2290 
  201.6250     2.1130   -13.4440    64.7870    26.6780    82.8690    94.8290    94.5370 
  201.7500     2.0930   -13.3070    65.3650    26.8190    75.5010    92.2280    92.1750 
  201.8750     2.0890   -13.1520    67.1790    26.6790    70.5130    88.5370    88.6660 
  202.0000     2.1020   -12.9020    66.6250    26.2530    69.6910    83.9300    84.0170 
  202.1250     2.1200   -12.6700    64.6130    25.8370    71.3380    78.1900    77.9910 
  202.2500     2.1300   -12.4380    66.5890    25.5580    70.4130    71.7920    71.3970 
  202.3750     2.1370   -12.2750    70.2760    25.3650    65.2470    65.4960    65.2290 
  202.5000     2.1560   -12.1090    70.8240    25.1060    57.2550    60.0990    60.2590 
  202.6250     2.1960   -11.8540    68.5490    24.7170    50.0610    56.0550    56.6640 
  202.7500     2.2380   -11.5720    68.7690    24.4120    47.2700    52.4360    53.2130 
  202.8750     2.2680   -11.3720    70.0210    24.3510    48.4840    48.0250    48.5920 
  203.0000     2.2850   -11.2060    70.2950    24.5470    48.3200    41.9770    42.1040 
  203.1250     2.2960   -11.0580    71.6850    24.8500    40.9600    34.6290    34.3830 
  203.2500     2.2970   -10.9680    76.2460    24.8100    28.7610    27.6780    27.2210 
  203.3750     2.2850   -10.8920    83.0460    24.3430    18.6470    22.1490    21.6000 
  203.5000     2.2660   -10.7910    89.3040    23.8200    13.7970    18.3560    17.8040 
  203.6250     2.2530   -10.7730    93.5240    23.6140    12.8250    16.3650    15.9200 
  203.7500     2.2490   -10.7730    95.2730    23.5770    13.0360    15.6060    15.3290 
  203.8750     2.2520   -10.7450    94.0190    23.5770    13.9230    15.8080    15.6910 
  204.0000     2.2610   -10.8030    92.7350    23.5770    15.4150    16.6390    16.5740 
  204.1250     2.2720   -10.8930    94.1140    23.5770    17.0800    17.5400    17.3410 
  204.2500     2.2830   -10.9620    93.9490    23.5840    18.1530    17.8530    17.4380 
  204.3750     2.2950   -10.9850    89.9600    23.6410    17.3410    17.2850    16.6850 
  204.5000     2.3140   -11.1020    86.1480    23.8730    14.4140    16.0110    15.3110 
  204.6250     2.3400   -11.3430    89.2420    24.4050    11.7910    14.5210    13.8280 
  204.7500     2.3620   -11.6660    95.3710    24.9790    10.6430    13.2710    12.6770 
  204.8750     2.3680   -12.0120   100.3630    25.2730    10.4390    12.4070    11.9890 
  205.0000     2.3580   -12.3770   102.8510    25.2940    10.4570    11.9320    11.7230 
  205.1250     2.3330   -12.8510   101.1880    25.2280    10.5150    11.8030    11.7770 
  205.2500     2.3040   -13.3380    96.0130    25.1830    10.6890    11.8400    11.9520 
  205.3750     2.2790   -13.8290    91.0520    25.1690    11.0340    11.9710    12.1920 
  205.5000     2.2620   -14.2190    88.8420    25.1670    11.4650    12.1960    12.5330 
  205.6250     2.2540   -14.5640    86.6290    25.1670    11.9250    12.6320    13.1230 
  205.7500     2.2500   -14.8750    84.4940    25.1670    12.9910    13.3780    14.0750 
  205.8750     2.2440   -15.1810    85.1960    25.1570    15.5510    14.5470    15.5150 
  206.0000     2.2320   -15.3960    88.2290    25.1290    19.5420    16.2170    17.5170 
  206.1250     2.2180   -15.5280    89.4360    25.1140    22.5170    18.4470    20.0930 
  206.2500     2.2130   -15.6650    87.7670    25.1890    25.1090    20.9610    22.8820 
  206.3750     2.2190   -15.8290    85.0970    25.3070    28.7290    23.4020    25.4480 
  206.5000     2.2310   -16.0000    81.3030    25.3760    32.2900    25.3470    27.3410 
  206.6250     2.2410   -16.0450    77.6360    25.3950    32.8500    26.4230    28.2340 
  206.7500     2.2470   -16.0920    75.6980    25.4040    30.6660    26.9020    28.5310 
  206.8750     2.2470   -16.1530    75.6040    25.4070    28.1320    27.1030    28.6390 
  207.0000     2.2400   -16.2140    77.9850    25.4050    27.7410    27.3420    28.9080 
  207.1250     2.2280   -16.1850    81.3780    25.4000    30.4330    27.9320    29.6290 
  207.2500     2.2210   -16.1190    82.7430    25.3950    32.9000    28.8700    30.6940 
  207.3750     2.2220   -16.0220    82.4630    25.3820    32.5740    29.9030    31.7610 
  207.5000     2.2320   -15.9820    80.5190    25.3600    31.5000    30.5180    32.2500 
  207.6250     2.2470   -15.9900    78.5150    25.3710    32.2020    29.8680    31.2710 
  207.7500     2.2560   -15.9940    79.0250    25.4090    33.1350    27.9260    28.8990 
  207.8750     2.2550   -15.9850    82.6740    25.4270    29.8620    25.2230    25.7900 
  208.0000     2.2470   -16.0130    86.2790    25.4000    23.1160    22.6250    22.9440 
  208.1250     2.2360   -16.1100    87.1570    25.3420    17.7330    21.0970    21.4960 
  208.2500     2.2230   -16.2350    87.9410    25.2600    16.7610    21.0080    21.8260 
  208.3750     2.2090   -16.3420    88.1740    25.2000    21.5620    22.7460    24.2410 
  208.5000     2.2000   -16.4330    85.1830    25.2140    32.3330    26.7390    28.9450 
  208.6250     2.1900   -16.5920    77.6740    25.3430    44.7300    33.6730    36.2210 
  208.7500     2.1720   -16.7350    72.0150    25.4910    52.7030    42.4600    44.8300 
  208.8750     2.1570   -16.8380    72.3650    25.5040    57.4650    51.2160    52.9500 
  209.0000     2.1600   -16.8660    75.4930    25.3260    61.7660    57.5260    58.3070 
  209.1250     2.1840   -16.9320    75.9090    25.2100    63.3720    59.2400    58.8960 
  209.2500     2.2030   -16.9880    73.7790    25.2120    59.6720    57.4060    56.1350 
  209.3750     2.2050   -17.0590    72.4090    25.3590    51.8260    53.2460    51.5270 
  209.5000     2.1980   -17.0680    72.8120    25.6440    43.2110    48.1040    46.4330 
  209.6250     2.1920   -17.0740    74.6250    25.8550    35.8340    43.2750    41.9750 
  209.7500     2.1780   -17.0710    75.3470    25.9180    31.4790    39.4910    38.6150 
  209.8750     2.1460   -17.1000    73.4430    25.9260    30.3550    37.0220    36.5450 
  210.0000     2.1090   -17.1650    70.7160    26.0490    30.3800    35.9370    35.8300 
  210.1250     2.0920   -17.1930    71.0250    26.3050    31.0790    36.5330    36.7660 
  210.2500     2.0870   -17.2140    72.9880    26.5180    33.2210    38.7360    39.2340 
  210.3750     2.0840   -17.2810    74.5280    26.6520    38.3340    42.7490    43.3540 
  210.5000     2.0930   -17.3790    73.2910    26.9510    45.8930    48.6480    49.1390 
  210.6250     2.1170   -17.3990    68.9690    27.5980    53.2710    56.4760    56.3120 
  210.7500     2.1310   -17.4310    65.0130    27.8030    58.7040    64.1770    64.4040 
  210.8750     2.1240   -17.4720    64.1930    27.0630    62.3740    70.8140    71.4500 
  211.0000     2.1150   -17.5980    66.5790    26.4200    65.5650    74.9900    76.0870 
  211.1250     2.1270   -17.6960    68.4780    26.4420    68.8860    75.6560    77.2310 
  211.2500     2.1480   -17.7810    67.1480    26.8530    69.4280    73.9030    75.8430 
  211.3750     2.1620   -17.8440    65.8720    27.1920    64.4430    70.6350    72.7760 
  211.5000     2.1670   -17.9340    68.2290    27.2180    57.6320    66.6870    68.8970 
  211.6250     2.1670   -18.0100    71.4670    26.8170    52.7820    62.8580    65.0190 
  211.7500     2.1650   -18.0960    69.8070    26.2840    52.2410    59.7390    61.7540 
  211.8750     2.1570   -18.1400    66.3600    25.7440    53.3860    57.7470    59.5370 
  212.0000     2.1390   -18.1170    66.9400    25.3280    54.9810    57.1810    58.7290 
  212.1250     2.1160   -18.1460    71.7390    25.0660    58.2280    58.4370    59.8320 
  212.2500     2.1020   -18.2050    74.4930    24.7710    63.0740    61.1680    62.5300 
  212.3750     2.1050   -18.2330    72.5220    24.4200    68.1110    65.1260    66.5500 
