~V
VERS. 2.00: Ver 2.00
~W
STRT.M 50.0000:
STOP.M 265.0000:
STEP.M 0.1250:
NULL. -999.2500:
UWI. F10025:
~C
DEPT.M :
SP.MV :
DEN.GM/CC :
GR.API :
CALI.CM :
RXO.OHMM :
RI. :
RML.OHMM :
~A
# ...
  140.0000   -20.3960     2.0360    74.8960    16.8990     8.4680     8.5400    10.8600 
  140.1250   -20.0590     2.0460    75.1420    16.0850     8.6590     8.5110    10.9410 
  140.2500   -19.8070     2.0550    73.3810    15.7080     8.9060     8.5020    10.8930 
  140.3750   -19.5650     2.0570    70.9810    15.8570     9.2540     8.5340    10.7180 
  140.5000   -19.2740     2.0540    69.2440    16.4660     9.7010     8.5920    10.5070 
  140.6250   -19.0040     2.0440    68.4000    17.4930    10.1730     8.6570    10.3320 
  140.7500   -18.6730     2.0040    68.4740    18.7720    10.5180     8.7100    10.2430 
  140.8750   -18.2960     1.9220    67.3170    20.2550    10.5960     8.7660    10.2770 
  141.0000   -17.8590     1.8210    64.2320    21.8070    10.3510     8.8610    10.4090 
  141.1250   -17.2820     1.7610    61.5330    23.1320     9.8220     8.9990    10.5760 
  141.2500   -16.5440     1.7570    61.1440    23.7100     9.2920     9.1170    10.6630 
  141.3750   -15.7010     1.7980    63.0870    23.6020     8.9990     9.0650    10.5010 
  141.5000   -14.7720     1.8700    65.8520    23.1940     8.6950     8.7700    10.0790 
  141.6250   -13.7090     1.9630    70.9790    22.9880     8.0610     8.2490     9.4570 
  141.7500   -12.7280     2.0400    79.4480    22.9630     7.2130     7.6160     8.7720 
  141.8750   -11.7980     2.0710    88.0710    22.9250     6.7430     7.0400     8.2000 
  142.0000   -10.9110     2.0570    92.9250    22.7660     6.8510     6.6220     7.8240 
  142.1250   -10.1690     2.0260    96.0980    22.9150     7.2000     6.3870     7.6460 
  142.2500    -9.5630     2.0110    99.7800    23.4300     7.2890     6.3060     7.6120 
  142.3750    -9.0700     2.0220   102.8300    23.9880     6.9180     6.3100     7.6470 
  142.5000    -8.6660     2.0520   103.9160    24.2660     6.5690     6.2880     7.6750 
  142.6250    -8.4510     2.0950   104.8040    24.3140     6.4010     6.1880     7.6520 
  142.7500    -8.2420     2.1430   106.1920    24.3140     6.3620     6.0110     7.5310 
  142.8750    -8.0420     2.1890   107.2200    24.3140     6.2240     5.7800     7.2470 
  143.0000    -7.9340     2.2230   108.1880    24.3140     5.9190     5.5410     6.8390 
  143.1250    -7.8960     2.2260   109.3260    24.3140     5.6770     5.3270     6.3940 
  143.2500    -7.8910     2.1980   109.4670    24.3140     5.6300     5.1750     6.0480 
  143.3750    -7.9000     2.1510   109.2860    24.3140     5.7120     5.1630     5.9850 
  143.5000    -7.9640     2.1040   109.7160    24.3140     5.8010     5.3270     6.2240 
  143.6250    -8.0180     2.0850   109.5370    24.3110     6.0420     5.6880     6.7150 
  143.7500    -8.1110     2.0950   106.3280    24.2870     6.6050     6.2160     7.3370 
  143.8750    -8.2540     2.1240    99.8550    24.2040     7.3550     6.7910     7.9010 
  144.0000    -8.3000     2.1540    93.0060    23.9770     7.8130     7.2220     8.2330 
  144.1250    -8.2920     2.1790    90.2440    23.3720     7.6870     7.4010     8.2940 
  144.2500    -8.2480     2.2040    92.8860    22.4810     7.1890     7.3870     8.2230 
  144.3750    -8.2270     2.2340    96.7930    21.8750     7.0190     7.4130     8.2990 
  144.5000    -8.1530     2.2560    97.3080    22.1740     7.4420     7.6720     8.6670 
  144.6250    -8.0410     2.2540    94.7550    23.0760     8.5350     8.1980     9.2910 
  144.7500    -7.9280     2.2510    92.2390    23.7280     9.9860     8.8500     9.9240 
  144.8750    -7.7420     2.2700    90.7480    23.9420    11.2620     9.2270    10.0190 
  145.0000    -7.6110     2.3040    91.4920    23.8710    10.5950     9.0620     9.4300 
  145.1250    -7.4890     2.3190    93.9200    23.7450     8.5550     8.4470     8.4870 
  145.2500    -7.3760     2.3060    97.3580    23.6560     6.9100     7.7440     7.7190 
  145.3750    -7.2310     2.2820   100.1330    23.5190     6.5480     7.3870     7.6020 
  145.5000    -7.0740     2.2700   100.7980    23.2300     7.0120     7.5470     8.1810 
  145.6250    -6.9240     2.2800    96.6160    22.5280     8.2220     8.3190     9.4690 
  145.7500    -6.7050     2.2980    88.1060    21.2860    10.1280     9.7230    11.3760 
  145.8750    -6.5080     2.3040    81.2240    20.0060    11.8400    11.6540    13.6150 
  146.0000    -6.2500     2.2820    79.0340    19.3860    12.3330    13.6150    15.5930 
  146.1250    -5.9770     2.2350    79.3060    19.8030    12.1110    15.1980    16.9050 
  146.2500    -5.6550     2.1860    79.2620    20.7020    12.0200    16.2160    17.4690 
  146.3750    -5.3250     2.1490    78.4160    21.5040    12.1120    16.6930    17.5050 
  146.5000    -4.9880     2.1230    78.9290    22.0240    12.1320    16.9500    17.4990 
  146.6250    -4.6340     2.1050    80.2490    22.2290    12.0460    17.1820    17.6790 
  146.7500    -4.3070     2.0910    80.2120    22.2860    12.0490    17.5110    18.1390 
  146.8750    -3.9540     2.0800    78.3830    22.2930    12.2770    18.0340    18.9400 
  147.0000    -3.6700     2.0670    76.8490    22.2930    13.0140    18.7330    19.9440 
  147.1250    -3.3530     2.0570    74.5740    22.2950    14.0640    19.5440    20.9660 
  147.2500    -3.0660     2.0560    71.3580    22.3040    14.8210    20.3260    21.7880 
  147.3750    -2.7750     2.0660    69.8560    22.3190    14.7590    20.8560    22.2160 
  147.5000    -2.4870     2.0740    69.9790    22.3080    14.2970    21.0690    22.3130 
  147.6250    -2.2810     2.0650    69.2230    22.2950    13.8890    21.0200    22.1800 
  147.7500    -2.0960     2.0520    67.8200    22.2540    13.9090    20.8820    22.0280 
  147.8750    -1.9660     2.0590    68.6690    22.1590    14.6950    20.8990    22.1240 
  148.0000    -1.7790     2.0920    71.6050    22.0870    15.7320    21.1690    22.5110 
  148.1250    -1.6360     2.1240    74.7920    22.3880    16.9890    21.6560    23.1110 
  148.2500    -1.5010     2.1320    75.5970    23.0870    18.7660    22.2440    23.7560 
  148.3750    -1.3720     2.1190    73.2630    23.8700    20.5160    22.7850    24.2180 
  148.5000    -1.3340     2.1050    72.0180    24.4220    21.0830    23.2100    24.4270 
  148.6250    -1.2470     2.1010    74.0180    24.6630    21.1400    23.5470    24.4860 
  148.7500    -1.1900     2.0990    78.0760    24.6480    21.6520    23.8770    24.6000 
  148.8750    -1.1200     2.0930    79.9320    24.4080    22.5790    24.2690    24.9570 
  149.0000    -1.0960     2.0870    79.0530    24.0880    22.9910    24.6570    25.4420 
  149.1250    -1.1250     2.0850    76.0910    23.9020    22.6680    24.8840    25.7830 
  149.2500    -1.1930     2.0780    73.3020    23.9400    21.4990    24.7650    25.6990 
  149.3750    -1.3400     2.0620    72.8980    24.0980    19.5400    24.1490    25.0150 
  149.5000    -1.4430     2.0440    72.7990    24.1620    17.1370    23.2600    24.0450 
  149.6250    -1.6140     2.0400    72.2010    24.0680    14.9580    22.3830    23.1360 
  149.7500    -1.7970     2.0460    70.7300    23.9860    13.9380    21.7790    22.5610 
  149.8750    -2.0260     2.0490    70.4930    24.0680    14.4790    21.6650    22.4940 
  150.0000    -2.2610     2.0440    72.1630    24.1610    15.5870    21.9530    22.7910 
  150.1250    -2.5120     2.0400    74.0470    24.0710    16.9870    22.5210    23.3120 
  150.2500    -2.7640     2.0410    75.7620    23.9170    17.9800    23.1650    23.8640 
  150.3750    -2.9790     2.0460    78.5320    23.8800    17.8620    23.5180    24.1200 
  150.5000    -3.2670     2.0530    80.2490    23.8810    17.2820    23.3530    23.8810 
  150.6250    -3.4990     2.0600    78.1390    23.7190    17.0710    22.6310    23.1230 
  150.7500    -3.7310     2.0700    74.4770    23.3870    16.7880    21.5140    21.9860 
  150.8750    -3.9540     2.0790    75.5870    23.0600    15.6300    20.2900    20.7410 
  151.0000    -4.1270     2.0880    80.2260    22.8970    14.4330    19.2530    19.6700 
  151.1250    -4.2300     2.0940    83.5700    22.8390    14.2320    18.5500    18.9220 
