~V
VERS. 2.00: Ver 2.00
~W
STRT.M 56.0000:
STOP.M 312.0000:
STEP.M 0.1250:
NULL. -999.2500:
UWI. F10077:
~C
DEPT.M :
GR.API :
RML.OHMM :
RI. :
RXO.OHMM :
CALI.CM :
DEN.GM/CC :
SP.MV :
~A
# ...
   89.7500    54.7590    11.2210     9.1200    10.1110    22.9300     2.1980   -12.9710 
   89.8750    56.8220    11.2590     9.1380    10.6910    23.1320     2.2100   -13.1840 
   90.0000    59.7410    11.3280     9.1840    11.1830    23.4080     2.2210   -13.3670 
   90.1250    60.4580    11.4220     9.2560    11.4580    23.6100     2.2220   -13.5600 
   90.2500    59.0300    11.5070     9.3310    11.3630    23.7270     2.2110   -13.7650 
   90.3750    56.8660    11.5510     9.3820    11.1940    23.8260     2.1920   -13.9860 
   90.5000    55.7470    11.5260     9.3830    11.2560    23.9050     2.1720   -14.2070 
   90.6250    56.9210    11.4130     9.3130    11.2260    23.8890     2.1600   -14.3930 
   90.7500    58.4970    11.2500     9.2010    10.8500    23.7800     2.1550   -14.5400 
   90.8750    58.6890    11.0850     9.0820    10.3840    23.6510     2.1520   -14.6490 
   91.0000    56.8560    10.9700     8.9940    10.0500    23.5280     2.1500   -14.7130 
   91.1250    54.7930    10.9580     8.9780     9.9340    23.4110     2.1480   -14.7100 
   91.2500    53.9810    11.0410     9.0290     9.9510    23.3630     2.1530   -14.6630 
   91.3750    55.1990    11.1970     9.1370    10.0590    23.3980     2.1670   -14.6160 
   91.5000    57.5360    11.3920     9.2790    10.2000    23.4550     2.1870   -14.6030 
   91.6250    58.8020    11.5800     9.4240    10.2810    23.4650     2.2090   -14.6190 
   91.7500    58.8520    11.7110     9.5300    10.3160    23.4400     2.2240   -14.6160 
   91.8750    58.0880    11.7450     9.5680    10.3080    23.4080     2.2310   -14.6140 
   92.0000    58.3350    11.6670     9.5230    10.3640    23.3770     2.2290   -14.6080 
   92.1250    60.3390    11.4810     9.4000    10.3420    23.3640     2.2210   -14.5700 
   92.2500    61.3720    11.2510     9.2500    10.1900    23.3710     2.2110   -14.5070 
   92.3750    60.2940    11.0330     9.1160    10.0750    23.3980     2.2030   -14.4150 
   92.5000    58.4000    10.8850     9.0370    10.2550    23.4090     2.1970   -14.2950 
   92.6250    58.3210    10.9310     9.0950    10.4670    23.3600     2.1950   -14.1730 
   92.7500    58.0670    11.2390     9.3400    10.5780    23.2590     2.1970   -14.0400 
   92.8750    56.7600    11.8080     9.7870    10.6660    23.1990     2.2080   -13.8650 
   93.0000    56.3960    12.4940    10.3620    10.8380    23.2550     2.2280   -13.6630 
   93.1250    56.9870    12.9520    10.8320    11.9880    23.3590     2.2580   -13.3890 
   93.2500    55.9810    12.9150    10.9550    13.9220    23.4060     2.2890   -12.9710 
   93.3750    54.4600    12.3030    10.6130    14.2350    23.4620     2.3110   -12.3970 
   93.5000    57.0460    11.2730     9.8820    11.7860    23.5680     2.3180   -11.7020 
   93.6250    64.7210    10.1610     8.9830     8.5580    23.6680     2.3060   -10.9370 
   93.7500    71.1610     9.2540     8.1660     7.8280    23.6950     2.2890   -10.1450 
   93.8750    73.9700     8.6320     7.5250     8.0230    23.6960     2.2760    -9.2700 
   94.0000    75.5530     8.2590     7.0760     7.7020    23.6940     2.2720    -8.2910 
   94.1250    77.9270     8.0530     6.7970     7.0290    23.6710     2.2800    -7.3160 
   94.2500    80.0020     7.8970     6.6030     6.8160    23.6340     2.2920    -6.4980 
   94.3750    80.1880     7.7750     6.4690     7.1040    23.5450     2.3030    -5.8810 
   94.5000    78.6630     7.7330     6.4120     7.4720    23.4170     2.3050    -5.4510 
   94.6250    76.4180     7.8680     6.4950     7.0890    23.3850     2.2970    -5.2010 
   94.7500    76.2080     8.2010     6.7350     6.9260    23.3700     2.2870    -5.1460 
   94.8750    77.7750     8.7380     7.1420     7.1920    23.2570     2.2820    -5.4250 
   95.0000    77.9980     9.4360     7.6940     7.8110    23.0870     2.2840    -6.0390 
   95.1250    73.9080    10.1740     8.3220     8.1110    22.9930     2.2870    -6.8750 
   95.2500    68.3100    10.7700     8.8850     8.2270    23.0120     2.2800    -7.8050 
   95.3750    64.9020    11.0940     9.2700     8.4960    23.0650     2.2590    -8.7720 
   95.5000    63.7650    11.1070     9.4160     8.8720    23.0940     2.2250    -9.7080 
   95.6250    61.8400    10.8740     9.3300     9.0640    23.1000     2.1910   -10.4910 
   95.7500    59.7190    10.6170     9.1660     9.0630    23.0890     2.1670   -11.0840 
   95.8750    61.0180    10.4670     9.0270     8.9130    23.0600     2.1570   -11.4180 
   96.0000    65.4830    10.4510     8.9530     8.7490    23.0300     2.1590   -11.5160 
   96.1250    67.1880    10.4790     8.9070     8.6330    22.9870     2.1720   -11.4520 
   96.2500    65.7410    10.4010     8.7940     8.5590    22.9300     2.1940   -11.2380 
   96.3750    66.0220    10.1190     8.5430     8.4560    22.8920     2.2210   -10.8180 
   96.5000    71.5550     9.6180     8.1360     8.0190    22.9290     2.2480   -10.2300 
   96.6250    79.2990     8.9650     7.6140     7.2960    23.0990     2.2630    -9.6140 
   96.7500    82.5380     8.3300     7.0980     6.8590    23.3650     2.2640    -9.0520 
   96.8750    81.5980     7.8360     6.6750     6.9850    23.6810     2.2570    -8.5270 
   97.0000    81.4740     7.5690     6.4090     6.9500    23.9140     2.2490    -7.9950 
   97.1250    84.0170     7.6090     6.3630     6.6230    23.9950     2.2470    -7.4880 
   97.2500    84.3450     7.8590     6.4850     6.7450    24.0080     2.2490    -7.0990 
   97.3750    80.4410     8.2020     6.7060     7.3790    23.9760     2.2500    -6.8840 
   97.5000    75.8380     8.4910     6.9280     8.2630    23.9200     2.2500    -6.7750 
   97.6250    74.9980     8.5450     7.0200     8.4190    23.9570     2.2500    -6.6280 
   97.7500    76.5020     8.3410     6.9400     7.6340    24.0160     2.2530    -6.3990 
   97.8750    80.4640     7.9680     6.7260     6.7530    24.0450     2.2580    -6.1860 
   98.0000    86.2080     7.6100     6.4940     6.4040    24.0080     2.2610    -6.0880 
   98.1250    90.8370     7.5140     6.4160     6.4710    23.8760     2.2590    -6.1030 
   98.2500    90.5840     7.7290     6.5540     6.6620    23.6820     2.2520    -6.1650 
   98.3750    85.2010     8.1900     6.8950     6.9340    23.3960     2.2400    -6.2890 
   98.5000    78.4040     8.7290     7.3390     7.5030    23.0100     2.2240    -6.5000 
   98.6250    75.6430     9.0790     7.6840     8.7020    22.7800     2.2070    -6.7980 
   98.7500    77.1140     9.0960     7.7700     8.9740    22.7260     2.1940    -7.1240 
   98.8750    79.4990     8.7750     7.5600     7.8480    22.7240     2.1910    -7.3550 
   99.0000    79.9800     8.2380     7.1360     6.5290    22.7140     2.2000    -7.4290 
   99.1250    80.4970     7.6650     6.6410     6.2330    22.6970     2.2190    -7.3490 
   99.2500    83.0700     7.1860     6.1990     6.1480    22.6780     2.2410    -7.1130 
   99.3750    86.1280     6.8330     5.8530     5.8550    22.6710     2.2600    -6.7160 
   99.5000    88.1750     6.5990     5.6160     5.5420    22.6900     2.2720    -6.2310 
   99.6250    88.8700     6.5060     5.5060     5.4870    22.7040     2.2780    -5.7820 
   99.7500    89.6000     6.5720     5.5230     5.5520    22.7100     2.2820    -5.4650 
   99.8750    90.7350     6.8340     5.6900     5.5710    22.7080     2.2830    -5.3580 
  100.0000    89.5720     7.3120     6.0220     5.8050    22.7050     2.2820    -5.4900 
  100.1250    83.6440     7.9980     6.5270     6.4320    22.7080     2.2730    -5.8330 
  100.2500    77.8940     8.7520     7.1140     7.0760    22.7250     2.2550    -6.2940 
  100.3750    75.0480     9.4050     7.6690     7.7230    22.7660     2.2310    -6.8460 
  100.5000    72.6130     9.7580     8.0300     8.3180    22.8130     2.2060    -7.4230 
  100.6250    68.9150     9.5680     7.9890     8.7630    22.8360     2.1890    -7.9150 
  100.7500    67.7740     8.9460     7.5960     8.7840    22.8660     2.1820    -8.2420 
  100.8750    71.9750     8.1310     7.0120     8.2750    22.9190     2.1850    -8.3460 
