~V
VERS. 2.00: Ver 2.00
~W
STRT.M 62.0000:
STOP.M 254.0000:
STEP.M 0.1250:
NULL. -999.2500:
UWI. F10030:
~C
DEPT.M :
DEN.GM/CC :
GR.API :
RML.OHMM :
RI. :
RXO.OHMM :
CALI.CM :
SP.MV :
~A
# ...
  230.7500     2.4290    58.1990     7.9780     7.3910     7.7580    23.9620   -13.6170 
  230.8750     2.4220    60.3380     8.1580     7.4370     7.9260    23.9830   -13.6960 
  231.0000     2.4140    62.0910     8.3570     7.4410     8.4880    23.9940   -13.7820 
  231.1250     2.4050    61.8480     8.5330     7.3810     9.1230    24.0130   -13.8560 
  231.2500     2.3960    60.6580     8.6650     7.2780     9.2060    24.0380   -13.9770 
  231.3750     2.3910    59.8290     8.7620     7.1630     8.9250    24.0520   -14.1520 
  231.5000     2.3890    59.8210     8.8760     7.0980     8.8280    24.0620   -14.3490 
  231.6250     2.3880    59.3110     9.1090     7.1900     9.2250    24.1260   -14.5890 
  231.7500     2.3940    57.1420     9.4890     7.4690     9.9790    24.3230   -14.8770 
  231.8750     2.4160    53.5160     9.9780     7.9110    11.0520    24.7700   -15.1570 
  232.0000     2.4530    49.6530    10.4850     8.4310    13.4110    25.2800   -15.3810 
  232.1250     2.4880    48.0810    10.9460     8.9220    17.5760    25.4230   -15.5900 
  232.2500     2.5000    49.9920    11.4550     9.3920    18.4630    24.8700   -15.8080 
  232.3750     2.4860    54.1370    12.2290     9.9890    15.0050    24.3250   -16.0220 
  232.5000     2.4650    57.5010    13.5310    10.9580    14.2430    24.2250   -16.2170 
  232.6250     2.4700    57.0270    15.4830    12.6830    20.8040    24.5130   -16.3650 
  232.7500     2.5090    54.8090    17.7770    15.1380    34.4990    24.7260   -16.5010 
  232.8750     2.5660    53.7950    20.1760    18.0370    48.1550    24.5690   -16.6640 
  233.0000     2.6120    54.0250    22.1650    20.6840    52.2440    24.2230   -16.8580 
  233.1250     2.6230    55.1110    22.5970    21.8710    46.1900    23.9750   -17.0070 
  233.2500     2.6040    59.0910    21.2710    21.2610    37.3140    23.8760   -17.1020 
  233.3750     2.5650    66.1660    18.6410    19.1360    29.5330    23.8090   -17.1420 
  233.5000     2.5130    73.3890    15.4720    16.2250    24.7680    23.7320   -17.1140 
  233.6250     2.4540    78.1100    12.5450    13.3260    18.6400    23.6850   -17.0210 
  233.7500     2.3940    81.5730    10.2340    10.9020    12.7680    23.6910   -16.8730 
  233.8750     2.3410    83.8710     8.6420     9.0930     9.2090    23.7450   -16.6880 
  234.0000     2.3060    83.5470     7.7290     7.8900     7.9450    23.8360   -16.5100 
  234.1250     2.3000    79.7250     7.4190     7.2550     7.8060    24.0030   -16.3440 
  234.2500     2.3160    75.1560     7.4050     6.9350     7.6890    24.1800   -16.1470 
  234.3750     2.3400    72.5350     7.4940     6.7770     7.5250    24.2410   -15.9680 
  234.5000     2.3610    71.6350     7.5440     6.6680     7.2430    24.1900   -15.8390 
  234.6250     2.3640    69.0370     7.4760     6.5510     6.9240    24.1150   -15.7640 
  234.7500     2.3530    65.1260     7.3320     6.4410     6.7880    24.0960   -15.7440 
  234.8750     2.3390    61.6550     7.1620     6.3730     6.7570    24.0770   -15.7700 
  235.0000     2.3310    58.8910     7.0150     6.3690     6.6270    24.0400   -15.8080 
  235.1250     2.3360    57.5170     6.9360     6.4300     6.5680    24.0280   -15.8550 
  235.2500     2.3460    57.7920     6.9310     6.5060     6.5830    24.0450   -15.9480 
  235.3750     2.3540    58.2030     6.9950     6.5560     6.7320    24.0830   -16.0370 
  235.5000     2.3560    56.8840     7.1040     6.5620     7.0040    24.1370   -16.1010 
  235.6250     2.3560    55.0840     7.2220     6.5470     7.3500    24.1970   -16.1510 
  235.7500     2.3610    54.5890     7.3110     6.5590     7.4630    24.2330   -16.1770 
  235.8750     2.3720    54.7230     7.3590     6.6080     7.5410    24.2450   -16.1670 
  236.0000     2.3890    55.5730     7.3740     6.6660     7.6590    24.1990   -16.1560 
  236.1250     2.4040    56.6150     7.3790     6.6720     7.5660    24.0370   -16.1740 
  236.2500     2.4100    55.9020     7.3960     6.6100     7.4280    23.9450   -16.1590 
  236.3750     2.4040    53.6620     7.4340     6.5140     7.5610    24.0020   -16.1160 
  236.5000     2.3860    52.4630     7.4780     6.4390     7.7720    24.1350   -16.1010 
  236.6250     2.3630    54.3260     7.5000     6.4220     7.6980    24.1800   -16.0860 
  236.7500     2.3450    56.4480     7.4740     6.4230     7.3480    24.1520   -15.9790 
  236.8750     2.3390    56.8270     7.3870     6.3910     7.0040    24.1040   -15.7940 
  237.0000     2.3420    55.0040     7.2380     6.2860     6.8470    24.0850   -15.5580 
  237.1250     2.3500    53.2490     7.0410     6.0960     6.8430    24.0710   -15.3520 
  237.2500     2.3540    52.6840     6.8410     5.8840     6.7340    24.0260   -15.2220 
  237.3750     2.3520    51.4620     6.6800     5.7110     6.4900    23.9520   -15.1290 
  237.5000     2.3470    48.4560     6.5950     5.6220     6.2540    23.8950   -15.0760 
  237.6250     2.3480    46.0120     6.6150     5.6510     6.2110    23.8850   -15.0770 
  237.7500     2.3590    47.0270     6.7050     5.7580     6.3690    23.8950   -15.1240 
  237.8750     2.3770    50.3890     6.8250     5.8910     6.6250    23.9200   -15.1900 
  238.0000     2.3960    54.1300     6.9270     5.9910     6.7600    23.9800   -15.2770 
  238.1250     2.4080    55.7400     6.9600     6.0140     6.7220    24.1040   -15.3500 
  238.2500     2.4110    53.5300     6.9230     5.9720     6.6820    24.2340   -15.3690 
  238.3750     2.4050    48.9480     6.8280     5.8860     6.6230    24.3220   -15.3640 
  238.5000     2.3920    44.9930     6.6970     5.7770     6.4280    24.3650   -15.3320 
  238.6250     2.3780    43.4680     6.5630     5.6560     6.2110    24.3110   -15.3260 
  238.7500     2.3690    41.9770     6.4520     5.5350     6.1820    24.1390   -15.4170 
  238.8750     2.3680    40.3060     6.3730     5.4280     6.3070    23.9790   -15.5820 
  239.0000     2.3760    39.9660     6.3270     5.3590     6.4740    23.9000   -15.7710 
  239.1250     2.3860    41.0030     6.3210     5.3570     6.6340    23.9150   -15.9770 
  239.2500     2.3920    41.5190     6.3660     5.4190     6.8410    24.0350   -16.2170 
  239.3750     2.3930    42.0700     6.4950     5.5510     7.1400    24.2310   -16.4470 
  239.5000     2.3910    43.4160     6.7420     5.7660     7.4880    24.3850   -16.6630 
  239.6250     2.3910    43.4400     7.1320     6.0800     7.8510    24.2330   -16.8240 
  239.7500     2.3940    42.5520     7.5790     6.4490     8.1460    24.0510   -16.9130 
  239.8750     2.3980    43.2510     7.9670     6.7960     8.3090    23.9560   -16.9560 
  240.0000     2.3990    44.5730     8.1630     7.0180     8.0660    23.9690   -16.9620 
  240.1250     2.3960    43.1640     8.0340     6.9870     7.7060    24.0650   -16.8960 
  240.2500     2.3910    41.5800     7.6600     6.7290     7.4800    24.2240   -16.7880 
  240.3750     2.3800    42.8990     7.1610     6.3190     7.0020    24.4260   -16.7020 
  240.5000     2.3650    44.9820     6.6760     5.8660     6.4730    24.5730   -16.6380 
  240.6250     2.3470    44.5300     6.3470     5.4990     6.0150    24.4080   -16.6340 
  240.7500     2.3320    44.0820     6.1970     5.2780     5.8610    24.2340   -16.6470 
  240.8750     2.3230    45.4690     6.2140     5.2200     5.9120    24.1600   -16.6930 
  241.0000     2.3200    46.1870     6.3590     5.3030     6.0830    24.1730   -16.8030 
  241.1250     2.3210    44.7330     6.5860     5.4880     6.4410    24.1590   -17.0040 
  241.2500     2.3220    44.0620     6.8310     5.7020     6.8540    24.1250   -17.2120 
  241.3750     2.3250    44.7050     7.0630     5.9070     7.2230    24.0940   -17.4190 
  241.5000     2.3320    44.9490     7.2640     6.0790     7.4570    24.0810   -17.6270 
  241.6250     2.3450    44.1860     7.4280     6.2130     7.7020    24.0790   -17.7690 
  241.7500     2.3590    44.3320     7.5640     6.3270     7.7920    24.0820   -17.8500 
  241.8750     2.3690    45.3430     7.6780     6.4240     7.7360    24.0940   -17.8800 
