~V
VERS. 2.00: Ver 2.00
~W
STRT.M 57.0000:
STOP.M 296.0000:
STEP.M 0.1250:
NULL. -999.2500:
UWI. F10043:
~C
DEPT.M :
GR.API :
RML.OHMM :
RI. :
RXO.OHMM :
CALI.CM :
DEN.GM/CC :
SP.MV :
~A
# ...
  282.0000    56.8170    11.8840    11.8900    12.2890    23.9230     2.5040   -11.0470 
  282.1250    59.4140    11.8420    11.9680    13.6020    23.7070     2.4700   -11.0730 
  282.2500    61.2530    11.7710    11.9000    14.5860    23.3910     2.4450   -11.0690 
  282.3750    60.6260    11.6910    11.7360    13.5950    23.1310     2.4360   -11.0550 
  282.5000    60.0400    11.5950    11.5580    12.5750    23.1890     2.4390   -11.0230 
  282.6250    61.2750    11.4370    11.4200    12.9090    23.5190     2.4450   -10.9620 
  282.7500    61.3980    11.1950    11.2950    14.2320    23.8340     2.4490   -10.9370 
  282.8750    59.9720    10.8760    11.1160    14.7500    24.0420     2.4520   -10.9080 
  283.0000    58.3850    10.5250    10.8280    14.1950    24.1750     2.4570   -10.8580 
  283.1250    59.0140    10.2270    10.4030    12.4340    24.1850     2.4650   -10.8220 
  283.2500    60.9450    10.0290     9.9230    10.1750    24.1060     2.4720   -10.8000 
  283.3750    62.6110     9.9360     9.4920     8.6180    24.0060     2.4720   -10.7880 
  283.5000    62.0640     9.9460     9.2220     7.9280    23.9150     2.4630   -10.7970 
  283.6250    60.1780    10.0930     9.2600     8.5750    23.9470     2.4460   -10.8430 
  283.7500    61.0520    10.4090     9.6100    10.0780    24.0420     2.4300   -10.8950 
  283.8750    62.8900    10.9530    10.2470    12.8800    24.1090     2.4270   -10.9280 
  284.0000    62.1890    11.7470    11.0950    15.4480    24.1200     2.4450   -10.9310 
  284.1250    61.2120    12.7150    12.0360    17.2650    24.0850     2.4860   -10.9560 
  284.2500    63.3640    13.6200    12.9060    18.7440    24.0500     2.5310   -10.9860 
  284.3750    66.0080    14.2600    13.5810    20.0300    24.0450     2.5610   -11.0080 
  284.5000    65.5120    14.5200    13.9650    18.8110    24.0830     2.5610   -10.9860 
  284.6250    62.5430    14.3500    13.9580    16.5930    24.0890     2.5280   -10.9370 
  284.7500    60.1430    13.9010    13.6270    18.5220    24.0590     2.4840   -10.8730 
  284.8750    60.1810    13.2540    13.0040    25.3120    24.0650     2.4490   -10.8320 
  285.0000    62.0400    12.4820    12.1590    23.8790    24.0980     2.4340   -10.8280 
  285.1250    62.2650    11.6530    11.1870    18.9340    24.1130     2.4410   -10.7930 
  285.2500    60.9620    10.8700    10.2400    16.4780    24.1090     2.4570   -10.7450 
  285.3750    60.9620    10.2080     9.4040    15.0990    24.0950     2.4710   -10.7250 
  285.5000    60.9620     9.7030     8.7260    13.0560    24.1150     2.4760   -10.7360 
  285.6250    60.9620     9.3620     8.2630    10.6980    24.1330     2.4690   -10.7450 
  285.7500    60.9620     9.1190     8.0020     9.1980    24.1390     2.4550   -10.7600 
  285.8750    60.9620     8.9370     7.9360     9.2730    24.1220     2.4410   -10.7480 
  286.0000    60.9620     8.7860     8.0100     9.6430    24.0880     2.4360   -10.6930 
  286.1250    60.9620     8.6610     8.1160     9.2720    24.0630     2.4460   -10.6460 
  286.2500    60.9620     8.5800     8.1800     8.7490    24.0560     2.4670   -10.6230 
  286.3750    60.9620     8.5490     8.2000     9.6410    24.0470     2.4910   -10.5770 
  286.5000    60.9620     8.5620     8.1900    11.8820    24.0450     2.5100   -10.5160 
  286.6250    60.9620     8.6140     8.1670    12.4260    24.0400     2.5160   -10.4780 
  286.7500    60.9620     8.6870     8.1460    11.0550    24.0600     2.5100   -10.4430 
  286.8750    60.9620     8.7570     8.1450     9.4380    24.0700     2.4950   -10.4310 
  287.0000    60.9620     8.7950     8.1740     8.5550    24.0750     2.4760   -10.4490 
  287.1250    60.9620     8.7710     8.2240     8.2230    24.0890     2.4590   -10.4800 
  287.2500    60.9620     8.7030     8.2510     8.0330    24.1060     2.4510   -10.5070 
  287.3750    60.9620     8.6230     8.2120     8.4380    24.1210     2.4520   -10.5350 
  287.5000    60.9620     8.5820     8.0960     8.9650    24.1320     2.4610   -10.5770 
  287.6250    60.9620     8.6110     7.9350     9.2120    24.1370     2.4740   -10.6170 
  287.7500    60.9620     8.6690     7.7770     9.1740    24.1390     2.4860   -10.6570 
  287.8750    60.9620     8.7040     7.6470     9.1240    24.1350     2.4930   -10.6920 
  288.0000    60.9620     8.6910     7.5710     9.1700    24.1180     2.4960   -10.7480 
  288.1250    60.9620     8.6500     7.5910     9.1070    24.0870     2.4940   -10.7880 
  288.2500    60.9620     8.6250     7.7010     9.0120    24.0650     2.4900   -10.8090 
  288.3750    60.9620     8.6370     7.8750     8.8100    24.0480     2.4850   -10.8580 
  288.5000    60.9620     8.6840     8.0710     8.6960    24.0520     2.4800   -10.9010 
  288.6250    60.9620     8.7390     8.2390     7.6880    24.0400     2.4760   -10.9220 
  288.7500    60.9620     8.7760     8.3550     7.1540    24.0230     2.4700   -10.9410 
  288.8750    60.9620     8.7880     8.4130     7.0940    24.0240     2.4630   -10.9540 
  289.0000    60.9620     8.7780     8.4040     6.8040    24.0450     2.4570   -11.0050 
  289.1250    60.9620     8.7550     8.3100     7.2540    24.0240     2.4520   -11.1140 
  289.2500    60.9620     8.7350     8.1520     7.8810    23.9610     2.4510   -11.2030 
  289.3750    60.9620     8.7330     7.9630     8.2810    23.8420     2.4530   -11.2730 
  289.5000    60.9620     8.7480     7.7920     8.4510    23.8060     2.4580   -11.3160 
  289.6250    60.9620     8.7710     7.6900     7.7170    23.8330     2.4630   -11.3910 
  289.7500    60.9620     8.7940     7.6660     7.0140    23.8690     2.4690   -11.4380 
  289.8750    60.9620     8.8120     7.7210     6.4180    23.8930     2.4720   -11.4620 
  290.0000    60.9620     8.8260     7.8350     5.7130    23.8610     2.4700   -11.4680 
  290.1250    60.9620     8.8360     7.9590     5.5150    23.8740     2.4560   -11.4440 
  290.2500    60.9620     8.8420     8.0420     5.6860    23.9240     2.4330   -11.3340 
  290.3750    60.9620     8.8450     8.0810     6.0690    23.9510     2.4070   -11.2180 
  290.5000    60.9620     8.8430     8.1020     6.2580    23.9600     2.3900   -11.0670 
  290.6250    60.9620     8.8350     8.1190     6.2620    23.9760     2.3920   -10.9210 
  290.7500    60.9620     8.8230     8.1300     6.0500    23.9940     2.4080   -10.8430 
  290.8750    60.9620     8.8090     8.1270     5.8620    23.9950     2.4320   -10.8270 
  291.0000    60.9620     8.7930     8.1070     5.7790    23.8960     2.4530   -10.8320 
  291.1250    60.9620     8.7800     8.0800     5.5350    22.8370     2.4640   -10.8550 
  291.2500    60.9620     8.7800     8.0800     5.1090    20.5600     2.4560   -10.9220 
  291.3750    60.9620     8.7800     8.0800     4.7290    18.2680     2.4110   -11.0210 
  291.5000    60.9620     8.7800     8.0800     4.5800    17.2020     2.3150   -11.1140 
  291.6250    60.9620     8.7800     8.0800     4.5740    17.0850     2.1620   -11.1590 
  291.7500    60.9620     8.7800     8.0800     4.5720    17.0460     1.9860   -11.1740 
  291.8750    60.9620     8.7800     8.0800     4.5710    17.0110     1.8280   -11.1850 
  292.0000    60.9620     8.7800     8.0800     4.5690    16.9920     1.7140   -11.2080 
  292.1250    60.9620     8.7800     8.0800     4.5700    16.9880     1.6590   -11.2340 
  292.2500    60.9620     8.7800     8.0800     4.5700    16.9890     1.6370   -11.2610 
  292.3750    60.9620     8.7800     8.0800     4.5710    16.9890     1.6330   -11.2880 
  292.5000    60.9620     8.7800     8.0800     4.5710    16.9870     1.6340   -11.3320 
  292.6250    60.9620     8.7800     8.0800     4.5700    16.9870     1.6380   -11.4010 
  292.7500    60.9620     8.7800     8.0800     4.5700    16.9870     1.6420   -11.4660 
  292.8750    60.9620     8.7800     8.0800     4.5700    16.9870     1.6430   -11.4990 
  293.0000    60.9620     8.7800     8.0800     4.5710    16.9870     1.6410   -11.5020 
  293.1250    60.9620     8.7800     8.0800     4.5710    16.9850     1.6360   -11.5000 
