~V
VERS. 2.00: Ver 2.00
~W
STRT.M 50.0000:
STOP.M 250.0000:
STEP.M 0.1250:
NULL. -999.2500:
UWI. F10033:
~C
DEPT.M :
SP.MV :
GR.API :
RML.OHMM :
RI. :
RXO.OHMM :
CALI.CM :
DEN.GM/CC :
~A
# ...
  173.7500    -7.9250    49.5480    18.2870    16.4040    19.0700    25.4690     2.4870 
  173.8750    -7.8620    48.6980    18.2040    16.2020    17.4750    25.4150     2.4830 
  174.0000    -7.7880    49.0390    18.3260    16.1470    17.0520    25.3660     2.4910 
  174.1250    -7.7050    48.9630    18.5860    16.2150    17.9220    25.3470     2.5100 
  174.2500    -7.6250    49.0710    18.8090    16.2920    18.4370    25.3020     2.5260 
  174.3750    -7.5820    49.8920    18.8790    16.2890    18.2260    25.2080     2.5320 
  174.5000    -7.6050    51.0140    18.7610    16.1610    16.6740    25.0840     2.5250 
  174.6250    -7.6230    51.3320    18.5080    15.9150    16.2740    25.0510     2.5170 
  174.7500    -7.5800    49.5410    18.2810    15.6570    16.3500    25.1400     2.5210 
  174.8750    -7.4950    46.5930    18.1710    15.4690    17.1720    25.3070     2.5400 
  175.0000    -7.4160    45.3570    18.1630    15.3780    17.5820    25.4120     2.5650 
  175.1250    -7.3580    47.3950    18.1300    15.3520    17.9960    25.4420     2.5790 
  175.2500    -7.3300    49.5670    17.9960    15.3390    19.0220    25.4400     2.5770 
  175.3750    -7.3360    50.0730    17.8230    15.3620    19.3750    25.4400     2.5610 
  175.5000    -7.3550    49.9300    17.7670    15.4980    18.9300    25.4400     2.5410 
  175.6250    -7.4230    50.0500    17.9710    15.8180    17.7230    25.4370     2.5280 
  175.7500    -7.5580    49.4580    18.2510    16.1770    17.2690    25.4240     2.5210 
  175.8750    -7.7260    48.7830    18.2450    16.2860    18.2690    25.3920     2.5150 
  176.0000    -7.9050    50.5410    17.5710    15.8050    19.1620    25.3530     2.5020 
  176.1250    -8.1020    56.1410    15.9970    14.5050    16.7520    25.3110     2.4790 
  176.2500    -8.3080    63.8790    14.0230    12.8240    12.8640    25.3140     2.4500 
  176.3750    -8.4970    72.1520    12.1820    11.2160    10.1640    25.3820     2.4230 
  176.5000    -8.6600    79.4900    10.9010    10.0170     9.5190    25.4900     2.4010 
  176.6250    -8.7700    82.4060    10.4780     9.4620     9.7230    25.5370     2.3890 
  176.7500    -8.7880    81.0200    10.6850     9.4260    10.2790    25.5290     2.3820 
  176.8750    -8.7270    77.2930    11.2600     9.7680    11.7740    25.5000     2.3750 
  177.0000    -8.6220    72.9750    11.8740    10.2650    13.4150    25.4760     2.3660 
  177.1250    -8.5010    70.3110    12.1870    10.6250    13.9670    25.4890     2.3510 
  177.2500    -8.3610    69.9860    12.1550    10.7250    13.4150    25.4970     2.3360 
  177.3750    -8.1830    72.1900    11.8840    10.6010    13.0020    25.5000     2.3300 
  177.5000    -7.9660    75.5760    11.5430    10.3730    12.7250    25.5020     2.3400 
  177.6250    -7.8010    77.6410    11.3540    10.2190    12.2660    25.4890     2.3650 
  177.7500    -7.7250    75.6400    11.4580    10.2700    12.0270    25.4360     2.3920 
  177.8750    -7.7190    69.5960    11.9200    10.5980    12.3060    25.3750     2.4140 
  178.0000    -7.7500    63.7150    12.7260    11.2090    13.4710    25.4200     2.4270 
  178.1250    -7.7910    62.2200    13.7990    12.0690    17.4870    25.5480     2.4330 
  178.2500    -7.8410    62.3250    14.8780    12.9840    26.6270    25.5590     2.4280 
  178.3750    -7.9330    61.7690    15.6880    13.7310    32.4480    25.4780     2.4050 
  178.5000    -8.0830    62.3130    15.9810    14.0840    25.3990    25.4540     2.3610 
  178.6250    -8.2220    64.7500    15.5630    13.8410    17.3850    25.5110     2.3100 
  178.7500    -8.3300    64.9170    14.6760    13.1750    15.2180    25.5250     2.2750 
  178.8750    -8.4260    62.9560    13.5840    12.2880    14.3990    25.5100     2.2660 
  179.0000    -8.4990    63.6630    12.5620    11.4080    12.9270    25.5000     2.2800 
  179.1250    -8.5440    68.0890    11.8690    10.7550    11.6220    25.5000     2.3010 
  179.2500    -8.5580    71.8670    11.5530    10.3950    11.4070    25.5000     2.3160 
  179.3750    -8.5300    72.6770    11.6330    10.3650    11.9700    25.4990     2.3210 
  179.5000    -8.4830    71.4950    12.0900    10.6700    12.6500    25.4980     2.3190 
  179.6250    -8.4490    70.8120    12.8570    11.2940    13.4660    25.4970     2.3140 
  179.7500    -8.4160    70.3670    13.7010    12.0490    14.3140    25.4990     2.3080 
  179.8750    -8.3540    68.5520    14.4330    12.7640    15.1460    25.5000     2.3050 
  180.0000    -8.2550    65.7770    14.9000    13.2780    15.5650    25.5000     2.3040 
  180.1250    -8.1590    67.4780    14.9380    13.4120    15.2050    25.4990     2.3070 
  180.2500    -8.1190    71.3100    14.6160    13.2020    14.7380    25.5010     2.3110 
  180.3750    -8.1240    71.3920    14.0550    12.7500    14.5430    25.5130     2.3130 
  180.5000    -8.1050    68.2960    13.4550    12.2280    14.4920    25.5370     2.3130 
  180.6250    -8.0120    67.7660    13.1050    11.8740    13.6450    25.5310     2.3290 
  180.7500    -7.9220    69.8970    13.1820    11.8440    12.4010    25.5200     2.3700 
  180.8750    -7.9020    70.6310    13.8030    12.2520    12.2260    25.5150     2.4330 
  181.0000    -7.9830    69.1270    15.0020    13.1670    13.8480    25.4500     2.4960 
  181.1250    -8.1040    67.6460    16.7880    14.6830    17.6010    25.3180     2.5170 
  181.2500    -8.1990    67.1650    18.9240    16.6450    21.0650    25.2930     2.4880 
  181.3750    -8.2830    66.9600    21.1710    18.8740    23.6450    25.3990     2.4200 
  181.5000    -8.3830    64.9760    23.1600    21.0320    24.0190    25.4620     2.3420 
  181.6250    -8.5300    62.3940    24.2470    22.4810    24.4800    25.4250     2.2810 
  181.7500    -8.6740    61.3350    24.1880    22.8710    25.6040    25.3870     2.2450 
  181.8750    -8.7900    62.0780    22.9800    22.1140    25.3220    25.3690     2.2310 
  182.0000    -8.8720    64.2070    20.9470    20.4630    20.2940    25.3520     2.2370 
  182.1250    -8.9370    67.9640    18.6340    18.3960    13.4460    25.3730     2.2640 
  182.2500    -8.9710    71.3910    16.5630    16.4470    11.9060    25.3960     2.3040 
  182.3750    -8.9770    71.9770    14.9080    14.8190    13.2680    25.3980     2.3480 
  182.5000    -8.9770    69.7950    13.6690    13.5570    14.5320    25.3670     2.3850 
  182.6250    -9.0030    67.8690    12.8470    12.7060    13.9690    25.3450     2.4030 
  182.7500    -9.0580    68.3860    12.3890    12.2200    12.6670    25.3730     2.4040 
  182.8750    -9.1200    70.5060    12.3810    12.1560    12.0620    25.4090     2.3930 
  183.0000    -9.1710    71.3740    12.9300    12.5810    11.7500    25.4130     2.3750 
  183.1250    -9.2270    70.1790    14.1770    13.6320    12.3950    25.3760     2.3520 
  183.2500    -9.3210    67.8040    15.9120    15.1750    14.0110    25.3580     2.3290 
  183.3750    -9.4490    64.7370    17.9050    17.0450    18.8480    25.3860     2.3140 
  183.5000    -9.6100    61.1690    19.8910    18.9950    23.0900    25.4550     2.3150 
  183.6250    -9.7320    58.7720    21.6460    20.7670    21.8340    25.4800     2.3400 
  183.7500    -9.8070    56.7210    23.1710    22.3020    22.8310    25.4700     2.3790 
  183.8750    -9.8780    54.5550    24.4790    23.5910    26.8580    25.4570     2.4110 
  184.0000    -9.9930    53.5990    25.5520    24.6200    31.6830    25.4690     2.4180 
  184.1250   -10.1550    55.5460    26.3110    25.3250    34.6640    25.4840     2.3870 
  184.2500   -10.3270    57.8740    26.8800    25.8100    32.5480    25.5250     2.3310 
  184.3750   -10.5200    59.2260    27.5310    26.2870    30.9280    25.5690     2.2700 
  184.5000   -10.7320    60.8450    28.6920    27.1130    30.9560    25.6030     2.2200 
  184.6250   -11.0000    62.7190    30.9780    28.8630    34.0860    25.6280     2.1970 
  184.7500   -11.3240    61.9120    34.3620    31.6480    39.7810    25.6480     2.1960 
  184.8750   -11.6640    58.4210    38.5160    35.3120    47.7220    25.6140     2.2070 
