~V
VERS. 2.00: Ver 2.00
~W
STRT.M 50.0000:
STOP.M 216.0000:
STEP.M 0.1250:
NULL. -999.2500:
UWI. F10015:
~C
DEPT.M :
GR.API :
RML.OHMM :
RI. :
RXO.OHMM :
CALI.CM :
DEN.GM/CC :
SP.MV :
~A
# ...
  151.2500    48.8590    21.7610    19.2310    17.9640    24.4170     2.4920    -7.1290 
  151.3750    47.8230    21.4200    18.9080    17.3370    24.4170     2.4910    -7.1820 
  151.5000    47.7950    21.1350    18.6470    17.1550    24.4170     2.4920    -7.2380 
  151.6250    48.8830    20.9980    18.5400    17.8540    24.4130     2.4930    -7.2430 
  151.7500    50.9740    20.9530    18.5270    18.0400    24.3970     2.4920    -7.2140 
  151.8750    52.9980    20.9830    18.5870    18.0520    24.3720     2.4880    -7.1620 
  152.0000    53.7640    21.0530    18.6780    18.2400    24.3490     2.4840    -7.1090 
  152.1250    52.9230    21.1220    18.7570    18.6800    24.3370     2.4800    -7.0640 
  152.2500    51.9400    21.1650    18.7870    18.8810    24.3210     2.4800    -7.0080 
  152.3750    52.3890    21.1490    18.7370    18.9320    24.2750     2.4820    -6.9890 
  152.5000    52.1250    21.0130    18.5650    18.4340    24.2300     2.4850    -7.0130 
  152.6250    51.4020    20.7340    18.2600    17.5180    24.2040     2.4870    -7.0960 
  152.7500    51.2900    20.2640    17.7900    16.6070    24.1950     2.4860    -7.2360 
  152.8750    52.3140    19.5900    17.1490    15.9800    24.1950     2.4820    -7.4200 
  153.0000    53.0850    18.7770    16.3980    15.3440    24.1950     2.4750    -7.6250 
  153.1250    51.8290    18.0280    15.6960    14.6540    24.1950     2.4670    -7.8270 
  153.2500    51.5560    17.5430    15.1940    14.0740    24.1950     2.4610    -8.0280 
  153.3750    52.6000    17.4790    15.0140    14.0720    24.1950     2.4580    -8.1870 
  153.5000    53.2090    17.8040    15.1380    14.9680    24.1950     2.4620    -8.2860 
  153.6250    51.6420    18.3600    15.4680    16.6390    24.1950     2.4710    -8.3250 
  153.7500    48.2720    18.9280    15.8670    18.2120    24.1950     2.4840    -8.3160 
  153.8750    47.1370    19.0830    16.0240    18.0590    24.1950     2.4930    -8.2830 
  154.0000    47.4530    18.6870    15.8000    16.7150    24.1950     2.4920    -8.2260 
  154.1250    46.9000    17.9510    15.3200    15.3950    24.1950     2.4820    -8.1490 
  154.2500    45.1010    17.1080    14.7240    14.5740    24.1950     2.4710    -8.0540 
  154.3750    43.1500    16.3720    14.1550    14.1460    24.1950     2.4640    -7.9450 
  154.5000    43.1540    15.9040    13.7340    13.5820    24.1950     2.4670    -7.8280 
  154.6250    44.3300    15.8860    13.6040    12.9960    24.1950     2.4820    -7.7130 
  154.7500    43.7980    15.9850    13.5690    12.5610    24.1900     2.4970    -7.6020 
  154.8750    42.9480    15.9010    13.4340    12.3970    24.1650     2.5070    -7.4990 
  155.0000    43.1290    15.4220    13.0380    12.3400    24.1210     2.5070    -7.3970 
  155.1250    45.4050    14.4190    12.2700    11.9580    24.0740     2.4980    -7.2890 
  155.2500    50.3160    12.8590    11.0790    10.5810    24.0530     2.4810    -7.1760 
  155.3750    57.2170    11.1920     9.7730     8.4980    24.0500     2.4580    -7.0590 
  155.5000    62.9810     9.8870     8.6950     7.2350    24.0500     2.4370    -7.0190 
  155.6250    67.1830     9.0160     7.9120     6.7030    24.0500     2.4180    -7.0370 
  155.7500    70.5350     8.6180     7.4730     6.6080    24.0500     2.4070    -7.0930 
  155.8750    73.7850     8.6320     7.3610     6.6420    24.0500     2.4040    -7.1750 
  156.0000    76.6230     8.8410     7.4370     6.6700    24.0500     2.4070    -7.2940 
  156.1250    77.9450     8.9910     7.5420     6.7480    24.0500     2.4110    -7.4840 
  156.2500    79.2060     8.9420     7.5180     6.7090    24.0500     2.4120    -7.6730 
  156.3750    79.4120     8.6690     7.3230     6.5790    24.0670     2.4060    -7.8220 
  156.5000    78.1210     8.2580     7.0110     6.4290    24.1370     2.3960    -7.9020 
  156.6250    75.7910     7.8580     6.6890     6.3260    24.2960     2.3830    -7.9110 
  156.7500    74.1330     7.6310     6.4750     6.2850    24.5600     2.3710    -7.8810 
  156.8750    75.6940     7.7320     6.4910     6.4590    24.7150     2.3660    -7.8790 
  157.0000    76.9320     8.1600     6.7620     6.9610    24.7510     2.3700    -7.8820 
  157.1250    77.0340     8.7820     7.2060     7.7870    24.7380     2.3800    -7.9260 
  157.2500    76.2400     9.4770     7.7450     8.6350    24.7180     2.3920    -8.0200 
  157.3750    75.5800    10.1360     8.3010     9.1350    24.7090     2.4020    -8.1710 
  157.5000    76.6060    10.6810     8.7920     9.0840    24.7070     2.4070    -8.4000 
  157.6250    78.4050    11.0300     9.1240     9.0300    24.7070     2.4030    -8.6530 
  157.7500    78.0450    11.2780     9.3560     9.6700    24.7070     2.3940    -8.8420 
  157.8750    75.2410    11.4360     9.4930    10.9510    24.6990     2.3820    -8.9720 
  158.0000    72.3650    11.5320     9.5610    12.0900    24.6770     2.3700    -9.0500 
  158.1250    71.9660    11.6020     9.5970    12.2650    24.6380     2.3610    -9.0820 
  158.2500    74.2900    11.6830     9.6330    11.2910    24.5950     2.3590    -9.0660 
  158.3750    75.5720    11.8510     9.7300    10.8210    24.5510     2.3590    -9.0310 
  158.5000    75.6500    12.1240     9.9200    11.0840    24.5140     2.3570    -8.9660 
  158.6250    75.6610    12.4600    10.1810    11.1070    24.4920     2.3560    -8.9490 
  158.7500    75.8480    12.8280    10.4940    11.0210    24.4850     2.3580    -9.0140 
  158.8750    75.8910    13.2030    10.8400    11.2900    24.4850     2.3670    -9.1440 
  159.0000    75.2410    13.5670    11.1890    11.9410    24.4850     2.3850    -9.2710 
  159.1250    73.7810    13.9110    11.5230    11.8320    24.4850     2.4020    -9.4060 
  159.2500    72.1080    14.2330    11.8380    12.1350    24.4850     2.4070    -9.5680 
  159.3750    71.0830    14.4640    12.0860    12.2600    24.4850     2.3970    -9.7450 
  159.5000    71.7230    14.5630    12.2280    12.1270    24.4850     2.3750    -9.9300 
  159.6250    74.5400    14.5120    12.2430    11.9360    24.4850     2.3520   -10.0960 
  159.7500    78.8770    14.3130    12.1170    11.9300    24.4850     2.3340   -10.1780 
  159.8750    80.2550    14.0920    11.9350    11.7120    24.4850     2.3260   -10.2310 
  160.0000    77.6630    13.9890    11.8060    11.3290    24.4850     2.3190   -10.2070 
  160.1250    74.1370    14.0160    11.7570    11.2710    24.4850     2.3080   -10.1230 
  160.2500    71.4980    14.1710    11.8060    11.7990    24.4950     2.2920    -9.9670 
  160.3750    70.0530    14.4320    11.9550    12.7110    24.5280     2.2720    -9.7330 
  160.5000    68.2860    14.7670    12.1910    13.0990    24.6000     2.2540    -9.4620 
  160.6250    67.1250    15.2740    12.6120    12.9110    24.6550     2.2490    -9.1550 
  160.7500    67.0900    15.9610    13.1960    13.3690    24.6600     2.2580    -8.8670 
  160.8750    67.2460    16.9320    14.0250    14.6970    24.6460     2.2770    -8.5940 
  161.0000    67.6710    18.1960    15.1160    16.7150    24.6310     2.2980    -8.3610 
  161.1250    68.5530    19.7270    16.4640    18.7160    24.6190     2.3130    -8.1880 
  161.2500    69.2860    21.5110    18.0870    19.3480    24.5960     2.3140    -8.0520 
  161.3750    67.0830    23.3560    19.8440    21.0020    24.5730     2.3030    -7.9960 
  161.5000    65.2240    24.9340    21.4470    23.3230    24.5640     2.2900    -7.9770 
  161.6250    65.6180    26.1080    22.7450    25.0610    24.5620     2.2780    -7.9820 
  161.7500    67.0930    26.7320    23.5760    25.9380    24.5620     2.2730    -7.9900 
  161.8750    67.2330    26.7630    23.8690    25.8480    24.5620     2.2760    -7.9980 
  162.0000    64.2280    26.3780    23.7450    24.0690    24.5620     2.2860    -8.0350 
  162.1250    60.9670    25.7400    23.2770    23.1160    24.5620     2.3020    -8.0940 
  162.2500    60.8200    25.0990    22.7570    22.2700    24.5620     2.3180    -8.1750 
  162.3750    63.0850    24.4070    22.1830    20.4230    24.5620     2.3280    -8.2530 
