~V
VERS. 2.00: Ver 2.00
~W
STRT.M 64.0000:
STOP.M 308.0000:
STEP.M 0.1250:
NULL. -999.2500:
UWI. F10040:
~C
DEPT.M :
GR.API :
RML.OHMM :
RI. :
RXO.OHMM :
CALI.CM :
DEN.GM/CC :
SP.MV :
~A
# ...
  109.0000    71.8070     6.7780     5.5780     6.6920    23.8870     2.2700    -6.9890 
  109.1250    69.6300     6.8580     5.6130     6.4720    23.7990     2.2590    -6.8980 
  109.2500    69.4790     6.9240     5.6400     6.3530    23.7460     2.2490    -6.8080 
  109.3750    69.8730     6.9620     5.6400     6.4850    23.7280     2.2520    -6.6960 
  109.5000    69.8200     6.9350     5.5840     7.1500    23.7400     2.2720    -6.5490 
  109.6250    70.0940     6.7800     5.4270     7.4760    23.7750     2.3000    -6.3610 
  109.7500    71.9500     6.5070     5.1960     6.9220    23.8010     2.3190    -6.1550 
  109.8750    74.8940     6.2010     4.9590     5.9690    23.7930     2.3220    -5.9720 
  110.0000    76.0490     6.0360     4.8310     5.8500    23.7830     2.3180    -5.8350 
  110.1250    72.7600     6.3470     5.0240     6.6090    23.8310     2.3300    -5.7830 
  110.2500    67.3820     7.2920     5.6540     8.3940    23.9130     2.3720    -5.8260 
  110.3750    62.3790     8.8960     6.7890    12.4030    24.0370     2.4410    -5.9600 
  110.5000    60.0930    10.9030     8.3230    19.4850    24.1350     2.5150    -6.1950 
  110.6250    61.3000    12.5670     9.7960    23.2710    24.1710     2.5570    -6.5380 
  110.7500    63.7040    13.1520    10.5770    18.9950    24.1280     2.5510    -6.9640 
  110.8750    65.0410    12.4330    10.3520    12.0910    24.0350     2.5000    -7.4310 
  111.0000    63.5530    10.8100     9.3010     8.5480    23.9770     2.4220    -7.8920 
  111.1250    60.7570     9.0630     7.9470     7.7330    24.0210     2.3460    -8.2900 
  111.2500    59.9620     7.7560     6.8030     7.5430    24.0710     2.2920    -8.6030 
  111.3750    62.0380     6.9920     6.0240     7.4400    24.1380     2.2650    -8.8240 
  111.5000    66.6010     6.6680     5.5970     7.4580    24.2910     2.2570    -8.9660 
  111.6250    71.3500     6.6290     5.4590     7.6450    24.3980     2.2580    -9.0160 
  111.7500    73.3790     6.6610     5.4440     7.7720    24.4740     2.2600    -8.9600 
  111.8750    72.7520     6.6790     5.4680     7.7750    24.5490     2.2590    -8.8030 
  112.0000    72.5410     6.6640     5.4840     7.6530    24.6020     2.2540    -8.5820 
  112.1250    74.6970     6.6320     5.4820     7.4650    24.6240     2.2450    -8.4030 
  112.2500    75.5730     6.6120     5.4810     7.3880    24.6150     2.2350    -8.3070 
  112.3750    74.9080     6.6190     5.4980     7.5270    24.5750     2.2260    -8.3020 
  112.5000    75.5590     6.6630     5.5480     7.6640    24.4700     2.2200    -8.3500 
  112.6250    76.7040     6.7620     5.6440     7.6160    24.2990     2.2180    -8.4120 
  112.7500    74.8960     6.9030     5.7730     7.3000    24.1750     2.2160    -8.4810 
  112.8750    70.6390     7.0580     5.9180     7.3880    24.1280     2.2140    -8.5540 
  113.0000    67.6070     7.1730     6.0430     8.2000    24.1300     2.2070    -8.6180 
  113.1250    67.7890     7.1580     6.0820     8.6590    24.1710     2.2000    -8.5970 
  113.2500    68.4810     6.9920     6.0060     8.3300    24.2040     2.1980    -8.4930 
  113.3750    70.0060     6.7020     5.8180     7.5510    24.1590     2.2080    -8.3110 
  113.5000    73.3230     6.3730     5.5680     6.7840    24.0460     2.2290    -8.0690 
  113.6250    77.8510     6.1350     5.3390     5.8270    24.0130     2.2490    -7.8190 
  113.7500    79.2530     6.0560     5.2000     5.4360    24.0470     2.2580    -7.6320 
  113.8750    74.7960     6.1470     5.1820     6.5350    24.1260     2.2550    -7.5150 
  114.0000    67.5430     6.3740     5.2830     7.9110    24.3530     2.2480    -7.4520 
  114.1250    63.9460     6.6690     5.4790     8.6670    24.4660     2.2440    -7.4220 
  114.2500    65.2550     6.9320     5.7000     8.9660    24.4060     2.2470    -7.4000 
  114.3750    68.2270     7.1000     5.8960     9.2800    24.3190     2.2510    -7.3970 
  114.5000    69.5990     7.1520     6.0370     9.3580    24.1340     2.2510    -7.3970 
  114.6250    69.1990     7.1260     6.1270     8.9390    24.1360     2.2490    -7.3610 
  114.7500    68.2560     7.1300     6.2210     8.3290    24.2900     2.2480    -7.2270 
  114.8750    67.3610     7.2270     6.3580     8.0250    24.4650     2.2550    -6.9640 
  115.0000    66.0270     7.4150     6.5380     8.1730    24.5580     2.2700    -6.5610 
  115.1250    64.1680     7.5840     6.6810     8.9990    24.3900     2.2890    -5.9710 
  115.2500    62.7130     7.5760     6.6710     9.3370    24.1910     2.3070    -5.2250 
  115.3750    64.5970     7.2920     6.4210     8.0630    24.1300     2.3200    -4.3410 
  115.5000    72.7990     6.7360     5.9250     6.4430    24.2160     2.3290    -3.3690 
  115.6250    85.0310     6.0140     5.2740     5.1210    24.3700     2.3330    -2.3790 
  115.7500    93.7190     5.3310     4.6540     4.2730    24.6700     2.3350    -1.4710 
  115.8750    96.5470     4.8250     4.1900     3.9070    24.9100     2.3360    -0.7280 
  116.0000    96.2930     4.5830     3.9610     3.9950    25.0060     2.3340    -0.2080 
  116.1250    93.9980     4.6840     4.0330     4.7060    24.8710     2.3290     0.0000 
  116.2500    88.1530     5.0290     4.3220     6.3650    24.7090     2.3210    -0.0370 
  116.3750    80.3950     5.4910     4.7240     9.2120    24.7430     2.3100    -0.2290 
  116.5000    74.5340     5.8860     5.0880    12.4850    24.7560     2.2970    -0.5000 
  116.6250    74.1710     5.9970     5.2330    11.9030    24.5460     2.2830    -0.8060 
  116.7500    77.4410     5.8420     5.1620     7.5250    24.4670     2.2680    -1.1020 
  116.8750    81.4600     5.5540     4.9700     5.3390    24.4460     2.2530    -1.3610 
  117.0000    83.0230     5.3210     4.7990     5.0230    24.3780     2.2420    -1.5870 
  117.1250    81.3220     5.3190     4.7860     5.9520    24.0630     2.2470    -1.7880 
  117.2500    78.7500     5.5280     4.9300     6.9160    23.8280     2.2690    -1.9810 
  117.3750    77.2550     5.8560     5.1750     7.3180    23.7330     2.2990    -2.2370 
  117.5000    77.1020     6.1750     5.4330     7.3070    23.4940     2.3240    -2.5820 
  117.6250    79.0770     6.3610     5.6070     7.0180    23.4390     2.3310    -2.9570 
  117.7500    80.5590     6.4160     5.6760     6.7620    23.5380     2.3240    -3.2930 
  117.8750    79.7480     6.3860     5.6550     6.8570    23.5080     2.3120    -3.6010 
  118.0000    79.0250     6.3220     5.5690     7.1950    23.3660     2.3040    -3.8820 
  118.1250    81.2060     6.2370     5.4300     6.8010    23.3790     2.2970    -4.1150 
  118.2500    83.4160     6.1410     5.2660     6.1170    23.4210     2.2870    -4.3180 
  118.3750    82.6760     6.0790     5.1310     6.0120    23.4210     2.2810    -4.4570 
  118.5000    79.9790     6.1500     5.1150     6.0790    23.4670     2.2900    -4.5530 
  118.6250    77.0640     6.5240     5.3590     6.5000    23.2760     2.3250    -4.6860 
  118.7500    72.6600     7.2100     5.8740     8.1870    23.0920     2.3670    -4.8860 
  118.8750    68.1980     8.1180     6.6060    11.3400    22.9160     2.3970    -5.1590 
  119.0000    66.2170     9.0130     7.3890    12.8150    22.7720     2.3950    -5.4990 
  119.1250    66.8380     9.5010     7.9260    10.8860    22.6740     2.3580    -5.9100 
  119.2500    67.5950     9.4540     8.0640     8.9970    22.6060     2.3100    -6.3690 
  119.3750    68.5600     8.9710     7.8250     7.9600    22.5680     2.2690    -6.9110 
  119.5000    70.0020     8.3200     7.3740     7.4880    22.6000     2.2440    -7.4950 
  119.6250    69.9560     7.8070     6.9350     7.2410    22.3400     2.2380    -8.0690 
  119.7500    69.6140     7.5210     6.6340     7.2840    22.3450     2.2410    -8.6430 
  119.8750    70.6480     7.4010     6.4840     7.5050    22.3870     2.2450    -9.1750 
  120.0000    71.4760     7.3420     6.4370     7.8550    22.4970     2.2470    -9.6500 
  120.1250    70.0660     7.2730     6.4400     8.0030    22.7930     2.2440   -10.0830 
