~V
VERS. 2.00: Ver 2.00
~W
STRT.M 50.0000:
STOP.M 274.0000:
STEP.M 0.1250:
NULL. -999.2500:
UWI. F10029:
~C
DEPT.M :
DEN.GM/CC :
SP.MV :
GR.API :
CALI.CM :
RXO.OHMM :
RI. :
RML.OHMM :
~A
# ...
   61.2500     2.1650   -20.2520   111.3820    23.0540     6.2090     5.7670     5.5500 
   61.3750     2.1820   -20.3450   115.7680    23.0330     5.8920     5.5130     5.2780 
   61.5000     2.2190   -20.4410   115.4170    23.1650     5.4880     5.6840     5.4610 
   61.6250     2.2800   -20.6770   111.6500    23.3760     6.7560     6.6540     6.7600 
   61.7500     2.3610   -21.0240   106.5610    23.4580    14.3310     8.5280     9.5470 
   61.8750     2.4470   -21.4380   101.5790    23.4200    31.9210    11.3030    12.5190 
   62.0000     2.5050   -21.9540    96.2770    23.2750    48.8600    14.3860    15.8220 
   62.1250     2.4930   -22.4740    88.0770    23.0780    47.0080    15.9230    17.8840 
   62.2500     2.4170   -23.0490    81.6130    22.9080    32.2020    15.1350    17.0410 
   62.3750     2.3100   -23.6240    82.2380    22.7410    18.3050    12.9390    14.6890 
   62.5000     2.2110   -24.1870    86.6340    22.5920    10.5290    10.6650    12.2520 
   62.6250     2.1510   -24.6710    85.8210    22.4770     8.2830     9.0880    10.5630 
   62.7500     2.1240   -25.0650    80.0950    22.4960     7.6140     8.1480     9.5570 
   62.8750     2.1130   -25.3940    77.5990    22.6460     7.3670     7.7040     9.0800 
   63.0000     2.1080   -25.6690    79.6930    22.7150     7.1560     7.5940     8.9630 
   63.1250     2.1060   -25.9340    81.8170    22.6940     6.9940     7.6910     9.0670 
   63.2500     2.1080   -26.1720    83.5790    22.6460     6.9600     7.8480     9.2350 
   63.3750     2.1110   -26.4740    85.6900    22.5490     7.0660     8.0030     9.4010 
   63.5000     2.1100   -26.8090    88.0630    22.3360     7.2570     8.1210     9.5270 
   63.6250     2.1060   -27.0890    88.7670    22.2040     7.4240     8.1700     9.5800 
   63.7500     2.1020   -27.3520    89.3410    22.1500     7.5430     8.1500     9.5590 
   63.8750     2.1020   -27.6160    90.6050    22.1580     7.6000     8.0610     9.4630 
   64.0000     2.1030   -27.8890    90.8600    22.2630     7.6610     7.9210     9.3130 
   64.1250     2.0970   -28.1790    88.2260    22.5910     7.7580     7.8500     9.2370 
   64.2500     2.0850   -28.4960    83.9470    22.8330     7.8450     8.0350     9.4350 
   64.3750     2.0820   -28.7810    79.4610    22.8050     7.9170     8.6510    10.0950 
   64.5000     2.1070   -28.9990    74.5680    22.7070     8.2530     9.7940    11.3200 
   64.6250     2.1780   -29.2130    68.8470    22.6850    10.1950    11.4190    13.0610 
   64.7500     2.2680   -29.4480    64.7070    22.7390    16.2290    12.9630    14.7130 
   64.8750     2.3330   -29.6550    64.7400    22.8520    22.3610    13.7110    15.5160 
   65.0000     2.3280   -29.8600    67.2560    23.0800    20.9590    13.2270    14.9970 
   65.1250     2.2510   -29.9920    68.1690    23.5240    12.9910    11.7570    13.4220 
   65.2500     2.1630   -30.0700    69.9780    24.1300     9.3710    10.2060    11.7610 
   65.3750     2.1030   -30.1070    74.2390    24.6090     8.8720     8.9970    10.4650 
   65.5000     2.0770   -30.1030    77.3800    24.6510     8.8710     8.2600     9.6760 
   65.6250     2.0720   -30.1360    76.2210    24.3800     8.8630     8.0000     9.3980 
   65.7500     2.0730   -30.1430    74.7180    24.2110     8.7690     7.9950     9.3930 
   65.8750     2.0790   -30.1280    75.4870    24.1720     8.6490     8.1020     9.5070 
   66.0000     2.0950   -30.0420    76.3410    24.2320     8.6290     8.2120     9.6250 
   66.1250     2.1140   -29.9710    75.5420    24.4000     8.7240     8.2440     9.6590 
   66.2500     2.1190   -29.9050    74.9540    24.5290     8.7000     8.1890     9.6000 
   66.3750     2.1080   -29.8350    74.4440    24.5010     8.3990     8.0740     9.4770 
   66.5000     2.0880   -29.7800    73.8970    24.2090     7.9040     7.9410     9.3340 
   66.6250     2.0700   -29.6410    74.0710    23.3770     7.5440     7.8390     9.2260 
   66.7500     2.0630   -29.5300    76.0880    22.2220     7.5280     7.7910     9.1740 
   66.8750     2.0670   -29.4230    78.3720    21.4580     7.6670     7.7990     9.1820 
   67.0000     2.0760   -29.3350    79.7070    21.2800     7.7400     7.8530     9.2400 
   67.1250     2.0810   -29.1980    79.1440    21.4350     7.6490     7.9280     9.3210 
   67.2500     2.0820   -29.0270    76.1150    21.5890     7.6140     7.9810     9.3780 
   67.3750     2.0820   -28.8560    73.1370    21.6850     7.7690     7.9800     9.3760 
   67.5000     2.0830   -28.7130    73.5090    21.7040     8.1830     7.9100     9.3010 
   67.6250     2.0850   -28.5690    79.5170    21.6600     8.5500     7.7820     9.1650 
   67.7500     2.0880   -28.3710    87.8380    21.6240     8.5790     7.6480     9.0210 
   67.8750     2.0920   -28.1680    93.4320    21.5840     8.3510     7.5460     8.9110 
   68.0000     2.0950   -27.9380    93.4550    21.5500     8.1710     7.4990     8.8610 
   68.1250     2.0930   -27.7280    87.9680    21.5040     8.1820     7.5210     8.8850 
   68.2500     2.0890   -27.4960    83.0450    21.4620     8.2590     7.5870     8.9550 
   68.3750     2.0890   -27.2780    81.8510    21.4900     8.3370     7.6820     9.0560 
   68.5000     2.0940   -27.0530    82.1970    21.6350     8.2860     7.7910     9.1730 
   68.6250     2.1040   -26.8600    81.2310    21.9070     8.0250     7.8960     9.2860 
   68.7500     2.1150   -26.7000    80.2640    22.1230     7.6520     7.9720     9.3680 
   68.8750     2.1260   -26.5400    81.6220    22.2290     7.3700     7.9930     9.3900 
   69.0000     2.1340   -26.4190    84.1560    22.1640     7.3310     7.9390     9.3320 
   69.1250     2.1370   -26.3060    86.6140    21.9910     7.4030     7.8020     9.1850 
   69.2500     2.1380   -26.2420    88.4850    21.7490     7.3680     7.6320     9.0040 
   69.3750     2.1350   -26.1600    88.4380    21.5470     7.1660     7.4730     8.8330 
   69.5000     2.1280   -26.0590    85.4820    21.4470     6.9570     7.3530     8.7050 
   69.6250     2.1200   -25.9650    84.2600    21.4330     6.8380     7.2770     8.6230 
   69.7500     2.1190   -25.8460    89.2560    21.4690     6.7510     7.2030     8.5440 
   69.8750     2.1250   -25.7500    97.3060    21.5720     6.6510     7.0910     8.4240 
   70.0000     2.1330   -25.6140   102.3060    21.7620     6.5960     6.9210     8.2420 
   70.1250     2.1490   -25.4720    98.8630    22.0330     6.5660     6.7270     8.0340 
   70.2500     2.1740   -25.3760    93.9860    22.3120     6.3890     6.5870     7.8840 
   70.3750     2.1970   -25.3030    95.1310    22.3540     6.0450     6.5560     7.8510 
   70.5000     2.2100   -25.2480   102.5710    22.0850     5.6950     6.6520     7.9530 
   70.6250     2.2090   -25.2660   106.1460    21.7960     5.4170     6.8530     8.1690 
   70.7500     2.1990   -25.3640   100.4390    21.6760     5.3540     7.0700     8.4020 
   70.8750     2.1810   -25.4800    91.1790    21.6690     5.5300     7.2330     8.5760 
   71.0000     2.1600   -25.6260    86.1640    21.7100     5.8330     7.3050     8.6530 
   71.1250     2.1390   -25.8150    86.0450    21.7240     6.0600     7.2890     8.6360 
   71.2500     2.1190   -25.9460    85.1240    21.6980     6.3720     7.2380     8.5810 
   71.3750     2.0990   -26.0590    84.4340    21.6470     6.8850     7.1760     8.5150 
   71.5000     2.0830   -26.1810    84.8900    21.6450     7.5250     7.1140     8.4480 
   71.6250     2.0750   -26.2620    84.0780    21.6790     8.0490     7.0790     8.4110 
   71.7500     2.0730   -26.3180    82.0670    21.5890     8.1460     7.1520     8.4890 
   71.8750     2.0770   -26.3200    81.2010    21.4210     7.7980     7.4370     8.7940 
   72.0000     2.0960   -26.3090    81.6450    21.2270     7.2820     7.9920     9.3890 
   72.1250     2.1520   -26.2890    80.9410    21.1100     8.0730     8.7820    10.2350 
   72.2500     2.2350   -26.2940    80.2760    21.1520    11.3840     9.5280    11.0350 
   72.3750     2.3050   -26.3670    81.4100    21.3260    15.8030     9.9130    11.4460 
