~V
VERS. 2.00: Ver 2.00
~W
STRT.M 62.0000:
STOP.M 254.0000:
STEP.M 0.1250:
NULL. -999.2500:
UWI. F10030:
~C
DEPT.M :
DEN.GM/CC :
GR.API :
RML.OHMM :
RI. :
RXO.OHMM :
CALI.CM :
SP.MV :
~A
# ...
   73.2500     2.1550    61.8260    10.1730     8.6960    13.8320    23.5260   -29.4290 
   73.3750     2.1300    60.8160     9.9330     8.5120    13.1960    23.4140   -29.3450 
   73.5000     2.1050    59.0290    10.0300     8.4500    12.0930    23.3610   -29.2580 
   73.6250     2.1030    57.4890    10.5970     8.6610    11.5630    23.4440   -29.2510 
   73.7500     2.1330    59.3480    11.4210     9.0980    13.7610    23.5950   -29.2800 
   73.8750     2.1850    63.3190    12.2040     9.6150    20.7090    23.7510   -29.2810 
   74.0000     2.2360    65.7210    12.6140     9.9840    31.9810    23.8750   -29.3190 
   74.1250     2.2580    66.7650    12.3750     9.9590    23.9080    23.8690   -29.3480 
   74.2500     2.2510    69.6110    11.7210     9.6210    16.3500    23.7210   -29.3290 
   74.3750     2.2280    72.2130    10.9610     9.1560    13.5200    23.5190   -29.3180 
   74.5000     2.2030    71.2960    10.3770     8.7610    13.4040    23.3620   -29.2650 
   74.6250     2.1840    67.0810    10.1520     8.5900    13.7990    23.3650   -29.1180 
   74.7500     2.1680    63.9150    10.1650     8.6030    13.8510    23.5190   -28.9540 
   74.8750     2.1520    64.0520    10.2630     8.7090    13.5240    23.7350   -28.7610 
   75.0000     2.1420    67.6560    10.3120     8.8010    13.0260    23.8970   -28.5080 
   75.1250     2.1430    70.6880    10.2480     8.7790    12.6410    23.9510   -28.3080 
   75.2500     2.1520    71.1270    10.1310     8.6430    12.3870    23.9460   -28.1330 
   75.3750     2.1600    70.1010    10.0260     8.4400    11.9610    23.9080   -27.9250 
   75.5000     2.1600    68.9540     9.9860     8.2420    11.6940    23.8380   -27.7760 
   75.6250     2.1490    68.0400    10.0530     8.1560    11.7970    23.7180   -27.7040 
   75.7500     2.1350    67.8940    10.2170     8.2240    12.1500    23.5790   -27.6450 
   75.8750     2.1280    68.0860    10.4700     8.4550    12.3550    23.4650   -27.6360 
   76.0000     2.1310    66.8200    10.7970     8.8180    12.6130    23.4220   -27.6780 
   76.1250     2.1410    64.3540    11.1620     9.2530    12.7750    23.4540   -27.6600 
   76.2500     2.1520    62.5350    11.4900     9.6680    12.7170    23.5200   -27.6270 
   76.3750     2.1610    61.8050    11.7080     9.9960    12.6390    23.5940   -27.5840 
   76.5000     2.1670    62.2460    11.7620    10.1800    12.6290    23.6320   -27.4710 
   76.6250     2.1720    63.7850    11.6200    10.1550    11.8170    23.5620   -27.3250 
   76.7500     2.1740    65.9070    11.3740     9.9590    10.7450    23.4030   -27.1970 
   76.8750     2.1730    67.4260    11.1070     9.6410     9.9490    23.2220   -27.0960 
   77.0000     2.1710    68.1030    10.8900     9.2720     9.5380    23.0900   -27.0620 
   77.1250     2.1690    68.6460    10.7700     8.9360     9.4930    23.0310   -27.1130 
   77.2500     2.1700    68.7250    10.7250     8.6800     9.4860    23.0120   -27.2360 
   77.3750     2.1760    68.4980    10.7320     8.5160     9.6530    23.0190   -27.4970 
   77.5000     2.1840    68.1020    10.7750     8.4320     9.9300    23.0540   -27.8810 
   77.6250     2.1910    66.3460    10.8550     8.4210    10.2550    23.1270   -28.3220 
   77.7500     2.1940    62.6900    10.9730     8.4670    10.9190    23.2320   -28.8240 
   77.8750     2.1910    59.2230    11.1230     8.5720    11.9890    23.3390   -29.3300 
   78.0000     2.1830    59.2750    11.2850     8.7330    12.5910    23.3980   -29.7970 
   78.1250     2.1730    60.4000    11.4180     8.9290    12.6880    23.3770   -30.2920 
   78.2500     2.1660    59.8530    11.4900     9.1100    13.2010    23.3610   -30.7280 
   78.3750     2.1630    59.0280    11.4910     9.2370    13.7800    23.4310   -31.0680 
   78.5000     2.1640    58.6550    11.4410     9.2900    13.9160    23.5670   -31.3660 
   78.6250     2.1630    56.7840    11.3860     9.2690    13.7450    23.6820   -31.5430 
   78.7500     2.1610    54.3150    11.3700     9.2060    13.6120    23.7580   -31.6040 
   78.8750     2.1550    54.3410    11.4070     9.1170    13.6450    23.8090   -31.6100 
   79.0000     2.1510    57.1140    11.4820     9.0060    13.7780    23.8270   -31.5130 
   79.1250     2.1490    59.1860    11.5550     8.8740    13.8750    23.8250   -31.3110 
   79.2500     2.1520    59.0320    11.5830     8.7370    14.0530    23.8210   -31.0610 
   79.3750     2.1540    58.1410    11.5470     8.6180    14.2640    23.8120   -30.7190 
   79.5000     2.1530    57.5830    11.4530     8.5450    14.2600    23.7920   -30.3110 
   79.6250     2.1450    57.6810    11.3240     8.5420    13.8220    23.7660   -29.9030 
   79.7500     2.1370    57.2170    11.2060     8.5930    13.5960    23.7530   -29.4470 
   79.8750     2.1330    55.5430    11.1340     8.6820    13.6260    23.7500   -28.9540 
   80.0000     2.1360    53.4290    11.1300     8.7960    13.7970    23.7470   -28.4490 
   80.1250     2.1430    53.0690    11.2040     8.9240    14.1450    23.7450   -27.8480 
   80.2500     2.1470    55.7240    11.3050     9.0330    13.9950    23.7420   -27.2040 
   80.3750     2.1450    60.0530    11.3520     9.0690    13.6390    23.7320   -26.5010 
   80.5000     2.1380    63.6830    11.2440     8.9560    13.6110    23.7180   -25.6600 
   80.6250     2.1350    65.5950    10.8590     8.6020    13.6350    23.7100   -24.7230 
   80.7500     2.1420    68.6870    10.2570     8.0730    13.3030    23.7150   -23.7620 
   80.8750     2.1640    75.3570     9.5650     7.4760    12.3890    23.7260   -22.7600 
   81.0000     2.2000    82.9580     8.9670     6.9440    10.7140    23.7410   -21.8270 
   81.1250     2.2390    85.4500     8.6820     6.6280     9.1750    23.7510   -20.9820 
   81.2500     2.2640    84.4350     8.7100     6.5380     8.7270    23.7370   -20.1430 
   81.3750     2.2640    83.4400     8.9490     6.6440     8.9140    23.6720   -19.3820 
   81.5000     2.2430    83.1670     9.2160     6.8620     9.7990    23.5480   -18.7270 
   81.6250     2.2160    82.6160     9.2730     7.0650     9.0540    23.3990   -18.1000 
   81.7500     2.1990    82.8870     9.0590     7.1490     7.7730    23.2730   -17.5250 
   81.8750     2.1990    84.9500     8.6350     7.0810     6.6050    23.1850   -17.0410 
   82.0000     2.2080    87.9770     8.1310     6.8930     6.5310    23.1260   -16.5240 
   82.1250     2.2180    92.3710     7.6800     6.6500     7.1260    23.1170   -16.0080 
   82.2500     2.2230    98.6690     7.3190     6.4160     7.0520    23.1640   -15.5660 
   82.3750     2.2270   104.4010     7.0250     6.2050     6.2380    23.2850   -15.1510 
   82.5000     2.2330   108.3270     6.7670     6.0030     5.5140    23.4860   -14.8030 
   82.6250     2.2430   108.7510     6.5400     5.7920     5.2820    23.7350   -14.5970 
   82.7500     2.2520   108.1260     6.3610     5.5750     5.2040    23.9220   -14.4370 
   82.8750     2.2590   107.7820     6.2560     5.3780     5.1720    23.9370   -14.2900 
   83.0000     2.2630   108.1620     6.2270     5.2290     5.2800    23.7550   -14.2110 
   83.1250     2.2680   108.0070     6.2670     5.1550     5.4840    23.5470   -14.1640 
   83.2500     2.2770   106.7020     6.3370     5.1340     5.5600    23.4900   -14.1530 
   83.3750     2.2920   106.9460     6.4140     5.1370     5.4970    23.5920   -14.1980 
   83.5000     2.3120   110.1690     6.4740     5.1350     5.4390    23.7830   -14.2420 
   83.6250     2.3340   112.4000     6.4770     5.1000     5.4520    24.0370   -14.3380 
   83.7500     2.3470   111.7010     6.4010     5.0250     5.5150    24.3200   -14.5140 
   83.8750     2.3470   109.1930     6.2360     4.9180     5.4950    24.6240   -14.7070 
   84.0000     2.3380   107.4570     5.9950     4.7930     5.3340    24.8620   -14.9620 
   84.1250     2.3280   106.0050     5.6980     4.6700     5.1620    24.9090   -15.3190 
   84.2500     2.3250   103.7590     5.4000     4.5680     5.1150    24.6900   -15.7100 
   84.3750     2.3270   100.6390     5.1930     4.5290     5.2460    24.4910   -16.1970 
