~V
VERS. 2.00: Ver 2.00
~W
STRT.M 60.0000:
STOP.M 242.0000:
STEP.M 0.1250:
NULL. -999.2500:
UWI. F10022:
~C
DEPT.M :
GR.API :
RML.OHMM :
RI. :
RXO.OHMM :
CALI.CM :
DEN.GM/CC :
SP.MV :
~A
   60.0000    43.6200     0.7370     0.2960    -0.4040    25.3470     2.1340    36.2020 
   60.1250    46.5530     0.7280     0.2860    -0.4100    25.3470     2.1020    36.0000 
   60.2500    46.6600     0.7090     0.2810    -0.4060    25.3470     2.0370    35.9020 
   60.3750    45.4880     0.6890     0.2830    -0.3990    25.3470     1.9520    35.9270 
   60.5000    45.5270     0.6910     0.2900    -0.3940    25.3470     1.8680    36.0530 
   60.6250    49.0060     0.7420     0.2930    -0.3930    25.3470     1.8080    36.3040 
   60.7500    53.2230     0.8310     0.2850    -0.3950    25.3470     1.7790    36.6780 
   60.8750    56.2950     0.9300     0.2680    -0.3970    25.3470     1.7840    37.2380 
   61.0000    57.7190     1.0140     0.2480    -0.4000    25.3470     1.8250    37.9610 
   61.1250    58.1920     1.0700     0.2350    -0.3990    25.3460     1.8970    38.7920 
   61.2500    57.4990     1.0920     0.2380    -0.3960    25.3350     1.9830    39.6600 
   61.3750    55.1660     1.0600     0.2550    -0.3910    25.3110     2.0670    40.5270 
   61.5000    53.3640     0.9620     0.2800    -0.3880    25.2910     2.1350    41.3830 
   61.6250    54.5600     0.8080     0.3000    -0.3900    25.2800     2.1800    42.2090 
   61.7500    56.6640     0.6550     0.3080    -0.3940    25.2780     2.2070    42.9990 
   61.8750    57.8700     0.5540     0.3080    -0.4020    25.2730     2.2120    43.7200 
   62.0000    58.6220     0.5230     0.3070    -0.4120    25.2560     2.1880    44.3830 
   62.1250    59.8850     0.5480     0.3100    -0.4220    25.1340     2.1280    45.0020 
   62.2500    59.8670     0.5780     0.3160    -0.4300    24.7970     2.0560    45.5780 
   62.3750    57.7160     0.5940     0.3170    -0.4350    24.2470     1.9990    46.0810 
   62.5000    55.3510     0.5810     0.3120    -0.4370    23.8770     1.9880    46.4920 
   62.6250    54.2460     0.5260     0.3010    -0.4340    23.8520     2.0560    46.8100 
   62.7500    53.0490     0.4350     0.2930    -0.4260    24.0640     2.1850    47.0830 
   62.8750    51.3960     0.3220     0.2950    -0.4030    24.4250     2.3380    47.2640 
   63.0000    49.5510     0.2140     0.3030    -0.3300    24.8450     2.4680    47.1550 
   63.1250    47.8720     0.1420     0.3100    -0.1130    25.1160     2.5250    46.1820 
   63.2500    47.5860     0.1090     0.3140     0.3040    25.1640     2.5180    44.0070 
   63.3750    50.6690     0.1200     0.3330     1.0460    25.0210     2.4710    40.5730 
   63.5000    56.0910     0.1970     0.4090     2.1520    24.6570     2.4120    36.1170 
   63.6250    62.0800     0.3900     0.6160     3.3800    24.1930     2.3690    30.9210 
   63.7500    67.8750     0.6940     0.9710     4.5670    23.8760     2.3490    25.3370 
   63.8750    71.6380     1.0790     1.4510     5.3180    23.7720     2.3480    19.5750 
   64.0000    72.8510     1.4720     1.9850     5.4800    23.7970     2.3550    13.9040 
   64.1250    75.1680     1.7770     2.4660     5.2440    23.8420     2.3570     8.8860 
   64.2500    79.2690     2.0050     2.8660     5.1510    23.8460     2.3580     4.8600 
   64.3750    81.5790     2.2630     3.2700     5.3220    23.8090     2.3720     1.8820 
   64.5000    79.9790     2.7380     3.8820     6.0300    23.7590     2.4100    -0.2710 
   64.6250    77.1960     3.7860     5.1520     8.2770    23.7340     2.4780    -1.9490 
   64.7500    74.2670     5.5560     7.3240    12.7890    23.7280     2.5560    -3.4740 
   64.8750    69.7740     8.0420    10.4410    19.9000    23.7440     2.6200    -4.9810 
   65.0000    64.4070    10.9030    14.1010    28.4000    23.8070     2.6490    -6.5060 
   65.1250    60.9570    13.2420    17.1630    34.5830    23.9560     2.6290    -8.0790 
   65.2500    60.6350    14.2060    18.4830    35.4670    24.0760     2.5710    -9.6900 
   65.3750    61.4890    13.4560    17.5890    30.1910    24.1320     2.4900   -11.3190 
   65.5000    62.9320    11.4740    15.0710    21.4070    24.1520     2.4070   -12.9350 
   65.6250    64.3110     9.3160    12.2360    14.5430    24.1830     2.3410   -14.4660 
   65.7500    63.3440     7.7070    10.0100    10.6000    24.2510     2.2980   -15.8630 
   65.8750    60.7140     6.7490     8.5440     9.1770    24.3320     2.2740   -17.1000 
   66.0000    60.7080     6.3200     7.7210     9.2020    24.3620     2.2620   -18.1750 
   66.1250    64.0170     6.2640     7.3950     9.2990    24.3560     2.2520   -19.0560 
   66.2500    65.2420     6.3310     7.2890     8.8660    24.3240     2.2430   -19.7630 
   66.3750    63.1320     6.3980     7.2560     8.2060    24.2680     2.2350   -20.2910 
   66.5000    60.7110     6.3990     7.2000     7.8980    24.1960     2.2310   -20.6550 
   66.6250    58.6420     6.3110     7.0720     7.7730    24.1910     2.2320   -20.8890 
   66.7500    58.0040     6.1860     6.9090     7.6080    24.2290     2.2370   -21.0620 
   66.8750    58.8290     6.0770     6.7630     7.4120    24.2720     2.2430   -21.1990 
   67.0000    60.2870     6.0450     6.6940     7.2200    24.3030     2.2520   -21.3230 
   67.1250    61.8640     6.1460     6.7570     7.1410    24.3450     2.2600   -21.4240 
   67.2500    62.8820     6.3370     6.9230     7.2060    24.3460     2.2620   -21.4800 
   67.3750    62.7100     6.5480     7.1370     7.3540    24.2390     2.2540   -21.5130 
   67.5000    61.1680     6.7050     7.3340     7.4880    24.0300     2.2370   -21.5640 
   67.6250    59.6080     6.7560     7.4380     7.6750    23.9470     2.2170   -21.6040 
   67.7500    58.5010     6.7500     7.4430     7.8800    24.0830     2.2030   -21.6440 
   67.8750    57.8580     6.7420     7.3730     8.0740    24.2250     2.2010   -21.6570 
   68.0000    58.0690     6.7680     7.2670     8.1560    24.2650     2.2100   -21.6150 
   68.1250    59.8520     6.8160     7.1600     8.1310    24.2190     2.2250   -21.5460 
   68.2500    61.6590     6.8410     7.0640     8.2010    24.1920     2.2370   -21.5100 
   68.3750    62.2530     6.8120     6.9700     8.3370    24.1950     2.2420   -21.5010 
   68.5000    62.5900     6.7260     6.8690     8.4150    24.1740     2.2410   -21.5140 
   68.6250    64.2250     6.6050     6.7630     8.3440    24.0990     2.2360   -21.5960 
   68.7500    63.9070     6.4970     6.6680     8.2230    24.0430     2.2280   -21.7320 
   68.8750    61.5180     6.4290     6.5980     8.1200    24.1110     2.2190   -21.9050 
   69.0000    61.3900     6.4100     6.5570     8.0830    24.1780     2.2090   -22.1090 
   69.1250    63.1000     6.4390     6.5460     8.0020    24.1760     2.2010   -22.3470 
   69.2500    63.1130     6.4920     6.5500     7.8420    24.1570     2.1980   -22.5740 
   69.3750    63.1260     6.5590     6.5630     7.6650    24.1650     2.2030   -22.7870 
   69.5000    66.6020     6.6300     6.5790     7.6150    24.2070     2.2100   -23.0020 
   69.6250    70.4810     6.6940     6.5910     7.7190    24.2690     2.2160   -23.1750 
   69.7500    69.6680     6.7360     6.5950     7.8960    24.3010     2.2140   -23.2940 
   69.8750    67.1240     6.7430     6.5850     8.0390    24.2890     2.2050   -23.4120 
   70.0000    67.0990     6.7110     6.5600     8.0730    24.2470     2.1900   -23.5300 
   70.1250    71.2980     6.6540     6.5250     7.9630    24.2060     2.1720   -23.6220 
   70.2500    73.4560     6.6050     6.4980     7.7450    24.1930     2.1550   -23.7300 
   70.3750    70.4130     6.5840     6.4920     7.5450    24.2440     2.1430   -23.8780 
   70.5000    64.9930     6.6010     6.5120     7.5160    24.3700     2.1390   -24.0150 
   70.6250    60.9280     6.6550     6.5530     7.6590    24.4680     2.1470   -24.1400 
   70.7500    58.0260     6.7230     6.5930     7.8050    24.5140     2.1590   -24.2600 
   70.8750    56.0190     6.7910     6.6110     7.9000    24.5140     2.1720   -24.3250 
   71.0000    55.3550     6.8470     6.5960     7.8970    24.5110     2.1800   -24.3470 
   71.1250    56.6490     6.8850     6.5510     7.8130    24.5210     2.1840   -24.3260 
