~V
VERS. 2.00: Ver 2.00
~W
STRT.M 50.0000:
STOP.M 237.0000:
STEP.M 0.1250:
NULL. -999.2500:
UWI. F10006:
~C
DEPT.M :
GR.API :
RML.OHMM :
RI. :
RXO.OHMM :
CALI.CM :
DEN.GM/CC :
SP.MV :
~A
# ...
  196.2500    60.4530   162.3890   162.8160   122.0650    23.8020     2.2420   -28.7130 
  196.3750    60.2670   162.3040   162.3980   116.8770    23.7390     2.2510   -29.0630 
  196.5000    62.4360   164.2720   163.6320   119.3530    23.6310     2.2560   -29.3950 
  196.6250    66.1830   169.9740   168.2940   126.9690    23.5920     2.2560   -29.6800 
  196.7500    66.1740   179.3490   176.5620   137.3500    23.6650     2.2530   -29.8850 
  196.8750    61.3690   192.2240   188.4530   150.4670    23.8430     2.2450   -30.0310 
  197.0000    56.8430   207.9400   203.4810   166.0360    23.9670     2.2350   -30.1190 
  197.1250    57.1080   225.4590   220.7500   175.4910    23.9800     2.2260   -30.1290 
  197.2500    59.0180   242.9370   238.2650   180.1270    23.9220     2.2210   -30.1050 
  197.3750    59.0560   259.1020   254.5770   187.0240    23.8680     2.2230   -30.0540 
  197.5000    58.7590   273.0990   268.6710   188.0330    23.8130     2.2300   -29.9700 
  197.6250    60.7580   284.2810   279.7870   188.1070    23.7230     2.2410   -29.8590 
  197.7500    62.5660   293.4110   288.6830   181.4990    23.6570     2.2490   -29.7670 
  197.8750    62.6920   300.9750   295.8160   181.7570    23.6500     2.2500   -29.6880 
  198.0000    61.0480   307.3340   301.4950   196.5840    23.7140     2.2410   -29.6310 
  198.1250    58.2400   312.5580   305.7150   203.3250    23.8310     2.2280   -29.5860 
  198.2500    55.5820   316.9680   308.9170   191.6970    23.9240     2.2150   -29.5450 
  198.3750    53.7880   320.6720   311.3540   176.8810    23.9590     2.2070   -29.5120 
  198.5000    53.1180   323.7890   313.2820   192.8090    23.9690     2.2030   -29.4940 
  198.6250    54.5050   326.4510   314.9610   203.9270    23.9450     2.2020   -29.4710 
  198.7500    57.4080   328.9770   316.7280   204.9250    23.8850     2.2010   -29.4440 
  198.8750    59.2330   331.5470   318.8000   203.4930    23.8280     2.2020   -29.4220 
  199.0000    57.4960   334.1640   321.2520   208.9920    23.8020     2.2020   -29.4000 
  199.1250    54.7190   336.5380   323.9420   216.2910    23.7770     2.2000   -29.3890 
  199.2500    55.3480   338.5170   326.6280   218.0480    23.7120     2.1930   -29.3900 
  199.3750    57.8200   340.1320   329.2680   214.2960    23.6240     2.1890   -29.3860 
  199.5000    59.6460   340.3900   331.1490   213.1350    23.5790     2.2050   -29.3730 
  199.6250    60.2160   332.8700   327.3550   207.6800    23.6210     2.2640   -29.3660 
  199.7500    59.4130   310.2020   311.2650   197.0320    23.6940     2.3550   -29.3500 
  199.8750    57.3550   269.0130   278.2210   192.0580    23.7500     2.4520   -29.3160 
  200.0000    58.3380   215.2260   230.6830   209.1700    23.7620     2.5210   -29.2730 
  200.1250    67.0780   163.0090   179.0850   139.0020    23.6870     2.5270   -29.2090 
  200.2500    76.8530   123.8630   135.1900    77.8140    23.5740     2.4880   -29.1340 
  200.3750    81.4180   100.9100   103.3980    53.3060    23.5040     2.4310   -29.0680 
  200.5000    80.1350    88.4370    83.2920    47.9270    23.4800     2.3890   -29.0200 
  200.6250    78.1360    80.6580    73.0910    50.1430    23.4450     2.3890   -28.9730 
  200.7500    79.4380    75.2880    68.1230    51.1650    23.3920     2.4190   -28.9240 
  200.8750    83.1440    72.7740    66.2700    50.5190    23.4070     2.4580   -28.8880 
  201.0000    86.7940    71.7210    65.9780    48.2600    23.5420     2.4850   -28.8710 
  201.1250    87.5350    71.1630    66.1480    49.1510    23.7650     2.4820   -28.8750 
  201.2500    85.5720    70.9440    66.2030    46.8370    23.8190     2.4600   -28.9000 
  201.3750    83.0450    71.0350    66.2050    42.9700    23.7790     2.4360   -28.9430 
  201.5000    81.2490    71.6280    66.4500    40.6610    23.7920     2.4250   -28.9840 
  201.6250    80.6000    72.9430    67.3360    43.3070    23.5160     2.4380   -29.0410 
  201.7500    80.8780    74.5240    68.8020    49.5290    23.4520     2.4670   -29.1110 
  201.8750    83.2260    75.8820    70.4800    57.9180    23.8470     2.4990   -29.1760 
  202.0000    86.9650    76.8050    71.6880    61.0210    24.4680     2.5180   -29.2320 
  202.1250    88.7880    77.3190    71.5450    57.1170    25.1830     2.5070   -29.2840 
  202.2500    87.2960    77.5050    70.2730    58.0050    24.2180     2.4800   -29.3220 
  202.3750    83.2550    77.2210    68.6910    62.0490    23.6610     2.4620   -29.3360 
  202.5000    77.5880    76.0280    67.9810    55.1540    23.5490     2.4750   -29.3510 
  202.6250    71.1500    74.7670    69.5580    56.7530    23.5110     2.5240   -29.3620 
  202.7500    67.4100    75.7260    73.2930    75.7820    23.5040     2.5790   -29.3500 
  202.8750    69.4520    79.8920    78.2210    91.5860    23.5740     2.6100   -29.3180 
  203.0000    76.6620    84.0800    82.4220    80.5140    23.6270     2.6050   -29.2510 
  203.1250    81.3630    83.9930    82.9450    65.4130    23.5510     2.5710   -29.1550 
  203.2500    78.8130    79.2870    79.2150    57.7450    23.4060     2.5350   -29.0330 
  203.3750    73.7820    71.4130    72.2070    54.4800    23.2630     2.5100   -28.8820 
  203.5000    71.6820    62.8280    64.0500    47.4600    23.2980     2.4970   -28.6990 
  203.6250    72.7930    56.0780    57.1940    45.8000    23.4560     2.4880   -28.5000 
  203.7500    73.5700    51.9080    52.6080    46.5160    23.5620     2.4780   -28.2940 
  203.8750    73.1390    50.2800    50.3750    54.3560    23.6300     2.4680   -28.0850 
  204.0000    74.4090    50.7040    50.0940    56.2730    23.7250     2.4620   -27.8840 
  204.1250    79.4600    52.5170    51.2190    57.6370    23.8580     2.4670   -27.6960 
  204.2500    84.6660    54.6240    52.7570    58.0810    24.0120     2.4850   -27.5170 
  204.3750    85.6330    56.5010    54.2140    52.6840    24.1050     2.5130   -27.3470 
  204.5000    82.1430    58.0700    55.4530    45.8010    24.1220     2.5480   -27.1920 
  204.6250    78.8490    59.7300    56.7420    47.0250    24.1480     2.5830   -27.0450 
  204.7500    76.3120    61.9010    58.4300    54.8120    24.1630     2.6070   -26.9220 
  204.8750    74.0530    64.6080    60.5840    63.6470    24.1650     2.6140   -26.8270 
  205.0000    73.8990    67.4480    62.9280    84.6320    24.1450     2.6060   -26.7680 
  205.1250    77.8120    69.5900    64.8290    90.4400    24.1360     2.5880   -26.7440 
  205.2500    81.9030    70.6110    65.8880    81.3140    24.1030     2.5730   -26.7570 
  205.3750    83.9410    70.5450    66.0760    69.6330    24.0700     2.5640   -26.8070 
  205.5000    84.8100    69.8110    65.7070    62.2450    24.0550     2.5660   -26.8930 
  205.6250    83.5490    68.9740    65.2750    71.1140    24.0550     2.5850   -27.0290 
  205.7500    77.7200    68.3820    65.1040    76.4930    24.0450     2.6220   -27.1940 
  205.8750    66.5130    68.0760    65.2040    65.9710    24.0140     2.6760   -27.3970 
  206.0000    51.8270    68.0250    65.4520    48.0660    23.9980     2.7400   -27.6420 
  206.1250    39.4790    68.0380    65.5280    51.8180    24.0110     2.7960   -27.9510 
  206.2500    35.0740    67.2430    64.6440    61.1400    24.0370     2.8240   -28.3270 
  206.3750    40.1910    64.1370    61.4590    60.7180    24.0460     2.8090   -28.7760 
  206.5000    50.5850    57.3650    54.7740    52.2600    24.0360     2.7470   -29.2990 
  206.6250    62.7120    46.7130    44.4760    56.0110    24.0100     2.6430   -29.8890 
  206.7500    75.3230    35.1500    33.4270    41.9850    23.9950     2.5290   -30.5280 
  206.8750    85.7010    25.0790    23.8640    20.9650    23.9890     2.4300   -31.1940 
  207.0000    90.7210    17.8100    16.9030    10.6720    23.9720     2.3640   -31.8780 
  207.1250    91.0110    13.8170    12.8530     8.1590    23.8490     2.3420   -32.5760 
  207.2500    92.6860    11.9330    10.6350     7.6050    23.6870     2.3480   -33.2410 
  207.3750    97.8120    11.4660     9.6970     8.3190    23.5680     2.3660   -33.8550 
