~V
VERS. 2.00: Ver 2.00
~W
STRT.M 55.0000:
STOP.M 247.0000:
STEP.M 0.1250:
NULL. -999.2500:
UWI. F10032:
~C
DEPT.M :
GR.API :
RML.OHMM :
RI. :
RXO.OHMM :
CALI.CM :
DEN.GM/CC :
SP.MV :
~A
# ...
  133.7500    62.1540    38.4870    36.2760    39.0250    23.6620     2.1790   -10.4990 
  133.8750    63.3970    30.9090    31.4530    34.0870    23.5980     2.1990   -10.4180 
  134.0000    67.2980    25.5160    26.4350    26.6200    23.5920     2.2080   -10.2880 
  134.1250    73.2270    21.4900    22.4850    22.4610    23.5910     2.1970   -10.1540 
  134.2500    77.6530    18.8460    19.7420    22.4960    23.6470     2.1810   -10.0320 
  134.3750    78.5110    17.5050    18.1450    21.4400    23.8350     2.1830    -9.9190 
  134.5000    75.7880    17.4250    17.6750    18.3590    24.1810     2.2200    -9.8180 
  134.6250    70.2740    18.8030    18.5780    16.3490    24.4780     2.3030    -9.7130 
  134.7500    63.6870    21.2470    20.5890    22.0100    24.4990     2.4040    -9.6170 
  134.8750    57.6930    24.3090    23.4170    29.5220    24.3220     2.4980    -9.5390 
  135.0000    53.4190    27.2810    26.5000    32.6580    24.2780     2.5660    -9.4950 
  135.1250    51.5110    29.0630    28.7760    31.4880    24.4820     2.6010    -9.4580 
  135.2500    50.3010    29.2650    29.5650    30.6080    24.6700     2.6190    -9.4400 
  135.3750    49.4610    28.1650    28.9550    27.9380    24.7360     2.6260    -9.4580 
  135.5000    49.9060    26.5480    27.6610    25.1620    24.7130     2.6250    -9.5070 
  135.6250    51.3300    25.2220    26.4180    25.1040    24.5850     2.6120    -9.5430 
  135.7500    52.6060    24.4410    25.5050    25.3180    24.3270     2.5910    -9.5800 
  135.8750    54.5650    24.2080    24.9800    25.2250    24.0440     2.5720    -9.6210 
  136.0000    56.6000    24.4070    24.8480    24.9580    23.9110     2.5590    -9.6650 
  136.1250    56.2970    24.7930    24.9890    24.5280    23.8810     2.5570    -9.7450 
  136.2500    54.6720    25.0470    25.0870    23.7060    23.8970     2.5600    -9.8360 
  136.3750    54.0560    25.0070    24.9620    23.6890    24.0170     2.5640    -9.9100 
  136.5000    53.7450    24.6550    24.5790    23.8470    24.1280     2.5650    -9.9520 
  136.6250    51.6370    24.0980    24.0340    22.3720    24.1130     2.5610    -9.9600 
  136.7500    50.0660    23.5930    23.5570    21.0860    24.1880     2.5560    -9.9340 
  136.8750    50.3110    23.3470    23.3380    21.3060    24.3880     2.5540    -9.9130 
  137.0000    51.2340    23.5360    23.5040    22.7940    24.6020     2.5600    -9.9160 
  137.1250    52.2710    24.3390    24.1370    24.7640    24.6700     2.5760    -9.9170 
  137.2500    53.8130    25.5480    25.0730    25.7730    24.6640     2.5970    -9.8790 
  137.3750    55.8330    26.8520    26.1390    26.1430    24.6550     2.6170    -9.8040 
  137.5000    56.2730    27.8620    27.0940    28.1510    24.6620     2.6290    -9.7140 
  137.6250    53.4460    28.1220    27.5550    31.5420    24.6710     2.6300    -9.6790 
  137.7500    48.5090    27.6590    27.3960    29.2820    24.6720     2.6240    -9.6930 
  137.8750    45.1740    26.6710    26.6480    25.0620    24.6590     2.6160    -9.7110 
  138.0000    46.5860    25.4630    25.5030    22.6880    24.6410     2.6120    -9.7020 
  138.1250    51.6760    24.2820    24.2230    22.4290    24.6290     2.6120    -9.6560 
  138.2500    56.3340    23.2090    23.0280    22.0210    24.6010     2.6070    -9.6260 
  138.3750    57.2350    22.2260    21.9760    20.9750    24.5570     2.5890    -9.6550 
  138.5000    54.9060    21.3090    21.0590    20.0090    24.4910     2.5570    -9.7390 
  138.6250    53.2350    20.5350    20.3180    19.8620    24.4360     2.5200    -9.8120 
  138.7500    54.3250    20.0650    19.8590    18.7510    24.3640     2.4960    -9.8610 
  138.8750    57.2740    20.0890    19.8530    17.8600    24.2870     2.4940    -9.8870 
  139.0000    58.8890    20.7250    20.3960    18.3580    24.2380     2.5140    -9.9340 
  139.1250    57.3110    22.0250    21.5190    19.9920    24.2600     2.5460   -10.0290 
  139.2500    54.9040    23.5750    22.8900    22.4480    24.2860     2.5750   -10.1350 
  139.3750    54.5040    24.8220    24.0660    24.9430    24.2840     2.5920   -10.2380 
  139.5000    57.3260    25.1460    24.4730    26.9070    24.3320     2.5950   -10.3060 
  139.6250    61.1030    24.0400    23.5770    26.5870    24.3920     2.5810   -10.3320 
  139.7500    63.2910    22.0870    21.8880    23.0810    24.4170     2.5570   -10.3490 
  139.8750    64.3860    19.9900    20.0170    18.3620    24.4290     2.5310   -10.4070 
  140.0000    64.0840    18.3780    18.4560    15.7060    24.4570     2.5080   -10.4890 
  140.1250    61.6670    17.7190    17.5980    15.6620    24.4970     2.4950   -10.5410 
  140.2500    59.3570    17.8380    17.4160    17.1420    24.4810     2.4890   -10.5810 
  140.3750    58.8540    18.5030    17.7870    19.0200    24.4450     2.4850   -10.5840 
  140.5000    59.5630    19.3950    18.4700    19.9190    24.4120     2.4810   -10.5690 
  140.6250    59.9720    20.1400    19.1940    21.1940    24.4060     2.4800   -10.5860 
  140.7500    61.8050    20.5570    19.7510    21.7290    24.4380     2.4840   -10.6120 
  140.8750    65.0390    20.6720    20.0650    21.2640    24.4960     2.4910   -10.6370 
  141.0000    68.2620    20.6350    20.2010    21.0600    24.5470     2.4970   -10.6420 
  141.1250    70.4480    20.6680    20.3360    20.7160    24.6040     2.4940   -10.6310 
  141.2500    72.1480    20.9270    20.5890    20.6530    24.6880     2.4810   -10.5990 
  141.3750    73.0180    21.4060    20.9530    21.3560    24.7430     2.4650   -10.5490 
  141.5000    74.0140    21.9150    21.3430    22.3240    24.7650     2.4540   -10.5080 
  141.6250    75.8770    22.0330    21.4670    22.4630    24.6930     2.4550   -10.4990 
  141.7500    76.7720    21.5190    21.0540    22.3670    24.5730     2.4630   -10.5170 
  141.8750    75.9800    20.3450    20.0400    21.7870    24.4440     2.4700   -10.5260 
  142.0000    74.4630    18.7530    18.6500    19.6750    24.3200     2.4690   -10.5080 
  142.1250    73.9810    17.1900    17.2520    17.0980    24.2090     2.4620   -10.4760 
  142.2500    73.1670    15.9790    16.1030    15.5650    24.2410     2.4560   -10.4410 
  142.3750    69.6950    15.1790    15.2950    14.5240    24.3410     2.4580   -10.4280 
  142.5000    64.3430    14.7080    14.7950    14.4250    24.4250     2.4690   -10.4280 
  142.6250    61.2420    14.4290    14.4850    14.5390    24.4410     2.4850   -10.4280 
  142.7500    61.2790    14.1750    14.2310    14.3520    24.4630     2.4950   -10.4160 
  142.8750    61.6610    13.9280    14.0420    13.3730    24.5330     2.4920   -10.3770 
  143.0000    59.9290    13.7610    13.9500    12.8550    24.6040     2.4780   -10.3370 
  143.1250    57.9470    13.8110    14.0100    13.2390    24.6400     2.4630   -10.3200 
  143.2500    57.3470    14.0820    14.2450    13.9440    24.6740     2.4580   -10.3460 
  143.3750    58.7490    14.5250    14.6460    14.0230    24.6590     2.4640   -10.4130 
  143.5000    63.3850    15.0130    15.1020    14.1320    24.6240     2.4800   -10.5020 
  143.6250    69.8360    15.3070    15.4120    14.6940    24.6380     2.4960   -10.5610 
  143.7500    75.0810    15.2600    15.4580    15.6430    24.6610     2.5050   -10.5780 
  143.8750    75.7080    14.8650    15.1820    15.6450    24.6780     2.5070   -10.5950 
  144.0000    72.4200    14.2810    14.6610    14.3260    24.6610     2.5020   -10.6420 
  144.1250    70.3550    13.8430    14.1890    13.5010    24.5860     2.4960   -10.7180 
  144.2500    71.5350    13.8240    14.0410    13.1350    24.4570     2.4940   -10.7790 
  144.3750    74.4260    14.3490    14.3240    13.4320    24.2330     2.4970   -10.7900 
  144.5000    76.8310    15.3600    15.0420    15.5030    24.0010     2.5020   -10.7580 
  144.6250    77.3650    16.6200    16.1280    18.3120    24.0050     2.5010   -10.7320 
  144.7500    76.7090    17.7250    17.2260    20.0960    24.2420     2.4920   -10.7370 
  144.8750    76.7280    18.4110    18.0280    20.1870    24.4520     2.4740   -10.7690 
