~V
VERS. 2.00: Ver 2.00
~W
STRT.M 57.0000:
STOP.M 307.0000:
STEP.M 0.1250:
NULL. -999.2500:
UWI. F10042:
~C
DEPT.M :
GR.API :
RML.OHMM :
RI. :
RXO.OHMM :
CALI.CM :
DEN.GM/CC :
SP.MV :
~A
# ...
  147.0000    76.6590     6.1980     5.9060     8.0850    25.0230     2.2660    -7.4470 
  147.1250    73.9740     8.1880     7.5890    10.4730    24.9630     2.3190    -7.8460 
  147.2500    74.1660    11.0220     9.9550    14.8090    25.0980     2.3910    -8.1920 
  147.3750    75.9950    14.4140    12.7230    21.6640    25.3500     2.4690    -8.5980 
  147.5000    74.9700    17.5390    15.0620    32.2760    25.6270     2.5330    -9.0770 
  147.6250    70.8870    18.8230    15.5160    44.3250    25.6450     2.5550    -9.6160 
  147.7500    69.2210    17.8260    14.1740    36.6400    25.4790     2.5300   -10.1780 
  147.8750    70.5790    15.1040    11.9680    21.7000    25.2740     2.4630   -10.7350 
  148.0000    72.7490    11.9010     9.8430    12.5650    25.1040     2.3750   -11.3390 
  148.1250    75.6030     9.4700     8.3400    10.0670    24.9670     2.2910   -12.1210 
  148.2500    79.4450     8.0230     7.3950     9.2930    24.8470     2.2270   -12.9990 
  148.3750    79.8030     7.3470     6.8830     8.8810    24.7290     2.1810   -13.7970 
  148.5000    73.7770     7.1060     6.6190     8.3050    24.5990     2.1490   -14.3190 
  148.6250    66.3530     6.9530     6.3700     7.7710    24.5200     2.1330   -14.3830 
  148.7500    66.0920     6.6410     5.9900     7.5080    24.6470     2.1350   -14.0130 
  148.8750    73.3700     6.1330     5.4930     7.0170    24.9880     2.1580   -13.1850 
  149.0000    82.1940     5.5290     4.9760     5.8220    25.4050     2.2000   -11.9840 
  149.1250    87.9890     5.0150     4.5640     4.5120    25.7120     2.2490   -10.5390 
  149.2500    90.9310     4.6840     4.2920     4.1760    25.8380     2.2930    -8.9940 
  149.3750    91.8890     4.5320     4.1430     4.3290    25.8820     2.3270    -7.4640 
  149.5000    92.4740     4.4870     4.0690     4.4700    25.8980     2.3490    -6.0430 
  149.6250    93.5110     4.4410     4.0060     4.4670    25.8920     2.3560    -4.8490 
  149.7500    92.9110     4.3180     3.9120     4.4220    25.8270     2.3520    -3.9680 
  149.8750    91.7380     4.1220     3.8040     4.3260    25.6480     2.3370    -3.5050 
  150.0000    92.6940     3.9360     3.7530     4.2120    25.3830     2.3110    -3.4290 
  150.1250    92.7080     3.9770     3.9200     4.1480    25.1500     2.2770    -3.6100 
  150.2500    88.8990     4.4490     4.4190     4.5230    24.9340     2.2530    -3.8510 
  150.3750    84.4120     5.5600     5.3730     5.4770    24.7530     2.2590    -4.1070 
  150.5000    83.9980     7.4490     6.8670     7.3800    24.7100     2.3110    -4.4600 
  150.6250    88.3780    10.0760     8.8280    11.0280    24.8750     2.4060    -4.9600 
  150.7500    94.0990    12.6320    10.5540    16.8490    25.0770     2.4970    -5.4940 
  150.8750    98.9110    14.1030    11.1960    18.1100    25.0900     2.5440    -5.9980 
  151.0000    99.7470    13.7280    10.4010    15.6030    24.9720     2.5290    -6.4160 
  151.1250    96.6070    11.4800     8.6780    11.2910    24.9420     2.4610    -6.6750 
  151.2500    92.2990     8.7880     6.9970     7.8560    25.0000     2.3860    -6.8650 
  151.3750    88.2500     6.6160     5.7130     5.6860    25.1100     2.3310    -7.0340 
  151.5000    87.2330     5.3470     4.8920     4.8880    25.2510     2.3030    -7.1480 
  151.6250    90.0940     4.9620     4.5320     4.7350    25.3270     2.2940    -7.2190 
  151.7500    90.8170     5.0140     4.4750     4.9170    25.3830     2.2840    -7.4040 
  151.8750    87.4060     5.2790     4.6450     5.1400    25.4230     2.2600    -7.7530 
  152.0000    83.6770     5.6270     4.9760     5.4150    25.4250     2.2170    -8.3050 
  152.1250    83.0430     6.0140     5.4160     5.8780    25.3320     2.1630    -9.1630 
  152.2500    80.4610     6.4350     5.8880     6.5290    25.0060     2.1220   -10.1510 
  152.3750    73.9980     6.8780     6.3350     7.1140    24.4420     2.1170   -11.1940 
  152.5000    67.9470     7.2920     6.7030     7.7620    23.8180     2.1550   -12.2700 
  152.6250    66.5980     7.5730     6.9200     8.1100    23.3530     2.2160   -13.2910 
  152.7500    67.4220     7.6720     6.9810     7.7700    23.1810     2.2630   -14.1330 
  152.8750    68.5940     7.5780     6.8780     7.2700    23.2280     2.2760   -14.7750 
  153.0000    69.7260     7.3210     6.6230     7.3360    23.4500     2.2570   -15.1710 
  153.1250    70.8190     6.9520     6.2460     7.4500    23.9160     2.2250   -15.1560 
  153.2500    72.4240     6.5600     5.8390     7.1880    24.5240     2.2010   -14.7850 
  153.3750    76.3440     6.2010     5.4650     6.3010    25.1510     2.1900   -14.0500 
  153.5000    81.9890     5.9170     5.1690     5.3340    25.5950     2.1890   -13.1350 
  153.6250    84.8030     5.7540     4.9920     5.4680    25.6860     2.1930   -12.2050 
  153.7500    85.5710     5.6850     4.8980     6.0570    25.6490     2.1980   -11.2020 
  153.8750    87.8860     5.6640     4.8480     6.1000    25.6680     2.2050   -10.0700 
  154.0000    92.9840     5.6150     4.7960     5.4240    25.7810     2.2130    -8.8970 
  154.1250    94.2600     5.4470     4.6950     5.2280    25.8490     2.2210    -7.8510 
  154.2500    90.7740     5.1690     4.5510     5.1670    25.8720     2.2290    -7.0940 
  154.3750    88.6290     4.8710     4.4320     5.0550    25.8480     2.2370    -6.6220 
  154.5000    90.5730     4.7100     4.4530     4.9670    25.7910     2.2460    -6.2160 
  154.6250    92.7690     4.9260     4.7730     4.9280    25.7200     2.2640    -5.7410 
  154.7500    91.8820     5.5700     5.3940     5.2310    25.6880     2.2970    -5.3110 
  154.8750    89.0660     6.5850     6.2450     6.6750    25.7010     2.3470    -5.0620 
  155.0000    84.9600     7.7340     7.0990    11.1890    25.7090     2.4030    -4.9520 
  155.1250    80.8570     8.4930     7.4690    16.4600    25.6180     2.4420    -4.9090 
  155.2500    81.3570     8.4960     7.1740    14.0470    25.4460     2.4510    -4.8560 
  155.3750    87.3430     7.7090     6.3910     8.1820    25.3670     2.4300    -4.8320 
  155.5000    94.8320     6.4620     5.4860     5.4180    25.5290     2.3920    -4.9060 
  155.6250    99.7470     5.3200     4.8020     4.8510    25.7470     2.3540    -5.1270 
  155.7500   100.6460     4.6340     4.4380     4.8720    25.8170     2.3250    -5.5240 
  155.8750    97.8650     4.4680     4.3920     5.0050    25.7700     2.3050    -6.0520 
  156.0000    92.7660     4.7350     4.6040     5.2560    25.6480     2.2900    -6.6950 
  156.1250    88.5930     5.3140     5.0090     5.5410    25.3690     2.2770    -7.5420 
  156.2500    86.6970     6.0080     5.5040     6.2920    24.9850     2.2600    -8.5180 
  156.3750    84.7400     6.7130     6.0330     7.3990    24.7510     2.2310    -9.5990 
  156.5000    79.9550     7.3480     6.5370     8.2060    24.8510     2.1880   -10.7470 
  156.6250    71.7240     7.8350     6.9400     8.3860    25.2300     2.1340   -11.8830 
  156.7500    65.0370     8.1660     7.2160     8.2660    25.4410     2.0880   -12.9090 
  156.8750    63.1230     8.3430     7.3580     8.0040    25.4330     2.0630   -13.7260 
  157.0000    64.6040     8.3790     7.3850     7.8530    25.3800     2.0630   -14.3130 
  157.1250    66.1980     8.2930     7.3430     7.7660    25.3650     2.0780   -14.6540 
  157.2500    67.8760     8.1630     7.2960     8.0780    25.3600     2.0880   -14.8620 
  157.3750    70.0700     8.0550     7.2770     8.4360    25.3480     2.0860   -14.9500 
  157.5000    71.6730     8.0270     7.2970     8.5460    25.3100     2.0730   -14.8250 
  157.6250    72.2390     8.0870     7.3240     8.4590    25.2020     2.0580   -14.4270 
  157.7500    73.2930     8.1280     7.2750     8.3020    25.0890     2.0520   -13.8600 
  157.8750    75.6690     8.0200     7.0620     8.2500    25.0380     2.0610   -13.1880 
  158.0000    80.1380     7.6610     6.6440     8.0790    25.0740     2.0870   -12.4570 
  158.1250    87.0370     7.0100     6.0450     7.2680    25.1870     2.1300   -11.5980 
