~V
VERS. 2.00: Ver 2.00
~W
STRT.M 60.0000:
STOP.M 262.0000:
STEP.M 0.1250:
NULL. -999.2500:
UWI. F10018:
~C
DEPT.M :
GR.API :
RML.OHMM :
RI. :
RXO.OHMM :
CALI.CM :
DEN.GM/CC :
SP.MV :
~A
# ...
   82.5000    79.9300     8.8000     7.0130     7.9670    24.7680     2.1540    -9.5110 
   82.6250    78.8350     8.5470     6.9350     7.7970    24.5830     2.1700    -9.6300 
   82.7500    77.5670     8.3440     6.8520     7.4800    24.3050     2.1920    -9.5860 
   82.8750    79.0090     8.2650     6.8180     7.2490    24.1330     2.2090    -9.4450 
   83.0000    83.2120     8.3030     6.8380     6.8600    24.0330     2.2120    -9.2890 
   83.1250    85.6070     8.3660     6.8610     6.9480    23.9400     2.2000    -9.1390 
   83.2500    84.9940     8.3250     6.8110     7.1980    23.8950     2.1880    -8.9180 
   83.3750    83.5420     8.1300     6.6520     7.2490    23.8820     2.1870    -8.5560 
   83.5000    82.8160     7.8090     6.4040     6.6710    23.8990     2.2040    -8.1220 
   83.6250    83.0230     7.4470     6.1190     5.8440    23.9690     2.2340    -7.8050 
   83.7500    86.7310     7.1210     5.8450     5.7180    24.0520     2.2680    -7.6030 
   83.8750    93.5900     6.8340     5.5850     5.9460    24.0530     2.2970    -7.4680 
   84.0000    98.3700     6.5540     5.3250     6.0740    24.0030     2.3160    -7.3610 
   84.1250    99.2970     6.2880     5.0800     5.5140    24.0820     2.3210    -7.2250 
   84.2500   100.6840     6.1070     4.9000     5.2420    24.2480     2.3190    -7.1210 
   84.3750   101.1970     6.1050     4.8480     5.2840    24.3950     2.3150    -7.1250 
   84.5000    96.9340     6.3450     4.9690     5.7110    24.4590     2.3150    -7.2270 
   84.6250    89.9950     6.8390     5.2990     7.6220    24.4390     2.3150    -7.4550 
   84.7500    84.5580     7.4120     5.7420    10.5030    24.4760     2.3070    -7.8330 
   84.8750    79.4310     7.9220     6.2070    10.5470    24.6390     2.2850    -8.3970 
   85.0000    73.9860     8.3640     6.6570     9.3590    24.9310     2.2480    -9.1110 
   85.1250    68.4850     8.9650     7.2000     8.8550    25.2010     2.2080    -9.8690 
   85.2500    63.6270     9.9270     7.9680     9.2220    25.3070     2.1840   -10.5840 
   85.3750    59.5400    11.2650     9.0050     9.3590    25.1190     2.1860   -11.1550 
   85.5000    57.1810    12.7140    10.1750    10.6690    24.6260     2.2150   -11.5040 
   85.6250    57.0130    13.5300    10.9510    15.2050    24.1080     2.2580   -11.5580 
   85.7500    59.2350    13.2060    10.8620    19.1530    23.4950     2.2920   -11.3460 
   85.8750    65.5900    11.8340     9.9050    14.2100    22.9350     2.3030   -10.8620 
   86.0000    75.6690    10.0450     8.5360     8.7100    22.5940     2.2920   -10.1540 
   86.1250    86.0330     8.5840     7.3080     7.1900    22.5620     2.2710    -9.3350 
   86.2500    91.9680     7.7110     6.4590     7.2240    22.6260     2.2570    -8.5280 
   86.3750    91.5730     7.4150     6.0180     7.5160    22.6980     2.2510    -7.8540 
   86.5000    88.1140     7.5460     5.9260     7.4940    22.8740     2.2490    -7.3860 
   86.6250    85.1280     7.8960     6.0790     7.1600    23.2280     2.2420    -7.1500 
   86.7500    82.9830     8.2130     6.2830     7.0730    23.6650     2.2300    -7.0770 
   86.8750    81.7610     8.3710     6.4290     7.7190    23.9020     2.2200    -7.1190 
   87.0000    82.2800     8.3110     6.4520     8.4090    23.9290     2.2220    -7.2370 
   87.1250    84.7300     8.0350     6.3270     7.8010    24.0760     2.2410    -7.3730 
   87.2500    88.0730     7.7080     6.1400     6.7170    24.2750     2.2650    -7.4570 
   87.3750    90.9510     7.4770     5.9830     6.2460    24.3510     2.2810    -7.4710 
   87.5000    91.5900     7.4490     5.9320     6.4750    24.3440     2.2790    -7.4500 
   87.6250    88.3790     7.6960     6.0520     7.1040    24.3340     2.2580    -7.4020 
   87.7500    82.3870     8.1210     6.3020     7.4590    24.3020     2.2300    -7.3290 
   87.8750    75.3570     8.6140     6.6240     7.8350    24.2190     2.2030    -7.2710 
   88.0000    69.5790     9.0360     6.9240     8.1490    24.0450     2.1850    -7.2620 
   88.1250    68.9980     9.2170     7.0710     8.0410    23.9190     2.1770    -7.2990 
   88.2500    72.2070     9.1320     7.0270     7.7820    23.8490     2.1820    -7.3680 
   88.3750    77.7580     8.8240     6.8140     7.5800    23.7690     2.1980    -7.4410 
   88.5000    84.8630     8.3980     6.5070     7.3330    23.6370     2.2230    -7.4550 
   88.6250    91.6650     8.0030     6.2100     6.8860    23.4400     2.2510    -7.3290 
   88.7500    92.5450     7.7540     6.0070     6.6120    23.1850     2.2710    -7.1360 
   88.8750    86.7780     7.6990     5.9290     6.7590    23.0490     2.2780    -6.9250 
   89.0000    79.9650     7.8300     5.9800     7.0360    23.0650     2.2710    -6.7130 
   89.1250    76.6450     8.1140     6.1550     7.1910    23.1540     2.2550    -6.5380 
   89.2500    76.6260     8.4640     6.4070     7.7140    23.1420     2.2390    -6.3920 
   89.3750    77.7660     8.8320     6.7030     8.6170    23.0130     2.2240    -6.3350 
   89.5000    78.1060     9.1850     7.0050     9.4760    22.8810     2.2100    -6.4610 
   89.6250    75.4120     9.4630     7.2590     9.4600    23.0520     2.1930    -6.8480 
   89.7500    70.3380     9.6010     7.4100     8.7520    23.5670     2.1750    -7.3730 
   89.8750    66.8540     9.5260     7.4040     8.6080    24.2320     2.1650    -7.9060 
   90.0000    67.3870     9.1970     7.2080     8.7040    24.6800     2.1680    -8.3150 
   90.1250    71.2870     8.6230     6.8180     8.3230    24.7330     2.1860    -8.5650 
   90.2500    76.0110     7.9830     6.3620     7.5890    24.6440     2.2080    -8.7160 
   90.3750    80.1950     7.4560     5.9630     6.8180    24.5580     2.2270    -8.7440 
   90.5000    84.6790     7.2080     5.7350     6.4910    24.4980     2.2460    -8.6310 
   90.6250    86.4950     7.3800     5.7870     6.5820    24.4690     2.2770    -8.3550 
   90.7500    84.1170     7.8350     6.0580     6.9450    24.4080     2.3190    -7.9320 
   90.8750    78.9490     8.3650     6.4390     7.7200    24.3530     2.3600    -7.4050 
   91.0000    75.2440     8.7020     6.7580     8.5550    24.3350     2.3840    -6.9210 
   91.1250    76.6410     8.5920     6.8050     8.7470    24.3980     2.3760    -6.5540 
   91.2500    79.4950     8.1600     6.5990     7.8830    24.4760     2.3490    -6.2830 
   91.3750    81.1030     7.6140     6.2540     6.9060    24.5280     2.3200    -6.0900 
   91.5000    81.6030     7.1510     5.9070     6.3620    24.5520     2.3000    -5.9520 
   91.6250    84.0150     6.8990     5.6680     6.4450    24.5350     2.2930    -5.8730 
   91.7500    87.2830     6.8090     5.5400     6.6580    24.5210     2.2950    -5.8410 
   91.8750    89.8610     6.8140     5.4980     6.6670    24.5220     2.3020    -5.8310 
   92.0000    90.9690     6.8510     5.5020     6.5020    24.5330     2.3140    -5.8090 
   92.1250    89.3180     6.8670     5.5150     6.3280    24.5430     2.3270    -5.8070 
   92.2500    87.1630     6.8360     5.5020     6.0460    24.5500     2.3390    -5.8310 
   92.3750    87.8350     6.7420     5.4450     6.1100    24.5450     2.3460    -5.8390 
   92.5000    90.2200     6.5860     5.3360     6.3140    24.5440     2.3460    -5.7940 
   92.6250    89.7720     6.3930     5.1950     6.3660    24.5210     2.3420    -5.6840 
   92.7500    87.1650     6.2250     5.0700     5.9590    24.4760     2.3390    -5.5710 
   92.8750    85.7520     6.1370     5.0010     5.6120    24.3900     2.3380    -5.5590 
   93.0000    85.3770     6.1750     5.0180     5.8870    24.2930     2.3370    -5.6550 
   93.1250    83.1320     6.4000     5.1660     6.5650    24.2200     2.3310    -5.7420 
   93.2500    78.2330     6.7820     5.4330     6.7690    24.2330     2.3170    -5.7540 
   93.3750    72.4770     7.2670     5.7950     6.8430    24.2360     2.2970    -5.7480 
   93.5000    68.8330     7.7710     6.2020     7.0320    24.2020     2.2720    -5.7890 
   93.6250    68.1030     8.1710     6.5670     7.4860    24.1220     2.2510    -5.9000 
