~V
VERS. 2.00: Ver 2.00
~W
STRT.M 50.0000:
STOP.M 279.0000:
STEP.M 0.1250:
NULL. -999.2500:
UWI. F10075:
~C
DEPT.M :
GR.API :
RML.OHMM :
RI. :
RXO.OHMM :
CALI.CM :
DEN.GM/CC :
SP.MV :
~A
# ...
  196.2500    63.5810    62.3510    58.3800    63.7290    24.4260     2.3090   -14.6980 
  196.3750    64.4090    70.3110    66.6000    67.4740    24.4600     2.2910   -15.0840 
  196.5000    66.2740    74.5980    71.2410    75.7080    24.5330     2.2650   -15.4100 
  196.6250    66.1340    74.5720    71.4690    82.8460    24.5730     2.2420   -15.6760 
  196.7500    64.2580    72.1960    69.1400    82.8700    24.5030     2.2330   -15.9160 
  196.8750    61.9310    68.8420    65.5870    76.2040    24.4080     2.2390   -16.1210 
  197.0000    61.0700    65.5020    61.8120    65.9850    24.3570     2.2530   -16.3290 
  197.1250    62.9980    62.9100    58.5810    59.6110    24.3610     2.2610   -16.5760 
  197.2500    65.3980    61.1360    56.1010    59.5590    24.3800     2.2540   -16.8190 
  197.3750    66.9400    60.1010    54.4000    62.8370    24.4060     2.2350   -17.0280 
  197.5000    67.8030    59.7410    53.4670    65.5590    24.4200     2.2160   -17.2360 
  197.6250    67.2620    60.2820    53.4860    63.4900    24.4130     2.2080   -17.4240 
  197.7500    66.6630    61.8220    54.4380    57.6240    24.4070     2.2140   -17.5950 
  197.8750    68.0010    64.4950    56.3940    57.1630    24.4350     2.2280   -17.7610 
  198.0000    70.7300    68.1980    59.2870    64.0410    24.4630     2.2430   -17.8940 
  198.1250    70.2370    72.6480    62.9550    74.7860    24.4740     2.2520   -17.9840 
  198.2500    66.8090    77.3620    66.9990    79.5190    24.4940     2.2550   -18.0780 
  198.3750    64.8460    82.2860    71.3290    81.9770    24.5470     2.2550   -18.2080 
  198.5000    65.8090    87.5270    75.9480    86.1950    24.6290     2.2520   -18.3970 
  198.6250    64.9410    92.9730    80.6800    92.1760    24.7750     2.2490   -18.6250 
  198.7500    59.7200    97.8450    84.8870   101.8050    24.9230     2.2430   -18.8130 
  198.8750    55.0450   101.1350    87.7930   115.6890    24.9890     2.2380   -19.0060 
  199.0000    56.1540   102.1780    88.8880   124.7640    24.9790     2.2360   -19.2430 
  199.1250    62.8320   101.1470    88.2720   113.5530    24.9080     2.2430   -19.4580 
  199.2500    67.9430    99.8770    87.3900    98.9110    24.8400     2.2570   -19.6490 
  199.3750    66.9330    99.6210    87.3350    92.1910    24.8280     2.2700   -19.7950 
  199.5000    62.1130   100.6260    88.4560    99.3100    24.8650     2.2700   -19.8940 
  199.6250    59.0920   101.7000    89.9210   110.0580    24.9210     2.2480   -19.9930 
  199.7500    59.4620   100.9590    90.0620   114.7390    24.9410     2.2160   -20.1290 
  199.8750    61.6000    97.3490    87.8030   118.4690    24.9460     2.1900   -20.2600 
  200.0000    63.0180    91.1640    83.1520   117.5300    24.9510     2.1860   -20.3640 
  200.1250    62.9470    83.7810    77.1390    98.8180    24.9750     2.2080   -20.4450 
  200.2500    62.2710    76.8110    71.3230    74.9040    25.0150     2.2380   -20.4720 
  200.3750    61.9030    70.7180    66.2570    59.0860    25.0540     2.2610   -20.5090 
  200.5000    61.8760    65.4180    61.9240    65.9310    25.0480     2.2640   -20.5790 
  200.6250    63.1340    60.6940    58.0820    67.2800    25.0010     2.2460   -20.6510 
  200.7500    66.6480    56.2610    54.4100    62.8510    24.9510     2.2200   -20.7070 
  200.8750    71.0250    52.1810    50.9410    53.1650    24.9200     2.2010   -20.7770 
  201.0000    73.0960    48.7300    47.9330    49.6080    24.9150     2.1990   -20.8810 
  201.1250    72.4980    46.3670    45.8240    46.6270    24.9210     2.2140   -21.0270 
  201.2500    72.3900    44.9980    44.5580    45.0010    24.9190     2.2280   -21.2300 
  201.3750    73.0270    44.4030    43.9580    44.1860    24.9220     2.2300   -21.4290 
  201.5000    71.7740    44.2330    43.7260    46.7860    24.8990     2.2180   -21.5530 
  201.6250    68.8700    44.1820    43.6020    46.5910    24.7990     2.2060   -21.6150 
  201.7500    66.3250    44.1520    43.4900    45.1840    24.6390     2.2070   -21.7070 
  201.8750    66.1490    44.3230    43.5240    44.8350    24.4680     2.2250   -21.8300 
  202.0000    68.8600    45.0450    43.9830    46.1770    24.3360     2.2550   -21.9690 
  202.1250    70.9210    47.0050    45.4520    50.1150    24.3320     2.2820   -22.1910 
  202.2500    68.8300    50.5270    48.2560    55.2310    24.3500     2.2950   -22.4760 
  202.3750    63.5640    55.9900    52.7790    58.7980    24.3640     2.2910   -22.8120 
  202.5000    59.2820    63.7590    59.3960    59.3660    24.4090     2.2700   -23.1370 
  202.6250    58.2930    74.4640    68.7390    76.0770    24.5930     2.2370   -23.4170 
  202.7500    58.2350    87.1370    79.9270    98.7370    24.8000     2.2030   -23.6370 
  202.8750    58.7910    99.9950    91.3290   120.7580    24.9080     2.1750   -23.7260 
  203.0000    59.4440   109.9550   100.2250   145.0310    24.9220     2.1570   -23.6880 
  203.1250    58.6280   112.8270   102.9910   155.2500    24.8860     2.1550   -23.5080 
  203.2500    57.4990   109.7870   100.4550   148.2880    24.8580     2.1640   -23.2180 
  203.3750    58.4260   104.1630    95.2290   124.4460    24.8490     2.1820   -22.8670 
  203.5000    60.7120    99.8450    90.6470   101.8810    24.8500     2.2040   -22.5460 
  203.6250    60.1260   100.4660    90.1060    93.7050    24.8540     2.2180   -22.2070 
  203.7500    57.8110   106.6280    94.4700   105.0960    24.8450     2.2220   -21.8350 
  203.8750    58.1390   118.3360   103.8640   122.8370    24.8640     2.2150   -21.5280 
  204.0000    61.2040   134.3850   117.2480   145.6260    24.9260     2.2030   -21.2840 
  204.1250    61.1230   151.2400   131.6910   173.3050    24.9780     2.1940   -21.0930 
  204.2500    58.0150   163.1740   142.5330   191.0930    24.9970     2.1890   -20.9590 
  204.3750    55.6970   166.1720   146.4920   192.7170    24.9930     2.1880   -20.8600 
  204.5000    55.9420   159.9180   142.8890   181.2700    24.9650     2.1900   -20.8210 
  204.6250    57.0800   147.3340   133.3780   168.9300    24.9260     2.1950   -20.8810 
  204.7500    56.9180   133.7940   122.3210   157.6920    24.8740     2.2000   -20.9590 
  204.8750    56.2480   121.7640   111.9970   142.1840    24.7940     2.2060   -21.0960 
  205.0000    55.6390   112.2890   103.5480   128.9680    24.6620     2.2100   -21.3310 
  205.1250    54.7890   105.7750    97.4760   120.8380    24.4750     2.2110   -21.6500 
  205.2500    53.8590   101.1170    92.9060   110.5470    24.3000     2.2110   -22.0060 
  205.3750    53.9140    97.4560    89.1140   102.0670    24.1960     2.2110   -22.3570 
  205.5000    54.9380    93.8730    85.3500    96.7240    24.1510     2.2140   -22.6670 
  205.6250    55.3340    89.3720    80.8460    90.8340    24.1120     2.2210   -22.9610 
  205.7500    55.7360    83.9170    75.6150    81.7680    24.0770     2.2310   -23.2920 
  205.8750    56.3960    78.2390    70.2420    73.2140    24.0530     2.2440   -23.5720 
  206.0000    57.1280    73.5180    65.6420    67.9250    24.0440     2.2560   -23.6940 
  206.1250    57.8940    71.2980    63.0540    60.6460    24.0590     2.2610   -23.6420 
  206.2500    58.4650    71.8370    62.7500    56.9610    24.1230     2.2560   -23.4860 
  206.3750    58.3660    75.1030    64.7810    62.6090    24.2660     2.2400   -23.2350 
  206.5000    57.4510    80.5080    68.7140    85.3840    24.4450     2.2180   -22.8690 
  206.6250    56.3310    86.8410    73.6020   102.8600    24.5920     2.2000   -22.4090 
  206.7500    54.8400    92.2400    77.9220   107.6530    24.6650     2.1900   -21.8980 
  206.8750    54.1450    95.3660    80.6240   109.3940    24.6980     2.1890   -21.3230 
  207.0000    54.5770    95.6530    81.2290   111.3640    24.7320     2.1950   -20.7870 
  207.1250    53.9850    93.4440    79.8920   109.4150    24.7540     2.2030   -20.3560 
  207.2500    52.9080    90.3440    77.7950   107.2600    24.7710     2.2130   -19.8910 
  207.3750    54.3410    86.8410    75.3330   104.2390    24.7900     2.2320   -19.3810 
