~V
VERS. 2.00: Ver 2.00
~W
STRT.M 50.0000:
STOP.M 212.0000:
STEP.M 0.1250:
NULL. -999.2500:
UWI. F10013:
~C
DEPT.M :
GR.API :
RML.OHMM :
RI. :
RXO.OHMM :
CALI.CM :
DEN.GM/CC :
SP.MV :
~A
# ...
   83.7500    58.6140    36.5260    35.0430    40.2390    23.2730     2.1530   -11.5330 
   83.8750    56.2340    36.0560    34.6640    39.0230    23.4310     2.1410   -11.4040 
   84.0000    57.5620    35.4650    34.1420    38.6490    23.4660     2.1200   -11.3480 
   84.1250    58.9830    34.8890    33.6550    37.9770    23.2920     2.0960   -11.3490 
   84.2500    60.2630    34.3830    33.2850    35.2170    22.8640     2.0770   -11.3620 
   84.3750    64.4510    33.9180    32.9950    29.8940    22.1580     2.0660   -11.3520 
   84.5000    70.6650    33.4380    32.6850    24.7290    21.3880     2.0630   -11.3380 
   84.6250    72.4720    32.8980    32.2290    22.0530    20.8980     2.0680   -11.3740 
   84.7500    68.8460    32.3580    31.6470    21.3390    20.7360     2.0800   -11.4460 
   84.8750    64.7950    31.9270    31.0330    21.3130    20.6770     2.0970   -11.4870 
   85.0000    64.6220    31.7140    30.5200    21.1080    20.5980     2.1150   -11.4810 
   85.1250    67.3840    31.8040    30.2530    20.8310    20.4900     2.1320   -11.4570 
   85.2500    70.3140    32.0540    30.1860    21.2200    20.5620     2.1410   -11.4280 
   85.3750    71.3020    32.2850    30.2020    21.6780    20.7900     2.1390   -11.4430 
   85.5000    68.8950    32.3700    30.1760    22.2970    21.0520     2.1230   -11.4780 
   85.6250    66.2610    32.4970    30.1950    22.8200    21.2280     2.0910   -11.4750 
   85.7500    66.8920    33.2550    30.6710    25.3310    21.4660     2.0570   -11.4540 
   85.8750    68.1350    35.3170    32.1590    28.7640    21.8450     2.0420   -11.4700 
   86.0000    65.3210    39.1360    35.1320    32.2410    22.4130     2.0740   -11.5170 
   86.1250    60.5910    44.6700    39.8340    35.7790    22.5380     2.1780   -11.5870 
   86.2500    59.0860    50.2320    45.0080    50.5930    22.5690     2.3160   -11.6830 
   86.3750    59.6800    53.8090    48.9070    90.3740    22.5860     2.4320   -11.7640 
   86.5000    59.7030    53.7950    49.8560   105.0260    22.6690     2.4740   -11.8300 
   86.6250    59.6140    49.7810    47.0310    67.7800    22.9240     2.4130   -11.9060 
   86.7500    61.2220    44.3050    42.4800    39.0070    23.1960     2.3020   -12.0050 
   86.8750    63.6570    39.2640    37.9350    30.8950    23.2940     2.1950   -12.1420 
   87.0000    64.5460    35.7090    34.4930    29.5560    23.1090     2.1270   -12.3090 
   87.1250    64.2820    33.9570    32.6200    29.3680    22.9110     2.1070   -12.4350 
   87.2500    64.9680    33.1950    31.7200    29.2360    22.7440     2.1110   -12.5480 
   87.3750    65.3750    32.9070    31.3610    28.9710    22.5080     2.1200   -12.7260 
   87.5000    64.5690    32.8200    31.2720    28.4110    22.1680     2.1250   -12.9520 
   87.6250    65.3170    32.9600    31.4320    26.6040    21.7820     2.1230   -13.1710 
   87.7500    69.9570    33.3820    31.8490    24.1740    21.3050     2.1320   -13.3530 
   87.8750    75.1850    34.0500    32.4880    22.8540    20.8920     2.1740   -13.4940 
   88.0000    75.7930    34.7760    33.1860    21.3520    20.7000     2.2610   -13.5890 
   88.1250    71.9220    35.1980    33.6080    21.2070    20.7860     2.3750   -13.6690 
   88.2500    68.5320    35.1360    33.5570    21.5870    21.0210     2.4600   -13.7220 
   88.3750    66.7060    34.6230    33.0370    22.1420    21.2680     2.4780   -13.6870 
   88.5000    66.4690    33.8910    32.2660    22.6970    21.5120     2.4210   -13.5920 
   88.6250    66.9500    33.2920    31.6180    22.8620    21.6540     2.3180   -13.5070 
   88.7500    66.4540    33.0220    31.3420    22.4860    21.7100     2.2240   -13.4740 
   88.8750    62.9160    33.0930    31.4930    21.9420    21.6620     2.1630   -13.4460 
   89.0000    58.9410    33.3910    31.9640    21.7600    21.5250     2.1360   -13.4110 
   89.1250    59.4920    33.7440    32.5510    20.9270    21.2550     2.1340   -13.4390 
   89.2500    60.9420    34.0120    33.0360    19.8720    20.9360     2.1380   -13.5160 
   89.3750    59.3000    34.1510    33.3280    18.9940    20.6750     2.1390   -13.6340 
   89.5000    56.4010    34.1450    33.4080    18.2680    20.3790     2.1330   -13.7980 
   89.6250    58.5320    34.1760    33.2840    17.5630    19.9060     2.1220   -13.9890 
   89.7500    64.1830    34.3610    33.0570    17.2230    19.4510     2.1130   -14.1590 
   89.8750    67.2980    34.4890    32.8000    17.5610    19.2550     2.1100   -14.3160 
   90.0000    65.4300    34.3680    32.5840    18.7130    19.4810     2.1160   -14.4780 
   90.1250    61.7050    34.1450    32.4780    20.4890    20.0240     2.1250   -14.6420 
   90.2500    59.8840    34.0390    32.4850    22.7440    20.6360     2.1310   -14.8000 
   90.3750    60.5820    34.0360    32.5930    25.9930    21.4580     2.1280   -14.9300 
   90.5000    64.3980    34.0910    32.7700    30.0040    22.3600     2.1150   -15.0240 
   90.6250    67.5510    34.1320    32.9600    32.6740    22.9570     2.0960   -15.0780 
   90.7500    65.5440    34.0880    33.0810    33.2330    23.1040     2.0780   -15.1220 
   90.8750    61.5200    33.9000    33.0570    32.8880    23.0710     2.0670   -15.1810 
   91.0000    60.8420    33.5220    32.8250    32.4290    23.0350     2.0620   -15.2460 
   91.1250    62.3090    32.9090    32.3320    32.0200    22.9820     2.0670   -15.2920 
   91.2500    61.3580    32.1470    31.6690    31.5250    22.9160     2.0790   -15.3230 
   91.3750    60.6540    31.3450    30.9310    29.6750    22.9150     2.0980   -15.3360 
   91.5000    62.6220    30.6390    30.2340    26.7190    22.9760     2.1210   -15.3150 
   91.6250    64.6240    30.2040    29.7300    25.8790    23.0150     2.1390   -15.3170 
   91.7500    65.2130    30.0670    29.4750    26.4440    23.0280     2.1510   -15.3410 
   91.8750    66.4080    30.2270    29.5000    27.5870    23.0330     2.1580   -15.3510 
   92.0000    67.0410    30.6400    29.7940    28.6930    23.0440     2.1620   -15.3480 
   92.1250    64.4270    31.2490    30.3290    29.4280    23.0480     2.1650   -15.3120 
   92.2500    61.3680    31.9050    30.9570    30.2230    23.0620     2.1640   -15.2790 
   92.3750    60.9350    32.4530    31.5330    31.0320    23.0720     2.1550   -15.2780 
   92.5000    63.4170    32.6990    31.8790    31.9490    22.9850     2.1340   -15.3260 
   92.6250    65.9680    32.3860    31.7340    31.7440    22.6970     2.1070   -15.3480 
   92.7500    67.2430    31.5700    31.0900    30.2490    22.4170     2.0890   -15.3120 
   92.8750    68.0140    30.4110    30.0350    27.5420    22.3080     2.0910   -15.2760 
   93.0000    68.9420    29.1860    28.7850    23.7800    22.3470     2.1120   -15.2610 
   93.1250    68.4280    28.2670    27.6740    22.7190    22.5460     2.1420   -15.2090 
   93.2500    66.1050    27.8230    26.9400    23.0130    22.8740     2.1640   -15.1130 
   93.3750    65.6420    27.8870    26.6980    23.6380    23.1710     2.1730   -15.0310 
   93.5000    68.9590    28.3780    26.9510    24.2630    23.3350     2.1690   -14.9460 
   93.6250    70.7850    29.1620    27.6540    25.2680    23.3930     2.1610   -14.8710 
   93.7500    68.2910    30.0200    28.5700    26.3940    23.3730     2.1530   -14.8200 
   93.8750    64.2940    30.8430    29.5460    27.1680    23.3010     2.1490   -14.7730 
   94.0000    62.4680    31.5780    30.4610    27.9770    23.2460     2.1480   -14.7230 
   94.1250    64.0120    32.1930    31.2140    29.0230    23.2150     2.1470   -14.6870 
   94.2500    65.4800    32.7090    31.8030    29.7350    23.1750     2.1450   -14.6450 
   94.3750    63.8640    33.1340    32.2420    30.4960    23.1400     2.1410   -14.6030 
   94.5000    61.2570    33.4780    32.5620    31.6740    23.1290     2.1370   -14.5360 
   94.6250    62.6490    33.7270    32.7750    32.5750    23.0150     2.1340   -14.4420 
   94.7500    65.2970    33.8870    32.9040    31.9540    22.8430     2.1310   -14.3570 
   94.8750    65.4380    33.9480    32.9500    31.3590    22.8110     2.1250   -14.2770 
