~V
VERS. 2.00: Ver 2.00
~W
STRT.M 51.0000:
STOP.M 313.0000:
STEP.M 0.1250:
NULL. -999.2500:
UWI. F10047:
~C
DEPT.M :
SP.MV :
GR.API :
RML.OHMM :
RI. :
RXO.OHMM :
CALI.CM :
DEN.GM/CC :
~A
# ...
  298.5000   -16.1230    95.2980    23.4770    21.5980    27.6720    25.2540     2.2410 
  298.6250   -16.3810    98.5990    23.0370    21.2860    26.3120    25.2540     2.2400 
  298.7500   -16.5620    95.3370    22.3480    20.7730    25.1540    25.2540     2.2450 
  298.8750   -16.7060    88.9120    21.6100    20.2030    23.3670    25.2540     2.2510 
  299.0000   -16.7540    85.6440    20.9580    19.6890    22.8790    25.2540     2.2550 
  299.1250   -16.7060    87.7490    20.4080    19.2540    21.8370    25.2540     2.2560 
  299.2500   -16.6750    91.7960    19.8800    18.8360    20.3780    25.2540     2.2580 
  299.3750   -16.6600    94.3900    19.3400    18.4020    19.8380    25.2540     2.2660 
  299.5000   -16.5790    93.7620    18.7640    17.9260    19.5720    25.2540     2.2830 
  299.6250   -16.4510    90.1840    18.0970    17.3520    19.6640    25.2540     2.3020 
  299.7500   -16.3260    86.1090    17.3370    16.6830    19.7550    25.2540     2.3160 
  299.8750   -16.2130    85.4040    16.5400    15.9690    20.3440    25.2540     2.3190 
  300.0000   -16.2270    90.0640    15.8380    15.3290    19.5990    25.2540     2.3110 
  300.1250   -16.3330    95.9700    15.5030    14.9880    16.1740    25.2540     2.2980 
  300.2500   -16.4170    97.4280    15.6650    15.0620    12.8820    25.2540     2.2880 
  300.3750   -16.5290    95.4010    16.3400    15.5880    12.7000    25.2540     2.2870 
  300.5000   -16.7100    93.8990    17.3750    16.4710    16.5870    25.2540     2.2970 
  300.6250   -16.8370    94.7110    18.4410    17.4590    21.2970    25.2540     2.3190 
  300.7500   -16.9410    95.8580    19.1740    18.1980    23.0360    25.2540     2.3400 
  300.8750   -17.0950    95.5930    19.4390    18.5170    22.0050    25.2540     2.3520 
  301.0000   -17.1660    93.5680    19.3810    18.4880    20.5900    25.2540     2.3520 
  301.1250   -17.1180    91.9940    19.3690    18.4060    19.7330    25.2540     2.3440 
  301.2500   -17.1250    92.1860    19.6590    18.5370    20.1410    25.2540     2.3370 
  301.3750   -17.1610    92.9900    20.2710    18.9410    20.5970    25.2530     2.3350 
  301.5000   -17.1610    93.0530    21.0800    19.5520    19.2720    25.2510     2.3340 
  301.6250   -17.1940    93.3630    21.9070    20.2490    22.1270    25.2530     2.3250 
  301.7500   -17.2510    93.3630    22.6680    20.9420    23.2640    25.2530     2.3050 
  301.8750   -17.3170    93.3630    23.4150    21.6610    22.3950    25.2470     2.2750 
  302.0000   -17.3970    93.3630    24.2480    22.4820    21.1550    25.2210     2.2420 
  302.1250   -17.4900    93.3630    25.2490    23.4830    22.9800    25.1680     2.2170 
  302.2500   -17.5560    93.3630    26.3110    24.5680    27.7190    25.1260     2.2100 
  302.3750   -17.5810    93.3630    27.2280    25.5400    30.8300    25.1090     2.2220 
  302.5000   -17.6000    93.3630    27.7390    26.1330    31.0040    25.1040     2.2460 
  302.6250   -17.5560    93.3630    27.5680    26.0370    29.7230    25.1030     2.2690 
  302.7500   -17.4220    93.3630    26.8570    25.3610    28.3750    25.1030     2.2760 
  302.8750   -17.2010    93.3630    25.7330    24.2320    27.4020    25.1030     2.2650 
  303.0000   -16.8590    93.3630    24.2600    22.7380    24.3380    25.1040     2.2420 
  303.1250   -16.3860    93.3630    22.3490    20.8470    21.1700    25.0750     2.2230 
  303.2500   -15.8430    93.3630    20.0570    18.6530    20.2040    24.9850     2.2160 
  303.3750   -15.2450    93.3630    17.5540    16.3230    19.6270    24.8380     2.2210 
  303.5000   -14.6610    93.3630    15.2020    14.1640    17.3360    24.7200     2.2340 
  303.6250   -14.2730    93.3630    13.5570    12.6180    13.7920    24.6410     2.2500 
  303.7500   -14.0220    93.3630    12.8290    11.8180    12.0400    24.6120     2.2630 
  303.8750   -13.8400    93.3630    13.1580    11.8680    11.5800    24.6030     2.2710 
  304.0000   -13.8100    93.3630    14.5900    12.8470    11.7100    24.5990     2.2740 
  304.1250   -13.8910    93.3630    17.1020    14.8750    14.5180    24.5970     2.2760 
  304.2500   -13.8570    93.3630    19.9000    17.4040    20.1200    24.5970     2.2820 
  304.3750   -13.6860    93.3630    21.9430    19.5470    25.5220    24.5970     2.2910 
  304.5000   -13.3540    93.3630    22.1250    20.1570    25.3070    24.5960     2.3000 
  304.6250   -12.6810    93.3630    19.8150    18.3750    22.0180    24.5830     2.3040 
  304.7500   -11.7530    93.3630    16.3850    15.3760    16.3620    24.5540     2.3000 
  304.8750   -10.6680    93.3630    12.9860    12.2640    10.7000    24.5190     2.2950 
  305.0000    -9.4870    93.3630    10.3000     9.7190     7.3680    24.4830     2.2930 
  305.1250    -8.2660    93.3630     8.6670     8.0690     6.3540    24.4570     2.3020 
  305.2500    -7.1140    93.3630     7.8310     7.1120     6.2400    24.4440     2.3180 
  305.3750    -6.0730    93.3630     7.6000     6.7100     6.3750    24.4280     2.3340 
  305.5000    -5.1750    93.3630     7.7470     6.7040     6.5900    24.3960     2.3490 
  305.6250    -4.5070    93.3630     8.0170     6.9190     6.8080    24.3790     2.3610 
  305.7500    -4.0050    93.3630     8.1440     7.0920     6.8350    24.3630     2.3740 
  305.8750    -3.5720    93.3630     7.9990     7.0540     6.6980    24.3300     2.3910 
  306.0000    -3.2080    93.3630     7.5820     6.7550     6.2210    24.2760     2.4110 
  306.1250    -2.9650    93.3630     7.0100     6.2650     5.4470    24.2480     2.4280 
  306.2500    -2.7770    93.3630     6.4770     5.7760     4.7680    24.2410     2.4350 
  306.3750    -2.6510    93.3630     6.0840     5.3970     4.5350    24.2400     2.4300 
  306.5000    -2.6200    93.3630     5.8530     5.1680     4.4000    24.2390     2.4140 
  306.6250    -2.6150    93.3630     5.7640     5.0810     4.2680    24.2370     2.3940 
  306.7500    -2.6290    93.3630     5.7340     5.0550     4.5130    24.2340     2.3780 
  306.8750    -2.6920    93.3630     5.7250     5.0480     5.1830    24.2310     2.3680 
  307.0000    -2.7800    93.3630     5.7220     5.0460     5.9820    24.2290     2.3620 
  307.1250    -2.8210    93.3630     5.7240     5.0450     4.8620    24.2290     2.3580 
  307.2500    -2.9170    93.3630     5.7260     5.0450     4.2490    24.2290     2.3560 
  307.3750    -3.0300    93.3630     5.7250     5.0450     4.1880    24.2290     2.3560 
  307.5000    -3.0600    93.3630     5.7220     5.0460     5.0420    24.2290     2.3590 
  307.6250    -3.0420    93.3630     5.7220     5.0460     7.3390    24.2290     2.3660 
  307.7500    -3.0080    93.3630     5.7220     5.0460     9.9230    24.2290     2.3690 
  307.8750    -2.9490    93.3630     5.7220     5.0460     9.4600    24.2290     2.3660 
  308.0000    -2.8400    93.3630     5.7220     5.0460     7.9950    24.2290     2.3550 
  308.1250    -2.7690    93.3630     5.7220     5.0460     6.3400    24.2290     2.3430 
  308.2500    -2.7060    93.3630     5.7220     5.0460     5.1510    24.2290     2.3370 
  308.3750    -2.6050    93.3630     5.7220     5.0460     4.5560    24.2240     2.3400 
  308.5000    -2.5000    93.3630     5.7220     5.0460     4.3810    24.2000     2.3500 
  308.6250    -2.4520    93.3630     5.7220     5.0460     4.3580    24.1330     2.3590 
  308.7500    -2.4060    93.3630     5.7220     5.0460     4.3760    24.0600     2.3640 
  308.8750    -2.4060    93.3630     5.7220     5.0460     4.5140    24.0040     2.3650 
  309.0000    -2.4720    93.3630     5.7220     5.0460     4.7870    23.9600     2.3670 
  309.1250    -2.5350    93.3630     5.7220     5.0460     5.0870    23.9430     2.3710 
  309.2500    -2.5660    93.3630     5.7220     5.0460     4.7650    23.9230     2.3750 
  309.3750    -2.5880    93.3630     5.7220     5.0460     4.4890    23.8770     2.3760 
  309.5000    -2.6420    93.3630     5.7220     5.0460     4.4910    23.8050     2.3740 
  309.6250    -2.6990    93.3630     5.7220     5.0460     4.9230    23.7250     2.3750 
