~V
VERS. 2.00: Ver 2.00
~W
STRT.M 50.0000:
STOP.M 313.0000:
STEP.M 0.1250:
NULL. -999.2500:
UWI. F10034:
~C
DEPT.M :
GR.API :
RML.OHMM :
RI. :
RXO.OHMM :
CALI.CM :
DEN.GM/CC :
SP.MV :
~A
# ...
  286.2500    53.5820     5.1260     4.5230     6.2260    23.5480     2.3560    -8.4710 
  286.3750    50.1160     4.9470     4.4020     5.4090    23.5420     2.3530    -8.2860 
  286.5000    47.6590     4.7340     4.2350     4.6310    23.6030     2.3540    -8.1110 
  286.6250    44.5030     4.5750     4.0890     4.3960    23.6890     2.3650    -7.9530 
  286.7500    41.1080     4.4930     3.9990     4.4090    23.7510     2.3830    -7.7950 
  286.8750    39.3250     4.4760     3.9680     4.4000    23.7810     2.4020    -7.6460 
  287.0000    39.2690     4.4930     3.9810     4.2900    23.7900     2.4160    -7.5330 
  287.1250    37.8080     4.5180     4.0180     4.1990    23.8040     2.4210    -7.4950 
  287.2500    36.6270     4.5370     4.0610     4.3040    23.8240     2.4160    -7.5310 
  287.3750    38.4420     4.5550     4.1040     4.5050    23.8130     2.4040    -7.6080 
  287.5000    42.7070     4.5750     4.1450     4.7080    23.7420     2.3870    -7.7180 
  287.6250    45.3540     4.5890     4.1770     4.7590    23.6540     2.3720    -7.8560 
  287.7500    44.0860     4.5860     4.1880     4.6910    23.6590     2.3640    -8.0330 
  287.8750    40.8560     4.5540     4.1710     4.5640    23.7240     2.3680    -8.2420 
  288.0000    37.7740     4.4920     4.1210     4.3070    23.7710     2.3810    -8.4700 
  288.1250    35.7260     4.4100     4.0440     4.0410    23.7660     2.3980    -8.6890 
  288.2500    34.5700     4.3290     3.9620     3.9200    23.7290     2.4100    -8.8830 
  288.3750    34.4070     4.2710     3.8980     3.9750    23.7110     2.4130    -9.0590 
  288.5000    35.5240     4.2580     3.8700     4.1230    23.7570     2.4110    -9.1980 
  288.6250    36.8680     4.3190     3.9070     4.3540    23.8230     2.4050    -9.2850 
  288.7500    39.2500     4.4510     4.0080     4.6140    23.8790     2.3990    -9.3330 
  288.8750    42.1790     4.6470     4.1690     4.8870    23.9080     2.3940    -9.3440 
  289.0000    43.1650     4.8830     4.3740     5.1720    23.9080     2.3900    -9.3280 
  289.1250    42.4370     5.1180     4.5900     5.4440    23.8830     2.3890    -9.2820 
  289.2500    42.5520     5.3090     4.7800     5.6530    23.8620     2.3910    -9.2280 
  289.3750    43.8280     5.4330     4.9180     5.7260    23.8560     2.3950    -9.1690 
  289.5000    45.0180     5.4930     4.9970     5.6840    23.8590     2.4010    -9.1280 
  289.6250    44.7170     5.5100     5.0280     5.6160    23.8700     2.4070    -9.1160 
  289.7500    44.0000     5.5330     5.0510     5.7220    23.8970     2.4130    -9.1130 
  289.8750    43.3800     5.5920     5.0940     6.0090    23.9350     2.4180    -9.1200 
  290.0000    43.6560     5.6990     5.1750     6.3880    23.9720     2.4220    -9.1290 
  290.1250    44.2840     5.8560     5.3080     6.7740    23.9850     2.4260    -9.1480 
  290.2500    43.7270     6.0360     5.4710     7.0780    23.9880     2.4270    -9.1850 
  290.3750    42.2810     6.2190     5.6480     7.2680    23.9880     2.4270    -9.2590 
  290.5000    41.9180     6.3890     5.8200     7.3860    23.9880     2.4240    -9.3570 
  290.6250    43.4040     6.5280     5.9640     7.4380    23.9880     2.4230    -9.4640 
  290.7500    44.7060     6.6220     6.0630     7.4080    23.9880     2.4260    -9.5650 
  290.8750    43.2370     6.6520     6.1000     7.3480    23.9880     2.4320    -9.6710 
  291.0000    39.0650     6.5970     6.0580     7.3530    23.9880     2.4390    -9.7800 
  291.1250    37.5420     6.4200     5.9070     7.2240    23.9880     2.4430    -9.8880 
  291.2500    40.2830     6.1350     5.6690     6.8910    23.9870     2.4400    -9.9910 
  291.3750    44.4090     5.7830     5.3690     6.4400    23.9760     2.4310   -10.0800 
  291.5000    47.9510     5.4260     5.0580     6.0600    23.9260     2.4180   -10.1720 
  291.6250    50.8190     5.2260     4.8240     5.7470    23.8090     2.4030   -10.3340 
  291.7500    53.3610     5.2430     4.7380     5.5590    23.6860     2.3860   -10.5840 
  291.8750    55.8400     5.5450     4.8490     5.6300    23.6290     2.3690   -10.9170 
  292.0000    60.8350     6.1250     5.1770     6.0790    23.6580     2.3520   -11.3270 
  292.1250    67.7650     6.7870     5.7230     6.8920    23.7240     2.3370   -11.7770 
  292.2500    72.9550     7.5060     6.3670     7.8050    23.7720     2.3280   -12.2060 
  292.3750    76.3160     8.1260     6.9790     8.5050    23.8000     2.3240   -12.5760 
  292.5000    79.2040     8.5000     7.4190     8.8300    23.8230     2.3270   -12.8420 
  292.6250    80.9550     8.4920     7.5340     9.0920    23.7920     2.3340   -12.9140 
  292.7500    80.8330     8.2050     7.3750     9.0630    23.7020     2.3420   -12.7630 
  292.8750    77.3440     7.7650     7.0370     8.2380    23.5970     2.3510   -12.4210 
  293.0000    69.7660     7.3140     6.6420     6.7600    23.5260     2.3600   -11.9590 
  293.1250    62.2500     6.9640     6.2990     6.1460    23.5040     2.3660   -11.4360 
  293.2500    59.9180     6.7190     6.0380     5.9490    23.4890     2.3680   -10.9250 
  293.3750    61.2660     6.5490     5.8490     5.8830    23.4850     2.3670   -10.4190 
  293.5000    61.3650     6.4190     5.7100     5.8310    23.5280     2.3670    -9.9220 
  293.6250    57.7630     6.3210     5.6170     5.8530    23.6280     2.3740    -9.4660 
  293.7500    53.7200     6.2630     5.5670     5.9680    23.6660     2.3890    -9.1230 
  293.8750    50.5460     6.2650     5.5760     6.1240    23.6870     2.4080    -8.8940 
  294.0000    48.9360     6.3310     5.6490     6.2990    23.7000     2.4260    -8.6960 
  294.1250    48.4970     6.4360     5.7720     6.4420    23.7060     2.4400    -8.5610 
  294.2500    48.4770     6.5220     5.8920     6.5280    23.7060     2.4500    -8.4590 
  294.3750    47.9820     6.5540     5.9680     6.5480    23.7060     2.4560    -8.3980 
  294.5000    46.2800     6.5230     5.9800     6.5290    23.7060     2.4600    -8.4110 
  294.6250    45.2980     6.4380     5.9260     6.4580    23.6990     2.4620    -8.4910 
  294.7500    45.3190     6.3370     5.8380     6.3320    23.6800     2.4660    -8.5920 
  294.8750    44.9020     6.2340     5.7320     6.1880    23.6630     2.4710    -8.6560 
  295.0000    43.4250     6.1230     5.6130     6.0810    23.6720     2.4740    -8.7060 
  295.1250    42.6880     5.9740     5.4630     6.0070    23.7280     2.4700    -8.6650 
  295.2500    43.7600     5.7740     5.2730     5.9080    23.7940     2.4570    -8.5660 
  295.3750    44.2340     5.5320     5.0520     5.6840    23.8370     2.4400    -8.4670 
  295.5000    42.1950     5.2880     4.8280     5.3330    23.8500     2.4240    -8.3780 
  295.6250    39.2770     5.1200     4.6640     4.9930    23.8470     2.4110    -8.3150 
  295.7500    38.0010     5.0770     4.6010     4.8610    23.8460     2.3990    -8.2930 
  295.8750    39.1290     5.1760     4.6610     4.9450    23.8460     2.3840    -8.3340 
  296.0000    41.9580     5.3930     4.8330     5.2060    23.8490     2.3660    -8.4160 
  296.1250    46.0070     5.6560     5.0750     5.5330    23.8570     2.3480    -8.5430 
  296.2500    49.6810     5.8650     5.2970     5.8030    23.8590     2.3360    -8.6820 
  296.3750    51.5870     5.9540     5.4390     5.9330    23.8240     2.3340    -8.7800 
  296.5000    51.5040     5.9080     5.4690     5.9100    23.7280     2.3450    -8.8260 
  296.6250    50.4610     5.7600     5.3920     5.7490    23.5990     2.3660    -8.8620 
  296.7500    49.9650     5.6150     5.2860     5.5660    23.4860     2.3900    -8.8820 
  296.8750    49.5260     5.5530     5.2170     5.5010    23.4490     2.4110    -8.9200 
  297.0000    47.5730     5.6200     5.2310     5.6000    23.5410     2.4250    -9.0050 
  297.1250    45.4240     5.8390     5.3580     5.9060    23.7440     2.4260    -9.1790 
  297.2500    45.0680     6.1300     5.5480     6.3560    23.8680     2.4140    -9.4510 
  297.3750    44.8870     6.4070     5.7380     6.8520    23.9120     2.3940    -9.8510 
