~V
VERS. 2.00: Ver 2.00
~W
STRT.M 55.0000:
STOP.M 310.0000:
STEP.M 0.1250:
NULL. -999.2500:
UWI. F10049:
~C
DEPT.M :
GR.API :
RML.OHMM :
RI. :
RXO.OHMM :
CALI.CM :
DEN.GM/CC :
SP.MV :
~A
# ...
  235.0000    60.3790    35.5720    32.7290    89.8010    24.2420     2.5360   -26.1480 
  235.1250    61.3620    35.9870    35.3350   102.7700    24.3960     2.5230   -25.8050 
  235.2500    61.4050    31.5410    31.6620    53.9720    24.2560     2.4560   -25.5130 
  235.3750    60.4070    24.7680    24.9180    26.0620    23.9910     2.3620   -25.2610 
  235.5000    59.8190    18.7460    18.9560    14.8780    23.8290     2.2760   -25.0670 
  235.6250    60.4640    15.6520    15.7680    12.1480    23.7750     2.2330   -24.9210 
  235.7500    61.3350    15.4250    15.0940    12.3740    23.7500     2.2330   -24.8010 
  235.8750    62.3390    18.4370    17.3980    15.0180    23.7540     2.2730   -24.5210 
  236.0000    62.4990    25.7910    24.2840    22.7630    23.8530     2.3410   -24.0330 
  236.1250    60.7730    41.4370    40.8070    52.2030    24.1560     2.4220   -23.3360 
  236.2500    58.0820    66.4770    70.2230   135.9510    24.5620     2.5000   -22.4280 
  236.3750    56.5570    94.6500   112.0590   315.8970    24.8970     2.5640   -21.3040 
  236.5000    57.0040   109.7620   147.2450   489.6200    25.1220     2.6150   -19.9780 
  236.6250    57.9840    94.9540   129.2740   370.2910    25.2650     2.6600   -18.4570 
  236.7500    59.0280    63.9050    81.0820   197.3780    25.3930     2.7050   -16.8150 
  236.8750    60.1130    34.7830    41.6170   107.4740    25.5210     2.7400   -15.1640 
  237.0000    60.2960    16.9780    19.6240    38.4500    25.5350     2.7480   -13.4720 
  237.1250    58.3790     9.2480    10.2930    13.5400    25.2670     2.7060   -11.7230 
  237.2500    55.4680     5.5060     6.0210     5.2270    24.9920     2.6280   -10.0340 
  237.3750    53.7310     3.9680     4.2010     4.2210    24.8030     2.5330    -8.4520 
  237.5000    53.4430     3.8030     3.6280     4.7540    24.6720     2.4460    -6.9730 
  237.6250    52.8290     4.4280     3.9010     4.9730    24.6190     2.3870    -5.6890 
  237.7500    51.9550     5.1380     4.5770     4.9650    24.6170     2.3530    -4.5590 
  237.8750    52.3040     5.6560     5.3370     4.8910    24.6110     2.3390    -3.6560 
  238.0000    54.5570     5.9000     5.9320     4.8980    24.5860     2.3380    -3.0520 
  238.1250    59.0290     5.9480     6.2780     5.0220    24.5620     2.3450    -2.6980 
  238.2500    65.8880     6.0040     6.5100     5.2390    24.5350     2.3570    -2.5280 
  238.3750    73.1170     6.1510     6.7210     5.4690    24.5140     2.3720    -2.5150 
  238.5000    76.9300     6.3910     6.9880     5.7480    24.5040     2.3890    -2.6150 
  238.6250    75.9700     6.6790     7.3740     6.1730    24.5050     2.4080    -2.7410 
  238.7500    77.4990     6.9500     7.8240     6.6960    24.5090     2.4320    -2.9210 
  238.8750    83.7690     7.1590     8.2190     7.2220    24.5100     2.4600    -3.1160 
  239.0000    90.1710     7.2690     8.4250     7.6320    24.4880     2.4920    -3.3000 
  239.1250    92.5720     7.2380     8.3350     7.9650    24.4560     2.5190    -3.5810 
  239.2500    93.5770     7.1180     8.0540     8.1440    24.4280     2.5300    -3.8940 
  239.3750    95.5110     6.9880     7.7110     7.9300    24.4030     2.5170    -4.1630 
  239.5000    97.4670     6.9440     7.4250     7.3850    24.4050     2.4820    -4.4690 
  239.6250    97.6950     7.0810     7.2790     7.1350    24.4510     2.4370    -4.9910 
  239.7500    95.8440     7.3740     7.2650     7.1000    24.4960     2.3990    -5.7840 
  239.8750    91.4400     7.7830     7.3910     7.3240    24.5160     2.3770    -6.8600 
  240.0000    85.2350     8.2790     7.6650     8.2770    24.4910     2.3690    -8.2150 
  240.1250    82.5650     8.9040     8.1120     9.3420    24.3420     2.3630    -9.7980 
  240.2500    84.5080     9.7360     8.7150     9.8090    24.2130     2.3550   -11.5150 
  240.3750    86.7030    10.8810     9.4960     9.8300    24.1280     2.3490   -13.3480 
  240.5000    83.4760    12.3800    10.4720    10.4070    24.0720     2.3540   -15.1430 
  240.6250    76.3510    14.1140    11.6270    11.9010    24.0170     2.3740   -16.6690 
  240.7500    74.1790    15.6420    12.7710    15.1880    23.9780     2.3980   -17.8060 
  240.8750    77.8780    16.4910    13.5980    17.7560    24.0420     2.4160   -18.5190 
  241.0000    82.4750    16.3480    13.7910    16.7820    24.2510     2.4190   -18.8290 
  241.1250    84.5900    15.1980    13.1960    14.5150    24.4790     2.4110   -18.6770 
  241.2500    86.1980    13.7230    12.2360    13.4630    24.6430     2.4000   -18.1250 
  241.3750    89.5110    12.4230    11.2380    12.8010    24.7260     2.3930   -17.2350 
  241.5000    93.7080    11.5540    10.4060    10.7590    24.7640     2.3900   -16.1300 
  241.6250    94.9330    11.0930     9.7980     9.8360    24.8100     2.3880   -14.9120 
  241.7500    93.2090    10.6970     9.2670     9.8340    24.8770     2.3840   -13.7030 
  241.8750    90.0780    10.1550     8.6970    10.0900    24.9330     2.3800   -12.4850 
  242.0000    85.2650     9.4170     8.0440     9.1450    24.9060     2.3790   -11.1350 
  242.1250    75.6700     8.5970     7.3710     7.5170    24.7940     2.3820    -9.7050 
  242.2500    64.3930     7.8810     6.7990     6.2500    24.6820     2.3890    -8.4360 
  242.3750    56.3920     7.3720     6.4150     5.6910    24.6380     2.3980    -7.3640 
  242.5000    52.8290     7.0960     6.2620     5.6140    24.6410     2.4070    -6.4020 
  242.6250    51.4670     7.0480     6.3570     5.7870    24.6830     2.4160    -5.5560 
  242.7500    51.2260     7.1190     6.5770     6.0560    24.7570     2.4230    -4.7980 
  242.8750    50.7030     7.2510     6.8200     6.2710    24.8080     2.4260    -4.1090 
  243.0000    48.8440     7.4200     7.0030     6.3160    24.8170     2.4240    -3.5960 
  243.1250    47.8430     7.6220     7.0850     6.1590    24.7940     2.4210    -3.3070 
  243.2500    50.3380     7.8260     7.0990     6.0780    24.7710     2.4180    -3.0750 
  243.3750    53.3650     7.9860     7.0610     6.0830    24.7660     2.4190    -2.8990 
  243.5000    52.4570     8.0600     6.9740     6.0860    24.7760     2.4230    -2.8440 
  243.6250    50.0810     8.0160     6.8320     6.0590    24.8030     2.4240    -2.8970 
  243.7500    51.5830     7.8770     6.6660     5.9820    24.8110     2.4210    -2.9780 
  243.8750    54.6050     7.6620     6.5220     5.9040    24.7880     2.4130    -3.1590 
  244.0000    55.6190     7.4120     6.4620     5.7310    24.7670     2.4080    -3.5020 
  244.1250    58.9110     7.2320     6.5640     5.7400    24.7800     2.4120    -4.0270 
  244.2500    65.2970     7.2270     6.8150     6.0370    24.8250     2.4250    -4.6500 
  244.3750    69.2260     7.4420     7.1690     6.6640    24.8690     2.4410    -5.2520 
  244.5000    69.2560     7.8140     7.5400     7.4710    24.8870     2.4480    -5.7710 
  244.6250    72.4800     8.1560     7.7980     7.7860    24.8870     2.4400    -6.1370 
  244.7500    79.1200     8.2980     7.8860     7.6200    24.8860     2.4240    -6.4090 
  244.8750    83.4080     8.2020     7.8070     7.0380    24.8820     2.4100    -6.5950 
  245.0000    83.4240     7.9490     7.6140     6.9950    24.8740     2.4020    -6.5900 
  245.1250    81.2390     7.7210     7.4120     7.2580    24.8790     2.4020    -6.3690 
  245.2500    80.0640     7.6770     7.3040     7.6050    24.9200     2.4060    -6.0530 
  245.3750    79.1400     7.8630     7.3180     7.5270    24.9790     2.4150    -5.6970 
  245.5000    76.6620     8.2010     7.4260     7.4370    25.0350     2.4270    -5.2810 
  245.6250    72.2340     8.4570     7.5260     9.4480    25.1100     2.4370    -4.8750 
  245.7500    70.9670     8.4150     7.4810    12.6480    25.1880     2.4380    -4.5220 
  245.8750    76.5430     8.0250     7.2250    12.0960    25.2450     2.4270    -4.1950 
  246.0000    85.2180     7.4300     6.8270     8.5760    25.2960     2.4080    -3.9650 
  246.1250    88.5490     6.9580     6.4820     6.4550    25.3010     2.3920    -3.7800 
