~V
VERS. 2.00: Ver 2.00
~W
STRT.M 50.0000:
STOP.M 300.0000:
STEP.M 0.1250:
NULL. -999.2500:
UWI. F10041:
~C
DEPT.M :
DEN.GM/CC :
GR.API :
RML.OHMM :
RI. :
RXO.OHMM :
CALI.CM :
SP.MV :
~A
# ...
  252.5000     2.2340    60.8700    20.2830    19.4090    21.9810    24.1290   -11.7920 
  252.6250     2.2320    63.4260    20.5000    19.6190    20.8830    24.0850   -11.9060 
  252.7500     2.2450    65.4450    20.9270    19.9580    19.8470    24.0700   -12.0430 
  252.8750     2.2660    65.2130    21.6760    20.4730    19.6910    24.0890   -12.1610 
  253.0000     2.2890    63.3990    22.7520    21.1920    21.6060    24.1560   -12.2510 
  253.1250     2.3050    60.9120    24.0990    22.1800    23.9540    24.3040   -12.3090 
  253.2500     2.3090    58.2160    25.6240    23.4160    25.4060    24.3930   -12.2980 
  253.3750     2.3020    56.6980    27.3560    24.8830    26.1070    24.3800   -12.2440 
  253.5000     2.2870    57.9460    29.3030    26.5140    26.9770    24.2570   -12.1940 
  253.6250     2.2720    59.9670    31.4070    28.1930    30.4900    24.1100   -12.1800 
  253.7500     2.2680    59.9030    33.4830    29.7880    34.4110    24.1010   -12.1750 
  253.8750     2.2870    58.9780    35.3170    31.1820    35.6710    24.1800   -12.1750 
  254.0000     2.3330    57.8060    36.6200    32.2170    33.6760    24.1980   -12.1880 
  254.1250     2.4030    55.7940    36.8530    32.5170    35.0060    24.1390   -12.2380 
  254.2500     2.4760    55.5930    35.8680    31.9030    39.3900    24.0790   -12.3010 
  254.3750     2.5410    58.3570    33.6710    30.2610    36.6790    24.1060   -12.3680 
  254.5000     2.5940    60.5900    30.5870    27.7270    24.8400    24.2280   -12.4010 
  254.6250     2.6370    59.2310    27.1910    24.7110    21.9860    24.3290   -12.4250 
  254.7500     2.6730    56.6630    24.1160    21.9000    21.4440    24.3800   -12.5210 
  254.8750     2.6950    54.7800    21.7070    19.7510    18.6090    24.3960   -12.6120 
  255.0000     2.6930    53.6000    20.1590    18.5230    17.7260    24.4120   -12.6840 
  255.1250     2.6590    53.5600    19.6700    18.3880    18.7070    24.3640   -12.7800 
  255.2500     2.6100    53.2660    19.9210    18.9510    26.1670    24.3470   -12.8920 
  255.3750     2.5660    52.3370    20.5540    19.8420    33.9810    24.3410   -13.0600 
  255.5000     2.5420    52.6970    21.0990    20.6460    31.2280    24.2940   -13.3000 
  255.6250     2.5440    55.5330    20.9910    20.8910    20.2280    24.1810   -13.5530 
  255.7500     2.5510    58.2900    20.0880    20.4270    17.5150    24.0440   -13.7090 
  255.8750     2.5440    59.9000    18.4230    19.2030    18.4570    23.9470   -13.7660 
  256.0000     2.5150    61.1620    16.1720    17.3080    19.2850    23.8620   -13.6970 
  256.1250     2.4700    62.3380    13.6030    14.9580    15.0740    23.8280   -13.4780 
  256.2500     2.4290    60.9090    11.1340    12.5930    10.5680    23.8200   -13.1870 
  256.3750     2.4020    55.3800     9.0550    10.5040     6.9570    23.8380   -12.7500 
  256.5000     2.3910    48.9880     7.5240     8.8680     5.8430    23.8890   -12.2440 
  256.6250     2.3850    47.5850     6.6110     7.7950     5.9840    24.0020   -11.6770 
  256.7500     2.3770    48.6440     6.0780     7.1120     6.4580    24.1670   -11.1350 
  256.8750     2.3720    49.3490     5.7580     6.6900     6.6280    24.3100   -10.6590 
  257.0000     2.3770    50.4550     5.5050     6.4070     6.1740    24.4130   -10.2640 
  257.1250     2.3960    53.9310     5.2410     6.2100     5.4880    24.4510   -10.0060 
  257.2500     2.4210    58.1420     5.0120     6.1130     5.1860    24.4900    -9.8430 
  257.3750     2.4370    64.2070     4.9420     6.1940     5.3420    24.5670    -9.7970 
  257.5000     2.4390    74.1210     5.1560     6.5170     6.5010    24.6790    -9.7360 
  257.6250     2.4270    85.7290     5.7370     7.1190     8.1080    24.7960    -9.7380 
  257.7500     2.4100    92.5970     6.4940     7.8520     8.6390    24.8390    -9.7230 
  257.8750     2.3930    94.1270     7.2030     8.5390     8.7730    24.8480    -9.7280 
  258.0000     2.3790    94.0470     7.6730     8.9960     8.6500    24.8480    -9.8240 
  258.1250     2.3760    98.2390     7.8160     9.0730     8.4600    24.8480    -9.8680 
  258.2500     2.3910   103.3230     7.8370     8.9280     8.3950    24.8480    -9.9060 
  258.3750     2.4220   103.8830     7.9330     8.7870     8.3200    24.8530    -9.9910 
  258.5000     2.4610    98.5770     8.2940     8.8990     8.6860    24.8480   -10.1820 
  258.6250     2.4870    90.1590     9.2860     9.5510    10.5360    24.8000   -10.4040 
  258.7500     2.4880    83.0860    10.9020    10.7300    14.3220    24.6950   -10.7010 
  258.8750     2.4640    78.5660    12.9010    12.3240    17.7190    24.5940   -11.0120 
  259.0000     2.4270    76.7250    14.9330    14.0740    17.9960    24.4890   -11.2200 
  259.1250     2.3950    77.1550    16.7560    15.6310    17.1190    24.4190   -11.5100 
  259.2500     2.3840    78.6100    18.4080    16.9070    18.2370    24.3580   -11.8990 
  259.3750     2.3990    80.1660    19.9890    18.0620    21.8820    24.3220   -12.2540 
  259.5000     2.4380    80.0290    21.7690    19.4090    23.1940    24.3060   -12.5650 
  259.6250     2.4890    77.1640    24.2530    21.3640    28.0260    24.2780   -12.8040 
  259.7500     2.5310    73.6140    27.5490    23.9750    41.5710    24.2340   -12.9420 
  259.8750     2.5400    69.8970    31.5430    27.1580    52.6300    24.1940   -13.0950 
  260.0000     2.5070    66.6880    35.9640    30.7270    47.0800    24.1640   -13.3000 
  260.1250     2.4340    65.9280    40.6520    34.5740    46.3410    24.1310   -13.4780 
  260.2500     2.3510    65.4430    45.6820    38.7200    41.0020    24.1540   -13.6370 
  260.3750     2.2810    63.9750    51.4020    43.4290    44.1060    24.2040   -13.7960 
  260.5000     2.2370    62.5590    58.2210    49.1040    67.8560    24.2860   -13.9730 
  260.6250     2.2230    63.0300    66.7430    56.4890    83.5740    24.3430   -14.1990 
  260.7500     2.2270    62.9940    76.9300    65.7220    84.0770    24.3760   -14.5070 
  260.8750     2.2410    60.1960    88.7050    76.8300    84.2740    24.3850   -14.8300 
  261.0000     2.2590    56.6370   101.2630    89.1320   102.1590    24.3840   -15.1300 
  261.1250     2.2760    56.0390   111.2240   100.0750   143.7700    24.3710   -15.4410 
  261.2500     2.2870    58.4990   115.3510   106.2510   190.9140    24.3480   -15.6860 
  261.3750     2.2930    62.3210   112.1540   105.1970   187.6100    24.3350   -15.8940 
  261.5000     2.2920    64.6050   102.3270    96.9830   124.5000    24.3460   -16.1110 
  261.6250     2.2880    64.3650    88.5070    84.4690    72.4790    24.3700   -16.3510 
  261.7500     2.2810    63.4130    75.6270    72.7060    56.8900    24.3670   -16.5600 
  261.8750     2.2740    63.8320    66.5240    64.0820    53.4400    24.3130   -16.7740 
  262.0000     2.2680    64.7470    61.6830    59.0330    57.1740    24.1850   -17.0410 
  262.1250     2.2590    63.6990    60.0060    57.0570    64.3300    23.9750   -17.2110 
  262.2500     2.2460    62.2640    59.7870    56.6240    70.5130    23.7940   -17.3740 
  262.3750     2.2300    62.2560    60.5570    57.2910    61.9880    23.7120   -17.6270 
  262.5000     2.2190    63.2240    62.4970    59.2310    47.4240    23.7040   -17.8650 
  262.6250     2.2180    62.4340    66.7610    63.5370    51.0400    23.7320   -18.1440 
  262.7500     2.2230    60.3820    73.8950    70.6040    90.8570    23.7640   -18.5120 
  262.8750     2.2250    58.1270    84.0100    80.3810   148.0240    23.7710   -18.8420 
  263.0000     2.2160    55.8410    96.1110    91.7930   138.3850    23.7260   -19.1600 
  263.1250     2.1940    54.5460   107.7380   102.5630   108.3860    23.6820   -19.6360 
  263.2500     2.1680    54.0250   116.5890   110.8440   103.8180    23.6980   -20.1560 
  263.3750     2.1460    54.3810   121.9910   116.1790   121.9450    23.8460   -20.6860 
  263.5000     2.1330    54.9680   124.7700   119.2600   129.6410    24.1520   -21.2400 
  263.6250     2.1360    55.0520   126.2510   121.0040   121.4630    24.4650   -21.7230 
