~V
VERS. 2.00: Ver 2.00
~W
STRT.M 50.0000:
STOP.M 244.0000:
STEP.M 0.1250:
NULL. -999.2500:
UWI. F10003:
~C
DEPT.M :
GR.API :
RML.OHMM :
RI. :
RXO.OHMM :
CALI.CM :
DEN.GM/CC :
SP.MV :
~A
# ...
  185.0000    53.5340    40.7970    36.5660    44.2480    24.2590     2.5450   -17.5970 
  185.1250    52.5680    43.3380    38.6290    44.1980    24.3380     2.5410   -17.8800 
  185.2500    52.5810    45.4700    40.5650    50.5230    24.1680     2.5400   -18.0870 
  185.3750    52.7860    46.7120    41.9230    57.2830    23.8400     2.5380   -18.1750 
  185.5000    52.9930    46.9530    42.5030    58.8860    23.6300     2.5180   -18.1920 
  185.6250    52.3420    46.5340    42.4480    54.0780    23.5380     2.4690   -18.2090 
  185.7500    51.1980    46.2700    42.4050    46.3010    23.5240     2.4130   -18.2800 
  185.8750    51.4450    46.6850    42.8620    46.8560    23.5300     2.3750   -18.4380 
  186.0000    53.1760    48.0350    44.1470    53.3010    23.6310     2.3760   -18.6600 
  186.1250    54.6540    50.4310    46.5190    62.3740    23.9720     2.4140   -18.9000 
  186.2500    55.6330    53.3580    49.6080    68.2140    24.1540     2.4570   -19.1620 
  186.3750    57.2810    56.1990    52.8930    66.6430    24.2350     2.4820   -19.4740 
  186.5000    57.9270    58.1560    55.6050    65.9300    24.3120     2.4810   -19.8350 
  186.6250    53.0270    58.1160    56.5770    67.5280    24.3620     2.4620   -20.2740 
  186.7500    46.8820    55.9530    55.4700    74.7830    24.3270     2.4460   -20.7470 
  186.8750    45.0100    51.9110    52.3000    75.7290    24.2530     2.4470   -21.1960 
  187.0000    48.3430    46.6680    47.5250    63.6860    24.2700     2.4700   -21.6090 
  187.1250    53.4860    40.8320    41.6440    54.3280    24.3420     2.5160   -22.0230 
  187.2500    56.4690    34.9440    35.2640    47.2470    24.2660     2.5690   -22.4070 
  187.3750    56.9720    29.0780    28.6650    38.4140    24.1130     2.6180   -22.6490 
  187.5000    56.0710    23.3240    22.2280    28.3050    24.0560     2.6490   -22.6440 
  187.6250    54.9830    18.0730    16.6210    21.1710    24.1340     2.6430   -22.2350 
  187.7500    54.5160    13.1590    12.1580    15.7810    24.2290     2.5990   -21.4800 
  187.8750    55.4440     9.6130     8.9570    10.7250    24.2850     2.5210   -20.4790 
  188.0000    57.0670     7.4250     6.9200     7.5690    23.9170     2.4320   -19.3520 
  188.1250    56.4680     6.5040     5.9730     5.3860    23.2670     2.3640   -18.1180 
  188.2500    53.1040     6.3320     5.7250     4.9950    23.2680     2.3310   -16.8700 
  188.3750    49.5580     6.6450     5.9890     5.5400    23.7800     2.3350   -15.7080 
  188.5000    48.1040     7.2090     6.5770     6.4520    24.3740     2.3640   -14.7410 
  188.6250    48.1500     7.7940     7.2780     6.9780    24.5830     2.4010   -14.1380 
  188.7500    48.9360     8.2290     7.8740     7.0390    24.6320     2.4310   -13.8580 
  188.8750    50.4420     8.4480     8.2510     6.8670    24.6260     2.4490   -13.7980 
  189.0000    51.6190     8.4480     8.3700     6.7340    24.6190     2.4500   -13.8350 
  189.1250    53.1330     8.2450     8.2170     6.8450    24.5990     2.4300   -13.9710 
  189.2500    56.1370     7.9270     7.8900     7.0430    24.5820     2.3920   -14.1420 
  189.3750    59.5160     7.5590     7.4610     7.2660    24.5280     2.3490   -14.3140 
  189.5000    60.4870     7.2160     7.0120     7.3040    24.3990     2.3200   -14.5350 
  189.6250    57.0430     7.0170     6.6670     7.2930    24.1710     2.3300   -14.7970 
  189.7500    55.5820     7.0180     6.5040     7.3840    24.0490     2.3740   -15.0520 
  189.8750    59.3290     7.2490     6.5640     7.5650    24.0660     2.4340   -15.2940 
  190.0000    64.7820     7.6880     6.8490     7.8370    24.1960     2.4800   -15.5330 
  190.1250    67.2290     8.2850     7.3360     8.0230    24.3800     2.4860   -15.6870 
  190.2500    68.4720     8.9170     7.9040     8.7690    24.4970     2.4670   -15.7850 
  190.3750    71.4970     9.4950     8.4580     9.5280    24.5450     2.4400   -15.9210 
  190.5000    74.4060     9.9540     8.9120    10.0250    24.5510     2.4230   -16.0130 
  190.6250    74.3830    10.2300     9.1770    10.1750    24.5410     2.4190   -16.0110 
  190.7500    76.2860    10.3420     9.2570    10.2220    24.5390     2.4210   -16.0120 
  190.8750    81.5190    10.2990     9.1610    10.2290    24.5510     2.4210   -16.0720 
  191.0000    88.1980    10.1320     8.9260    10.1730    24.5600     2.4180   -16.1510 
  191.1250    92.8220     9.9210     8.6270     9.9780    24.5600     2.4160   -16.2630 
  191.2500    96.0880     9.8270     8.4030     9.7350    24.5580     2.4160   -16.4340 
  191.3750    97.3370    10.0270     8.3920     9.7190    24.5490     2.4210   -16.6310 
  191.5000    95.6300    10.6950     8.7330    10.3910    24.5260     2.4280   -16.8320 
  191.6250    92.1340    12.0850     9.6420    12.7280    24.4990     2.4380   -17.0650 
  191.7500    87.9300    14.1840    11.1500    16.2570    24.4790     2.4480   -17.3500 
  191.8750    83.7630    17.0100    13.3280    20.9370    24.4540     2.4560   -17.6710 
  192.0000    81.0290    20.5310    16.2070    26.4320    24.4210     2.4590   -18.0010 
  192.1250    78.5680    24.7670    19.8620    29.6820    24.4160     2.4530   -18.3260 
  192.2500    73.5450    29.4920    24.0750    34.3160    24.3980     2.4390   -18.6590 
  192.3750    67.5770    34.5180    28.6650    41.7650    24.3690     2.4190   -18.9750 
  192.5000    63.3440    39.5510    33.3580    49.0970    24.3820     2.3980   -19.2440 
  192.6250    61.0990    44.0980    37.7000    53.5710    24.4040     2.3810   -19.5360 
  192.7500    59.4950    47.8430    41.3340    56.3480    24.4130     2.3710   -19.7860 
  192.8750    57.9860    50.6320    44.0390    58.4980    24.4000     2.3680   -19.9210 
  193.0000    56.1410    52.5900    45.8550    59.0520    24.3730     2.3690   -20.0350 
  193.1250    55.3290    54.0730    47.0650    59.4560    24.3760     2.3690   -20.1560 
  193.2500    56.8780    55.5920    48.1940    60.1500    24.4070     2.3640   -20.2050 
  193.3750    58.9460    57.3760    49.5040    61.6940    24.4540     2.3520   -20.2210 
  193.5000    59.8660    59.4830    51.1170    64.4180    24.4800     2.3350   -20.2830 
  193.6250    59.8790    61.8300    53.0490    68.2100    24.4840     2.3190   -20.2440 
  193.7500    57.9790    64.1160    55.0740    71.3920    24.4720     2.3080   -20.1440 
  193.8750    54.2180    66.0500    56.9430    72.2830    24.4350     2.3060   -20.0990 
  194.0000    51.6540    67.3960    58.4250    71.7370    24.4000     2.3110   -20.0790 
  194.1250    52.8840    67.9920    59.3260    71.2280    24.3980     2.3190   -19.9960 
  194.2500    54.3610    68.1750    59.8570    71.6530    24.4240     2.3260   -19.9220 
  194.3750    53.6710    68.3400    60.3150    72.1790    24.4460     2.3270   -19.8660 
  194.5000    54.0640    68.9260    61.0650    70.5730    24.4500     2.3230   -19.8020 
  194.6250    57.0800    70.4600    62.5810    68.5090    24.4180     2.3180   -19.7550 
  194.7500    58.6740    72.9620    64.9470    70.8920    24.3930     2.3170   -19.7430 
  194.8750    56.6370    76.3350    68.1330    75.0650    24.3990     2.3210   -19.7430 
  195.0000    54.3230    80.2720    71.9150    78.0590    24.4120     2.3300   -19.6960 
  195.1250    54.9300    84.1430    75.7880    80.4270    24.4120     2.3440   -19.6750 
  195.2500    55.4220    87.1580    79.0210    82.2870    24.4110     2.3590   -19.6850 
  195.3750    54.5700    88.6610    80.9960    84.0550    24.4170     2.3690   -19.6950 
  195.5000    54.2260    88.2350    81.2930    87.0870    24.4350     2.3720   -19.6870 
  195.6250    55.0560    85.5630    79.5460    86.2810    24.4650     2.3660   -19.6970 
  195.7500    56.4940    81.5420    76.4590    80.8500    24.4860     2.3550   -19.7280 
  195.8750    58.8690    77.1190    72.8040    73.3320    24.5020     2.3430   -19.7100 
  196.0000    62.2620    73.3970    69.5390    67.2990    24.4960     2.3310   -19.6540 
  196.1250    64.3030    71.7150    67.8910    64.0270    24.4860     2.3210   -19.6300 
