~V
VERS. 2.00: Ver 2.00
~W
STRT.M 59.0000:
STOP.M 275.0000:
STEP.M 0.1250:
NULL. -999.2500:
UWI. F10021:
~C
DEPT.M :
GR.API :
RML.OHMM :
RI. :
RXO.OHMM :
CALI.CM :
DEN.GM/CC :
SP.MV :
~A
   59.0000  -999.2500  -999.2500  -999.2500  -999.2500  -999.2500     1.4810     6.2660 
   59.1250  -999.2500  -999.2500  -999.2500  -999.2500  -999.2500     1.4810     7.1060 
   59.2500  -999.2500  -999.2500  -999.2500  -999.2500  -999.2500     1.4830     8.2650 
   59.3750    37.3080     1.2660     0.3040     3.4260    25.3540     1.4970     9.8010 
   59.5000    37.3080     1.2660     0.3040     3.4260    25.3540     1.5230    11.7150 
   59.6250    37.3670     1.2220     0.3030     3.4900    25.3440     1.5510    14.0990 
   59.7500    36.7080     1.1900     0.3030     3.5630    25.3330     1.5700    16.9140 
   59.8750    37.4040     1.1740     0.3040     3.6140    25.3190     1.5720    20.1470 
   60.0000    38.7070     1.1680     0.3050     3.6100    25.3000     1.5460    23.7560 
   60.1250    38.4220     1.1640     0.3080     3.5370    25.2810     1.4920    27.6300 
   60.2500    38.2550     1.1500     0.3110     3.4310    25.2670     1.4450    31.5000 
   60.3750    39.6700     1.1260     0.3140     3.3280    25.2520     1.4450    35.1480 
   60.5000    40.9770     1.0990     0.3170     3.2580    25.2340     1.5230    38.4450 
   60.6250    39.4180     1.0770     0.3170     3.2050    25.2170     1.6900    41.2800 
   60.7500    37.8260     1.0610     0.3150     3.1050    25.2100     1.8890    43.7370 
   60.8750    38.3240     1.0420     0.3100     2.9350    25.2070     2.0600    45.8800 
   61.0000    39.8760     1.0110     0.3050     2.7160    25.2030     2.1600    47.7690 
   61.1250    41.1080     0.9640     0.2990     2.5630    25.1960     2.1840    49.4650 
   61.2500    41.7030     0.9200     0.2950     2.5870    25.1770     2.1770    51.1890 
   61.3750    41.7020     0.8930     0.2940     2.7890    25.1270     2.1600    53.1930 
   61.5000    40.5860     0.8920     0.2950     3.0430    25.0120     2.1440    55.6240 
   61.6250    38.3600     0.9130     0.2970     3.1470    24.7470     2.1320    58.4930 
   61.7500    39.3060     0.9360     0.3010     3.0780    24.3520     2.1250    61.5380 
   61.8750    44.0740     0.9470     0.3050     2.8090    23.8820     2.1210    64.5610 
   62.0000    48.7360     0.9300     0.3110     2.3540    23.4530     2.1210    67.4220 
   62.1250    49.4600     0.8740     0.3180     2.0840    23.2490     2.1300    70.0140 
   62.2500    47.4150     0.7940     0.3270     2.1240    23.2230     2.1560    72.3030 
   62.3750    45.6600     0.7110     0.3370     2.1960    23.2700     2.2080    74.1760 
   62.5000    45.9270     0.6470     0.3460     2.0500    23.3060     2.2870    75.5820 
   62.6250    47.6290     0.6280     0.3530     1.4870    23.2260     2.3780    76.5010 
   62.7500    47.9010     0.6520     0.3560     0.8640    22.9470     2.4430    77.1040 
   62.8750    46.7490     0.7100     0.3530     0.6860    22.4220     2.4630    77.4470 
   63.0000    46.3430     0.7830     0.3440     0.8990    21.6510     2.4490    77.5750 
   63.1250    46.3280     0.8280     0.3340     1.3380    20.7760     2.4330    77.4820 
   63.2500    44.5050     0.8070     0.3280     1.7950    20.1040     2.4390    77.1850 
   63.3750    42.0460     0.6970     0.3320     2.1590    19.7270     2.4720    76.5930 
   63.5000    40.4870     0.5180     0.3450     2.3580    19.5600     2.5230    75.5160 
   63.6250    40.4640     0.3310     0.3590     2.4210    19.5340     2.5740    73.4900 
   63.7500    42.0570     0.1990     0.3610     2.4330    19.5970     2.6080    70.3130 
   63.8750    45.8990     0.1430     0.3540     2.4930    19.6890     2.6190    65.7510 
   64.0000    50.8120     0.1870     0.3630     2.7830    19.8150     2.5990    59.6920 
   64.1250    56.4140     0.4270     0.4760     3.3850    20.0320     2.5370    52.0400 
   64.2500    63.4290     0.9130     0.7710     4.2580    20.3980     2.4450    43.3760 
   64.3750    69.6580     1.6710     1.3150     5.2920    20.8950     2.3440    34.1390 
   64.5000    71.2230     2.6310     2.1160     6.1540    21.4620     2.2580    24.7840 
   64.6250    66.6950     3.5890     3.0940     6.5350    21.9670     2.2020    15.8780 
   64.7500    61.6770     4.3120     4.0340     6.6310    22.4550     2.1750     7.8090 
   64.8750    59.5340     4.7250     4.7880     6.7060    23.0200     2.1690     0.9050 
   65.0000    59.6580     4.9350     5.3180     6.7650    23.5300     2.1740    -4.6480 
   65.1250    59.7510     5.1190     5.6540     6.7840    23.8280     2.1840    -8.6750 
   65.2500    58.8390     5.3470     5.8930     6.7790    23.9150     2.1890   -11.6070 
   65.3750    57.3010     5.5980     6.0700     6.7440    23.8950     2.1830   -13.7350 
   65.5000    55.8120     5.8420     6.2100     6.6890    23.7990     2.1650   -15.2850 
   65.6250    55.3440     6.0580     6.3210     6.6750    23.5870     2.1400   -16.3310 
   65.7500    57.3790     6.2360     6.4010     6.6440    23.2670     2.1240   -17.0600 
   65.8750    61.0170     6.3550     6.4250     6.5010    22.8980     2.1260   -17.5310 
   66.0000    63.6020     6.3810     6.3650     6.2080    22.5950     2.1500   -17.7810 
   66.1250    63.8270     6.2750     6.1930     5.7770    22.4210     2.1920   -17.8300 
   66.2500    64.8350     6.0740     5.9460     5.3470    22.3630     2.2370   -17.7790 
   66.3750    68.9670     5.8300     5.6670     4.9990    22.3510     2.2760   -17.6690 
   66.5000    74.9790     5.6000     5.4040     4.7340    22.3400     2.3040   -17.5700 
   66.6250    76.3350     5.4300     5.2010     4.5690    22.3030     2.3190   -17.5730 
   66.7500    72.6680     5.3100     5.0600     4.5140    22.2540     2.3240   -17.6690 
   66.8750    68.5830     5.2250     4.9700     4.5000    22.2010     2.3240   -17.8790 
   67.0000    67.8970     5.1720     4.9200     4.5100    22.1320     2.3230   -18.2240 
   67.1250    71.4550     5.1860     4.9180     4.5470    22.0070     2.3240   -18.7120 
   67.2500    76.3470     5.2990     4.9740     4.6320    21.8040     2.3230   -19.3180 
   67.3750    79.4000     5.5320     5.1050     4.8310    21.5380     2.3120   -20.0460 
   67.5000    79.1520     5.8810     5.3200     5.0700    21.2590     2.2870   -20.8620 
   67.6250    76.2600     6.3020     5.6100     5.4000    21.1110     2.2470   -21.7320 
   67.7500    73.5570     6.7030     5.9140     5.6940    21.1940     2.2060   -22.5930 
   67.8750    70.2870     7.0140     6.1740     5.8490    21.4000     2.1720   -23.3970 
   68.0000    65.1540     7.1940     6.3400     5.8610    21.4930     2.1410   -24.1100 
   68.1250    59.7650     7.2200     6.3700     5.7390    21.1610     2.0990   -24.7000 
   68.2500    57.3670     7.1560     6.3000     5.5890    20.3360     2.0420   -25.1360 
   68.3750    58.2210     7.0430     6.1640     5.5060    19.0590     1.9810   -25.3940 
   68.5000    60.1500     6.9080     5.9960     5.5600    17.5680     1.9390   -25.4700 
   68.6250    62.4020     6.7360     5.8060     5.8160    16.4070     1.9390   -25.3270 
   68.7500    66.0150     6.5040     5.5970     6.1260    15.9010     1.9730   -25.0530 
   68.8750    69.6140     6.2190     5.3800     6.2990    15.9900     2.0240   -24.6930 
   69.0000    70.7980     5.9710     5.2150     6.2700    16.4810     2.0630   -24.2430 
   69.1250    69.1580     6.0720     5.3200     6.2080    17.2780     2.0610   -23.6980 
   69.2500    66.4340     6.7950     5.9130     6.3890    18.2930     2.0260   -23.0960 
   69.3750    64.1810     8.2840     7.1600     7.2420    19.4040     1.9790   -22.4310 
   69.5000    62.7240    10.3700     9.0020     9.2120    20.4500     1.9450   -21.6910 
   69.6250    59.9320    12.3660    10.9800    12.1840    21.2830     1.9530   -20.9070 
   69.7500    58.1560    13.3370    12.2790    15.1680    21.8460     2.0000   -20.0960 
   69.8750    60.4240    12.6710    12.2620    16.4090    22.1120     2.0720   -19.2760 
   70.0000    65.5660    10.5120    10.8110    13.8300    22.1880     2.1430   -18.5070 
   70.1250    71.0370     7.9150     8.5460     8.9450    22.2010     2.1890   -17.8460 
