~V
VERS. 2.00: Ver 2.00
~W
STRT.M 57.0000:
STOP.M 257.0000:
STEP.M 0.1250:
NULL. -999.2500:
UWI. F10004:
~C
DEPT.M :
GR.API :
RML.OHMM :
RI. :
RXO.OHMM :
CALI.CM :
DEN.GM/CC :
SP.MV :
~A
# ...
  113.2500    63.6050    27.6980    27.1450    32.5560    24.9060     2.0670     0.3080 
  113.3750    64.3330    28.1060    27.4860    31.9390    24.9390     2.0770     0.4270 
  113.5000    67.1630    28.5410    27.8860    31.5250    24.9300     2.0830     0.5490 
  113.6250    68.9580    29.0370    28.3970    33.4020    24.9030     2.0900     0.6560 
  113.7500    66.8800    29.6080    29.0290    34.1380    24.9330     2.1020     0.7260 
  113.8750    62.7390    30.2480    29.7780    33.9720    24.9540     2.1200     0.7960 
  114.0000    60.5480    30.9320    30.5960    33.7280    24.9600     2.1440     0.8720 
  114.1250    62.4950    31.6140    31.3990    33.6490    24.9760     2.1660     0.9120 
  114.2500    64.4310    32.2450    32.1200    34.2310    25.0400     2.1800     0.9330 
  114.3750    64.0320    32.7940    32.7280    35.0340    25.1990     2.1840     0.9730 
  114.5000    62.6160    33.2450    33.2020    36.0780    25.3730     2.1800     1.0190 
  114.6250    62.7850    33.5610    33.4920    36.0670    25.4010     2.1720     1.0900 
  114.7500    65.1890    33.7280    33.5970    36.0070    25.2710     2.1620     1.2140 
  114.8750    68.1810    33.7130    33.5050    36.1340    25.1510     2.1510     1.3510 
  115.0000    69.6730    33.5030    33.2430    36.2370    25.0070     2.1410     1.4770 
  115.1250    68.7680    33.1280    32.8740    37.1290    24.7560     2.1320     1.5570 
  115.2500    67.8960    32.8060    32.5730    37.5860    24.5050     2.1220     1.6230 
  115.3750    69.0810    32.8790    32.5990    35.6310    24.2180     2.1040     1.6790 
  115.5000    70.7760    33.7620    33.2940    30.7870    23.7520     2.0790     1.7150 
  115.6250    71.5130    35.9060    35.1150    24.4080    22.9260     2.0770     1.6950 
  115.7500    72.3320    38.8850    37.8280    20.1430    21.9760     2.1290     1.6140 
  115.8750    72.6980    41.9050    40.8420    18.5850    20.8310     2.2400     1.4920 
  116.0000    72.1000    43.8210    43.1390    18.2190    19.5570     2.3730     1.3240 
  116.1250    71.2120    43.2690    43.3000    17.3150    18.7590     2.4580     1.1850 
  116.2500    70.5330    40.6290    41.3580    15.7830    18.4600     2.4570     1.0770 
  116.3750    70.9640    37.0910    37.9790    15.0180    18.3700     2.3830     0.9780 
  116.5000    72.8010    33.9900    34.1630    15.1310    18.2520     2.2780     0.8780 
  116.6250    74.3170    32.4640    30.8710    15.3730    18.0720     2.1940     0.7810 
  116.7500    73.7060    30.8820    28.4070    15.4430    17.9390     2.1510     0.6800 
  116.8750    73.3270    29.5610    26.7630    15.2120    17.8880     2.1440     0.5560 
  117.0000    74.3570    28.6740    25.7890    14.8990    17.9710     2.1580     0.4270 
  117.1250    73.8060    28.2230    25.3410    14.8670    18.1210     2.1730     0.2510 
  117.2500    69.8670    27.9530    25.1660    15.3780    18.3150     2.1710     0.0330 
  117.3750    65.9490    27.7380    25.1480    16.6390    18.4740     2.1490    -0.2220 
  117.5000    63.7250    27.5000    25.2000    18.7200    18.6270     2.1140    -0.5130 
  117.6250    64.6140    27.2500    25.2740    20.7390    18.8730     2.0840    -0.8200 
  117.7500    68.0600    27.0930    25.3950    22.4410    19.2150     2.0700    -1.1300 
  117.8750    70.9600    27.1360    25.6170    23.3580    19.6510     2.0740    -1.4210 
  118.0000    69.5720    27.4220    25.9510    24.1760    20.2590     2.0890    -1.6790 
  118.1250    65.7530    27.8220    26.2720    25.6270    20.9220     2.1060    -1.8910 
  118.2500    64.9650    27.9680    26.2950    26.1620    21.4320     2.1180    -2.1000 
  118.3750    67.2570    27.5010    25.7190    25.6040    21.7860     2.1240    -2.2910 
  118.5000    68.6500    26.2260    24.3890    25.0350    22.1080     2.1280    -2.4240 
  118.6250    70.4490    24.2200    22.3940    22.8840    22.4800     2.1410    -2.5110 
  118.7500    74.9530    22.1260    20.3220    18.5970    22.8110     2.1630    -2.5700 
  118.8750    77.4210    20.5110    18.6690    15.9790    23.1460     2.1850    -2.6110 
  119.0000    73.7060    19.8520    17.8390    16.5530    23.4970     2.1820    -2.6490 
  119.1250    67.9120    20.7810    18.3680    20.6380    23.6190     2.1290    -2.7040 
  119.2500    65.6300    23.4320    20.4030    27.0970    23.6490     2.0470    -2.7620 
  119.3750    64.3620    28.0640    24.2750    33.4710    23.6610     1.9850    -2.8430 
  119.5000    60.4510    34.5910    30.1040    37.3430    23.6980     2.0020    -3.0030 
  119.6250    57.9680    41.7910    37.1010    42.5910    23.7250     2.1390    -3.2430 
  119.7500    60.1850    46.7160    42.4940    58.7210    23.7220     2.3340    -3.5500 
  119.8750    64.6980    46.7520    43.5440    85.9840    23.7080     2.5130    -3.9160 
  120.0000    67.1800    41.3290    39.3010    81.1250    23.7040     2.6070    -4.3340 
  120.1250    68.0170    32.5970    31.4600    38.5170    23.7320     2.5820    -4.7930 
  120.2500    70.9220    24.4040    23.7600    17.6530    23.8010     2.4960    -5.2620 
  120.3750    76.6030    18.2600    17.7970    12.4510    23.9190     2.4000    -5.7260 
  120.5000    83.9580    14.2650    13.8440    11.8180    23.9580     2.3340    -6.1710 
  120.6250    89.7570    12.5120    11.7060    11.0070    24.0160     2.3170    -6.6000 
  120.7500    92.8270    11.8750    10.5790    10.7080    24.0780     2.3260    -6.9860 
  120.8750    92.7840    11.7530    10.0750    11.0020    24.1300     2.3400    -7.3350 
  121.0000    90.8810    11.7230     9.8930    10.4280    24.1440     2.3460    -7.6600 
  121.1250    89.9270    11.6300     9.8630    10.0050    24.0940     2.3430    -7.9170 
  121.2500    91.3040    11.5330     9.9170     9.6660    23.8900     2.3450    -8.1150 
  121.3750    93.2850    11.5300    10.0670     9.4940    23.5420     2.3630    -8.2770 
  121.5000    93.7920    11.6700    10.3160    10.0370    23.2640     2.3950    -8.3990 
  121.6250    93.6680    11.9380    10.6390    11.1040    23.3070     2.4200    -8.4710 
  121.7500    91.9950    12.2060    10.9490    11.2600    23.8060     2.4180    -8.4780 
  121.8750    88.3090    12.3660    11.1520    11.1020    24.5650     2.3840    -8.4400 
  122.0000    86.7150    12.3520    11.1670    11.2350    24.5260     2.3280    -8.3440 
  122.1250    89.4710    12.1530    10.9510    11.0530    24.3310     2.2760    -8.2490 
  122.2500    91.4160    11.8970    10.6310    10.8020    24.0990     2.2440    -8.1880 
  122.3750    91.0330    11.7190    10.3440    10.3460    24.0000     2.2370    -8.1730 
  122.5000    91.0440    11.7250    10.2010    10.2300    23.9030     2.2460    -8.1980 
  122.6250    92.1910    11.9630    10.2710    10.8560    23.7900     2.2580    -8.2420 
  122.7500    93.2400    12.2970    10.4510    11.7650    23.7500     2.2640    -8.3130 
  122.8750    93.1640    12.5760    10.6150    12.2990    23.8340     2.2660    -8.3940 
  123.0000    91.4690    12.6550    10.6380    12.0460    23.9060     2.2730    -8.5030 
  123.1250    88.7090    12.4510    10.4420    11.3210    23.9290     2.2980    -8.5970 
  123.2500    87.1070    12.1130    10.1380    10.9710    23.9340     2.3370    -8.6580 
  123.3750    86.0240    11.8150     9.8610    10.5820    23.9550     2.3800    -8.6740 
  123.5000    84.5620    11.7060     9.7340    10.7910    23.9760     2.4130    -8.6310 
  123.6250    83.4720    11.8990     9.8730    12.4340    24.0200     2.4230    -8.5380 
  123.7500    82.6440    12.3010    10.2220    14.3130    24.0590     2.4130    -8.4360 
  123.8750    82.3100    12.7900    10.6950    12.8180    24.1300     2.3920    -8.3240 
  124.0000    84.3050    13.2320    11.1770    10.9770    24.2170     2.3710    -8.2040 
  124.1250    88.1590    13.4990    11.5300    10.5030    24.1640     2.3540    -8.0360 
  124.2500    90.9530    13.5850    11.7050    11.2380    24.0360     2.3410    -7.8370 
  124.3750    90.3710    13.5160    11.7040    11.7930    23.9830     2.3260    -7.6440 
