~V
VERS. 2.00: Ver 2.00
~W
STRT.M 50.0000:
STOP.M 293.0000:
STEP.M 0.1250:
NULL. -999.2500:
UWI. F10045:
~C
DEPT.M :
DEN.GM/CC :
SP.MV :
GR.API :
CALI.CM :
RXO.OHMM :
RI. :
RML.OHMM :
~A
# ...
  173.7500     2.1010   -12.2580    85.2400    23.6800    13.9680    17.6700    15.4380 
  173.8750     2.1040   -12.2900    89.2060    23.6050    13.8490    17.4320    15.0290 
  174.0000     2.1090   -12.3100    88.3770    23.5950    14.7500    17.4760    14.9880 
  174.1250     2.1110   -12.3520    82.2940    23.6610    15.7250    17.8100    15.3640 
  174.2500     2.1130   -12.3920    75.9480    23.6990    16.0370    18.2950    15.9730 
  174.3750     2.1180   -12.4640    75.1510    23.6460    15.9280    18.8220    16.6590 
  174.5000     2.1240   -12.5420    79.4950    23.5890    15.9290    19.2500    17.2430 
  174.6250     2.1280   -12.6740    81.0300    23.5600    16.3520    19.2420    17.3440 
  174.7500     2.1340   -12.8980    76.7540    23.5130    16.9960    18.5530    16.7100 
  174.8750     2.1480   -13.1500    72.3930    23.4490    16.9810    17.1560    15.3310 
  175.0000     2.1700   -13.3830    74.6260    23.3680    15.5010    15.3520    13.5480 
  175.1250     2.1850   -13.6080    83.7890    23.2630    12.8450    13.6730    11.9580 
  175.2500     2.1840   -13.7460    90.8200    23.2530    10.9940    12.4810    10.9500 
  175.3750     2.1680   -13.8580    90.8210    23.3800    11.0990    11.8990    10.6250 
  175.5000     2.1450   -13.9990    85.9500    23.5060    12.5570    11.8920    10.8720 
  175.6250     2.1250   -14.0930    82.1580    23.5530    13.1480    12.3440    11.4340 
  175.7500     2.1160   -14.0940    83.3760    23.5770    12.5710    12.9190    11.9350 
  175.8750     2.1200   -14.0180    86.3350    23.6210    11.8020    13.3890    12.1840 
  176.0000     2.1290   -13.9080    87.0910    23.6570    11.4270    13.6420    12.1690 
  176.1250     2.1280   -13.7400    84.5050    23.6700    11.3600    13.7430    12.0950 
  176.2500     2.1180   -13.5940    83.4960    23.6790    11.5950    13.8950    12.2050 
  176.3750     2.1120   -13.4430    85.2490    23.7070    12.1810    14.1840    12.5540 
  176.5000     2.1140   -13.2430    85.9040    23.7540    12.9120    14.5900    13.0380 
  176.6250     2.1190   -13.0810    81.9290    23.7600    13.4710    15.0310    13.4610 
  176.7500     2.1200   -12.9170    80.6390    23.7770    13.7330    15.4370    13.6990 
  176.8750     2.1130   -12.8210    84.7710    23.8680    13.9860    15.7930    13.7460 
  177.0000     2.1000   -12.8280    88.4350    24.0460    14.4460    16.1170    13.7130 
  177.1250     2.0830   -12.8830    87.0330    24.1790    14.7090    16.4260    13.7620 
  177.2500     2.0740   -12.9690    84.7770    24.2080    14.6430    16.7110    13.9300 
  177.3750     2.0770   -13.0360    82.5160    24.1760    14.3840    16.9040    14.1470 
  177.5000     2.0840   -13.1330    78.3370    24.1460    14.1460    16.8540    14.2470 
  177.6250     2.0930   -13.2020    73.4680    24.1980    13.9840    16.2030    13.8330 
  177.7500     2.1120   -13.2460    74.8740    24.2240    13.5070    14.8530    12.7010 
  177.8750     2.1570   -13.2950    82.2420    24.2010    12.5240    12.9590    10.9620 
  178.0000     2.2320   -13.3530    90.0730    24.1110    10.9370    10.9540     9.0800 
  178.1250     2.3240   -13.4200    92.4000    24.0380     8.8190     9.3650     7.6700 
  178.2500     2.4000   -13.4350    94.6350    24.0880     7.2020     8.3410     6.9080 
  178.3750     2.4370   -13.4640   100.6220    24.1870     7.0350     7.8630     6.7400 
  178.5000     2.4270   -13.5360   105.5680    24.2380     8.8180     7.8010     6.9570 
  178.6250     2.3770   -13.6440   100.2300    24.2380    11.0330     7.9270     7.1990 
  178.7500     2.3180   -13.7830    93.0950    24.2350    10.7160     7.9340     7.1400 
  178.8750     2.2670   -13.8760    93.6590    24.2200     8.3730     7.6980     6.7250 
  179.0000     2.2360   -13.8590   100.7750    24.1690     6.6370     7.2750     6.1350 
  179.1250     2.2350   -13.7430   106.8890    24.0910     6.4810     6.8250     5.6500 
  179.2500     2.2540   -13.6270   110.0330    24.0160     6.7350     6.4640     5.3660 
  179.3750     2.2750   -13.5210   112.9090    23.9950     6.7570     6.1920     5.2180 
  179.5000     2.2910   -13.4020   114.6070    24.0310     6.3660     5.9640     5.0870 
  179.6250     2.3010   -13.2430   114.7480    24.1250     5.7900     5.7610     4.9260 
  179.7500     2.3080   -13.0750   115.6090    24.2040     5.4540     5.6140     4.8220 
  179.8750     2.3040   -12.9760   116.6730    24.2300     5.4780     5.5670     4.8590 
  180.0000     2.2890   -12.9260   118.9060    24.2140     5.7690     5.6310     5.0410 
  180.1250     2.2780   -12.9180   122.4230    24.1580     6.2460     5.7850     5.2590 
  180.2500     2.2720   -12.9990   122.9930    24.0960     6.5360     5.9490     5.3630 
  180.3750     2.2630   -13.0890   117.1200    24.0490     6.3890     6.0730     5.3250 
  180.5000     2.2450   -13.1090   110.4040    24.0100     6.0460     6.1290     5.2260 
  180.6250     2.2350   -13.1410   115.6350    23.9700     5.9910     6.1100     5.1940 
  180.7500     2.2400   -13.2100   125.7820    23.9380     6.2000     6.0360     5.2500 
  180.8750     2.2530   -13.2600   126.5560    23.9270     6.3500     5.9160     5.3330 
  181.0000     2.2620   -13.3530   116.3190    23.9250     6.2230     5.7720     5.3760 
  181.1250     2.2570   -13.4920   111.5100    23.9140     5.9590     5.6360     5.3580 
  181.2500     2.2440   -13.5210   116.8480    23.8700     5.8160     5.5270     5.3120 
  181.3750     2.2390   -13.5540   122.5930    23.7620     5.9310     5.4570     5.2520 
  181.5000     2.2600   -13.5910   122.3680    23.5950     6.2320     5.4550     5.2060 
  181.6250     2.3170   -13.5680   117.7710    23.4530     6.4840     5.6110     5.2920 
  181.7500     2.3890   -13.5360   112.1310    23.4600     6.6460     6.0060     5.6490 
  181.8750     2.4590   -13.4670   107.8390    23.5440     7.1080     6.7310     6.3980 
  182.0000     2.5120   -13.3530   109.0060    23.6820     8.7010     7.8550     7.5890 
  182.1250     2.5290   -13.2450   108.1380    23.8060    12.1910     9.4410     9.1880 
  182.2500     2.5140   -13.2460    96.3870    23.8810    15.7760    11.2990    10.8840 
  182.3750     2.4860   -13.2480    80.4460    23.9500    17.3080    13.2160    12.4040 
  182.5000     2.4720   -13.2860    71.0810    23.9990    17.1500    14.9730    13.5680 
  182.6250     2.4800   -13.4280    70.0410    24.0140    18.1280    16.4390    14.3940 
  182.7500     2.4880   -13.6030    69.1170    24.0500    21.0000    17.7150    15.1680 
  182.8750     2.4860   -13.8290    68.0570    24.0790    23.8980    18.8230    15.9810 
  183.0000     2.4760   -14.1340    67.1500    24.0620    25.2070    19.6670    16.6990 
  183.1250     2.4600   -14.4840    65.7410    24.0180    24.4810    20.0260    17.0080 
  183.2500     2.4400   -14.8050    68.1820    23.9650    22.8620    19.9750    16.9290 
  183.3750     2.4190   -15.1620    73.4830    23.9140    20.8570    19.6960    16.6770 
  183.5000     2.3980   -15.5180    74.3850    23.8520    19.2670    19.3920    16.5100 
  183.6250     2.3750   -15.8430    66.9240    23.7580    18.8780    19.1530    16.5310 
  183.7500     2.3510   -16.1440    61.7650    23.6380    18.7660    18.8520    16.4920 
  183.8750     2.3340   -16.3800    63.6520    23.4370    17.8960    18.3400    16.1200 
  184.0000     2.3350   -16.5130    68.9550    23.2020    16.2030    17.5700    15.3420 
  184.1250     2.3580   -16.5580    70.0530    23.1150    15.1380    16.7010    14.4230 
  184.2500     2.3930   -16.5550    70.7650    23.0940    14.8100    16.0620    13.8010 
  184.3750     2.4370   -16.4610    75.6390    23.0940    14.9060    15.9120    13.7450 
  184.5000     2.4810   -16.3180    81.9990    23.0940    15.0840    16.4030    14.3420 
  184.6250     2.5130   -16.1880    81.4860    23.0980    16.4820    17.6090    15.5210 
  184.7500     2.5210   -16.0190    77.7080    23.1330    19.4670    19.1540    16.8330 
  184.8750     2.5080   -15.8950    78.6400    23.2460    23.2950    20.5890    17.8510 
