~V
VERS. 2.00: Ver 2.00
~W
STRT.M 51.0000:
STOP.M 313.0000:
STEP.M 0.1250:
NULL. -999.2500:
UWI. F10047:
~C
DEPT.M :
SP.MV :
GR.API :
RML.OHMM :
RI. :
RXO.OHMM :
CALI.CM :
DEN.GM/CC :
~A
# ...
   96.0000    -6.4930    65.6540    10.1140     7.7300     7.6350    24.0590     2.1380 
   96.1250    -6.7860    66.1590    10.1880     7.5940     7.6320    24.0590     2.1160 
   96.2500    -7.1000    67.7390    10.4590     7.6740     7.6230    24.0590     2.1010 
   96.3750    -7.3940    66.5610    10.7740     7.8620     7.7450    24.0590     2.0930 
   96.5000    -7.6250    64.8550    11.0640     8.0890     7.9600    24.0590     2.0960 
   96.6250    -7.7990    65.9780    11.2840     8.3020     8.1750    24.0590     2.1070 
   96.7500    -7.9080    66.8020    11.4060     8.4590     8.3300    24.0590     2.1190 
   96.8750    -7.9670    65.9900    11.3990     8.5280     8.5760    24.0590     2.1280 
   97.0000    -7.9760    65.0220    11.2530     8.4910     8.6040    24.0590     2.1310 
   97.1250    -7.9250    65.3710    10.9870     8.3400     8.4050    24.0590     2.1290 
   97.2500    -7.8750    66.1360    10.6910     8.1340     7.9410    24.0590     2.1240 
   97.3750    -7.8530    67.7980    10.4340     7.9200     7.4450    24.0590     2.1160 
   97.5000    -7.8500    68.6640    10.2640     7.7400     7.2870    24.0590     2.1050 
   97.6250    -7.8220    67.3640    10.2070     7.6240     7.5130    24.0590     2.0920 
   97.7500    -7.7070    65.9190    10.2190     7.5610     7.7360    24.0590     2.0780 
   97.8750    -7.5340    65.0470    10.2640     7.5340     7.7760    24.0590     2.0670 
   98.0000    -7.4320    65.2920    10.3150     7.5270     7.7130    24.0510     2.0610 
   98.1250    -7.4430    67.3070    10.3630     7.5360     7.7080    24.0280     2.0620 
   98.2500    -7.4210    70.5090    10.4200     7.5630     7.7650    23.9970     2.0650 
   98.3750    -7.3420    72.5170    10.4880     7.6060     7.8160    23.9840     2.0670 
   98.5000    -7.2350    72.1780    10.5600     7.6610     7.9380    23.9820     2.0680 
   98.6250    -7.1830    70.2340    10.6100     7.7120     8.0830    23.9820     2.0660 
   98.7500    -7.2320    66.7780    10.6280     7.7480     8.1320    23.9820     2.0650 
   98.8750    -7.3680    62.9560    10.6160     7.7660     8.1460    23.9820     2.0640 
   99.0000    -7.5260    60.1040    10.5850     7.7690     8.2260    23.9820     2.0660 
   99.1250    -7.6120    59.9300    10.5460     7.7610     8.2950    23.9820     2.0710 
   99.2500    -7.6600    62.1620    10.5110     7.7510     8.3610    23.9820     2.0780 
   99.3750    -7.7410    64.8330    10.4900     7.7450     8.3680    23.9820     2.0820 
   99.5000    -7.8940    65.1490    10.4870     7.7500     8.2680    23.9820     2.0810 
   99.6250    -8.0310    63.0590    10.5090     7.7720     8.2830    23.9820     2.0730 
   99.7500    -8.0890    61.2220    10.5480     7.8090     8.4450    23.9820     2.0640 
   99.8750    -8.0680    59.8750    10.5720     7.8440     8.5470    23.9820     2.0620 
  100.0000    -7.9320    59.8690    10.5280     7.8430     8.5710    23.9820     2.0710 
  100.1250    -7.7020    62.2390    10.3560     7.7650     8.5600    23.9820     2.0870 
  100.2500    -7.4930    64.3330    10.0900     7.6170     8.3950    23.9820     2.1010 
  100.3750    -7.3010    65.2060     9.7930     7.4330     7.8860    23.9820     2.1040 
  100.5000    -7.1140    67.4590     9.5400     7.2580     7.1880    23.9800     2.0950 
  100.6250    -6.9080    71.9490     9.3960     7.1340     6.6610    23.9480     2.0810 
  100.7500    -6.6520    72.9080     9.3300     7.0610     7.0740    23.8730     2.0760 
  100.8750    -6.3270    70.2290     9.2950     7.0220     7.7060    23.7970     2.0870 
  101.0000    -6.0100    68.9180     9.2530     7.0010     7.9680    23.7620     2.1100 
  101.1250    -5.7870    70.7330     9.1960     6.9890     7.7160    23.7560     2.1310 
  101.2500    -5.5290    70.8150     9.1540     6.9890     7.3340    23.7420     2.1390 
  101.3750    -5.2090    68.2380     9.1480     7.0070     7.1860    23.7180     2.1360 
  101.5000    -4.8340    67.6750     9.1880     7.0510     7.2720    23.6980     2.1280 
  101.6250    -4.4700    71.5380     9.2860     7.1390     7.3640    23.6920     2.1320 
  101.7500    -4.1860    73.7390     9.4130     7.2620     7.3980    23.6920     2.1500 
  101.8750    -3.9590    72.7780     9.5220     7.3870     7.3040    23.6920     2.1800 
  102.0000    -3.7030    72.3210     9.5540     7.4630     7.2270    23.6920     2.2140 
  102.1250    -3.3390    78.2980     9.4150     7.4140     7.6360    23.6920     2.2430 
  102.2500    -2.9420    87.0880     9.0970     7.2320     7.7400    23.6920     2.2580 
  102.3750    -2.5410    93.1090     8.6370     6.9360     6.8140    23.6990     2.2590 
  102.5000    -2.1870    94.3510     8.1420     6.5940     5.9510    23.7680     2.2490 
  102.6250    -1.8820    92.9130     7.7700     6.3050     5.7740    23.9880     2.2340 
  102.7500    -1.5580    91.9420     7.5790     6.1240     5.7840    24.2930     2.2230 
  102.8750    -1.2330    90.2530     7.5470     6.0540     5.7390    24.5250     2.2200 
  103.0000    -0.9780    87.1960     7.6000     6.0640     5.6750    24.6970     2.2260 
  103.1250    -0.7980    86.2190     7.6740     6.1190     5.8360    24.8660     2.2420 
  103.2500    -0.6070    87.8370     7.7610     6.1950     5.9830    24.9690     2.2630 
  103.3750    -0.4160    88.9560     7.8850     6.2910     5.9230    25.0010     2.2840 
  103.5000    -0.2360    87.8270     8.0410     6.3990     5.9120    24.9950     2.2990 
  103.6250    -0.1140    86.9700     8.1350     6.4690     6.6370    24.9590     2.2960 
  103.7500    -0.0630    87.8350     8.0540     6.4390     7.6650    24.8880     2.2770 
  103.8750    -0.0130    89.4020     7.7810     6.2930     7.0370    24.7830     2.2510 
  104.0000     0.0440    90.2490     7.4520     6.1020     6.0230    24.6430     2.2300 
  104.1250     0.0080    90.6140     7.3330     6.0260     5.5810    24.5680     2.2320 
  104.2500    -0.2120    90.0770     7.5600     6.1680     5.6180    24.4970     2.2490 
  104.3750    -0.5840    88.6090     8.1590     6.5690     6.2100    24.4040     2.2660 
  104.5000    -1.0000    86.6710     9.0170     7.1880     7.6070    24.3230     2.2630 
  104.6250    -1.3900    83.8070     9.8270     7.8450     9.3160    24.2840     2.2290 
  104.7500    -1.7910    81.4850    10.2760     8.2790     8.8370    24.2740     2.1800 
  104.8750    -2.2330    80.9820    10.2470     8.3560     7.6740    24.2720     2.1400 
  105.0000    -2.6480    81.9320     9.8150     8.0920     7.1480    24.2720     2.1280 
  105.1250    -2.9350    83.0570     9.1800     7.6160     6.9830    24.2720     2.1500 
  105.2500    -3.0960    84.2110     8.6100     7.1390     6.6960    24.2720     2.1830 
  105.3750    -3.1820    86.8470     8.2350     6.7690     6.2760    24.2720     2.2100 
  105.5000    -3.2910    88.5470     8.1050     6.5540     5.8750    24.2720     2.2190 
  105.6250    -3.4980    87.6530     8.2410     6.5250     5.8270    24.2720     2.2100 
  105.7500    -3.7910    85.4720     8.5330     6.6280     6.0780    24.2720     2.1950 
  105.8750    -4.1410    83.3680     8.8630     6.8050     6.6200    24.2720     2.1820 
  106.0000    -4.5540    80.5610     9.1240     6.9990     7.1200    24.2720     2.1730 
  106.1250    -5.1010    78.3330     9.3240     7.2040     7.2840    24.2720     2.1690 
  106.2500    -5.7320    77.6090     9.6550     7.5030     7.1600    24.2720     2.1640 
  106.3750    -6.3520    76.5560    10.3220     8.0080     7.0290    24.2720     2.1600 
  106.5000    -6.8610    75.1230    11.4200     8.7940     7.0250    24.2720     2.1550 
  106.6250    -7.2880    74.2640    12.8130     9.8380     7.4940    24.2720     2.1500 
  106.7500    -7.7290    73.0460    13.9610    10.8170     8.2130    24.2720     2.1480 
  106.8750    -8.1990    68.8540    14.3580    11.3510     9.3400    24.2720     2.1470 
  107.0000    -8.6570    63.1890    13.7870    11.1970    10.6490    24.2720     2.1440 
  107.1250    -9.0680    61.4620    12.4910    10.4140    10.6230    24.2720     2.1340 
