~V
VERS. 2.00: Ver 2.00
~W
STRT.M 64.0000:
STOP.M 287.0000:
STEP.M 0.1250:
NULL. -999.2500:
UWI. F10052:
~C
DEPT.M :
SP.MV :
DEN.GM/CC :
GR.API :
RML.OHMM :
RI. :
RXO.OHMM :
CALI.CM :
~A
   64.0000   -23.1280     2.4780    57.2420     2.6950     0.0900     0.8550    25.4290 
   64.1250   -23.7730     2.5790    53.2610     1.3900     0.0700     0.8630    24.7570 
   64.2500   -24.4710     2.6450    49.8290     0.7670     0.0570     0.8440    23.7810 
   64.3750   -25.1960     2.6140    49.8520     0.5400     0.0570     0.8980    23.2250 
   64.5000   -25.9360     2.5070    52.4190     0.5180     0.0830     1.2160    23.2160 
   64.6250   -26.6500     2.3670    55.7540     0.6350     0.1730     2.0980    23.2950 
   64.7500   -27.2950     2.2450    58.3460     0.8360     0.3690     3.5900    23.3510 
   64.8750   -27.8880     2.1670    62.1200     1.1110     0.7220     4.8340    23.3690 
   65.0000   -28.4030     2.1480    69.9800     1.4920     1.2740     5.1910    23.3550 
   65.1250   -28.8290     2.1910    81.8200     2.1010     2.0680     4.9340    23.3170 
   65.2500   -29.1870     2.2730    94.7340     2.9840     3.0770     5.0290    23.2650 
   65.3750   -29.4910     2.3810   103.0510     4.2140     4.3460     5.6180    23.2070 
   65.5000   -29.7280     2.4880    99.7090     5.9410     5.9500     7.1610    23.1630 
   65.6250   -29.9310     2.5270    84.7470     8.3990     7.9190    10.7950    23.1650 
   65.7500   -30.1430     2.4810    71.0770    11.0560     9.8220    15.3860    23.2220 
   65.8750   -30.3740     2.3810    63.7180    12.6890    11.0180    15.7010    23.3350 
   66.0000   -30.6200     2.2760    60.2660    12.3780    11.0920    12.3800    23.4950 
   66.1250   -30.8470     2.2080    59.9970    10.7790    10.2550     9.3580    23.7120 
   66.2500   -31.0380     2.1780    62.1070     9.2870     9.3260     8.5050    23.9830 
   66.3750   -31.1780     2.1730    63.2690     8.2820     8.6610     8.1970    24.2940 
   66.5000   -31.2850     2.1690    62.5990     7.8030     8.3420     8.0270    24.5870 
   66.6250   -31.3330     2.1540    63.7540     7.7480     8.3080     7.9440    24.7350 
   66.7500   -31.3440     2.1340    65.6910     7.7650     8.3610     7.8880    24.6890 
   66.8750   -31.3550     2.1220    65.8550     7.6670     8.4010     7.7470    24.4990 
   67.0000   -31.3290     2.1270    65.0680     7.4370     8.3940     7.4560    24.2980 
   67.1250   -31.2470     2.1460    65.1640     7.2760     8.3790     7.1730    24.2340 
   67.2500   -31.1700     2.1620    64.2520     7.3970     8.4050     7.1130    24.3130 
   67.3750   -31.1310     2.1600    61.9110     7.8690     8.4640     7.1900    24.5000 
   67.5000   -31.1100     2.1390    59.6360     8.6170     8.5220     7.3360    24.7530 
   67.6250   -31.0920     2.1090    59.1460     9.3960     8.5530     7.4670    25.0130 
   67.7500   -31.0730     2.0910    59.6240     9.9530     8.5780     7.6580    25.1820 
   67.8750   -31.0280     2.0930    59.8870    10.1610     8.6180     7.8020    25.1780 
   68.0000   -30.9880     2.1090    59.2060    10.0050     8.6740     7.8330    24.9760 
   68.1250   -30.9810     2.1250    58.1290     9.6790     8.7080     7.7550    24.5940 
   68.2500   -30.9430     2.1270    59.3560     9.5050     8.6770     7.6870    24.1380 
   68.3750   -30.8500     2.1160    62.6430     9.6270     8.5790     7.6220    23.6860 
   68.5000   -30.7330     2.1010    63.5570    10.0240     8.4550     7.5160    23.3140 
   68.6250   -30.6060     2.0950    59.3860    10.4350     8.3540     7.4370    23.1210 
   68.7500   -30.4860     2.1010    55.5250    10.5030     8.2840     7.4290    23.1350 
   68.8750   -30.3750     2.1150    57.4640    10.0690     8.2380     7.4440    23.3570 
   69.0000   -30.2690     2.1250    63.2540     9.2540     8.2120     7.4230    23.7200 
   69.1250   -30.1770     2.1220    67.2910     8.4290     8.2100     7.4310    24.0700 
   69.2500   -30.1050     2.1160    68.2420     7.8460     8.2170     7.4640    24.2750 
   69.3750   -30.0560     2.1200    67.1500     7.5570     8.2070     7.4290    24.3040 
   69.5000   -30.0140     2.1400    65.9540     7.4800     8.1560     7.3560    24.2090 
   69.6250   -29.9880     2.1710    67.1020     7.5260     8.0370     7.2610    24.0840 
   69.7500   -29.9530     2.1970    70.7610     7.7380     7.8630     7.1400    24.0150 
   69.8750   -29.8770     2.2120    73.2400     8.1910     7.6600     7.0100    24.0370 
   70.0000   -29.7700     2.2150    73.6900     8.8060     7.4550     6.9540    24.1350 
   70.1250   -29.6640     2.2160    75.0600     9.2610     7.2790     6.8230    24.2440 
   70.2500   -29.5880     2.2180    75.9110     9.3290     7.1570     6.8230    24.3060 
   70.3750   -29.5480     2.2180    73.2440     9.0620     7.1040     7.0480    24.3220 
   70.5000   -29.5330     2.2170    69.5000     8.6740     7.1120     7.3440    24.3100 
   70.6250   -29.5250     2.2180    72.3790     8.4190     7.1640     7.3320    24.2850 
   70.7500   -29.5090     2.2230    79.3360     8.3450     7.2530     7.3990    24.2550 
   70.8750   -29.5110     2.2280    83.1590     8.3520     7.3730     7.6560    24.2310 
   71.0000   -29.5270     2.2260    80.2280     8.3590     7.5130     7.9730    24.2490 
   71.1250   -29.5600     2.2090    75.2340     8.4330     7.6600     8.0340    24.3670 
   71.2500   -29.5740     2.1820    72.2260     8.6720     7.7980     7.9280    24.5550 
   71.3750   -29.5460     2.1550    69.1780     9.0660     7.9110     7.8930    24.7480 
   71.5000   -29.4920     2.1350    65.5190     9.4940     7.9870     8.0040    24.8850 
   71.6250   -29.4490     2.1290    63.3990     9.7830     8.0260     8.0510    24.9460 
   71.7500   -29.3970     2.1310    63.4300     9.8850     8.0420     8.0370    24.9660 
   71.8750   -29.3230     2.1340    64.2340     9.8240     8.0430     8.0180    24.9610 
   72.0000   -29.2420     2.1360    64.2060     9.6770     8.0410     8.0550    24.9260 
   72.1250   -29.1610     2.1390    63.3830     9.4830     8.0250     8.0660    24.8180 
   72.2500   -29.0770     2.1440    61.3790     9.2180     7.9820     8.0360    24.6110 
   72.3750   -28.9850     2.1540    59.8260     8.8870     7.9180     8.0080    24.2810 
   72.5000   -28.8760     2.1690    60.5230     8.5760     7.8550     7.9650    23.8210 
   72.6250   -28.7330     2.1910    59.7510     8.4790     7.8470     7.9470    23.2310 
   72.7500   -28.5870     2.2120    57.2870     8.7060     7.9360     7.9650    22.5950 
   72.8750   -28.4360     2.2210    57.1920     9.2660     8.1480     7.9720    22.0220 
   73.0000   -28.2610     2.2110    61.0320    10.0490     8.4750     7.9230    21.6240 
   73.1250   -28.0640     2.1830    63.5180    10.8330     8.8740     7.8670    21.4670 
   73.2500   -27.8640     2.1520    61.7080    11.3950     9.2280     8.0260    21.4400 
   73.3750   -27.6870     2.1280    59.0770    11.6170     9.4220     8.4340    21.4560 
   73.5000   -27.5470     2.1120    59.2500    11.4610     9.3750     8.6470    21.4680 
   73.6250   -27.4120     2.1060    62.0010    10.9420     9.0460     8.1010    21.4540 
   73.7500   -27.2670     2.1110    65.6010    10.2210     8.5410     7.6330    21.4250 
   73.8750   -27.1360     2.1320    70.6220     9.3840     7.9220     7.4570    21.3980 
   74.0000   -27.0410     2.1710    77.8900     8.4950     7.2440     7.1710    21.3800 
   74.1250   -26.9380     2.2190    86.2510     7.5990     6.5470     6.3800    21.3380 
   74.2500   -26.8370     2.2600    92.7170     6.7650     5.8840     5.4600    21.2350 
   74.3750   -26.7370     2.2810    96.5980     6.0870     5.3140     4.9380    21.0710 
   74.5000   -26.6390     2.2790    97.8620     5.6410     4.8870     4.7850    20.9070 
   74.6250   -26.5890     2.2470    97.7290     5.4850     4.6440     4.6380    20.8460 
   74.7500   -26.5840     2.1940    97.4710     5.4940     4.5350     4.5590    20.9020 
   74.8750   -26.6070     2.1390    96.5450     5.5470     4.5190     4.7680    21.0260 
   75.0000   -26.6340     2.1040    94.2800     5.5320     4.5420     5.1040    21.1650 
   75.1250   -26.6700     2.1140    92.1200     5.4410     4.5720     5.4040    21.3140 
