~V
VERS. 2.00: Ver 2.00
~W
STRT.M 50.0000:
STOP.M 293.0000:
STEP.M 0.1250:
NULL. -999.2500:
UWI. F10045:
~C
DEPT.M :
DEN.GM/CC :
SP.MV :
GR.API :
CALI.CM :
RXO.OHMM :
RI. :
RML.OHMM :
~A
# ...
  286.2500     2.3760   -12.1210    49.5230    23.9800     4.2720     3.4470     3.8350 
  286.3750     2.3710   -12.0700    49.5230    23.9830     4.2800     3.4890     3.8810 
  286.5000     2.3650   -12.0290    49.5230    23.9430     4.3140     3.5100     3.9030 
  286.6250     2.3620   -12.0430    49.5230    23.9020     4.3450     3.5150     3.9080 
  286.7500     2.3550   -12.0720    49.5230    23.8860     4.3650     3.5140     3.9070 
  286.8750     2.3360   -12.0690    49.5230    23.8840     4.3900     3.5120     3.9060 
  287.0000     2.3140   -12.0780    49.5230    23.8840     4.4110     3.5120     3.9060 
  287.1250     2.3120   -12.1150    49.5230    23.8840     4.3450     3.5150     3.9090 
  287.2500     2.3260   -12.0900    49.5230    23.8840     4.2180     3.5200     3.9140 
  287.3750     2.3340   -12.0020    49.5230    23.8840     4.0840     3.5250     3.9190 
  287.5000     2.3260   -11.8950    49.5230    23.8840     4.0340     3.5270     3.9220 
  287.6250     2.3150   -11.7880    49.5230    23.8690     4.1650     3.5230     3.9180 
  287.7500     2.3070   -11.6940    49.5230    23.8300     4.3200     3.5160     3.9090 
  287.8750     2.2960   -11.6400    49.5230    23.7920     4.3590     3.5090     3.9020 
  288.0000     2.2860   -11.6020    49.5230    23.8000     4.2990     3.5060     3.8990 
  288.1250     2.2870   -11.5380    49.5230    23.8650     4.2690     3.5090     3.9020 
  288.2500     2.2940   -11.5110    49.5230    23.8940     4.2940     3.5170     3.9110 
  288.3750     2.2970   -11.5150    49.5230    23.8400     4.3900     3.5220     3.9160 
  288.5000     2.2970   -11.5410    49.5230    23.7470     4.5790     3.5220     3.9160 
  288.6250     2.3030   -11.5950    49.5230    23.7090     4.6580     3.5220     3.9160 
  288.7500     2.3140   -11.6110    49.5230    23.7290     4.5240     3.5220     3.9160 
  288.8750     2.3220   -11.6190    49.5230    23.7870     4.2960     3.5220     3.9160 
  289.0000     2.3230   -11.6020    49.5230    23.7990     4.1580     3.5220     3.9160 
  289.1250     2.3250   -11.6080    49.5230    23.7740     4.1240     3.5220     3.9160 
  289.2500     2.3380   -11.6450    49.5230    23.7580     4.1470     3.5220     3.9160 
  289.3750     2.3570   -11.7090    49.5230    23.7320     4.2460     3.5220     3.9160 
  289.5000     2.3700   -11.7670    49.5230    23.6580     4.4080     3.5220     3.9160 
  289.6250     2.3680   -11.7870    49.5230    23.4590     4.6290     3.5220     3.9160 
  289.7500     2.3630   -11.8160    49.5230    23.3060     4.8340     3.5220     3.9160 
  289.8750     2.3600   -11.8130    49.5230    23.1590     4.9290     3.5220     3.9160 
  290.0000     2.3520   -11.8220    49.5230    23.0310     4.8290     3.5220     3.9160 
  290.1250     2.3250   -11.8450    49.5230    22.8960     4.5880     3.5220     3.9160 
  290.2500     2.2860   -11.8680    49.5230    22.7840     4.3900     3.5220     3.9160 
  290.3750     2.2520   -11.8860    49.5230    22.6810     4.2980     3.5220     3.9160 
  290.5000     2.2120   -11.9190    49.5230    22.5540     4.2900     3.5220     3.9160 
  290.6250     2.1120   -11.9930    49.5230    22.3540     4.3220     3.5220     3.9160 
  290.7500     1.9410   -12.0960    49.5230    22.1190     4.3520     3.5220     3.9160 
  290.8750     1.7540   -12.2180    49.5230    21.8510     4.3960     3.5220     3.9160 
  291.0000     1.6230   -12.3280    49.5230    21.5040     4.4680     3.5220     3.9160 
  291.1250     1.5850   -12.3980    49.5230    20.9360     4.5510     3.5220     3.9160 
  291.2500     1.5820   -12.4260    49.5230    20.0240     4.5910     3.5220     3.9160 
  291.3750     1.5820   -12.4260    49.5230    18.7860     4.5880     3.5220     3.9160 
  291.5000     1.5790   -12.4260    49.5230    17.7020     4.5700     3.5220     3.9160 
  291.6250     1.5800  -999.2500    49.5230    17.1690     4.5640     3.5220     3.9160 
  291.7500     1.5800  -999.2500    49.5230    17.0270     4.5630     3.5220     3.9160 
  291.8750     1.5790  -999.2500    49.5230    17.0070     4.5640     3.5220     3.9160 
  292.0000     1.5790  -999.2500    49.5230    17.0070     4.5640     3.5220     3.9160 
  292.1250     1.5820  -999.2500    49.5230    17.0070     4.5630     3.5220     3.9160 
  292.2500     1.5830  -999.2500    49.5230    17.0070     4.5630     3.5220     3.9160 
  292.3750     1.5800  -999.2500    49.5230    17.0070     4.5620     3.5220     3.9160 
  292.5000     1.5790  -999.2500    49.5230    17.0070     4.5620     3.5220     3.9160 
  292.6250     1.5840  -999.2500    49.5230    17.0070     4.5630     3.5220     3.9160 
  292.7500     1.5930  -999.2500    49.5230    17.0070     4.5630     3.5220     3.9160 
  292.8750     1.5960  -999.2500    49.5230    17.0070     4.5610     3.5220     3.9160 
  293.0000     1.5810  -999.2500    49.5230    17.0070     4.5610     3.5220     3.9160 
