~V
VERS. 2.00: Ver 2.00
~W
STRT.M 50.0000:
STOP.M 293.0000:
STEP.M 0.1250:
NULL. -999.2500:
UWI. F10045:
~C
DEPT.M :
DEN.GM/CC :
SP.MV :
GR.API :
CALI.CM :
RXO.OHMM :
RI. :
RML.OHMM :
~A
   50.0000     2.1190    47.8120    54.1750    25.6110     4.9430     0.6720    27.1040 
   50.1250     2.1120    48.3330    51.5160    25.5830     3.4390     0.6590    26.3220 
   50.2500     2.1130    48.9370    51.2140    25.5580     2.2030     0.6490    25.5390 
   50.3750     2.1180    49.6560    55.8860    25.5190     1.4300     0.6450    24.9870 
   50.5000     2.1130    50.4470    62.1950    25.4680     0.9970     0.6400    24.7430 
   50.6250     2.0850    51.2990    65.6810    25.4050     0.8040     0.6220    24.7110 
   50.7500     2.0420    52.2400    67.4910    25.2930     0.7410     0.5960    24.6120 
   50.8750     2.0010    53.2360    67.6530    25.1140     0.7430     0.5750    24.3270 
   51.0000     1.9750    54.1920    64.5200    24.9260     0.7570     0.5720    23.9650 
   51.1250     1.9810    55.0630    58.0890    24.8150     0.7770     0.5880    23.7720 
   51.2500     2.0100    55.7940    54.4460    24.8190     0.7450     0.6070    23.8020 
   51.3750     2.0450    56.3000    55.8360    24.9290     0.6770     0.6150    23.9200 
   51.5000     2.0640    56.5710    57.8340    25.0310     0.6320     0.6110    23.9480 
   51.6250     2.0370    56.5680    56.2180    25.0600     0.6340     0.6020    23.8860 
   51.7500     1.9680    56.2630    56.9280    25.0500     0.6590     0.5980    23.9630 
   51.8750     1.8770    55.7250    62.7620    25.0230     0.6920     0.5990    24.3810 
   52.0000     1.8030    54.9370    71.3220    24.9940     0.7320     0.6050    25.1380 
   52.1250     1.7780    53.9970    76.8600    24.9460     0.7630     0.6130    25.8690 
   52.2500     1.7890    52.8960    79.6410    24.8980     0.7850     0.6200    26.1050 
   52.3750     1.8120    51.6850    80.4000    24.8890     0.8100     0.6230    25.7090 
   52.5000     1.8200    50.3920    81.1300    25.0030     0.8510     0.6220    24.9740 
   52.6250     1.7950    49.0730    82.3300    25.1430     0.9020     0.6160    24.4430 
   52.7500     1.7550    47.8640    82.0320    25.1260     0.9310     0.6110    24.3300 
   52.8750     1.7280    46.7230    83.3870    24.9980     0.9090     0.6130    24.5400 
   53.0000     1.7270    45.6950    87.8280    24.9900     0.8750     0.6220    24.7900 
   53.1250     1.7410    44.8210    88.3040    25.1670     0.9690     0.6340    24.7280 
   53.2500     1.7590    44.1580    81.0580    25.3610     1.3530     0.6450    24.3260 
   53.3750     1.7890    43.6640    71.4850    25.5140     2.4230     0.6520    23.7220 
   53.5000     1.8260    43.2430    66.1620    25.6170     5.3780     0.6580    23.1280 
   53.6250     1.8420    42.7640    67.0790    25.6730    11.2220     0.6650    22.7610 
   53.7500     1.8220    42.2210    71.8010    25.6890    15.0600     0.6770    22.6280 
   53.8750     1.7790    41.6650    75.5510    25.6890    14.6880     0.6930    22.6360 
   54.0000     1.7390    41.1260    75.7570    25.6860    12.5630     0.7120    22.6610 
   54.1250     1.7200    40.5850    74.4850    25.6850    11.5200     0.7320    22.6350 
   54.2500     1.7060    39.9920    73.8000    25.6850    11.4680     0.7540    22.6090 
   54.3750     1.6850    39.3530    71.8450    25.6850    12.4980     0.7760    22.6860 
   54.5000     1.6580    38.6920    68.3140    25.6850    14.4650     0.7930    22.9060 
   54.6250     1.6410    38.1130    65.8880    25.6850    16.9100     0.7950    23.2140 
   54.7500     1.6310    37.5820    64.0200    25.6820    19.4800     0.7860    23.4730 
   54.8750     1.6220    37.1470    62.4690    25.6710    20.9950     0.7690    23.6490 
   55.0000     1.6170    36.8380    63.1050    25.6450    19.7200     0.7560    23.8860 
   55.1250     1.6330    36.6310    67.1030    25.6230    15.0780     0.7470    24.6360 
   55.2500     1.6730    36.5690    70.3640    25.5960     9.9530     0.7310    26.1660 
   55.3750     1.7280    36.6370    70.4470    25.5620     6.1160     0.6940    28.0840 
   55.5000     1.7860    36.7280    68.0680    25.5140     3.9400     0.6260    28.2980 
   55.6250     1.8450    36.6790    64.3970    25.4450     3.0500     0.5130    22.6530 
   55.7500     1.9080    36.2710    60.8850    25.3700     2.6260     0.3740    14.2080 
   55.8750     1.9690    35.3080    57.0630    25.3810     2.2710     0.2390     7.6160 
   56.0000     2.0030    33.6110    53.6670    25.4480     1.8530     0.1350     4.0240 
   56.1250     1.9900    30.8980    52.9550    25.4700     1.5370     0.0840     2.8390 
   56.2500     1.9800    27.3890    55.3710    25.4340     1.6840     0.0860     3.0120 
   56.3750     2.0330    23.2390    60.6060    25.3240     2.6620     0.1700     4.4800 
   56.5000     2.1490    18.7700    67.7580    25.0640     4.5900     0.3960     7.6810 
   56.6250     2.2340    14.2510    78.5310    24.5890     6.9850     0.9360    14.4270 
   56.7500     2.2330     9.8850    88.8610    24.1770     8.5870     1.9210    26.0260 
   56.8750     2.1810     5.8300    94.3110    23.9240     9.3450     3.4030    41.6710 
   57.0000     2.1420     2.2750    94.3060    23.8330     9.9030     5.1610    54.2840 
   57.1250     2.1550    -0.5380    91.3590    23.8690    11.8970     6.7350    56.7120 
   57.2500     2.2040    -2.7450    87.8550    23.9830    17.0360     7.9410    55.9130 
   57.3750     2.2610    -4.4990    84.2200    24.0890    22.3710     8.7890    56.4700 
   57.5000     2.2930    -5.9290    82.3200    24.1180    21.5210     9.2880    58.8940 
   57.6250     2.2760    -7.0990    84.9040    24.0510    15.0960     9.4040    61.7910 
   57.7500     2.2270    -8.0980    88.6230    23.9320    10.6010     9.3050    63.9170 
   57.8750     2.1740    -8.9230    89.7180    23.7860     9.3080     9.1380    65.1510 
   58.0000     2.1400    -9.5950    87.4570    23.6250     9.0790     9.0180    66.0210 
   58.1250     2.1260   -10.1990    85.9190    23.5430     9.0880     9.0170    67.2830 
   58.2500     2.1190   -10.7940    85.4900    23.5160     9.1800     9.1020    68.9050 
   58.3750     2.1090   -11.3340    84.0530    23.5210     9.3900     9.2320    70.2400 
   58.5000     2.1000   -11.8520    82.5660    23.5570     9.6350     9.3620    70.1870 
   58.6250     2.0920   -12.3110    81.7220    23.6440     9.7630     9.4440    67.2820 
   58.7500     2.0860   -12.6510    81.6210    23.7250     9.7450     9.4510    62.1730 
   58.8750     2.0840   -12.9590    83.4720    23.7570     9.5890     9.3720    56.2510 
   59.0000     2.0900   -13.2980    85.8030    23.7860     9.3580     9.2230    50.9980 
   59.1250     2.1040   -13.5680    86.6580    23.8610     8.9920     9.0540    47.4780 
   59.2500     2.1180   -13.8650    88.1130    23.9530     8.8030     8.9270    45.3500 
   59.3750     2.1290   -14.1580    90.9040    23.9840     8.7510     8.8820    43.9400 
   59.5000     2.1370   -14.4080    90.5330    24.0010     8.7680     8.9390    42.4120 
   59.6250     2.1390   -14.6960    86.2580    24.0510     9.1100     9.0950    40.2150 
   59.7500     2.1340   -15.0580    84.9020    24.0750     9.5520     9.2850    37.6980 
   59.8750     2.1250   -15.4100    87.2110    24.0810     9.8630     9.4500    35.3810 
   60.0000     2.1180   -15.6950    88.9390    24.0810     9.9740     9.5390    33.6380 
   60.1250     2.1180   -16.0090    87.1800    24.0830     9.9470     9.5180    32.6750 
   60.2500     2.1230   -16.2810    85.3740    24.0950     9.8940     9.4290    32.2160 
   60.3750     2.1270   -16.5340    86.3470    24.1200     9.8770     9.3140    32.0180 
   60.5000     2.1300   -16.7450    87.4570    24.1390     9.8320     9.2040    31.8720 
   60.6250     2.1270   -16.8830    86.6710    24.1440     9.7450     9.1190    31.6500 
   60.7500     2.1170   -16.9790    87.5410    24.1430     9.7050     9.0600    31.3810 
   60.8750     2.1050   -17.0570    89.8960    24.1310     9.7130     9.0340    31.1670 
   61.0000     2.0970   -17.1650    89.6250    24.1010     9.7300     9.0430    31.0590 
   61.1250     2.0980   -17.2630    84.0960    24.0860     9.8090     9.0770    30.9580 
