~V
VERS. 2.00: Ver 2.00
~W
STRT.M 60.0000:
STOP.M 245.0000:
STEP.M 0.1250:
NULL. -999.2500:
UWI. F10050:
~C
DEPT.M :
SP.MV :
GR.API :
RML.OHMM :
RI. :
RXO.OHMM :
CALI.CM :
DEN.GM/CC :
~A
# ...
  127.5000   -24.8130    81.1130     5.3680     5.0560     5.7350    23.3350     2.3470 
  127.6250   -24.8490    80.5360     5.1000     4.8640     5.6270    23.3290     2.3580 
  127.7500   -24.9130    85.6960     4.7630     4.5980     5.3290    23.3360     2.3580 
  127.8750   -24.9910    90.8040     4.4390     4.3250     4.9550    23.4130     2.3500 
  128.0000   -25.0870    90.6590     4.2490     4.1300     4.6650    23.5900     2.3390 
  128.1250   -25.2210    86.2520     4.3470     4.1220     4.5420    23.7970     2.3250 
  128.2500   -25.3770    82.9920     4.7240     4.3150     4.7340    23.6890     2.3100 
  128.3750   -25.5410    82.1730     5.3200     4.6930     5.3720    23.3720     2.2940 
  128.5000   -25.6780    81.2160     5.9990     5.1810     6.2830    22.9910     2.2810 
  128.6250   -25.8490    77.5460     6.5200     5.6190     6.6840    22.7220     2.2810 
  128.7500   -25.9890    75.9240     6.7210     5.8550     6.5440    22.5820     2.2930 
  128.8750   -26.0610    80.3600     6.5830     5.8440     6.2340    22.4550     2.3090 
  129.0000   -26.1540    87.8910     6.2360     5.6580     6.0980    22.2120     2.3190 
  129.1250   -26.2350    90.9700     5.9220     5.4520     6.2050    21.7950     2.3110 
  129.2500   -26.2600    88.6270     5.8760     5.3970     6.5280    21.3410     2.2890 
  129.3750   -26.3090    84.5470     6.2850     5.6300     7.0380    21.1290     2.2690 
  129.5000   -26.3850    80.4700     7.3140     6.2990     7.7170    21.1160     2.2730 
  129.6250   -26.4200    76.8110     9.3070     7.7280     9.3840    21.2660     2.3300 
  129.7500   -26.4980    73.7100    12.3480    10.0820    12.7980    21.5820     2.4080 
  129.8750   -26.6210    69.4350    17.4890    13.5680    20.2500    21.9650     2.4540 
  130.0000   -26.7200    62.6600    23.3530    18.1460    31.0860    22.2340     2.4330 
  130.1250   -26.8350    55.9290    29.0390    23.1640    32.0310    22.4860     2.3580 
  130.2500   -26.9730    53.2340    33.0950    27.2810    29.5470    22.9360     2.2750 
  130.3750   -27.1030    53.1900    34.6340    29.6040    29.7280    23.5340     2.2130 
  130.5000   -27.2260    54.0520    33.9090    29.9650    31.8230    23.8890     2.1820 
  130.6250   -27.3280    56.4060    31.7130    28.6580    32.6820    23.8260     2.1800 
  130.7500   -27.4060    58.0040    29.1750    26.6640    32.1140    23.5160     2.1880 
  130.8750   -27.4880    57.0070    26.8930    24.5830    28.4330    23.2580     2.1970 
  131.0000   -27.5550    55.5960    25.3830    22.9700    22.9300    23.2390     2.2010 
  131.1250   -27.5990    55.3670    25.3130    22.5410    19.9510    23.6310     2.1960 
  131.2500   -27.6250    53.9700    26.7400    23.4900    22.5330    24.3170     2.1850 
  131.3750   -27.6460    51.6260    29.6880    25.9030    29.5230    24.8900     2.1710 
  131.5000   -27.6770    50.8230    33.9120    29.5710    35.1330    25.1290     2.1580 
  131.6250   -27.7150    52.9030    38.5310    33.7790    36.1920    25.1560     2.1470 
  131.7500   -27.7310    55.4480    41.9050    37.1580    37.6740    25.1670     2.1390 
  131.8750   -27.7440    56.8430    42.9390    38.7550    39.7290    25.1790     2.1370 
  132.0000   -27.8110    57.3050    41.7370    38.4200    40.3330    25.1890     2.1440 
  132.1250   -27.8700    55.6000    39.3200    36.6800    36.6700    25.2060     2.1550 
  132.2500   -27.9200    51.1190    37.0250    34.6590    32.4280    25.2550     2.1630 
  132.3750   -27.9750    47.8640    35.5220    33.0200    30.1600    25.3360     2.1610 
  132.5000   -28.0170    50.0760    35.2140    32.2590    27.7400    25.3720     2.1530 
  132.6250   -28.0740    55.1310    36.5120    32.9110    25.3020    25.2700     2.1460 
  132.7500   -28.1760    56.9960    39.1360    34.8450    26.9080    24.9680     2.1430 
  132.8750   -28.2600    57.1110    42.7900    37.8220    35.9050    24.5380     2.1440 
  133.0000   -28.2920    58.3430    46.8200    41.2860    47.1690    24.2660     2.1470 
  133.1250   -28.3520    59.5800    49.9270    44.2170    51.6190    24.1920     2.1470 
  133.2500   -28.4350    58.3370    51.2520    45.8530    50.5660    24.1910     2.1440 
  133.3750   -28.5080    56.8870    50.7100    45.9760    48.6390    24.1820     2.1360 
  133.5000   -28.5780    57.6540    48.8830    44.8910    46.5800    24.1510     2.1280 
  133.6250   -28.6480    58.2190    46.4540    43.0630    44.2410    24.0880     2.1200 
  133.7500   -28.7150    56.5010    43.9270    40.9950    41.5350    24.0070     2.1150 
  133.8750   -28.7770    55.1630    41.4020    38.8300    39.7720    23.8960     2.1170 
  134.0000   -28.8340    56.7490    38.9010    36.6420    38.3870    23.7380     2.1240 
  134.1250   -28.8840    59.9400    36.4990    34.5180    35.0380    23.6020     2.1350 
  134.2500   -28.9400    60.4780    34.2850    32.5360    31.2330    23.5280     2.1490 
  134.3750   -28.9640    59.7010    32.3490    30.7590    29.5220    23.5080     2.1620 
  134.5000   -28.9980    60.1350    30.7320    29.2190    28.6980    23.5060     2.1730 
  134.6250   -29.0360    60.6740    29.4760    27.9690    27.8040    23.5060     2.1810 
  134.7500   -29.0430    61.6380    28.5080    26.9830    26.3140    23.5060     2.1890 
  134.8750   -29.0870    63.5240    27.8250    26.2700    24.9180    23.5090     2.1940 
  135.0000   -29.1440    66.4960    27.4020    25.8240    23.7360    23.5220     2.1940 
  135.1250   -29.1410    67.6140    27.1650    25.6100    23.0780    23.5900     2.1830 
  135.2500   -29.1430    64.5160    26.9110    25.4590    23.7340    23.7230     2.1650 
  135.3750   -29.2100    58.9230    26.4850    25.2230    25.0330    23.8810     2.1500 
  135.5000   -29.2710    55.4670    25.8110    24.8000    24.8250    23.9510     2.1470 
  135.6250   -29.3140    58.4790    24.9200    24.1560    22.8180    23.9370     2.1590 
  135.7500   -29.3660    64.1720    23.9770    23.4020    21.0320    23.8660     2.1750 
  135.8750   -29.3950    66.1560    23.0680    22.6120    20.5800    23.6800     2.1820 
  136.0000   -29.4170    63.2530    22.2380    21.8390    20.7950    23.4170     2.1800 
  136.1250   -29.4900    60.4970    21.5480    21.1430    20.6130    23.3140     2.1750 
  136.2500   -29.5540    60.2170    21.0420    20.5730    19.8330    23.3790     2.1770 
  136.3750   -29.5630    61.7460    20.7910    20.2000    18.5910    23.4350     2.1850 
  136.5000   -29.5880    63.8560    20.8590    20.1060    17.9400    23.4470     2.1930 
  136.6250   -29.6360    66.3740    21.3410    20.4240    19.1490    23.4470     2.1880 
  136.7500   -29.6570    67.6430    22.1290    21.0910    21.2430    23.4470     2.1680 
  136.8750   -29.6830    67.0950    23.0920    22.0040    22.9090    23.4480     2.1470 
  137.0000   -29.7030    64.4860    24.0240    22.9650    23.9230    23.4350     2.1490 
  137.1250   -29.7120    60.1300    24.6070    23.6640    23.3730    23.3710     2.2060 
  137.2500   -29.7180    57.5460    24.7220    23.9360    21.7950    23.2000     2.2970 
  137.3750   -29.7190    58.8690    24.3840    23.7620    19.8620    22.9400     2.3720 
  137.5000   -29.7150    61.4760    23.7500    23.2520    18.7820    22.7240     2.3790 
  137.6250   -29.6990    62.3400    23.0570    22.5800    19.0510    22.6450     2.3190 
  137.7500   -29.6720    64.8220    22.5210    21.9560    19.1260    22.6420     2.2430 
  137.8750   -29.6490    68.0960    22.2420    21.4960    19.4750    22.7070     2.1820 
  138.0000   -29.6650    67.3170    22.2410    21.2500    20.3280    22.8890     2.1480 
  138.1250   -29.6600    62.6350    22.4870    21.2430    21.4970    23.1670     2.1370 
  138.2500   -29.6440    59.4260    22.8410    21.3940    22.2070    23.3060     2.1380 
  138.3750   -29.6630    57.3720    23.2210    21.6580    22.2440    23.2960     2.1480 
  138.5000   -29.6710    54.9030    23.5990    22.0120    22.2390    23.2550     2.1660 
  138.6250   -29.6610    55.8880    24.0100    22.4680    22.4470    23.2410     2.1850 
