~V
VERS. 2.00: Ver 2.00
~W
STRT.M 50.0000:
STOP.M 221.0000:
STEP.M 0.1250:
NULL. -999.2500:
UWI. F10024:
~C
DEPT.M :
GR.API :
RML.OHMM :
RI. :
RXO.OHMM :
CALI.CM :
DEN.GM/CC :
SP.MV :
~A
# ...
  196.2500    97.8810    70.0730    65.6570    71.9810    23.9290     2.2910   -10.4000 
  196.3750   101.2940    77.4920    72.7710    78.0180    23.9030     2.3190   -10.4030 
  196.5000   100.3570    83.1670    78.1740    83.1430    23.8640     2.3350   -10.4190 
  196.6250    97.2810    84.9620    79.7270    82.5280    23.8420     2.3230   -10.4420 
  196.7500    96.3060    83.1190    77.7320    75.0370    23.8080     2.2900   -10.4680 
  196.8750    97.9590    78.6360    73.2140    68.1730    23.7580     2.2530   -10.5030 
  197.0000    98.7920    73.0140    67.6260    66.3120    23.7480     2.2310   -10.5220 
  197.1250    97.5080    67.8620    62.4520    70.2760    23.8900     2.2360   -10.5440 
  197.2500    98.4590    64.1370    58.5640    73.8550    24.0130     2.2510   -10.5470 
  197.3750   101.9370    62.2030    56.3420    67.0360    24.0690     2.2580   -10.5500 
  197.5000   102.2190    62.0010    55.8090    59.3300    24.0250     2.2510   -10.5350 
  197.6250    95.5320    63.5610    57.0280    62.1970    23.8900     2.2340   -10.4750 
  197.7500    90.8410    66.7200    59.7390    67.7010    23.7280     2.2200   -10.3970 
  197.8750    91.4910    71.7190    64.0600    68.3510    23.6680     2.2130   -10.2920 
  198.0000    89.8690    78.0170    69.4710    65.2650    23.7680     2.2080   -10.1930 
  198.1250    80.0840    81.7480    72.6520    78.9160    23.9410     2.2070   -10.0200 
  198.2500    69.9420    77.4450    68.8730    88.3690    24.0500     2.2180    -9.8630 
  198.3750    65.0460    63.5560    56.5910    98.3670    24.0480     2.2420    -9.7110 
  198.5000    64.8330    45.3730    40.3030   103.1190    23.9550     2.2740    -9.5950 
  198.6250    68.3640    30.5370    26.9110    52.6460    23.8150     2.2960    -9.5050 
  198.7500    76.2600    20.8130    18.1050    22.3480    23.7680     2.3020    -9.4670 
  198.8750    85.0300    15.2910    13.0140    11.3360    23.7540     2.2960    -9.4420 
  199.0000    89.9300    10.7960    10.3860     8.7040    23.7660     2.2860    -9.4300 
  199.1250    91.5900    10.2330     9.4580     8.6600    23.7810     2.2820    -9.4270 
  199.2500    92.7690    10.4990     9.3690     8.9980    23.8660     2.2800    -9.4050 
  199.3750    92.8660    11.0860     9.6980     9.3790    23.8910     2.2810    -9.3340 
  199.5000    90.6610    11.5920    10.0800     9.7880    23.8690     2.2850    -9.2040 
  199.6250    87.5540    11.7240    10.2320    10.1030    23.8520     2.2980    -9.0320 
  199.7500    84.5220    11.5430    10.1440    10.1880    23.8180     2.3130    -8.8010 
  199.8750    83.3670    11.1740     9.8760    10.4280    23.7810     2.3210    -8.5620 
  200.0000    86.6150    10.7390     9.4930    10.9420    23.7380     2.3160    -8.3190 
  200.1250    89.7270    10.3510     9.0620    11.2280    23.6550     2.3070    -8.0860 
  200.2500    85.0030    10.0720     8.6740    10.4620    23.5730     2.3150    -7.8670 
  200.3750    72.6110     9.9000     8.3710     9.3180    23.5270     2.3570    -7.6900 
  200.5000    59.0660     8.6620     8.1490     8.5440    23.4750     2.4290    -7.5500 
  200.6250    50.3980     8.5210     7.9650    10.3870    23.3930     2.5030    -7.4110 
  200.7500    46.4640     8.3170     7.7590    17.4020    23.3510     2.5450    -7.3000 
  200.8750    46.9150     8.0520     7.4900    23.8460    23.3920     2.5430    -7.1790 
  201.0000    50.3880     7.7670     7.1600    16.0600    23.4790     2.5060    -7.0560 
  201.1250    54.6840     7.5490     6.8470     9.1640    23.5830     2.4600    -6.9460 
  201.2500    57.9660     7.4360     6.6450     6.7950    23.6700     2.4290    -6.8300 
  201.3750    59.5130     7.4050     6.5910     6.5730    23.7560     2.4150    -6.6960 
  201.5000    59.3660     7.4000     6.6590     6.9620    23.8210     2.4100    -6.5490 
  201.6250    57.8830     7.3340     6.7530     7.4530    23.8600     2.4010    -6.4560 
  201.7500    55.1380     7.1710     6.7500     7.5430    23.8480     2.3850    -6.3720 
  201.8750    51.8980     6.9340     6.6000     7.1250    23.7750     2.3670    -6.3290 
  202.0000    49.6390     6.6940     6.3410     6.5020    23.6410     2.3550    -6.3110 
  202.1250    49.4950     6.5300     6.0740     5.7770    23.5450     2.3540    -6.3260 
  202.2500    49.7720     6.4500     5.8800     5.5380    23.5220     2.3630    -6.3810 
  202.3750    48.3740     6.4410     5.7880     5.5360    23.5450     2.3750    -6.4770 
  202.5000    46.2970     6.4920     5.7920     5.6620    23.5670     2.3830    -6.6100 
  202.6250    47.6420     6.6120     5.8700     5.9410    23.5750     2.3840    -6.7370 
  202.7500    52.0960     6.7930     5.9800     6.2620    23.5980     2.3790    -6.8790 
  202.8750    55.3490     7.0200     6.1090     6.5850    23.6620     2.3750    -7.0210 
  203.0000    55.6630     7.2590     6.2500     6.7180    23.7570     2.3750    -7.1660 
  203.1250    55.5300     7.4520     6.3890     6.8810    23.7990     2.3830    -7.3040 
  203.2500    57.0080     7.5790     6.5040     7.1070    23.8090     2.3940    -7.4400 
  203.3750    58.3160     7.6570     6.5770     7.3920    23.8090     2.4040    -7.5530 
  203.5000    58.3100     7.7330     6.6120     7.6130    23.8100     2.4100    -7.6350 
  203.6250    57.3970     7.6630     6.6160     7.5790    23.8170     2.4090    -7.7150 
  203.7500    57.2160     7.6750     6.6050     7.2800    23.8340     2.4040    -7.7670 
  203.8750    58.8550     7.5800     6.5820     6.9090    23.8530     2.3980    -7.8000 
  204.0000    60.6870     7.1940     6.5370     6.7690    23.8550     2.3940    -7.7880 
  204.1250    59.2170     7.0930     6.4520     6.9200    23.8310     2.3930    -7.7700 
  204.2500    55.5980     6.9620     6.3370     6.9490    23.8170     2.3920    -7.7330 
  204.3750    54.0110     6.8840     6.2120     6.9100    23.8160     2.3910    -7.6740 
  204.5000    56.0500     6.9090     6.1010     7.0020    23.8280     2.3920    -7.6050 
  204.6250    57.2940     7.0190     6.0200     7.1100    23.8380     2.3920    -7.5620 
  204.7500    55.6490     7.1040     5.9570     7.1910    23.7930     2.3910    -7.5160 
  204.8750    53.8650     7.0730     5.8910     7.1780    23.6990     2.3850    -7.4200 
  205.0000    54.5320     6.8890     5.7990     7.0980    23.6270     2.3780    -7.3430 
  205.1250    55.5400     6.5880     5.6730     6.7760    23.5670     2.3750    -7.2690 
  205.2500    54.9560     6.2950     5.5410     6.3860    23.5220     2.3800    -7.1720 
  205.3750    54.2620     6.0950     5.4270     6.0890    23.4940     2.3900    -7.0560 
  205.5000    55.0320     6.0240     5.3560     5.9250    23.4930     2.3980    -6.9270 
  205.6250    57.7710     6.0760     5.3620     5.8380    23.5010     2.3940    -6.8020 
  205.7500    63.3710     6.1820     5.4460     5.8470    23.5020     2.3820    -6.7200 
  205.8750    71.4620     6.3070     5.5950     6.0370    23.5100     2.3660    -6.6880 
  206.0000    77.7890     6.4290     5.7690     6.4020    23.5490     2.3520    -6.6350 
  206.1250    78.6850     6.5280     5.9070     6.5720    23.5740     2.3450    -6.5580 
  206.2500    76.8400     6.5930     5.9800     6.4900    23.5700     2.3430    -6.4850 
  206.3750    75.4430     6.6140     5.9990     6.2740    23.5470     2.3450    -6.4210 
  206.5000    74.6180     6.5890     6.0030     6.0910    23.5150     2.3530    -6.3720 
  206.6250    72.5500     6.5500     6.0390     5.9670    23.4690     2.3670    -6.3200 
  206.7500    70.4890     6.5640     6.1160     6.1010    23.4430     2.3830    -6.2380 
  206.8750    68.4930     6.6840     6.2290     6.3320    23.4560     2.3960    -6.1690 
  207.0000    65.5610     6.9310     6.3570     6.5910    23.4860     2.4040    -6.1400 
  207.1250    60.8000     7.2690     6.4650     6.9530    23.5450     2.4070    -6.1070 
  207.2500    56.2070     7.5640     6.5190     7.4080    23.6310     2.4100    -6.0580 
  207.3750    54.3470     7.6950     6.4920     7.8280    23.7260     2.4120    -6.0130 
