~V
VERS. 2.00: Ver 2.00
~W
STRT.M 56.0000:
STOP.M 312.0000:
STEP.M 0.1250:
NULL. -999.2500:
UWI. F10077:
~C
DEPT.M :
GR.API :
RML.OHMM :
RI. :
RXO.OHMM :
CALI.CM :
DEN.GM/CC :
SP.MV :
~A
# ...
  134.7500    86.1620     5.8270     5.2120     5.3510    23.4780     2.2920    -6.9700 
  134.8750    87.2480     5.3630     4.7310     5.2050    23.5770     2.3090    -5.8670 
  135.0000    87.4080     5.1440     4.4660     5.3550    23.6330     2.3170    -4.8960 
  135.1250    85.5620     5.2730     4.4950     5.5310    23.6760     2.3220    -4.2800 
  135.2500    79.4640     5.6950     4.7780     6.0460    23.6880     2.3300    -4.0420 
  135.3750    71.8550     6.3480     5.2830     7.1730    23.6770     2.3390    -4.2000 
  135.5000    67.2150     7.1080     5.9360     9.0910    23.7080     2.3410    -4.7810 
  135.6250    66.2670     7.7870     6.6030    10.6020    23.8460     2.3230    -5.8080 
  135.7500    65.9560     8.2880     7.1540    10.1280    23.9670     2.2900    -7.1020 
  135.8750    64.3950     8.6160     7.5550     9.9150    23.9670     2.2540    -8.4900 
  136.0000    61.9410     8.8280     7.8250    10.3410    23.8900     2.2290    -9.8240 
  136.1250    60.4130     8.9510     7.9810    10.7100    23.8120     2.2200   -10.9480 
  136.2500    59.6640     8.9880     8.0460    10.9090    23.7810     2.2190   -11.8730 
  136.3750    59.2570     8.9050     7.9960    10.8560    23.8460     2.2160   -12.6160 
  136.5000    59.2500     8.6830     7.8130    10.4800    24.0070     2.2060   -13.1420 
  136.6250    59.2330     8.3700     7.5230    10.0260    24.1940     2.1930   -13.3530 
  136.7500    58.6160     8.1080     7.2500     9.6600    24.3000     2.1830   -13.3280 
  136.8750    57.4050     8.0180     7.0980     9.2930    24.3690     2.1800   -13.1430 
  137.0000    57.1000     8.1770     7.1390     8.7070    24.3890     2.1860   -12.9000 
  137.1250    59.0140     8.5920     7.4050     8.9720    24.3610     2.2020   -12.7040 
  137.2500    62.9000     9.0710     7.7670    10.7260    24.2480     2.2270   -12.5650 
  137.3750    67.3740     9.4110     8.0740    13.7850    24.0540     2.2530   -12.4880 
  137.5000    68.9930     9.4410     8.1740    14.0290    23.8280     2.2700   -12.4600 
  137.6250    65.5360     9.0890     7.9670    10.8490    23.5980     2.2630   -12.5250 
  137.7500    60.7290     8.5780     7.5990     8.3160    23.4030     2.2380   -12.6860 
  137.8750    59.0320     8.1040     7.2120     7.5160    23.3060     2.2050   -12.9250 
  138.0000    60.0150     7.8040     6.9200     7.6040    23.3510     2.1780   -13.2180 
  138.1250    61.2610     7.7450     6.7970     8.0060    23.5040     2.1650   -13.5220 
  138.2500    62.1910     7.8310     6.7990     8.2450    23.6860     2.1620   -13.7930 
  138.3750    62.3590     7.9710     6.8720     8.2990    23.8550     2.1640   -14.0550 
  138.5000    60.5790     8.0950     6.9630     8.4120    23.9850     2.1680   -14.3720 
  138.6250    57.3280     8.1650     7.0320     8.8990    24.1380     2.1750   -14.7440 
  138.7500    56.5310     8.1930     7.0760     9.2340    24.2600     2.1830   -15.1110 
  138.8750    58.4940     8.1930     7.0980     9.5180    24.3130     2.1890   -15.4360 
  139.0000    60.4060     8.1790     7.1080     9.6520    24.3000     2.1850   -15.6680 
  139.1250    61.7000     8.1600     7.1130     9.6080    24.2360     2.1660   -15.7810 
  139.2500    62.2960     8.1460     7.1170     9.3360    24.1600     2.1390   -15.8610 
  139.3750    61.5840     8.1420     7.1220     9.0880    24.0700     2.1170   -15.8540 
  139.5000    60.5790     8.1410     7.1250     8.9820    23.9480     2.1060   -15.7230 
  139.6250    60.9510     8.1220     7.1110     8.8800    23.8070     2.1140   -15.4980 
  139.7500    62.7490     8.0750     7.0740     8.7910    23.6950     2.1320   -15.2560 
  139.8750    63.7130     7.9960     7.0110     8.7080    23.6430     2.1510   -15.0350 
  140.0000    64.3920     7.8960     6.9240     8.5090    23.6390     2.1650   -14.8390 
  140.1250    66.8520     7.7900     6.8150     8.1340    23.6260     2.1680   -14.6620 
  140.2500    68.5580     7.6800     6.6940     8.0260    23.6710     2.1630   -14.5070 
  140.3750    68.0560     7.5570     6.5620     8.0410    23.8730     2.1540   -14.4300 
  140.5000    67.2400     7.4040     6.4180     8.0750    24.1740     2.1470   -14.4490 
  140.6250    68.0710     7.2250     6.2720     8.0640    24.3630     2.1520   -14.4810 
  140.7500    68.6140     7.0660     6.1560     7.8910    24.4300     2.1650   -14.5150 
  140.8750    67.8170     6.9810     6.1050     7.6410    24.3950     2.1820   -14.6110 
  141.0000    67.1840     7.0090     6.1480     7.2040    24.3360     2.1930   -14.8390 
  141.1250    66.5730     7.1780     6.3090     7.1050    24.3000     2.1900   -15.2800 
  141.2500    66.3330     7.4260     6.5530     8.2080    24.2650     2.1770   -15.7650 
  141.3750    67.3730     7.6950     6.8390     9.2100    24.1590     2.1640   -16.1590 
  141.5000    67.5580     7.9330     7.1200     9.3020    24.0010     2.1600   -16.3660 
  141.6250    64.7640     8.0950     7.3450     8.6970    23.7690     2.1700   -16.3430 
  141.7500    63.1600     8.1760     7.4890     8.2550    23.6040     2.1900   -16.1190 
  141.8750    64.4070     8.1560     7.5310     8.0870    23.5400     2.2110   -15.6310 
  142.0000    65.1050     8.0130     7.4540     7.9320    23.5520     2.2260   -14.8330 
  142.1250    63.2940     7.7060     7.2290     7.5690    23.5450     2.2310   -13.6650 
  142.2500    62.9450     7.2810     6.8960     6.9000    23.4110     2.2280   -12.2790 
  142.3750    65.7300     6.7990     6.5000     6.2450    23.1720     2.2230   -10.7910 
  142.5000    71.6610     6.3380     6.1010     6.0910    22.9860     2.2190    -9.2960 
  142.6250    76.7410     5.9790     5.7630     6.1070    22.9900     2.2190    -7.9330 
  142.7500    76.9950     5.7410     5.5120     6.1190    23.0330     2.2240    -6.7120 
  142.8750    75.1080     5.6180     5.3520     6.1340    23.0990     2.2360    -5.6390 
  143.0000    76.7440     5.5820     5.2640     6.0160    23.1820     2.2520    -4.7100 
  143.1250    83.4630     5.5850     5.2140     5.9260    23.2420     2.2680    -3.9790 
  143.2500    87.6150     5.5730     5.1530     5.8080    23.3140     2.2780    -3.4350 
  143.3750    87.2590     5.4990     5.0450     5.8510    23.4200     2.2730    -3.0400 
  143.5000    84.4310     5.3160     4.8580     5.9920    23.5800     2.2540    -2.7320 
  143.6250    80.5870     4.9800     4.5670     5.6450    23.8670     2.2290    -2.5150 
  143.7500    77.8370     4.5990     4.2550     5.4610    24.2440     2.2130    -2.3860 
  143.8750    78.1680     4.3620     4.0580     5.2380    24.5500     2.2150    -2.3310 
  144.0000    81.3380     4.5310     4.1460     5.2050    24.6810     2.2350    -2.3810 
  144.1250    81.8800     5.5140     4.8060     5.7690    24.6740     2.2790    -2.5190 
  144.2500    76.9630     7.3810     6.1650     8.5310    24.6330     2.3460    -2.7680 
  144.3750    68.5500    10.0200     8.2960    17.2530    24.6070     2.4350    -3.2220 
  144.5000    61.2420    12.8250    10.8820    29.7410    24.6170     2.5270    -4.0060 
  144.6250    59.7560    14.2810    12.6290    35.7960    24.5690     2.5820    -5.2030 
  144.7500    62.6340    13.7060    12.5940    26.9510    24.3980     2.5790    -6.6790 
  144.8750    64.9680    11.7160    11.1670    15.1300    24.1180     2.5200    -8.3650 
  145.0000    63.6550     9.5490     9.4050     9.7880    23.8530     2.4240   -10.1420 
  145.1250    60.7850     8.1480     8.0980     8.7200    23.6970     2.3190   -11.8700 
  145.2500    58.9350     7.4890     7.3230     8.6510    23.6010     2.2250   -13.4270 
  145.3750    59.4710     7.3490     6.9820     8.4490    23.5110     2.1510   -14.7290 
  145.5000    63.4070     7.4810     6.9340     8.1320    23.4050     2.0990   -15.7230 
  145.6250    69.1060     7.6810     7.0430     7.9250    23.2790     2.0750   -16.2950 
  145.7500    69.9180     7.8300     7.1660     7.7020    23.1440     2.0710   -16.5250 
  145.8750    64.8010     7.9150     7.2590     7.5870    23.0660     2.0760   -16.4970 
