~V
VERS. 2.00: Ver 2.00
~W
STRT.M 57.0000:
STOP.M 257.0000:
STEP.M 0.1250:
NULL. -999.2500:
UWI. F10004:
~C
DEPT.M :
GR.API :
RML.OHMM :
RI. :
RXO.OHMM :
CALI.CM :
DEN.GM/CC :
SP.MV :
~A
# ...
   68.2500    90.9060     6.7990     6.5250     6.0580    23.6790     2.4090   -23.3430 
   68.3750    92.9560     6.7880     6.3860     6.1070    24.0520     2.4130   -23.4410 
   68.5000    91.8730     6.7940     6.2610     5.9750    24.2310     2.4160   -23.5540 
   68.6250    90.5120     6.8380     6.1790     5.7860    24.0350     2.4090   -23.6500 
   68.7500    91.1790     6.9220     6.1490     5.8810    23.6300     2.3920   -23.7340 
   68.8750    91.8510     7.0220     6.1620     6.2390    23.3060     2.3680   -23.8270 
   69.0000    90.8020     7.0860     6.1840     6.6590    23.1630     2.3390   -23.9570 
   69.1250    88.9270     7.0560     6.1720     7.0270    23.1970     2.3030   -24.1440 
   69.2500    88.2060     7.0070     6.1500     7.2700    23.3680     2.2610   -24.3530 
   69.3750    86.8060     7.1430     6.2360     7.4710    23.6540     2.2250   -24.5720 
   69.5000    83.2570     7.7700     6.6280     7.8230    23.9430     2.2180   -24.8300 
   69.6250    77.7230     9.3620     7.6920     9.5490    24.0390     2.2660   -25.1850 
   69.7500    71.6210    11.8780     9.5230    14.8620    23.9100     2.3460   -25.6020 
   69.8750    67.7360    14.9600    12.0110    26.6360    23.7190     2.4200   -26.0410 
   70.0000    65.8680    17.7520    14.5950    34.3610    23.5680     2.4500   -26.4840 
   70.1250    65.7590    18.8390    16.0750    25.1830    23.5110     2.4130   -26.9250 
   70.2500    65.3070    18.0400    15.9780    15.8890    23.5780     2.3420   -27.3530 
   70.3750    64.2120    16.0230    14.6480    11.9130    23.6690     2.2670   -27.7500 
   70.5000    64.4790    13.8630    12.9020    10.7820    23.7560     2.2110   -28.0770 
   70.6250    67.5580    12.4960    11.5220    10.7780    23.8390     2.1800   -28.2990 
   70.7500    71.2070    11.9690    10.6990    10.7150    23.9200     2.1660   -28.4400 
   70.8750    73.4430    12.0460    10.3480    10.5500    23.9040     2.1640   -28.4890 
   71.0000    74.8530    12.3930    10.2860    10.3650    23.8210     2.1690   -28.4370 
   71.1250    75.7510    12.6530    10.2890    10.3380    23.7930     2.1760   -28.2900 
   71.2500    74.2630    12.6180    10.1720    10.2800    23.8210     2.1790   -28.0920 
   71.3750    70.9860    12.2270     9.8660    10.1610    23.8420     2.1760   -27.8520 
   71.5000    67.5780    11.5610     9.4110    10.0580    23.8700     2.1700   -27.5880 
   71.6250    66.6090    10.9250     9.0040    10.3280    23.8950     2.1670   -27.2940 
   71.7500    67.8030    10.7990     8.9460    10.7810    23.9790     2.1810   -26.9780 
   71.8750    68.4430    11.6900     9.5810    12.1730    24.0950     2.2250   -26.6670 
   72.0000    66.7180    14.0820    11.3090    16.7270    24.1150     2.3040   -26.3920 
   72.1250    63.6040    18.5970    14.8350    32.1300    24.0340     2.4180   -26.1750 
   72.2500    62.1670    24.5310    19.9130    59.0560    23.9130     2.5390   -25.9890 
   72.3750    62.6340    30.3180    25.4650    86.9790    23.8150     2.6370   -25.8630 
   72.5000    64.0300    33.4590    29.2600    89.2580    23.7670     2.6830   -25.8310 
   72.6250    65.2240    31.3590    28.4890    58.5690    23.7680     2.6490   -25.9480 
   72.7500    65.7550    25.8950    24.3040    31.3870    23.7670     2.5540   -26.2090 
   72.8750    66.3290    19.6580    18.9310    16.8900    23.7950     2.4270   -26.5710 
   73.0000    68.0030    14.6000    14.2370    10.9270    23.9900     2.2980   -27.0020 
   73.1250    69.4950    11.6350    11.1740     9.4010    24.3820     2.1990   -27.4490 
   73.2500    70.0870    10.1410     9.3680     9.0710    24.6620     2.1390   -27.8720 
   73.3750    69.9860     9.6420     8.5160     9.0680    24.7560     2.1240   -28.2400 
   73.5000    70.3560     9.7050     8.3290     9.0800    24.7340     2.1490   -28.4980 
   73.6250    70.1020     9.9860     8.5740     9.0300    24.5560     2.2010   -28.5800 
   73.7500    67.5260    10.2150     8.9330     9.0010    24.2510     2.2470   -28.5280 
   73.8750    65.0560    10.3040     9.2490     9.1570    23.9120     2.2670   -28.3850 
   74.0000    64.9040    10.2550     9.4510     9.4220    23.7070     2.2550   -28.1740 
   74.1250    66.4000    10.1290     9.5280     9.7410    23.6280     2.2240   -27.9070 
   74.2500    67.4420    10.0270     9.5510     9.7910    23.5940     2.1950   -27.5940 
   74.3750    67.5640    10.0130     9.5660     9.5610    23.5210     2.1770   -27.2450 
   74.5000    66.0290    10.1030     9.5970     9.5890    23.3970     2.1700   -26.8800 
   74.6250    65.1580    10.2410     9.6160     9.9370    23.3870     2.1690   -26.4930 
   74.7500    68.3830    10.2930     9.5490    10.2730    23.4860     2.1670   -26.0720 
   74.8750    74.1190    10.1540     9.3290    10.3040    23.6560     2.1640   -25.6320 
   75.0000    80.3640     9.7860     8.9340     9.9290    23.8120     2.1660   -25.1960 
   75.1250    86.9930     9.2510     8.4150     8.4260    23.7670     2.1810   -24.7720 
   75.2500    92.6540     8.7470     7.9170     6.9770    23.5110     2.2040   -24.3840 
   75.3750    94.1680     8.4260     7.5510     6.6690    23.2290     2.2270   -24.0830 
   75.5000    91.3840     8.3760     7.3920     7.7130    22.9730     2.2390   -23.8770 
   75.6250    86.8890     8.6330     7.4920     8.4700    22.6100     2.2320   -23.8060 
   75.7500    81.0250     9.0550     7.7700     8.6910    22.2180     2.2170   -23.8470 
   75.8750    74.4220     9.5110     8.1430     8.7820    21.9640     2.2010   -23.9800 
   76.0000    68.6640     9.8800     8.5190     8.9570    21.8620     2.1870   -24.1760 
   76.1250    65.3360    10.0650     8.7960     8.9830    21.7780     2.1750   -24.4390 
   76.2500    63.3490    10.1010     8.9440     8.8860    21.6050     2.1620   -24.7470 
   76.3750    62.4710    10.0350     8.9690     8.8090    21.3550     2.1470   -25.0320 
   76.5000    63.8670     9.9130     8.8970     9.0600    21.0230     2.1330   -25.2690 
   76.6250    68.3290     9.7670     8.7470     9.4370    20.7540     2.1250   -25.4510 
   76.7500    72.6300     9.6260     8.5610     9.2410    20.5670     2.1300   -25.5800 
   76.8750    75.0160     9.5240     8.3630     8.8640    20.4410     2.1450   -25.6780 
   77.0000    75.7920     9.4920     8.1720     8.8060    20.3080     2.1640   -25.7820 
   77.1250    74.9380     9.5700     8.0210     9.2800    20.2130     2.1750   -25.9420 
   77.2500    72.4370     9.7340     7.9370     9.6060    20.2640     2.1710   -26.1390 
   77.3750    71.1250     9.9520     7.9360     9.3960    20.5340     2.1540   -26.3580 
   77.5000    71.8020    10.1820     8.0130     8.9740    21.0750     2.1330   -26.6060 
   77.6250    71.8930    10.3660     8.1370     8.8960    21.8230     2.1180   -26.8670 
   77.7500    70.0630    10.4840     8.2550     8.9780    22.4980     2.1150   -27.1400 
   77.8750    67.0010    10.5340     8.3390     9.0100    23.0220     2.1230   -27.4080 
   78.0000    63.9180    10.5230     8.3830     8.9630    23.4920     2.1390   -27.6010 
   78.1250    63.3970    10.4560     8.3910     8.9270    24.0050     2.1550   -27.6600 
   78.2500    65.7170    10.3500     8.3830     8.8780    24.3880     2.1630   -27.6310 
   78.3750    67.5200    10.2130     8.3670     8.7470    24.7080     2.1560   -27.5520 
   78.5000    65.6560    10.0650     8.3470     8.6400    25.1350     2.1290   -27.4420 
   78.6250    62.1800     9.9380     8.3260     8.6750    24.7350     2.0780   -27.2970 
   78.7500    60.1500     9.8550     8.3130     8.7880    24.5490     2.0210   -27.0970 
   78.8750    60.0010     9.8200     8.3050     8.9550    24.4190     1.9760   -26.8280 
   79.0000    62.4630     9.8180     8.2970     9.1220    24.3900     1.9610   -26.5200 
   79.1250    65.8340     9.8240     8.2740     8.9580    24.3430     1.9860   -26.1880 
   79.2500    66.9660     9.8220     8.2230     8.8540    24.3540     2.0300   -25.8270 
   79.3750    66.6960     9.8250     8.1470     8.7850    24.3490     2.0720   -25.4400 
