~V
VERS. 2.00: Ver 2.00
~W
STRT.M 60.0000:
STOP.M 242.0000:
STEP.M 0.1250:
NULL. -999.2500:
UWI. F10022:
~C
DEPT.M :
GR.API :
RML.OHMM :
RI. :
RXO.OHMM :
CALI.CM :
DEN.GM/CC :
SP.MV :
~A
# ...
   82.5000    70.5360     7.8200     6.6680     7.9520    23.1170     2.1960   -15.9600 
   82.6250    71.6360     7.4630     6.3770     7.5180    23.1190     2.2100   -15.3840 
   82.7500    71.4690     7.2090     6.1040     7.1310    23.4640     2.2220   -14.7770 
   82.8750    72.9220     7.0940     5.8970     6.9070    23.8050     2.2300   -14.1930 
   83.0000    76.7940     7.0990     5.7780     6.7970    23.8390     2.2310   -13.6860 
   83.1250    79.3000     7.1610     5.7460     6.6990    23.7510     2.2290   -13.2610 
   83.2500    77.7620     7.2010     5.7470     6.5870    23.7500     2.2290   -12.8880 
   83.3750    75.7700     7.1760     5.7430     6.5390    23.7870     2.2360   -12.5740 
   83.5000    77.4220     7.0820     5.7120     6.5590    23.8080     2.2520   -12.3520 
   83.6250    81.6310     6.9400     5.6500     6.3350    23.8320     2.2720   -12.2620 
   83.7500    84.1280     6.8010     5.5820     6.1260    23.8470     2.2860   -12.2860 
   83.8750    82.7600     6.7000     5.5320     6.0740    23.7960     2.2870   -12.4010 
   84.0000    80.2440     6.6660     5.5230     6.1730    23.7870     2.2760   -12.5620 
   84.1250    80.1670     6.7490     5.5940     6.4030    23.8790     2.2560   -12.7820 
   84.2500    80.7460     6.9650     5.7540     6.7160    23.9890     2.2370   -13.0420 
   84.3750    77.6570     7.3140     6.0080     7.0800    23.9980     2.2250   -13.3340 
   84.5000    72.5770     7.7480     6.3280     7.3680    23.9180     2.2190   -13.6510 
   84.6250    73.9440     8.1540     6.6510     7.5040    23.9150     2.2140   -13.9540 
   84.7500    78.2700     8.4260     6.9040     7.6220    23.9160     2.2010   -14.1830 
   84.8750    78.3360     8.5290     7.0500     7.7360    23.9070     2.1780   -14.3400 
   85.0000    73.3320     8.5190     7.1070     7.7320    23.9150     2.1480   -14.3860 
   85.1250    69.8880     8.5360     7.1440     7.4780    24.0330     2.1290   -14.2970 
   85.2500    68.4210     8.6690     7.2280     7.1930    24.0360     2.1400   -14.0670 
   85.3750    66.2100     8.8860     7.3560     7.0640    23.6520     2.1870   -13.7320 
   85.5000    63.7530     9.0560     7.4580     7.0670    23.0360     2.2600   -13.2590 
   85.6250    63.9140     8.9750     7.4060     7.0320    22.7980     2.3270   -12.6620 
   85.7500    68.2810     8.6070     7.1550     6.8840    22.8180     2.3570   -12.0550 
   85.8750    74.0040     8.0270     6.7270     6.6990    22.8570     2.3450   -11.4170 
   86.0000    77.7950     7.4020     6.2180     6.5110    22.8450     2.3100   -10.8510 
   86.1250    80.1900     6.9380     5.7720     6.5530    22.8010     2.2800   -10.3640 
   86.2500    83.5360     6.6840     5.4600     6.5560    22.7620     2.2690    -9.9710 
   86.3750    86.0570     6.6040     5.2940     6.4590    22.7340     2.2730    -9.7010 
   86.5000    84.2360     6.6180     5.2420     6.4020    22.7260     2.2870    -9.5720 
   86.6250    81.7320     6.6490     5.2610     6.3380    22.7860     2.2980    -9.5120 
   86.7500    82.8710     6.6620     5.3040     6.2500    22.9800     2.2960    -9.4600 
   86.8750    85.0720     6.6680     5.3610     6.1290    23.2760     2.2790    -9.4600 
   87.0000    85.6390     6.6930     5.4440     6.1350    23.4910     2.2500    -9.4710 
   87.1250    84.2620     6.7740     5.5690     6.4560    23.4580     2.2200    -9.4930 
   87.2500    81.5260     6.9200     5.7320     6.8160    23.4190     2.1970    -9.5000 
   87.3750    76.8390     7.1230     5.9110     7.0000    23.4180     2.1850    -9.3830 
   87.5000    72.3550     7.3450     6.0660     7.0500    23.4240     2.1840    -9.1440 
   87.6250    72.6670     7.4990     6.1320     7.0180    23.4210     2.1930    -8.7890 
   87.7500    75.1910     7.5170     6.0870     6.9430    23.4360     2.2070    -8.3550 
   87.8750    76.5780     7.3640     5.9350     6.7820    23.5190     2.2270    -7.8470 
   88.0000    77.1090     7.0610     5.7070     6.5430    23.6770     2.2510    -7.3090 
   88.1250    78.8720     6.6720     5.4510     6.2200    23.8860     2.2770    -6.7880 
   88.2500    82.2050     6.3160     5.2210     5.9330    23.9670     2.3000    -6.2790 
   88.3750    86.0670     6.0740     5.0520     5.6940    23.9680     2.3170    -5.8890 
   88.5000    88.1730     5.9950     4.9660     5.5690    23.9400     2.3230    -5.6270 
   88.6250    88.0890     6.1000     4.9880     5.6280    23.8820     2.3170    -5.5300 
   88.7500    85.5110     6.2960     5.0860     5.8130    23.7120     2.3040    -5.5560 
   88.8750    80.4410     6.4900     5.2260     6.0240    23.3840     2.2900    -5.6680 
   89.0000    75.7280     6.5950     5.3570     6.1590    23.0470     2.2800    -5.8190 
   89.1250    74.2470     6.5460     5.4220     6.1820    22.8200     2.2780    -5.9420 
   89.2500    76.0330     6.3960     5.4100     6.1790    22.8370     2.2830    -6.0860 
   89.3750    77.8330     6.2190     5.3360     6.1010    23.0050     2.2920    -6.1890 
   89.5000    78.9360     6.0960     5.2400     6.0410    23.2520     2.2990    -6.2550 
   89.6250    80.9830     6.1010     5.1750     6.0070    23.5900     2.3000    -6.3150 
   89.7500    83.5220     6.2140     5.1730     6.0740    23.8830     2.2950    -6.3760 
   89.8750    85.4880     6.3960     5.2390     6.2750    24.0090     2.2870    -6.4590 
   90.0000    85.1620     6.5930     5.3610     6.5390    24.0120     2.2790    -6.5080 
   90.1250    83.1260     6.7570     5.5080     6.7520    23.9960     2.2750    -6.5350 
   90.2500    81.5640     6.8830     5.6430     6.8440    23.9880     2.2760    -6.5640 
   90.3750    80.8560     6.9730     5.7440     6.8960    23.9860     2.2800    -6.5940 
   90.5000    81.7750     7.0250     5.8020     6.8530    23.9860     2.2840    -6.6330 
   90.6250    84.7090     7.0180     5.8080     6.6730    23.9770     2.2890    -6.6560 
   90.7500    86.6650     6.9510     5.7720     6.5800    23.9570     2.2940    -6.6520 
   90.8750    85.2410     6.8320     5.7010     6.5800    23.9460     2.2960    -6.5800 
   91.0000    81.4950     6.6910     5.6040     6.5360    23.9670     2.2920    -6.4890 
   91.1250    79.3960     6.6000     5.5140     6.3680    23.9900     2.2810    -6.4320 
   91.2500    79.2830     6.6370     5.4810     6.2620    23.9910     2.2720    -6.4080 
   91.3750    80.4300     6.8700     5.5610     6.3870    23.9680     2.2760    -6.4570 
   91.5000    82.0570     7.3250     5.7860     6.7370    23.8960     2.3030    -6.5280 
   91.6250    80.0800     7.9400     6.1460     7.4470    23.7780     2.3510    -6.6250 
   91.7500    76.0790     8.4960     6.5130     8.3660    23.6640     2.3920    -6.7280 
   91.8750    74.7520     8.7950     6.7530     9.2730    23.5950     2.4050    -6.8120 
   92.0000    76.0090     8.7140     6.7610     9.9050    23.5430     2.3810    -6.8850 
   92.1250    74.6070     8.2750     6.5040     9.6190    23.4530     2.3330    -6.9220 
   92.2500    70.6040     7.8290     6.1820     8.6660    23.3590     2.2930    -6.9260 
   92.3750    68.9340     7.7340     6.0340     8.5200    23.3400     2.2840    -6.8750 
   92.5000    69.4050     8.3190     6.3190     9.7940    23.4310     2.3170    -6.8200 
   92.6250    68.0660     9.9960     7.4450    13.7980    23.6000     2.3930    -6.7480 
   92.7500    66.4930    12.7240     9.5310    20.4260    23.7520     2.4870    -6.6540 
   92.8750    65.8320    16.4650    12.7070    29.0260    23.8310     2.5750    -6.5870 
   93.0000    64.6690    21.0670    16.9670    37.9200    23.8540     2.6410    -6.5730 
   93.1250    61.5630    26.2760    22.1590    45.4460    23.8410     2.6770    -6.6340 
   93.2500    58.8110    31.4220    27.4950    51.1310    23.8140     2.6980    -6.7360 
   93.3750    57.1210    35.7190    32.0880    57.6820    23.7880     2.7110    -6.8830 
   93.5000    55.2350    38.1470    34.8860    64.5170    23.7710     2.7160    -7.0330 
   93.6250    53.2800    37.1050    34.3430    65.4280    23.7500     2.7060    -7.1730 
