~V
VERS. 2.00: Ver 2.00
~W
STRT.M 57.0000:
STOP.M 296.0000:
STEP.M 0.1250:
NULL. -999.2500:
UWI. F10043:
~C
DEPT.M :
GR.API :
RML.OHMM :
RI. :
RXO.OHMM :
CALI.CM :
DEN.GM/CC :
SP.MV :
~A
# ...
  147.0000    59.5130    22.4280    18.8650    45.4040    24.4120     2.3520   -17.3030 
  147.1250    57.5810    24.5890    21.2700    53.7350    24.3700     2.4380   -17.0870 
  147.2500    58.4950    24.5390    21.9240    37.7330    24.0760     2.5150   -16.8790 
  147.3750    61.7820    22.9840    21.1520    21.2370    23.6190     2.5520   -16.7220 
  147.5000    63.8340    21.2100    19.9100    15.3820    23.2330     2.5280   -16.5710 
  147.6250    61.7910    20.1780    18.9720    16.2090    23.0280     2.4480   -16.4370 
  147.7500    60.2740    19.7780    18.3960    17.8260    22.9180     2.3510   -16.3270 
  147.8750    61.3410    19.5650    17.9710    18.6100    22.9360     2.2670   -16.2580 
  148.0000    62.8910    19.0640    17.4630    17.3230    23.0950     2.2110   -16.2230 
  148.1250    62.5150    18.0200    16.7380    14.3040    23.2400     2.1890   -16.2310 
  148.2500    62.6480    16.7740    15.9210    12.4030    23.2370     2.1830   -16.2480 
  148.3750    65.2400    15.6590    15.1480    11.9320    23.1750     2.1820   -16.2320 
  148.5000    68.1280    14.8450    14.5200    11.8710    23.1580     2.1790   -16.2290 
  148.6250    68.8300    14.3700    14.1400    11.2380    23.2130     2.1740   -16.2640 
  148.7500    68.7090    14.0880    13.9680    10.8290    23.2990     2.1730   -16.3330 
  148.8750    69.9290    13.9050    13.9150    10.8850    23.3620     2.1800   -16.3740 
  149.0000    71.0810    13.7640    13.8520    11.0250    23.3980     2.1930   -16.4120 
  149.1250    69.9780    13.6420    13.6960    11.1880    23.4100     2.2070   -16.4400 
  149.2500    67.9030    13.5240    13.5100    11.1160    23.4340     2.2160   -16.4640 
  149.3750    66.9180    13.4040    13.3710    10.9220    23.4880     2.2200   -16.4980 
  149.5000    67.3510    13.2940    13.3080    10.6970    23.5570     2.2220   -16.4980 
  149.6250    66.3320    13.2380    13.2870    10.4660    23.5840     2.2220   -16.4890 
  149.7500    63.6220    13.2540    13.2600    10.3210    23.5940     2.2200   -16.4460 
  149.8750    61.5060    13.3410    13.2550    10.3300    23.6240     2.2140   -16.4170 
  150.0000    61.9430    13.4760    13.3180    10.5200    23.6650     2.2060   -16.3630 
  150.1250    63.9030    13.5910    13.4280    10.6440    23.6820     2.1970   -16.2950 
  150.2500    65.2530    13.5990    13.4640    10.6910    23.6810     2.1910   -16.2260 
  150.3750    65.7700    13.4620    13.3580    10.6480    23.6460     2.1900   -16.1620 
  150.5000    65.1110    13.2100    13.1560    10.4210    23.5570     2.1930   -16.0950 
  150.6250    64.9110    12.9470    12.9970    10.2080    23.4270     2.2000   -16.0140 
  150.7500    65.7780    12.7840    12.9520    10.1760    23.3210     2.2090   -15.9610 
  150.8750    66.3760    12.7700    12.9950    10.4100    23.2130     2.2160   -15.9300 
  151.0000    66.3050    12.8810    13.0670    10.5680    23.1290     2.2210   -15.9420 
  151.1250    66.7910    13.0290    13.1480    10.6330    23.0970     2.2220   -15.9730 
  151.2500    66.3940    13.1110    13.2350    10.6710    23.0940     2.2220   -16.0130 
  151.3750    64.2910    13.0890    13.2870    10.8660    23.1320     2.2230   -16.0890 
  151.5000    62.8030    12.9860    13.2420    11.0640    23.2040     2.2230   -16.2350 
  151.6250    64.0240    12.9290    13.0940    11.0560    23.3470     2.2210   -16.4350 
  151.7500    65.7190    13.0650    13.0200    10.9600    23.4920     2.2150   -16.6530 
  151.8750    66.6310    13.4810    13.2100    10.8580    23.6150     2.2060   -16.8400 
  152.0000    67.6420    14.2130    13.7930    11.1620    23.6580     2.1950   -16.9980 
  152.1250    67.8080    15.2920    14.8030    12.6360    23.6230     2.1870   -17.1220 
  152.2500    65.8670    16.5600    15.9900    14.9360    23.5730     2.1850   -17.2390 
  152.3750    61.9440    17.8070    17.1230    16.4570    23.5450     2.1930   -17.2970 
  152.5000    59.7920    18.7570    17.9810    15.6320    23.5200     2.2140   -17.2670 
  152.6250    62.3970    19.0840    18.3290    16.6180    23.4650     2.2510   -17.1980 
  152.7500    65.9280    18.8880    18.2480    19.1490    23.3970     2.2950   -17.0990 
  152.8750    66.7230    18.4410    17.9420    21.2330    23.3160     2.3350   -16.9910 
  153.0000    64.9010    20.2420    17.7460    18.9940    23.2310     2.3630   -16.8520 
  153.1250    63.2910    20.6980    18.1710    15.3750    23.2700     2.3720   -16.7070 
  153.2500    61.3050    22.1490    19.4750    16.3020    23.4280     2.3760   -16.5250 
  153.3750    59.3610    24.7360    21.8210    21.1380    23.6230     2.3880   -16.3530 
  153.5000    58.7170    28.4460    25.2350    27.2600    23.7830     2.4150   -16.1860 
  153.6250    59.1990    33.1120    29.6970    34.6570    23.9550     2.4530   -15.9990 
  153.7500    59.8530    37.6960    34.4280    39.2190    24.1560     2.4880   -15.7810 
  153.8750    60.5290    40.6120    38.0570    41.5090    24.3810     2.5110   -15.5580 
  154.0000    60.9360    39.9360    38.5620    43.4580    24.5160     2.5230   -15.3750 
  154.1250    62.0010    34.2090    33.9550    44.1690    24.4900     2.5290   -15.1960 
  154.2500    64.7040    26.1460    26.5740    37.2890    24.3510     2.5360   -15.0570 
  154.3750    71.8260    18.4970    19.1850    22.8600    24.1130     2.5380   -14.9600 
  154.5000    82.8000    12.9010    13.5620    10.9590    23.7560     2.5290   -14.9050 
  154.6250    90.9930     9.8810    10.3120     7.8050    23.2800     2.5030   -14.8530 
  154.7500    92.9750     8.5250     8.6280     6.8830    22.9820     2.4700   -14.8250 
  154.8750    91.3570     8.4140     8.1430     7.0940    22.9050     2.4390   -14.8160 
  155.0000    89.0450     9.2870     8.6750     8.1260    23.0250     2.4220   -14.8130 
  155.1250    84.2100    10.9700    10.1940     9.9540    23.2720     2.4260   -14.8160 
  155.2500    76.6600    12.9090    12.1850    12.9700    23.6340     2.4410   -14.8190 
  155.3750    70.3070    14.6230    14.1060    17.8950    24.0700     2.4600   -14.7900 
  155.5000    67.6770    15.7610    15.4830    22.3680    24.4460     2.4750   -14.7640 
  155.6250    66.6500    16.2930    16.1870    19.5030    24.5960     2.4830   -14.7290 
  155.7500    64.5020    16.7640    16.7240    15.6770    24.6090     2.4900   -14.7060 
  155.8750    60.2980    17.6090    17.4670    16.8110    24.5990     2.4990   -14.6830 
  156.0000    55.6550    19.0450    18.5920    22.2400    24.5850     2.5160   -14.6610 
  156.1250    53.7570    21.0570    20.1250    26.1510    24.5900     2.5380   -14.6420 
  156.2500    53.8370    23.1790    21.7680    25.8080    24.5960     2.5590   -14.6150 
  156.3750    54.0610    24.9800    23.1800    25.0140    24.5700     2.5760   -14.6100 
  156.5000    52.4790    26.1860    24.1070    24.8220    24.5120     2.5910   -14.6000 
  156.6250    50.0880    26.7970    24.5490    24.5200    24.4600     2.6070   -14.6260 
  156.7500    49.1240    27.2100    24.8610    24.7110    24.4300     2.6240   -14.6700 
  156.8750    50.1100    27.6270    25.2040    25.9930    24.4500     2.6390   -14.7320 
  157.0000    51.6010    28.0900    25.5730    27.7710    24.5220     2.6490   -14.7890 
  157.1250    51.6610    28.4710    25.8300    27.2690    24.5920     2.6550   -14.8880 
  157.2500    51.0620    28.5340    25.8470    27.6850    24.6130     2.6610   -15.0330 
  157.3750    50.9460    28.0450    25.5200    29.4750    24.5720     2.6670   -15.2050 
  157.5000    52.0200    26.9040    24.7660    30.3900    24.4510     2.6650   -15.4300 
  157.6250    53.6210    25.2410    23.5440    26.8890    24.3510     2.6440   -15.6890 
  157.7500    54.6570    23.5700    22.1460    21.9410    24.3230     2.6080   -15.9420 
  157.8750    54.6000    22.2630    20.8810    18.8980    24.3650     2.5640   -16.1730 
  158.0000    54.2410    21.5310    20.0390    18.1330    24.3620     2.5260   -16.3940 
  158.1250    54.2960    21.4980    19.8800    19.3860    24.3460     2.5120   -16.5710 
