~V
VERS. 2.00: Ver 2.00
~W
STRT.M 56.0000:
STOP.M 268.0000:
STEP.M 0.1250:
NULL. -999.2500:
UWI. F10027:
~C
DEPT.M :
GR.API :
RML.OHMM :
RI. :
RXO.OHMM :
CALI.CM :
DEN.GM/CC :
SP.MV :
~A
# ...
  202.2500    63.0010    34.3630    31.6320    37.0050    24.3200     2.2310   -11.7280 
  202.3750    61.2280    40.6360    37.6030    46.0620    24.3000     2.2370   -11.7830 
  202.5000    59.0380    47.4150    44.4990    60.9090    24.2910     2.2380   -11.7980 
  202.6250    59.2070    52.8570    50.6490    72.5520    24.2900     2.2320   -11.8120 
  202.7500    60.7600    55.7540    54.5560    77.2460    24.2830     2.2210   -11.8440 
  202.8750    60.2290    55.9110    55.6650    76.0370    24.2650     2.2100   -11.8210 
  203.0000    58.6940    53.9260    54.2690    68.0880    24.2420     2.1990   -11.7310 
  203.1250    60.6380    50.1880    50.6290    56.5970    24.2420     2.1870   -11.6740 
  203.2500    65.5100    45.0630    45.3540    50.9940    24.2670     2.1770   -11.6150 
  203.3750    69.4770    38.6360    38.7280    53.3610    24.3020     2.1760   -11.5010 
  203.5000    71.4370    31.5140    31.4900    52.4060    24.3250     2.1910   -11.4140 
  203.6250    73.2700    25.0290    24.9950    38.0750    24.3120     2.2250   -11.3590 
  203.7500    75.1990    20.1750    20.1020    23.4730    24.2950     2.2620   -11.2580 
  203.8750    74.9280    17.3750    17.0990    16.2550    24.2780     2.2860   -11.1850 
  204.0000    71.5980    16.6510    15.9400    14.8570    24.2510     2.2900   -11.1820 
  204.1250    67.3180    18.0240    16.7100    18.3800    24.2390     2.2780   -11.1360 
  204.2500    65.6660    20.6120    18.8080    25.8670    24.2400     2.2680   -11.0810 
  204.3750    66.4940    23.5850    21.6380    31.5860    24.2370     2.2690   -11.0850 
  204.5000    67.3070    25.9360    24.2740    32.9350    24.2210     2.2800   -11.0660 
  204.6250    67.1300    26.5740    25.4980    31.8920    24.2160     2.2860   -10.9970 
  204.7500    69.3830    25.6790    25.1860    29.1470    24.2290     2.2790   -10.9740 
  204.8750    73.1550    23.8440    23.7770    25.2850    24.2340     2.2610   -10.9370 
  205.0000    73.3180    21.8280    21.9660    23.6870    24.2320     2.2410   -10.8280 
  205.1250    71.3540    20.3050    20.4010    23.6430    24.2300     2.2370   -10.7380 
  205.2500    72.0350    19.4340    19.3200    22.0530    24.2300     2.2470   -10.6840 
  205.3750    72.9440    19.1520    18.7290    19.7330    24.2260     2.2660   -10.6030 
  205.5000    71.7580    19.2290    18.4900    18.7000    24.2180     2.2850   -10.4980 
  205.6250    69.5920    19.3220    18.3690    22.0090    24.2090     2.2980   -10.4490 
  205.7500    68.3820    19.1650    18.1130    22.3700    24.2190     2.3060   -10.4060 
  205.8750    67.4630    18.7040    17.6380    19.9890    24.2270     2.3090   -10.3500 
  206.0000    68.0120    18.0470    17.0010    16.8970    24.2300     2.3030   -10.3450 
  206.1250    71.6570    17.4180    16.3750    15.6520    24.2300     2.2890   -10.3820 
  206.2500    74.5790    16.9610    15.8850    16.7160    24.2300     2.2760   -10.3640 
  206.3750    75.9110    16.6230    15.5030    17.4640    24.2290     2.2740   -10.3550 
  206.5000    75.5980    16.2010    15.0760    17.6210    24.2280     2.2910   -10.4250 
  206.6250    75.8430    15.3960    14.3660    17.9300    24.2270     2.3260   -10.4520 
  206.7500    78.2270    14.2130    13.3590    17.6220    24.2270     2.3650   -10.4550 
  206.8750    80.9100    12.8340    12.1830    15.3590    24.2270     2.3970   -10.5270 
  207.0000    82.4850    11.5490    11.0480    11.1400    24.2270     2.4180   -10.6140 
  207.1250    83.3340    10.6760    10.1930     9.8680    24.2260     2.4280   -10.6550 
  207.2500    84.9730    10.2260     9.6590     9.9790    24.2240     2.4340   -10.7300 
  207.3750    87.5470    10.1050     9.4210    10.5950    24.2220     2.4410   -10.8370 
  207.5000    89.6770    10.1640     9.4010    10.9540    24.2220     2.4480   -10.8950 
  207.6250    89.4590    10.2680     9.5190    10.6880    24.2220     2.4510   -10.9420 
  207.7500    87.2660    10.3540     9.6800    10.3760    24.2220     2.4480   -11.0230 
  207.8750    84.5070    10.4410     9.8470     9.9840    24.2180     2.4400   -11.0630 
  208.0000    82.5760    10.5650    10.0110     9.5730    24.2060     2.4290   -11.0470 
  208.1250    82.4100    10.7360    10.1550     9.7710    24.1860     2.4180   -11.0290 
  208.2500    84.2340    10.8950    10.2550    10.5150    24.1830     2.4130   -11.0230 
  208.3750    86.1130    10.9840    10.2830    10.9480    24.1850     2.4150   -10.9760 
  208.5000    84.2170    10.9730    10.2330    10.9930    24.1870     2.4220   -10.9070 
  208.6250    79.6940    10.8690    10.1210    11.0080    24.1770     2.4290   -10.8760 
  208.7500    77.7830    10.7350     9.9860    10.8540    24.1710     2.4310   -10.8400 
  208.8750    78.2860    10.6030     9.8380    10.3410    24.1690     2.4230   -10.7940 
  209.0000    78.0110    10.4840     9.6750    10.0540    24.1680     2.4070   -10.7670 
  209.1250    76.0400    10.4190     9.5260    10.9890    24.1660     2.3850   -10.7910 
  209.2500    76.3240    10.5070     9.4800    11.8060    24.1520     2.3620   -10.8060 
  209.3750    78.8500    10.9420     9.6960    11.3740    24.1140     2.3400   -10.8080 
  209.5000    78.9650    11.9790    10.3770    11.0700    24.0640     2.3240   -10.8640 
  209.6250    73.4360    14.0280    11.8930    12.9860    24.0890     2.3280   -10.9160 
  209.7500    64.9000    17.0110    14.2970    17.5970    24.1270     2.3500   -10.9280 
  209.8750    57.5240    20.6340    17.5080    24.7930    24.1140     2.3810   -10.9630 
  210.0000    56.1330    24.2020    21.0500    32.8380    24.0190     2.4010   -11.0290 
  210.1250    61.3560    26.4850    23.8270    40.1540    23.9370     2.3870   -11.0310 
  210.2500    66.3090    27.0570    25.1330    35.3180    23.9080     2.3450   -11.0260 
  210.3750    66.8700    26.2040    24.9900    28.2430    23.9370     2.2900   -11.0530 
  210.5000    63.8860    24.7360    24.0210    25.6600    23.9740     2.2420   -11.0350 
  210.6250    61.9170    23.5950    23.0470    25.1050    23.9690     2.2130   -11.0050 
  210.7500    63.1070    23.1760    22.5540    24.5200    23.9280     2.1960   -11.0050 
  210.8750    66.2570    23.4340    22.5970    24.1880    23.8890     2.1860   -10.9680 
  211.0000    69.6750    24.0280    22.9510    24.8110    23.8820     2.1840   -10.8700 
  211.1250    71.3180    24.3160    23.0920    25.5460    23.9080     2.1960   -10.8080 
  211.2500    70.6880    23.7820    22.5420    25.9090    23.9030     2.2170   -10.7540 
  211.3750    67.7980    22.2140    21.0830    25.2690    23.8750     2.2420   -10.6600 
  211.5000    66.6380    19.7730    18.8340    22.8390    23.8520     2.2660   -10.5710 
  211.6250    72.6660    16.9840    16.2330    17.9220    23.8600     2.2840   -10.5250 
  211.7500    79.6030    14.5570    13.9010    13.5790    23.8680     2.2960   -10.4710 
  211.8750    81.0860    12.9020    12.1910    11.1850    23.8730     2.2990   -10.4160 
  212.0000    78.7270    12.2090    11.2840     9.9450    23.8650     2.2920   -10.4310 
  212.1250    77.7130    12.6390    11.3750    10.3700    23.8050     2.2720   -10.4750 
  212.2500    77.5390    13.8670    12.2600    12.6080    23.7060     2.2480   -10.4860 
  212.3750    76.9690    15.6170    13.7680    15.6190    23.6490     2.2280   -10.5420 
  212.5000    78.3900    17.5160    15.6020    17.7080    23.6440     2.2160   -10.6380 
  212.6250    81.3050    19.0910    17.3220    18.2520    23.6430     2.2130   -10.6700 
  212.7500    81.2110    20.1350    18.6020    18.5540    23.6150     2.2150   -10.6930 
  212.8750    78.2240    20.6670    19.3550    19.5920    23.6220     2.2190   -10.7480 
  213.0000    74.8210    20.8710    19.6820    20.0440    23.6880     2.2260   -10.7540 
  213.1250    71.9390    20.9610    19.7500    20.5270    23.7820     2.2340   -10.6920 
  213.2500    70.2290    21.0860    19.7620    21.2770    23.8490     2.2390   -10.6630 
  213.3750    71.7840    21.2820    19.7950    22.2300    23.8980     2.2450   -10.6110 
