~V
VERS. 2.00: Ver 2.00
~W
STRT.M 50.0000:
STOP.M 300.0000:
STEP.M 0.1250:
NULL. -999.2500:
UWI. F10041:
~C
DEPT.M :
DEN.GM/CC :
GR.API :
RML.OHMM :
RI. :
RXO.OHMM :
CALI.CM :
SP.MV :
~A
# ...
   83.7500     2.1880    64.7900     9.6210     8.7390     9.3540    24.3050   -15.1800 
   83.8750     2.1930    63.8200     9.9480     9.0020     8.8900    24.4690   -15.2260 
   84.0000     2.1970    61.5440    10.1350     9.1720     8.5500    24.6430   -15.2740 
   84.1250     2.1890    60.8310    10.1160     9.1960     8.6850    24.7120   -15.3440 
   84.2500     2.1720    62.3530     9.8890     9.0780     8.8740    24.7610   -15.3090 
   84.3750     2.1550    65.2190     9.4390     8.8080     9.0110    24.8420   -15.2040 
   84.5000     2.1500    67.7060     8.8010     8.4020     8.7770    24.8810   -15.1490 
   84.6250     2.1650    69.7480     8.0820     7.9150     8.0350    24.7990   -15.1280 
   84.7500     2.1910    73.7330     7.4580     7.4720     7.0600    24.5750   -14.9600 
   84.8750     2.2110    78.7830     7.0580     7.1780     6.5440    24.3090   -14.7450 
   85.0000     2.2130    81.0390     6.9420     7.1110     6.7510    24.1170   -14.5010 
   85.1250     2.1900    76.6460     7.1320     7.3240     7.9790    24.2550   -14.2690 
   85.2500     2.1510    69.5470     7.4980     7.7040     8.9140    24.5380   -14.2150 
   85.3750     2.1070    62.6070     7.9320     8.1180     9.6270    24.7240   -14.3310 
   85.5000     2.0690    56.7060     8.3140     8.4220     9.7260    24.9090   -14.5330 
   85.6250     2.0490    53.8060     8.4840     8.4790     8.9400    25.0430   -14.7980 
   85.7500     2.0480    55.0220     8.4090     8.3390     8.3270    25.0560   -15.1580 
   85.8750     2.0630    59.2050     8.1360     8.0960     8.1280    24.9420   -15.6270 
   86.0000     2.0830    63.4590     7.8060     7.8580     8.2650    24.8200   -16.1800 
   86.1250     2.1010    65.4280     7.6230     7.7180     8.5910    24.8600   -16.6650 
   86.2500     2.1140    63.9220     7.6550     7.6790     9.0060    25.0100   -17.0060 
   86.3750     2.1270    61.2770     7.8620     7.7190     9.2580    25.1050   -17.2300 
   86.5000     2.1420    60.9840     8.1410     7.8020     9.3070    25.1240   -17.3620 
   86.6250     2.1530    61.1760     8.3900     7.9040     9.0500    25.0780   -17.4830 
   86.7500     2.1520    59.7280     8.5830     8.0050     8.8600    25.0270   -17.6410 
   86.8750     2.1330    58.9900     8.7240     8.0930     8.9920    25.0470   -17.7150 
   87.0000     2.1030    61.1270     8.8010     8.1440     9.2640    25.1550   -17.6700 
   87.1250     2.0760    62.8580     8.7660     8.1250     9.2220    25.3510   -17.6290 
   87.2500     2.0610    62.7970     8.6400     8.0480     8.9330    25.3990   -17.5190 
   87.3750     2.0620    64.2560     8.4770     7.9430     8.6390    25.2070   -17.3850 
   87.5000     2.0740    67.4170     8.3470     7.8540     8.5410    25.0380   -17.2740 
   87.6250     2.0920    67.2150     8.3080     7.8150     8.5940    24.9330   -17.0870 
   87.7500     2.1100    63.4390     8.3450     7.8110     8.5340    24.7440   -16.8240 
   87.8750     2.1240    60.4320     8.4270     7.8150     8.2750    24.5560   -16.5710 
   88.0000     2.1330    60.7130     8.5230     7.8000     7.9200    24.4080   -16.3810 
   88.1250     2.1370    63.3290     8.6040     7.7580     7.7020    24.2810   -16.1220 
   88.2500     2.1420    65.2830     8.6520     7.7100     7.7950    24.1360   -15.8840 
   88.3750     2.1490    64.7600     8.6620     7.6760     8.0810    24.1270   -15.6610 
   88.5000     2.1570    61.4820     8.6450     7.6640     8.4470    24.2220   -15.4250 
   88.6250     2.1590    58.8300     8.6120     7.6630     8.7990    24.3490   -15.3250 
   88.7500     2.1500    58.1330     8.5650     7.6540     8.9650    24.5870   -15.3180 
   88.8750     2.1340    57.2290     8.4990     7.6320     8.8850    24.9700   -15.4020 
   89.0000     2.1210    56.9960     8.4270     7.6010     8.5100    25.3860   -15.5380 
   89.1250     2.1200    61.9000     8.3810     7.5690     8.3450    25.4510   -15.7180 
   89.2500     2.1310    68.1840     8.3630     7.5400     8.4970    25.2750   -15.9310 
   89.3750     2.1450    68.7030     8.3530     7.5150     8.7400    25.0760   -16.1780 
   89.5000     2.1520    64.7490     8.3380     7.4990     8.8020    24.9810   -16.4190 
   89.6250     2.1460    62.2010     8.3350     7.5160     8.6190    24.9870   -16.5880 
   89.7500     2.1330    60.6800     8.3790     7.5720     8.4080    24.9830   -16.7240 
   89.8750     2.1180    59.4840     8.4720     7.6590     8.1600    24.9410   -16.7600 
   90.0000     2.1080    59.2860     8.5750     7.7560     8.0410    24.8490   -16.7520 
   90.1250     2.1060    59.3850     8.6260     7.8510     8.2050    24.8630   -16.8210 
   90.2500     2.1130    57.7130     8.6270     7.9440     8.5610    24.8640   -16.8400 
   90.3750     2.1300    55.3090     8.6230     8.0400     8.4210    24.7600   -16.7600 
   90.5000     2.1530    54.4740     8.6500     8.1280     7.7570    24.6140   -16.6320 
   90.6250     2.1720    56.0130     8.7040     8.1730     7.1620    24.6340   -16.3230 
   90.7500     2.1850    58.7580     8.7370     8.1450     7.2260    24.6680   -15.8970 
   90.8750     2.1930    59.9780     8.7180     8.0280     7.2640    24.6070   -15.4430 
   91.0000     2.2020    61.1610     8.6400     7.8260     7.1660    24.3850   -14.9160 
   91.1250     2.2150    65.5300     8.5130     7.5570     7.1250    24.1890   -14.1950 
   91.2500     2.2280    71.0830     8.3650     7.2640     6.9730    24.0050   -13.3850 
   91.3750     2.2330    74.8960     8.2050     6.9770     6.8760    23.8910   -12.5340 
   91.5000     2.2280    77.8870     8.0200     6.7180     6.6770    23.8880   -11.6090 
   91.6250     2.2140    81.2270     7.7750     6.5110     6.4890    23.9500   -10.8030 
   91.7500     2.2010    83.0870     7.4660     6.3580     6.3890    23.9910   -10.1380 
   91.8750     2.1930    82.7850     7.1340     6.2690     6.4010    23.9330    -9.5540 
   92.0000     2.1930    80.0210     6.8540     6.2610     6.6400    23.8510    -9.1010 
   92.1250     2.1990    75.1770     6.7270     6.3610     7.0210    23.8100    -8.9390 
   92.2500     2.2040    72.2580     6.7470     6.5440     7.3030    23.7770    -9.0160 
   92.3750     2.2040    72.5300     6.8610     6.7640     7.4990    23.7520    -9.2860 
   92.5000     2.1980    74.6790     6.9840     6.9560     7.9350    23.8200    -9.7670 
   92.6250     2.1860    75.8560     7.0340     7.0350     8.0700    24.0230   -10.4270 
   92.7500     2.1720    76.3670     7.0050     6.9910     7.5560    24.1800   -11.0500 
   92.8750     2.1610    76.2100     6.9330     6.8390     6.8270    24.1550   -11.5690 
   93.0000     2.1580    74.6350     6.8640     6.6180     6.7960    24.0640   -11.8920 
   93.1250     2.1660    72.7510     6.8270     6.3710     6.5140    23.9410   -11.9800 
   93.2500     2.1780    72.1530     6.8070     6.1480     6.2290    23.8900   -11.9680 
   93.3750     2.1860    74.0230     6.7940     5.9840     5.8330    23.8220   -11.8090 
   93.5000     2.1810    77.2260     6.8110     5.9070     5.8400    23.7510   -11.4770 
   93.6250     2.1630    77.6080     6.9390     5.9570     6.3410    23.7870   -11.0750 
   93.7500     2.1440    73.6950     7.2010     6.1140     6.9490    23.9000   -10.7950 
   93.8750     2.1330    67.7950     7.5480     6.3410     7.2640    23.9740   -10.7370 
   94.0000     2.1330    65.4690     7.8690     6.5840     7.4120    23.9580   -10.9300 
   94.1250     2.1430    68.3990     8.0310     6.7850     7.5160    23.9700   -11.2530 
   94.2500     2.1550    71.7670     8.0610     6.9340     7.8540    24.0360   -11.6030 
   94.3750     2.1670    72.4980     8.0630     7.0570     8.1890    24.0640   -12.0530 
   94.5000     2.1780    71.0910     8.1510     7.1840     8.3280    24.0690   -12.5650 
   94.6250     2.1910    70.5460     8.4050     7.3340     8.1470    24.1030   -13.0160 
   94.7500     2.2000    73.5180     8.7580     7.4920     7.9340    24.1300   -13.3160 
   94.8750     2.2050    78.4080     9.1170     7.6490     7.7780    24.1000   -13.4140 
