~V
VERS. 2.00: Ver 2.00
~W
STRT.M 57.0000:
STOP.M 255.0000:
STEP.M 0.1250:
NULL. -999.2500:
UWI. F10046:
~C
DEPT.M :
GR.API :
RML.OHMM :
RI. :
RXO.OHMM :
CALI.CM :
DEN.GM/CC :
SP.MV :
~A
# ...
  124.5000    60.1600    10.2010     9.0160     8.3170    22.0130     2.2260    -9.8570 
  124.6250    55.1930    10.0310     8.9270     8.2650    21.9030     2.2330    -9.8070 
  124.7500    53.0050     9.8460     8.8580     8.2130    21.8360     2.2380    -9.7720 
  124.8750    53.7110     9.6590     8.8020     8.1760    21.8000     2.2400    -9.7590 
  125.0000    55.4580     9.4850     8.7470     8.1740    21.7890     2.2400    -9.7660 
  125.1250    56.4490     9.3590     8.6780     8.1510    21.7890     2.2410    -9.7580 
  125.2500    55.9790     9.2790     8.5860     8.0790    21.7890     2.2430    -9.6980 
  125.3750    55.2180     9.2220     8.4720     7.9590    21.7890     2.2470    -9.5890 
  125.5000    56.6980     9.1630     8.3460     7.8180    21.7890     2.2500    -9.4790 
  125.6250    59.0350     9.0980     8.2430     7.7090    21.7890     2.2510    -9.4340 
  125.7500    59.0850     9.0660     8.1980     7.6640    21.7890     2.2510    -9.4480 
  125.8750    57.3250     9.1130     8.2300     7.7190    21.8050     2.2510    -9.5030 
  126.0000    56.8770     9.2530     8.3330     7.8730    21.8680     2.2530    -9.5640 
  126.1250    58.7140     9.4450     8.4830     8.1790    22.0280     2.2550    -9.6530 
  126.2500    60.9320     9.6010     8.6320     8.5230    22.1950     2.2540    -9.7660 
  126.3750    61.8300     9.6800     8.7460     8.7990    22.3540     2.2500    -9.9060 
  126.5000    60.2300     9.6880     8.8080     8.9020    22.5030     2.2420   -10.0890 
  126.6250    55.9590     9.6820     8.8110     8.8820    22.5390     2.2330   -10.2650 
  126.7500    52.8920     9.7360     8.7930     8.7220    22.4600     2.2250   -10.3850 
  126.8750    53.7830     9.8840     8.7840     8.5080    22.3160     2.2210   -10.4320 
  127.0000    56.7820    10.1080     8.8080     8.3390    22.1890     2.2190   -10.4430 
  127.1250    57.1650    10.3410     8.8690     8.2610    22.1430     2.2190   -10.4320 
  127.2500    55.7840    10.5140     8.9430     8.2140    22.1200     2.2190   -10.4130 
  127.3750    54.7900    10.6000     9.0060     8.1760    22.0930     2.2190   -10.3880 
  127.5000    53.2790    10.6080     9.0430     8.1660    22.0740     2.2180   -10.3210 
  127.6250    51.9510    10.5650     9.0440     8.2750    22.0680     2.2150   -10.2340 
  127.7500    53.4170    10.4970     9.0120     8.4350    22.0620     2.2120   -10.1680 
  127.8750    56.3290    10.3900     8.9430     8.5950    22.0200     2.2150   -10.1120 
  128.0000    57.8570    10.2180     8.8280     8.7250    21.9230     2.2250   -10.0460 
  128.1250    57.2080     9.9550     8.6550     8.9760    21.8920     2.2440    -9.9760 
  128.2500    55.5690     9.6370     8.4530     9.3020    22.0970     2.2610    -9.9520 
  128.3750    54.9910     9.3140     8.2600     9.5880    22.4550     2.2700    -9.9870 
  128.5000    57.0180     9.0500     8.1170     9.5120    22.7440     2.2660   -10.0460 
  128.6250    60.4390     8.9210     8.0630     8.6300    22.7740     2.2540   -10.0660 
  128.7500    61.6050     8.9200     8.0850     8.1570    22.6810     2.2430   -10.0340 
  128.8750    59.5420     9.0150     8.1630     7.9190    22.6320     2.2410   -10.0020 
  129.0000    55.4790     9.1430     8.2770     7.8130    22.6490     2.2450   -10.0100 
  129.1250    54.0800     9.2260     8.3980     7.8590    22.7100     2.2490   -10.0140 
  129.2500    56.1150     9.2200     8.4850     8.0190    22.7370     2.2490    -9.9360 
  129.3750    58.2820     9.1050     8.4950     8.2010    22.7430     2.2440    -9.7350 
  129.5000    58.9790     8.8910     8.3960     8.2180    22.7260     2.2370    -9.4480 
  129.6250    59.3380     8.6350     8.1850     7.9000    22.6370     2.2340    -9.1260 
  129.7500    60.8630     8.4470     7.9510     7.3750    22.4720     2.2340    -8.7950 
  129.8750    63.1280     8.4090     7.7890     6.9160    22.3110     2.2350    -8.4460 
  130.0000    64.6380     8.5380     7.7730     6.6590    22.1880     2.2340    -8.0630 
  130.1250    63.1940     8.7460     7.9240     6.6430    22.1050     2.2300    -7.6390 
  130.2500    59.4340     8.8390     8.1130     6.7560    22.0380     2.2320    -7.1810 
  130.3750    55.9380     8.6780     8.1920     6.9220    22.0320     2.2470    -6.6960 
  130.5000    55.3560     8.2180     8.0340     6.9420    22.1410     2.2740    -6.2260 
  130.6250    59.9220     7.5270     7.5610     6.7450    22.3910     2.3070    -5.8000 
  130.7500    67.0720     6.8250     6.9230     6.3410    22.7830     2.3340    -5.4410 
  130.8750    71.6860     6.2660     6.2830     5.9300    23.2560     2.3450    -5.1700 
  131.0000    71.4590     5.9340     5.7950     5.7270    23.5060     2.3410    -4.9680 
  131.1250    72.3300     5.8610     5.5810     5.4840    23.3260     2.3230    -4.8570 
  131.2500    75.8770     5.9380     5.5860     5.4200    22.8650     2.3060    -4.8100 
  131.3750    77.6940     6.0710     5.7180     5.4190    22.5220     2.2950    -4.8310 
  131.5000    76.0630     6.1600     5.8500     5.3100    22.4080     2.2950    -4.9190 
  131.6250    73.2580     6.0820     5.8250     5.2650    22.4130     2.3060    -5.0780 
  131.7500    71.3730     5.8120     5.6070     5.2610    22.5090     2.3210    -5.2520 
  131.8750    72.0650     5.3700     5.2300     5.1750    22.8330     2.3340    -5.3940 
  132.0000    77.0560     4.8390     4.7870     4.9550    23.5130     2.3440    -5.5110 
  132.1250    82.7800     4.3930     4.4200     4.7290    24.1360     2.3530    -5.6470 
  132.2500    83.9280     4.2170     4.2450     4.7230    24.2070     2.3600    -5.8900 
  132.3750    81.1680     4.4560     4.3560     5.0320    23.7420     2.3640    -6.2840 
  132.5000    78.0940     5.1790     4.8160     5.6800    23.2060     2.3630    -6.7810 
  132.6250    73.2380     6.3820     5.6830     6.7050    22.8100     2.3560    -7.3010 
  132.7500    66.1130     7.7560     6.7830     7.8570    22.5410     2.3400    -7.8370 
  132.8750    58.6650     8.9980     7.9150     8.8630    22.3820     2.3170    -8.3950 
  133.0000    52.9360     9.8340     8.8390     9.2930    22.3290     2.2890    -8.9720 
  133.1250    52.9320    10.0610     9.3020     9.1020    22.3290     2.2600    -9.5580 
  133.2500    55.7300     9.8960     9.3740     8.8210    22.3250     2.2320   -10.1100 
  133.3750    56.7130     9.5730     9.2120     8.9930    22.3050     2.2090   -10.5530 
  133.5000    54.3890     9.3050     9.0020     9.3640    22.2580     2.1920   -10.8700 
  133.6250    51.8820     9.2260     8.8890     9.5400    22.2470     2.1830   -11.1010 
  133.7500    50.3960     9.2940     8.8860     9.6130    22.3640     2.1820   -11.2520 
  133.8750    48.4940     9.4430     8.9560     9.6370    22.6410     2.1890   -11.3430 
  134.0000    47.5550     9.6110     9.0530     9.7100    22.9390     2.2000   -11.3770 
  134.1250    50.3020     9.7580     9.1430     9.8770    23.1640     2.2090   -11.3370 
  134.2500    54.4050     9.8880     9.2210     9.9900    23.3030     2.2130   -11.2460 
  134.3750    56.9260    10.0090     9.2910     9.9680    23.4260     2.2140   -11.1040 
  134.5000    56.6440    10.1110     9.3440     9.8160    23.5240     2.2130   -10.9010 
  134.6250    54.2910    10.1420     9.3400     9.6630    23.5560     2.2130   -10.6410 
  134.7500    52.3120    10.0570     9.2410     9.5800    23.5530     2.2140   -10.3820 
  134.8750    52.3470     9.8340     9.0340     9.5940    23.5120     2.2140   -10.1230 
  135.0000    55.6990     9.5130     8.7540     9.6790    23.4170     2.2120    -9.8690 
  135.1250    59.5190     9.2650     8.5350     9.6160    23.2810     2.2060    -9.5630 
  135.2500    59.6870     9.3470     8.5690     9.5930    23.1360     2.2020    -9.1640 
  135.3750    57.3860     9.9860     9.0380     9.9560    23.0450     2.2100    -8.7300 
  135.5000    56.1000    11.2470    10.0210    11.1650    23.0440     2.2420    -8.3190 
  135.6250    56.0420    12.9000    11.4170    13.6770    23.1510     2.3070    -7.9410 
