~V
VERS. 2.00: Ver 2.00
~W
STRT.M 55.0000:
STOP.M 308.0000:
STEP.M 0.1250:
NULL. -999.2500:
UWI. F10053:
~C
DEPT.M :
GR.API :
RML.OHMM :
RI. :
RXO.OHMM :
CALI.CM :
DEN.GM/CC :
SP.MV :
~A
# ...
  100.0000    75.3690     8.7920     7.6930     9.4550    24.1200     2.1550   -17.9710 
  100.1250    74.8740     8.7700     7.5840     9.3870    24.1040     2.1570   -17.7680 
  100.2500    75.2640     8.7920     7.5230     9.3670    24.0780     2.1570   -17.5070 
  100.3750    75.7890     8.8010     7.5000     9.3730    24.0670     2.1570   -17.2500 
  100.5000    74.9210     8.8060     7.5090     9.2760    24.0610     2.1640   -17.0550 
  100.6250    73.2400     8.9190     7.5820     9.3240    24.0050     2.1900   -16.9430 
  100.7500    72.3610     9.2190     7.7580     9.5180    23.8850     2.2290   -16.8500 
  100.8750    70.7700     9.6980     8.0640     9.9110    23.8110     2.2680   -16.8190 
  101.0000    68.2470    10.2470     8.4840    11.4520    23.9480     2.2890   -16.8430 
  101.1250    65.9240    10.6530     8.9230    16.5080    24.1200     2.2770   -16.8420 
  101.2500    62.8020    10.8000     9.2050    21.5950    24.1060     2.2440   -16.8370 
  101.3750    60.4640    10.6860     9.2230    16.4390    23.8690     2.2060   -16.8220 
  101.5000    61.5770    10.4020     8.9920    10.8630    23.6460     2.1770   -16.7860 
  101.6250    65.1200    10.0510     8.6240     9.4740    23.6380     2.1620   -16.8080 
  101.7500    67.1430     9.7060     8.2580     9.6950    23.7710     2.1570   -16.9230 
  101.8750    66.8400     9.3870     7.9620     9.7440    23.9180     2.1570   -17.0240 
  102.0000    67.0390     9.1190     7.7650     9.5440    23.9870     2.1610   -17.0480 
  102.1250    68.6110     8.9640     7.6720     9.4370    23.9670     2.1610   -17.0660 
  102.2500    69.4030     8.9380     7.6500     9.3650    23.9060     2.1550   -17.1410 
  102.3750    68.2330     9.0420     7.6870     9.2910    23.8470     2.1440   -17.2600 
  102.5000    65.9920     9.2380     7.7620     9.3740    23.8070     2.1310   -17.3500 
  102.6250    65.3120     9.4630     7.8480     9.6090    23.7920     2.1240   -17.3910 
  102.7500    66.1630     9.6490     7.9380     9.7620    23.7960     2.1250   -17.3660 
  102.8750    67.5830     9.7660     8.0430     9.8120    23.8080     2.1340   -17.3500 
  103.0000    68.8200     9.8080     8.1690     9.8850    23.8330     2.1470   -17.3940 
  103.1250    69.6310     9.7980     8.3130    10.0620    23.8740     2.1580   -17.5150 
  103.2500    69.0370     9.7920     8.4670    10.3240    23.8960     2.1630   -17.6410 
  103.3750    66.8710     9.8170     8.6200    10.6520    23.9240     2.1620   -17.8300 
  103.5000    65.4740     9.8800     8.7570    10.9690    23.9210     2.1530   -18.0870 
  103.6250    65.7380     9.9810     8.8650    11.1970    23.8550     2.1370   -18.4050 
  103.7500    66.0950    10.0850     8.9480    11.3690    23.8220     2.1120   -18.8240 
  103.8750    66.1350    10.1270     8.9690    11.6210    23.8310     2.0840   -19.2270 
  104.0000    66.6340    10.0200     8.8460    11.8380    23.8750     2.0620   -19.5350 
  104.1250    67.6770     9.7100     8.5080    12.0670    23.8890     2.0730   -19.4880 
  104.2500    67.8510     9.3610     8.1160    12.2670    23.8260     2.1330   -19.0670 
  104.3750    69.2410     9.2150     7.8910    11.6250    23.6950     2.2460   -18.1790 
  104.5000    73.2430     9.5200     8.0270    10.3210    23.5810     2.3860   -17.0100 
  104.6250    75.8120    10.4860     8.7110    11.0640    23.5830     2.4950   -15.7440 
  104.7500    75.3630    11.8400     9.8000    16.6840    23.7010     2.5320   -14.4940 
  104.8750    74.2580    13.1460    11.0000    23.2500    23.8210     2.4830   -13.3990 
  105.0000    73.6210    13.8830    11.8070    23.7170    23.7770     2.3750   -12.6330 
  105.1250    71.3100    13.5950    11.6800    16.7130    23.5910     2.2580   -12.3990 
  105.2500    67.4540    12.6260    10.9130    14.0180    23.4940     2.1760   -12.6330 
  105.3750    66.8970    11.4440     9.9450    14.6410    23.5090     2.1390   -13.2990 
  105.5000    71.9420    10.4740     9.1270    12.9550    23.5310     2.1350   -14.2670 
  105.6250    76.7500     9.9850     8.6660    12.2380    23.5020     2.1450   -15.3690 
  105.7500    76.3650     9.8410     8.4810    12.4900    23.4640     2.1520   -16.4330 
  105.8750    72.5210     9.8860     8.4760    12.5720    23.3840     2.1520   -17.3190 
  106.0000    70.0760     9.9850     8.5710    11.7200    23.2490     2.1480   -17.8940 
  106.1250    71.2960    10.0430     8.7160    11.3970    23.1470     2.1490   -18.1590 
  106.2500    73.7340    10.0400     8.8590    11.6710    23.0910     2.1590   -18.3780 
  106.3750    75.3000    10.0000     8.9700    12.0410    23.0180     2.1790   -18.6500 
  106.5000    74.5800     9.9640     9.0480    12.1560    22.9410     2.2010   -18.9200 
  106.6250    71.9990     9.9740     9.1070    12.6100    22.9340     2.2140   -19.0810 
  106.7500    70.6550    10.0200     9.1430    12.5470    23.0540     2.2080   -19.1310 
  106.8750    70.7330    10.0800     9.1420    12.2690    23.3320     2.1820   -19.1280 
  107.0000    71.1010    10.1370     9.1120    12.1580    23.6470     2.1450   -19.0290 
  107.1250    70.5270    10.1610     9.0620    12.0370    23.6860     2.1120   -18.9100 
  107.2500    69.4080    10.0970     8.9650    11.8530    23.4590     2.0970   -18.7180 
  107.3750    70.4500     9.8710     8.7600    11.4350    23.2150     2.1070   -18.3190 
  107.5000    76.1090     9.4440     8.4090    11.1930    23.1690     2.1370   -17.6510 
  107.6250    82.6580     8.8530     7.9380    10.0820    23.3950     2.1710   -16.6720 
  107.7500    84.6990     8.2800     7.4740     8.5650    23.7340     2.1940   -15.5840 
  107.8750    83.2470     7.8750     7.1250     7.3440    23.9550     2.2030   -14.6550 
  108.0000    81.6210     7.7260     6.9490     7.3140    23.9950     2.2030   -14.0360 
  108.1250    79.0630     7.8510     6.9480     8.3640    23.9630     2.2040   -13.5510 
  108.2500    75.1590     8.0930     7.0240     8.6360    23.9670     2.2070   -13.0590 
  108.3750    73.8700     8.3190     7.1090     8.5210    23.9790     2.2070   -12.6680 
  108.5000    76.6030     8.4240     7.1530     8.3660    23.9800     2.1980   -12.5170 
  108.6250    77.6640     8.3460     7.1230     8.4200    23.9920     2.1790   -12.7210 
  108.7500    74.1350     8.1720     7.0590     8.4320    24.0070     2.1590   -13.1040 
  108.8750    69.7630     8.0020     7.0030     8.6430    23.9740     2.1450   -13.4530 
  109.0000    68.2860     7.9240     6.9790     8.7950    23.9110     2.1410   -13.6450 
  109.1250    71.4150     7.9900     6.9970     8.8560    23.8730     2.1490   -13.7850 
  109.2500    75.4750     8.1410     7.0380     9.1100    23.8830     2.1590   -13.9590 
  109.3750    77.6530     8.3070     7.0890     9.3480    23.8950     2.1670   -14.1240 
  109.5000    77.3960     8.4150     7.1360     9.6260    23.8950     2.1700   -14.2670 
  109.6250    75.6030     8.4100     7.1680     9.5700    23.8720     2.1710   -14.3520 
  109.7500    75.3540     8.3280     7.1890     9.2870    23.8550     2.1720   -14.4110 
  109.8750    77.1830     8.2260     7.2020     8.9920    23.8800     2.1740   -14.4220 
  110.0000    79.1810     8.1610     7.2170     8.8400    23.9130     2.1750   -14.4530 
  110.1250    79.4330     8.1640     7.2400     8.8430    23.9240     2.1690   -14.5570 
  110.2500    78.8530     8.2000     7.2650     8.9150    23.9320     2.1550   -14.6610 
  110.3750    77.4850     8.2330     7.2790     9.0370    23.9610     2.1340   -14.7270 
  110.5000    75.0150     8.2410     7.2680     8.7840    23.9880     2.1140   -14.7600 
  110.6250    72.6050     8.2340     7.2300     8.3900    24.0110     2.1050   -14.7990 
  110.7500    72.2580     8.2330     7.1810     8.4740    24.0360     2.1120   -14.8570 
  110.8750    72.5220     8.2370     7.1330     8.6020    24.0550     2.1320   -14.8330 
  111.0000    72.1280     8.2390     7.0920     8.5880    24.0400     2.1590   -14.7410 
  111.1250    73.1780     8.2580     7.0820     8.4410    23.9670     2.1840   -14.5630 
