~V
VERS. 2.00: Ver 2.00
~W
STRT.M 51.0000:
STOP.M 313.0000:
STEP.M 0.1250:
NULL. -999.2500:
UWI. F10047:
~C
DEPT.M :
SP.MV :
GR.API :
RML.OHMM :
RI. :
RXO.OHMM :
CALI.CM :
DEN.GM/CC :
~A
# ...
  253.5000    -0.3790    69.0800    36.4140    33.5160    34.9190    26.5100     2.3100 
  253.6250    -0.5470    68.2510    37.6710    34.6920    34.5750    26.5090     2.2950 
  253.7500    -0.6980    64.4680    38.9210    35.8550    34.9390    26.5100     2.2920 
  253.8750    -0.8320    59.4430    40.0590    36.9160    35.4560    26.5110     2.3020 
  254.0000    -0.8900    56.1080    40.9380    37.7560    34.7070    26.4970     2.3170 
  254.1250    -0.8740    57.4050    41.3290    38.1790    35.9510    26.4400     2.3230 
  254.2500    -0.8240    61.6400    41.1390    38.1000    37.2740    26.3560     2.3130 
  254.3750    -0.6840    65.0860    40.2220    37.3900    39.1560    26.2890     2.2950 
  254.5000    -0.4730    65.6210    38.3990    35.8910    41.0630    26.2130     2.2790 
  254.6250    -0.2850    64.4650    35.3180    33.2650    38.3830    26.0870     2.2820 
  254.7500    -0.0850    64.9840    31.3960    29.8420    33.1120    26.0150     2.3020 
  254.8750     0.2040    66.0290    27.3810    26.2520    28.2250    25.9960     2.3300 
  255.0000     0.5160    65.1410    24.1890    23.2700    23.9740    25.9970     2.3510 
  255.1250     0.8330    64.2540    22.6910    21.6240    18.9670    25.9950     2.3570 
  255.2500     1.1700    65.4470    22.5260    21.0960    16.3120    25.9820     2.3600 
  255.3750     1.4690    67.2320    22.8970    21.1140    19.4180    25.9470     2.3820 
  255.5000     1.7960    67.1390    22.5750    20.6750    26.7810    25.9060     2.4280 
  255.6250     2.1750    66.7380    20.2690    18.6040    30.3620    25.8920     2.4750 
  255.7500     2.5570    66.7130    16.6550    15.4220    20.5860    26.0340     2.4870 
  255.8750     2.9140    65.2510    12.9500    12.1690    10.3120    26.4300     2.4520 
  256.0000     3.2630    61.6480     9.2500     9.6160     6.5300    26.9050     2.3930 
  256.1250     3.6090    58.4480     7.8100     8.1150     6.0160    26.8090     2.3550 
  256.2500     3.8830    56.5050     7.2310     7.3640     6.4300    26.2590     2.3580 
  256.3750     4.0760    54.3810     7.1890     7.1430     6.7400    25.7190     2.3890 
  256.5000     4.2080    52.4900     7.3600     7.2160     6.9710    25.4250     2.4220 
  256.6250     4.2820    52.6610     7.4840     7.3480     7.0260    25.3500     2.4340 
  256.7500     4.2540    53.4280     7.5230     7.4190     6.7890    25.3400     2.4320 
  256.8750     4.1400    54.4470     7.5680     7.4610     6.4890    25.3400     2.4260 
  257.0000     3.9770    54.7410     7.6920     7.5390     6.6680    25.3400     2.4230 
  257.1250     3.7060    53.7280     7.8910     7.6830     7.4040    25.3400     2.4240 
  257.2500     3.4190    51.7010     8.0810     7.8400     7.8840    25.3400     2.4250 
  257.3750     3.2060    49.4030     8.2090     7.9560     7.8880    25.3390     2.4270 
  257.5000     2.9990    48.8100     8.2520     7.9960     7.7100    25.3300     2.4320 
  257.6250     2.7750    50.2830     8.2250     7.9570     7.6380    25.3060     2.4390 
  257.7500     2.6060    52.6180     8.1890     7.8880     7.6830    25.2770     2.4460 
  257.8750     2.4620    55.8260     8.1820     7.8270     7.7900    25.2640     2.4490 
  258.0000     2.3230    59.2910     8.2340     7.7900     7.9230    25.2560     2.4490 
  258.1250     2.2520    60.2190     8.3460     7.7830     7.9410    25.2350     2.4490 
  258.2500     2.1720    56.3170     8.4610     7.7880     7.9210    25.2080     2.4500 
  258.3750     2.0390    50.9730     8.5320     7.7900     7.8610    25.1960     2.4490 
  258.5000     1.8840    49.6720     8.5350     7.7710     7.7210    25.1940     2.4410 
  258.6250     1.7040    53.3270     8.4850     7.7160     7.6360    25.1840     2.4280 
  258.7500     1.5570    56.6480     8.4360     7.6390     7.5670    25.1600     2.4170 
  258.8750     1.4310    57.2200     8.4120     7.5540     7.5220    25.1360     2.4140 
  259.0000     1.3790    55.4970     8.4060     7.4800     7.5170    25.1260     2.4180 
  259.1250     1.3760    54.4700     8.3710     7.4150     7.4610    25.1260     2.4240 
  259.2500     1.3980    54.6280     8.2670     7.3300     7.2600    25.1250     2.4260 
  259.3750     1.5190    54.5210     8.0850     7.1910     7.1540    25.1110     2.4220 
  259.5000     1.6860    54.0400     7.8560     6.9790     7.3140    25.0510     2.4150 
  259.6250     1.9130    55.0010     7.6370     6.7140     6.9100    24.8770     2.4080 
  259.7500     2.1530    55.3820     7.4750     6.4610     6.3220    24.6730     2.4040 
  259.8750     2.3520    54.7260     7.3800     6.2670     5.9700    24.5140     2.4050 
  260.0000     2.5160    55.4430     7.3310     6.1400     5.9210    24.3370     2.4080 
  260.1250     2.6820    58.3280     7.2580     6.0410     6.1840    24.0100     2.4090 
  260.2500     2.8180    59.8330     7.1100     5.9040     6.2780    23.6480     2.4060 
  260.3750     2.8590    60.5300     6.8970     5.7200     6.1510    23.3900     2.3940 
  260.5000     2.8840    63.8620     6.7020     5.5290     5.9580    23.1290     2.3750 
  260.6250     2.8440    70.0060     6.6880     5.4410     5.6080    22.8490     2.3530 
  260.7500     2.7240    75.9210     6.9360     5.5320     5.5850    22.6920     2.3330 
  260.8750     2.6420    81.5660     7.4560     5.8400     6.3270    22.6450     2.3200 
  261.0000     2.6250    85.6620     8.1560     6.3410     7.1880    22.6340     2.3150 
  261.1250     2.5800    87.0480     8.8380     6.9300     7.4660    22.5100     2.3140 
  261.2500     2.5460    88.1180     9.3170     7.4270     7.1450    22.1050     2.3120 
  261.3750     2.5650    89.7260     9.5250     7.7200     6.7670    21.4100     2.3080 
  261.5000     2.5320    89.7760     9.5110     7.7940     6.5630    20.7440     2.3030 
  261.6250     2.5070    89.0000     9.3900     7.7140     6.5280    20.4600     2.3040 
  261.7500     2.5460    91.5180     9.2710     7.5930     6.6700    20.3890     2.3140 
  261.8750     2.5510    96.2500     9.1680     7.4760     6.9690    20.4360     2.3290 
  262.0000     2.5270    98.2450     9.0820     7.3900     7.0960    20.6930     2.3430 
  262.1250     2.4840    96.6280     9.0560     7.3790     7.1940    21.2550     2.3450 
  262.2500     2.4410    95.0890     9.1290     7.4570     7.3940    22.0590     2.3380 
  262.3750     2.3950    94.8920     9.3060     7.6190     7.8170    23.0750     2.3250 
  262.5000     2.3510    95.3940     9.5270     7.8130     8.5220    24.1520     2.3130 
  262.6250     2.4040    95.4860     9.6520     7.9320     8.8810    24.9310     2.3070 
  262.7500     2.4720    95.7230     9.5870     7.9160     9.0440    25.2110     2.3050 
  262.8750     2.5100    97.2860     9.3390     7.7740     8.6870    25.2620     2.3060 
  263.0000     2.5380    99.9680     9.0020     7.5700     8.1950    25.2630     2.3090 
  263.1250     2.6010   100.8960     8.7370     7.4170     7.8130    25.2630     2.3180 
  263.2500     2.6640    98.2400     8.6700     7.4020     7.7640    25.2630     2.3310 
  263.3750     2.7440    93.7650     8.8460     7.5660     8.2050    25.2630     2.3490 
  263.5000     2.9000    90.7720     9.2040     7.8850     8.8430    25.2560     2.3690 
  263.6250     3.0020    91.8690     9.5530     8.2510     8.3950    25.2350     2.3820 
  263.7500     3.0680    92.9510     9.6620     8.4800     8.5540    25.2080     2.3860 
  263.8750     3.2120    93.4990     9.3970     8.4270     9.1900    25.1960     2.3800 
  264.0000     3.3620    95.5410     8.7770     8.0540     8.3860    25.1940     2.3650 
  264.1250     3.4890    98.6660     7.9770     7.4600     6.9970    25.1940     2.3490 
  264.2500     3.6500    98.3570     7.2560     6.8640     6.1180    25.1910     2.3400 
  264.3750     3.8440    94.9760     6.7320     6.3770     5.8320    25.1670     2.3410 
  264.5000     4.0100    94.2750     6.4300     6.0440     5.7590    25.1060     2.3510 
  264.6250     4.2160    96.6690     6.3100     5.8560     5.6720    25.0230     2.3600 
