~V
VERS. 2.00: Ver 2.00
~W
STRT.M 50.0000:
STOP.M 237.0000:
STEP.M 0.1250:
NULL. -999.2500:
UWI. F10006:
~C
DEPT.M :
GR.API :
RML.OHMM :
RI. :
RXO.OHMM :
CALI.CM :
DEN.GM/CC :
SP.MV :
~A
# ...
  106.2500    59.5850    87.3110    90.1060   113.7270    24.2550     2.7750   -17.9240 
  106.3750    63.4420    74.5900    78.8960   121.3690    24.1700     2.7060   -17.9660 
  106.5000    67.1780    57.3280    62.1640    79.0020    24.0080     2.5980   -17.9930 
  106.6250    69.7360    41.5750    45.6730    34.4810    23.8060     2.4690   -17.9840 
  106.7500    71.0830    30.1550    33.1390    19.5590    23.7410     2.3500   -17.9700 
  106.8750    70.5840    23.0180    25.0010    17.7300    23.9230     2.2620   -17.9780 
  107.0000    68.1480    19.1800    20.3710    19.4220    24.2520     2.2070   -18.0630 
  107.1250    67.8260    17.9810    18.5060    17.9940    24.4110     2.1780   -18.1980 
  107.2500    70.2170    18.4310    18.3340    16.7930    24.4010     2.1610   -18.3670 
  107.3750    71.4350    20.2160    19.5610    19.5570    24.3320     2.1610   -18.5720 
  107.5000    69.4220    22.9270    21.8610    23.0280    24.3400     2.1930   -18.8050 
  107.6250    68.0300    25.5770    24.4010    25.4580    24.4290     2.2700   -19.0970 
  107.7500    70.0820    26.7350    25.6990    27.4800    24.4250     2.3660   -19.4480 
  107.8750    74.5010    25.4090    24.6420    29.1620    24.3310     2.4480   -19.8530 
  108.0000    79.2810    21.6670    21.2020    21.7080    24.2520     2.4880   -20.2610 
  108.1250    83.5280    16.7650    16.6040    14.5910    24.2180     2.4730   -20.6630 
  108.2500    86.1060    12.4910    12.5620     8.5200    24.2200     2.4340   -21.0780 
  108.3750    85.5820     9.5880     9.7310     7.0630    24.2330     2.3970   -21.4510 
  108.5000    84.4940     8.1740     8.2010     7.0760    24.2430     2.3860   -21.7600 
  108.6250    86.4980     8.2170     7.9920     7.7850    24.2380     2.4150   -21.9970 
  108.7500    88.3020     9.1430     8.6820     9.1920    24.2190     2.4630   -22.1950 
  108.8750    85.8690    10.5230     9.9700    12.1950    24.2040     2.5060   -22.3560 
  109.0000    81.7370    11.8320    11.4000    16.4680    24.2010     2.5190   -22.4650 
  109.1250    82.0730    12.4100    12.2850    16.1090    24.2070     2.4930   -22.5100 
  109.2500    85.3720    12.1320    12.3140    11.6860    24.2000     2.4540   -22.4610 
  109.3750    87.8310    11.1850    11.5560     8.4410    24.2030     2.4240   -22.3560 
  109.5000    89.1350     9.9650    10.3600     7.6250    24.2110     2.4130   -22.2430 
  109.6250    89.4720     8.8910     9.1480     8.0160    24.2170     2.4120   -22.1430 
  109.7500    89.5200     8.1130     8.1590     7.5160    24.2020     2.4070   -22.0340 
  109.8750    90.3320     7.6060     7.4280     6.3700    24.1910     2.3970   -21.9200 
  110.0000    92.0690     7.2860     6.9110     5.9560    24.1890     2.3890   -21.8070 
  110.1250    95.7940     7.1060     6.5830     5.9450    24.1890     2.3870   -21.6980 
  110.2500   100.7860     7.0440     6.4030     5.7270    24.1920     2.3850   -21.6190 
  110.3750   106.4420     7.1210     6.3760     5.7270    24.1960     2.3780   -21.5640 
  110.5000   109.4920     7.3260     6.4900     6.1880    24.1960     2.3650   -21.5170 
  110.6250   105.3820     7.5990     6.7010     6.8530    24.2000     2.3550   -21.4980 
  110.7500    99.1380     7.8310     6.9170     7.2900    24.2140     2.3580   -21.4920 
  110.8750    96.2840     7.9640     7.0870     7.0880    24.2250     2.3770   -21.4940 
  111.0000    98.1360     7.9960     7.2000     6.6290    24.1960     2.4060   -21.5210 
  111.1250    99.8900     8.0080     7.3010     6.6100    24.1400     2.4280   -21.5720 
  111.2500    98.5130     8.1340     7.4780     7.0420    24.0630     2.4280   -21.6450 
  111.3750    95.5500     8.4600     7.8030     7.5710    24.0410     2.4020   -21.7080 
  111.5000    92.0860     8.9700     8.2890     7.9510    24.0810     2.3580   -21.7440 
  111.6250    89.2900     9.5080     8.8390     8.7350    24.1580     2.3160   -21.7400 
  111.7500    88.2580     9.8450     9.2530     9.6090    24.1980     2.2960   -21.7120 
  111.8750    88.8740     9.8940     9.4180     9.7340    24.1970     2.3010   -21.6660 
  112.0000    89.1500     9.7600     9.3780     8.5040    24.1120     2.3200   -21.6070 
  112.1250    88.9540     9.7370     9.3390     7.6010    23.9300     2.3300   -21.5300 
  112.2500    88.7580     9.9950     9.4750     7.3650    23.7350     2.3180   -21.4470 
  112.3750    87.9240    10.4630     9.7780     8.3580    23.3930     2.2910   -21.3780 
  112.5000    85.8650    10.8970    10.1020    11.1280    22.8560     2.2650   -21.3300 
  112.6250    85.5630    10.9880    10.2380    12.8810    22.5830     2.2600   -21.2740 
  112.7500    88.2070    10.8160    10.2020    10.6490    22.6800     2.2690   -21.1970 
  112.8750    91.1090    10.7380    10.2050     8.2450    22.7990     2.2780   -21.0930 
  113.0000    91.9080    11.2910    10.5910     8.4410    22.6920     2.2720   -20.9550 
  113.1250    88.6560    13.2880    11.9690    11.2000    22.3970     2.2460   -20.7830 
  113.2500    81.9340    16.9410    14.6810    15.7420    22.0630     2.2140   -20.5840 
  113.3750    73.9670    22.2650    19.0280    22.4720    21.8780     2.1850   -20.3620 
  113.5000    67.6530    28.7160    24.8700    30.9070    22.0550     2.1630   -20.1280 
  113.6250    64.5050    34.8480    31.1310    34.5100    22.4840     2.1450   -19.9080 
  113.7500    62.5390    39.1830    36.0470    36.7260    22.6880     2.1300   -19.7300 
  113.8750    61.4490    41.1930    38.7000    36.7420    22.7650     2.1170   -19.5750 
  114.0000    61.8280    41.3040    39.2280    35.0620    22.7950     2.1070   -19.4540 
  114.1250    64.4770    40.2710    38.2660    33.5670    22.7480     2.1040   -19.3850 
  114.2500    66.8660    38.8440    36.7200    30.8020    22.6060     2.1060   -19.3550 
  114.3750    67.0220    37.1930    34.8860    27.1790    22.3970     2.1160   -19.3710 
  114.5000    66.9340    35.4690    32.9850    22.6590    22.0860     2.1320   -19.4270 
  114.6250    70.7180    34.1410    31.4370    20.0490    21.6670     2.1510   -19.4900 
  114.7500    74.2190    33.7190    30.6490    19.7170    21.3170     2.1620   -19.5200 
  114.8750    72.5930    34.6000    30.9600    21.6960    21.2800     2.1620   -19.5360 
  115.0000    66.8460    36.9020    32.5560    26.4530    21.6400     2.1500   -19.5280 
  115.1250    63.5420    40.5300    35.5750    31.8130    22.4200     2.1310   -19.4970 
  115.2500    64.9460    44.6860    39.4410    37.0570    23.2590     2.1140   -19.4530 
  115.3750    68.6810    48.7900    43.6320    37.7630    23.7990     2.1040   -19.3820 
  115.5000    71.5690    52.4930    47.6730    34.9470    23.8490     2.1030   -19.2690 
  115.6250    70.9950    55.7570    51.2790    34.5550    23.5170     2.1080   -19.1450 
  115.7500    68.0290    58.7690    54.5050    34.6530    22.9770     2.1130   -19.0480 
  115.8750    64.9660    61.2260    57.1310    35.8630    22.6000     2.1160   -18.9600 
  116.0000    63.1240    62.2870    58.4940    37.4650    22.4810     2.1150   -18.8630 
  116.1250    62.2990    60.5790    57.3540    39.2430    22.5970     2.1150   -18.7530 
  116.2500    62.4580    56.5090    53.9560    36.2440    22.7470     2.1170   -18.6180 
  116.3750    64.6280    51.1870    49.2050    26.1690    22.6810     2.1210   -18.4740 
  116.5000    66.9660    46.0970    44.4530    16.4940    22.2090     2.1240   -18.3300 
  116.6250    66.8450    42.7750    41.1970    13.6600    21.0110     2.1230   -18.1750 
  116.7500    66.5850    41.5170    39.8710    13.0160    19.6440     2.1170   -18.0020 
  116.8750    69.4400    42.2860    40.5730    12.7590    18.1570     2.1040   -17.8240 
  117.0000    73.4580    45.0740    43.1330    12.5450    17.1600     2.0880   -17.6680 
  117.1250    72.3540    49.8110    47.3460    13.6760    16.7800     2.0730   -17.5340 
  117.2500    66.2440    55.2390    52.2400    15.7060    16.7590     2.0660   -17.4160 
  117.3750    60.8610    59.4590    56.8690    18.3300    16.9270     2.0690   -17.3070 
