~V
VERS. 2.00: Ver 2.00
~W
STRT.M 50.0000:
STOP.M 293.0000:
STEP.M 0.1250:
NULL. -999.2500:
UWI. F10037:
~C
DEPT.M :
GR.API :
RML.OHMM :
RI. :
RXO.OHMM :
CALI.CM :
SP.MV :
DEN.GM/CC :
~A
# ...
   83.7500    71.4280     6.2190     4.9460     6.3650    23.8140    -5.8070     2.2240 
   83.8750    71.0170     6.1890     4.9100     6.2910    24.0230    -5.7740     2.2220 
   84.0000    71.2650     6.1710     4.8810     6.2600    24.3550    -5.7920     2.2210 
   84.1250    71.4450     6.1750     4.8670     6.3000    24.7180    -5.8640     2.2200 
   84.2500    71.8610     6.1980     4.8680     6.3160    24.9420    -6.0180     2.2200 
   84.3750    72.9550     6.2400     4.8840     6.3320    24.9260    -6.2040     2.2190 
   84.5000    74.8820     6.2950     4.9140     6.4040    24.7160    -6.4330     2.2190 
   84.6250    76.8510     6.3560     4.9570     6.5280    24.4220    -6.7080     2.2180 
   84.7500    78.3570     6.4150     5.0080     6.6750    24.1740    -7.0130     2.2180 
   84.8750    77.6920     6.4690     5.0590     6.8280    24.0280    -7.3140     2.2180 
   85.0000    75.9590     6.5170     5.1060     6.9660    24.0250    -7.6050     2.2200 
   85.1250    74.8710     6.5590     5.1390     7.0470    24.1230    -7.8570     2.2230 
   85.2500    73.9830     6.6000     5.1610     7.0740    24.1900    -8.0900     2.2280 
   85.3750    71.3810     6.6410     5.1750     7.0570    24.1830    -8.2640     2.2340 
   85.5000    65.6770     6.6810     5.1870     6.9830    24.1210    -8.4410     2.2410 
   85.6250    60.4160     6.7200     5.2030     6.8560    24.0250    -8.5570     2.2460 
   85.7500    58.2790     6.7630     5.2310     6.7960    23.9040    -8.6640     2.2500 
   85.8750    59.2420     6.8140     5.2740     6.8110    23.7720    -8.7620     2.2500 
   86.0000    62.2460     6.8800     5.3370     6.8600    23.6500    -8.8500     2.2470 
   86.1250    66.6170     6.9590     5.4210     6.9780    23.5920    -8.9230     2.2430 
   86.2500    70.8440     7.0410     5.5140     7.1560    23.5810    -8.9750     2.2370 
   86.3750    72.5730     7.1160     5.6080     7.3580    23.5880    -9.0360     2.2330 
   86.5000    71.2720     7.1830     5.6950     7.5350    23.5930    -9.0330     2.2290 
   86.6250    68.0340     7.2570     5.7770     7.6270    23.5850    -9.0060     2.2250 
   86.7500    64.8980     7.3640     5.8680     7.6400    23.5640    -8.8650     2.2220 
   86.8750    62.6800     7.5160     5.9760     7.6840    23.5530    -8.6880     2.2220 
   87.0000    63.1230     7.6940     6.0950     7.8120    23.5830    -8.4660     2.2230 
   87.1250    65.7780     7.8180     6.1820     7.9720    23.6700    -8.2050     2.2270 
   87.2500    67.0870     7.7960     6.1830     7.9940    23.7900    -7.9040     2.2310 
   87.3750    67.9540     7.5670     6.0560     7.7560    23.9030    -7.5580     2.2380 
   87.5000    70.3600     7.1370     5.7960     7.2440    23.9580    -7.2140     2.2490 
   87.6250    74.9020     6.5980     5.4430     6.4860    23.9010    -6.9320     2.2680 
   87.7500    78.3670     6.1280     5.1040     5.7940    23.7720    -6.7810     2.2910 
   87.8750    78.5630     5.8490     4.8630     5.4320    23.6080    -6.7630     2.3110 
   88.0000    75.4630     5.8180     4.7770     5.4110    23.4590    -6.8970     2.3220 
   88.1250    71.8660     6.0640     4.8900     5.6500    23.3690    -7.2020     2.3170 
   88.2500    68.5890     6.4660     5.1380     5.9710    23.3200    -7.6690     2.3020 
   88.3750    64.9480     6.9150     5.4600     6.3820    23.2950    -8.2460     2.2830 
   88.5000    62.7680     7.3000     5.7790     6.9080    23.3120    -8.8990     2.2660 
   88.6250    62.9220     7.5090     6.0140     7.4350    23.4300    -9.5370     2.2560 
   88.7500    62.0610     7.5620     6.1430     7.9070    23.6550   -10.1320     2.2500 
   88.8750    59.3080     7.5140     6.1800     8.1390    23.9260   -10.6120     2.2480 
   89.0000    58.1320     7.4350     6.1610     8.0980    24.1460   -10.9740     2.2470 
   89.1250    60.5960     7.3930     6.1300     7.9630    24.2320   -11.1630     2.2430 
   89.2500    63.7340     7.4030     6.1190     7.8930    24.2290   -11.2370     2.2380 
   89.3750    65.2050     7.4600     6.1350     7.8930    24.1490   -11.2320     2.2320 
   89.5000    65.4210     7.5470     6.1740     7.8620    23.9820   -11.1820     2.2300 
   89.6250    66.9900     7.6430     6.2280     7.8400    23.7980   -11.1360     2.2340 
   89.7500    69.4450     7.7260     6.2830     7.8170    23.7220   -11.0810     2.2450 
   89.8750    69.7080     7.7740     6.3260     7.8640    23.7890   -11.0670     2.2570 
   90.0000    67.3750     7.7630     6.3390     7.9740    23.9430   -11.0660     2.2650 
   90.1250    66.6630     7.6540     6.2930     8.1030    24.0440   -11.1050     2.2620 
   90.2500    66.4120     7.4490     6.1800     8.1090    24.1200   -11.1180     2.2510 
   90.3750    63.8640     7.1720     6.0070     7.9650    24.2140   -11.1250     2.2380 
   90.5000    59.9560     6.8800     5.8000     7.6830    24.3270   -11.1020     2.2300 
   90.6250    59.0960     6.6560     5.6150     7.3080    24.3790   -11.0460     2.2300 
   90.7500    62.0270     6.5430     5.4930     6.9530    24.3810   -10.9710     2.2350 
   90.8750    65.3340     6.5490     5.4560     6.7980    24.3550   -10.9100     2.2380 
   91.0000    65.6730     6.6470     5.4980     7.0630    24.3180   -10.8700     2.2340 
   91.1250    64.0510     6.7840     5.5930     7.5020    24.2780   -10.8490     2.2220 
   91.2500    64.1500     6.8930     5.6910     7.8520    24.2550   -10.8550     2.2120 
   91.3750    65.4550     6.9360     5.7560     7.8830    24.2570   -10.8700     2.2100 
   91.5000    66.6040     6.9070     5.7750     7.7540    24.2900   -10.9130     2.2210 
   91.6250    68.3460     6.8300     5.7470     7.6700    24.3660   -10.9570     2.2390 
   91.7500    70.1000     6.7540     5.7030     7.6410    24.4580   -11.0140     2.2510 
   91.8750    69.1800     6.7050     5.6650     7.6460    24.5330   -11.0150     2.2510 
   92.0000    65.8480     6.6900     5.6430     7.6910    24.5570   -10.9500     2.2420 
   92.1250    63.2780     6.7000     5.6400     7.7530    24.5220   -10.8280     2.2320 
   92.2500    62.7710     6.7140     5.6480     7.8200    24.4590   -10.7150     2.2300 
   92.3750    63.6640     6.7190     5.6610     7.8800    24.3880   -10.5930     2.2380 
   92.5000    64.3640     6.7150     5.6760     7.9560    24.3290   -10.4740     2.2540 
   92.6250    63.3150     6.7140     5.6900     8.0170    24.2960   -10.3650     2.2690 
   92.7500    61.1900     6.7290     5.7010     8.0420    24.2740   -10.2630     2.2760 
   92.8750    59.8800     6.7630     5.7110     8.0410    24.2590   -10.1610     2.2760 
   93.0000    61.2580     6.8020     5.7170     8.0130    24.2490   -10.0890     2.2710 
   93.1250    63.6780     6.8130     5.7150     8.0240    24.2380   -10.0590     2.2660 
   93.2500    64.9520     6.7720     5.7030     8.1220    24.2200   -10.0130     2.2620 
   93.3750    65.7700     6.6620     5.6790     8.2380    24.2000    -9.9990     2.2610 
   93.5000    66.2350     6.5040     5.6460     8.2690    24.1830    -9.9550     2.2610 
   93.6250    66.5860     6.3600     5.6220     8.2330    24.1580    -9.9040     2.2610 
   93.7500    66.7600     6.3160     5.6340     8.1370    24.1160    -9.8140     2.2600 
   93.8750    67.0090     6.4440     5.7140     8.0440    24.0470    -9.7150     2.2590 
   94.0000    65.8400     6.8060     5.8820     8.0400    23.9480    -9.5760     2.2570 
   94.1250    62.2820     7.3340     6.1370     8.2580    23.8360    -9.3700     2.2500 
   94.2500    60.3260     7.8120     6.4020     8.6890    23.7170    -9.0970     2.2380 
   94.3750    60.9640     8.0090     6.5830     9.2390    23.6050    -8.7420     2.2230 
   94.5000    61.7710     7.9240     6.5880     9.5290    23.5250    -8.3130     2.2080 
   94.6250    61.6540     7.4780     6.3280     8.7940    23.5170    -7.7450     2.2030 
   94.7500    62.5400     6.8320     5.8820     7.4490    23.5480    -7.0920     2.2120 
   94.8750    65.8380     6.1440     5.3490     6.2870    23.5810    -6.3570     2.2350 
