~V
VERS. 2.00: Ver 2.00
~W
STRT.M 60.0000:
STOP.M 242.0000:
STEP.M 0.1250:
NULL. -999.2500:
UWI. F10022:
~C
DEPT.M :
GR.API :
RML.OHMM :
RI. :
RXO.OHMM :
CALI.CM :
DEN.GM/CC :
SP.MV :
~A
# ...
  217.5000    65.0390    91.3230    75.1650   119.6690    24.0060     2.2550   -14.4440 
  217.6250    67.1440   102.1540    85.9520   131.9410    24.0060     2.2370   -14.4390 
  217.7500    68.2760   109.2260    93.8840   134.6330    24.0060     2.2180   -14.3690 
  217.8750    65.6900   111.6010    97.8480   130.7630    24.0060     2.1990   -14.1950 
  218.0000    61.2270   109.3920    97.7330   122.6860    24.0060     2.1880   -13.9470 
  218.1250    60.0100   102.3820    93.2170   115.2140    24.0040     2.1970   -13.6970 
  218.2500    61.4520    91.7590    85.2560   106.6410    23.9780     2.2350   -13.4930 
  218.3750    62.4300    78.5600    74.5850    96.2160    23.8960     2.3000   -13.3170 
  218.5000    62.2640    64.5330    62.6100    83.2550    23.7410     2.3810   -13.1130 
  218.6250    62.3220    51.9780    51.3730    62.7130    23.5900     2.4490   -12.8690 
  218.7500    62.4840    41.9690    42.1530    45.3110    23.3920     2.4850   -12.6840 
  218.8750    62.4960    34.7210    35.3040    35.2620    23.1940     2.4850   -12.6040 
  219.0000    64.4480    29.9380    30.6130    30.0290    23.0700     2.4600   -12.6090 
  219.1250    68.1030    27.3490    27.8530    26.9550    23.0380     2.4250   -12.6490 
  219.2500    72.0340    25.9880    26.2250    25.2670    23.0300     2.3930   -12.6990 
  219.3750    74.4050    25.2860    25.2930    24.5630    23.0250     2.3670   -12.8030 
  219.5000    75.8020    24.7520    24.6690    24.5400    23.0220     2.3490   -13.0140 
  219.6250    77.5140    24.0530    24.0500    24.7960    23.0220     2.3390   -13.3100 
  219.7500    78.9900    23.3010    23.3880    24.7400    23.0300     2.3340   -13.6110 
  219.8750    81.2130    22.9890    22.9740    24.1520    23.0500     2.3340   -13.8940 
  220.0000    82.6110    24.0050    23.5000    23.6830    23.0730     2.3390   -14.1890 
  220.1250    81.5720    28.3200    26.7830    28.3220    23.0190     2.3510   -14.5590 
  220.2500    79.6470    37.0240    34.1880    44.4080    22.9800     2.3710   -15.0110 
  220.3750    76.8790    50.6930    46.6930    73.1220    23.0250     2.3990   -15.4680 
  220.5000    72.7890    68.3090    63.6910   111.1250    23.1870     2.4250   -15.8820 
  220.6250    66.0400    86.1880    81.7810   144.9940    23.3790     2.4310   -16.2350 
  220.7500    60.7270    98.9750    95.2160   152.2700    23.3690     2.4100   -16.5030 
  220.8750    58.7170   103.1140   100.0180   126.1310    23.2850     2.3710   -16.7200 
  221.0000    58.9480    99.0240    96.2120   100.9780    23.2740     2.3280   -16.9040 
  221.1250    60.3150    91.8190    88.4130    87.8410    23.3080     2.2980   -17.0050 
  221.2500    60.9770    87.7030    82.8930    79.7810    23.3720     2.2810   -16.9630 
  221.3750    60.4950    89.0700    82.2920    80.9740    23.4560     2.2710   -16.7790 
  221.5000    60.2360    96.5150    87.4390    96.4370    23.5160     2.2630   -16.4860 
  221.6250    61.4600   110.3160    98.7680   126.6650    23.5390     2.2570   -16.1660 
  221.7500    62.7890   127.7040   113.7470   158.9850    23.5290     2.2530   -15.8770 
  221.8750    62.8570   146.0200   130.0160   180.1960    23.5100     2.2510   -15.5830 
  222.0000    62.0600   162.2380   144.9260   187.7210    23.5170     2.2480   -15.2250 
  222.1250    61.0440   173.1440   155.7190   190.8960    23.5300     2.2400   -14.7720 
  222.2500    59.6420   179.3390   162.6330   193.1130    23.5970     2.2300   -14.3140 
  222.3750    58.6800   182.4450   166.7540   197.2320    23.6570     2.2200   -13.9050 
  222.5000    59.5540   184.0660   169.2840   200.1800    23.7170     2.2120   -13.5610 
  222.6250    60.5080   184.0150   170.0860   201.0560    23.8140     2.2070   -13.2370 
  222.7500    58.9280   180.5600   167.8790   194.7760    23.8400     2.2020   -12.8730 
  222.8750    55.7000   171.0950   160.4600   184.1980    23.7610     2.1990   -12.4720 
  223.0000    54.1440   153.7580   146.0530   169.5370    23.6430     2.1990   -12.0740 
  223.1250    54.8680   128.6660   124.1090   151.3960    23.5370     2.2070   -11.7440 
  223.2500    54.4910   102.2070    99.7940   126.2880    23.4780     2.2230   -11.4680 
  223.3750    53.0850    79.9050    78.1560    94.6360    23.4580     2.2420   -11.2160 
  223.5000    53.9890    64.8700    62.7030    63.0320    23.4790     2.2570   -10.9480 
  223.6250    58.5550    58.3960    55.3110    49.4800    23.5510     2.2590   -10.6270 
  223.7500    62.1020    57.5210    53.4890    53.4250    23.6120     2.2490   -10.2930 
  223.8750    61.4650    60.1560    55.4100    69.5880    23.6390     2.2340    -9.9600 
  224.0000    59.6660    64.0990    59.1250    90.5420    23.6000     2.2230    -9.6200 
  224.1250    62.0940    67.1750    62.6610   101.5310    23.5370     2.2310    -9.2450 
  224.2500    65.2460    68.6030    64.8990    95.0990    23.5380     2.2630    -8.8460 
  224.3750    65.6510    68.7280    65.7670    78.3650    23.5320     2.3190    -8.4100 
  224.5000    64.2990    68.1740    65.5880    68.2350    23.5800     2.3900    -7.9690 
  224.6250    63.2490    66.3840    63.7970    71.1290    23.7040     2.4590    -7.5360 
  224.7500    62.6280    61.9190    59.2810    78.5670    23.7580     2.5090    -7.1090 
  224.8750    62.0540    53.6600    51.1160    77.2050    23.7200     2.5260    -6.6960 
  225.0000    61.1740    42.2310    40.0170    67.2300    23.6090     2.5160    -6.3110 
  225.1250    57.9750    30.4030    28.7520    43.9710    23.4450     2.4960    -5.9840 
  225.2500    51.5240    20.8770    19.7690    19.3950    23.3220     2.4860    -5.6530 
  225.3750    43.2180    14.2950    13.5240     7.2940    23.3370     2.4870    -5.3460 
  225.5000    35.1460    10.1560     9.4990     3.9900    23.4280     2.4900    -5.0440 
  225.6250    30.4610     7.8360     7.1410     3.4600    23.4560     2.4770    -4.7950 
  225.7500    29.2510     6.3480     5.6410     3.4290    23.4290     2.4430    -4.6240 
  225.8750    29.6140     5.3420     4.7090     3.4410    23.3850     2.3970    -4.4950 
  226.0000    30.6670     4.6420     4.1590     3.5410    23.3030     2.3530    -4.3810 
  226.1250    32.6580     4.2020     3.9060     3.6610    23.2350     2.3250    -4.3200 
  226.2500    34.6620     4.1680     3.8340     3.7750    23.2250     2.3140    -4.3130 
  226.3750    35.6720     4.2440     3.8950     3.9850    23.2300     2.3170    -4.3280 
  226.5000    35.5890     4.3890     4.0400     4.2730    23.2340     2.3300    -4.3720 
  226.6250    35.6630     4.5650     4.2090     4.4490    23.2280     2.3430    -4.4270 
  226.7500    36.1200     4.7220     4.3480     4.3080    23.2120     2.3490    -4.4710 
  226.8750    35.4190     4.8290     4.4300     3.9990    23.2090     2.3480    -4.5140 
  227.0000    33.3460     4.8700     4.4470     3.8680    23.2230     2.3470    -4.5820 
  227.1250    30.4880     4.8260     4.4020     3.9250    23.2760     2.3530    -4.6090 
  227.2500    27.5010     4.7420     4.3250     4.0420    23.3780     2.3660    -4.6020 
  227.3750    25.5000     4.6360     4.2360     4.0920    23.5030     2.3840    -4.5670 
  227.5000    25.0270     4.5240     4.1510     4.0630    23.5920     2.4030    -4.5540 
  227.6250    25.2160     4.4640     4.0840     4.0280    23.6250     2.4210    -4.5460 
  227.7500    25.4900     4.4300     4.0440     4.0610    23.6020     2.4320    -4.5490 
  227.8750    26.5620     4.4340     4.0320     4.1370    23.5990     2.4340    -4.5620 
  228.0000    28.6780     4.4460     4.0460     4.2020    23.6270     2.4310    -4.5570 
  228.1250    30.5510     4.4640     4.0760     4.1710    23.6470     2.4300    -4.5740 
  228.2500    31.4640     4.4930     4.1010     4.1240    23.6680     2.4380    -4.5610 
  228.3750    31.3160     4.5210     4.1040     4.0550    23.6950     2.4530    -4.5570 
  228.5000    30.1580     4.5150     4.0710     4.0180    23.7120     2.4620    -4.5350 
  228.6250    29.5580     4.4550     3.9990     4.0440    23.7120     2.4510    -4.5430 
