~V
VERS. 2.00: Ver 2.00
~W
STRT.M 50.0000:
STOP.M 300.0000:
STEP.M 0.1250:
NULL. -999.2500:
UWI. F10041:
~C
DEPT.M :
DEN.GM/CC :
GR.API :
RML.OHMM :
RI. :
RXO.OHMM :
CALI.CM :
SP.MV :
~A
# ...
  218.7500     2.4440    78.7470    10.7400    10.6740    15.0830    24.0030    -9.8490 
  218.8750     2.4200    81.8480    11.3920    11.3530    14.4420    24.0420    -9.9940 
  219.0000     2.3970    84.4530    11.7780    11.7920    13.3360    24.0800   -10.1950 
  219.1250     2.3830    83.1220    11.9180    11.9500    13.1880    24.0990   -10.4460 
  219.2500     2.3800    80.7020    11.9910    11.9640    13.4070    24.1180   -10.7100 
  219.3750     2.3870    80.3020    12.1290    11.9540    13.6980    24.1550   -10.9930 
  219.5000     2.4040    81.6270    12.3450    12.0150    14.0980    24.1960   -11.2570 
  219.6250     2.4270    81.1860    12.5380    12.2000    14.9210    24.2110   -11.5460 
  219.7500     2.4490    78.5790    12.6570    12.4580    15.4920    24.1920   -11.7700 
  219.8750     2.4600    76.0060    12.7480    12.7270    14.9820    24.1610   -11.9360 
  220.0000     2.4560    76.0750    12.8440    12.9420    14.5880    24.1580   -12.0370 
  220.1250     2.4360    79.1520    12.9350    13.0370    14.9230    24.1470   -12.1080 
  220.2500     2.4140    82.0960    12.9680    13.0200    14.4750    24.1290   -12.1440 
  220.3750     2.4000    82.8730    12.9310    12.9200    13.7120    24.2070   -12.1520 
  220.5000     2.4010    80.6630    12.8360    12.7870    13.5240    24.4210   -12.1060 
  220.6250     2.4130    78.4720    12.7290    12.6840    13.6950    24.5810   -12.0320 
  220.7500     2.4260    78.8890    12.6570    12.6430    13.8060    24.4180   -11.9740 
  220.8750     2.4330    80.3980    12.6200    12.6590    13.9590    24.1640   -11.9540 
  221.0000     2.4330    81.1950    12.6160    12.6980    13.9610    24.0290   -11.9360 
  221.1250     2.4280    81.0630    12.6200    12.7150    13.4080    24.0250   -11.9720 
  221.2500     2.4230    82.1120    12.6170    12.7080    13.2440    24.0810   -11.9800 
  221.3750     2.4180    83.9360    12.6140    12.7030    13.5310    24.2390   -11.9790 
  221.5000     2.4150    84.4400    12.6520    12.7350    13.7260    24.4730   -11.9800 
  221.6250     2.4160    84.5030    12.7630    12.8200    13.6520    24.6120   -11.9940 
  221.7500     2.4210    85.2440    12.9190    12.9260    13.4090    24.5930   -12.0150 
  221.8750     2.4290    85.8780    13.0870    13.0290    13.2890    24.4230   -12.0400 
  222.0000     2.4340    86.1300    13.2480    13.1230    13.3950    24.2600   -12.0930 
  222.1250     2.4350    87.8240    13.3910    13.2310    13.5820    24.2550   -12.1370 
  222.2500     2.4310    88.9440    13.5310    13.3710    13.8310    24.3930   -12.2440 
  222.3750     2.4260    86.8400    13.7140    13.5470    14.0120    24.4860   -12.3700 
  222.5000     2.4210    83.8770    13.9090    13.7460    14.2950    24.5450   -12.5150 
  222.6250     2.4190    83.9270    14.0300    13.9410    14.0340    24.6110   -12.6720 
  222.7500     2.4210    85.8740    14.1030    14.1190    13.7140    24.6030   -12.8570 
  222.8750     2.4250    88.1500    14.1770    14.2810    13.7340    24.5680   -13.0760 
  223.0000     2.4250    89.8680    14.2500    14.4390    14.1370    24.5430   -13.3380 
  223.1250     2.4100    88.9330    14.2720    14.5830    14.5990    24.5210   -13.6780 
  223.2500     2.3780    85.3390    14.2680    14.6550    15.2450    24.4560   -14.0930 
  223.3750     2.3330    80.6590    14.2840    14.5710    16.0900    24.3180   -14.6020 
  223.5000     2.2920    76.2020    14.2700    14.2990    16.6050    24.1100   -15.2240 
  223.6250     2.2810    72.3430    13.9950    13.9560    15.5260    24.0030   -15.9200 
  223.7500     2.3090    68.7150    13.6970    13.8970    14.2290    23.9440   -16.6390 
  223.8750     2.3740    65.2840    14.1830    14.6640    14.4890    23.8440   -17.2670 
  224.0000     2.4640    61.6830    16.5300    17.1050    17.8530    23.6750   -17.8020 
  224.1250     2.5630    58.0670    22.0490    22.8910    33.3320    23.7350   -18.1360 
  224.2500     2.6540    54.9520    29.6590    31.4620    82.6060    24.0060   -18.2700 
  224.3750     2.7210    52.7300    36.3050    39.6200   210.1420    24.2840   -18.1210 
  224.5000     2.7520    51.5440    37.6710    42.2700   381.3900    24.4120   -17.6700 
  224.6250     2.7370    51.2130    31.0060    35.6510   242.4800    24.3890   -16.9000 
  224.7500     2.6900    51.3780    21.1540    24.8660    47.0270    24.3410   -15.9530 
  224.8750     2.6280    51.9810    12.7420    15.0840    12.6690    24.2830   -14.8750 
  225.0000     2.5690    52.2270     7.8480     8.8200     5.9450    24.2560   -13.6840 
  225.1250     2.5210    50.6510     6.0060     6.0040     5.0070    24.2720   -12.4330 
  225.2500     2.4830    46.0710     5.2590     4.8170     5.5620    24.2880   -11.2450 
  225.3750     2.4520    42.1610     5.0430     4.5480     5.7650    24.2860   -10.2030 
  225.5000     2.4290    43.0080     5.3000     4.8220     5.8820    24.2570    -9.3400 
  225.6250     2.4160    46.3190     5.9290     5.3970     5.8390    24.1860    -8.6280 
  225.7500     2.4090    45.7520     6.5710     5.9920     5.9290    24.1200    -8.0070 
  225.8750     2.4030    41.9630     7.0890     6.4710     6.1630    24.0890    -7.5470 
  226.0000     2.3980    39.5040     7.4360     6.7930     6.3040    24.0620    -7.2530 
  226.1250     2.3950    39.8720     7.6150     6.9580     6.3580    23.9840    -7.1350 
  226.2500     2.3970    39.4900     7.6880     7.0260     6.3550    23.8890    -7.0580 
  226.3750     2.4030    37.3580     7.6750     7.0140     6.3220    23.8660    -6.9620 
  226.5000     2.4120    35.5870     7.6020     6.9460     6.3750    23.8800    -6.8380 
  226.6250     2.4210    35.5580     7.5110     6.8620     6.5690    23.8540    -6.7500 
  226.7500     2.4270    35.8650     7.4500     6.8050     6.8170    23.8350    -6.7090 
  226.8750     2.4340    35.8380     7.4320     6.7880     7.2410    23.8210    -6.6730 
  227.0000     2.4440    37.1520     7.4400     6.7960     7.9020    23.8110    -6.6180 
  227.1250     2.4550    40.9410     7.4340     6.7910     7.3150    23.8010    -6.5490 
  227.2500     2.4610    44.1290     7.3920     6.7510     6.9250    23.8040    -6.4950 
  227.3750     2.4560    44.0160     7.3150     6.6810     6.5750    23.7820    -6.4610 
  227.5000     2.4400    41.7930     7.2180     6.5900     6.3320    23.7490    -6.4350 
  227.6250     2.4170    41.0470     7.1120     6.4920     6.1890    23.7200    -6.4120 
  227.7500     2.3980    42.0080     7.0040     6.3920     6.0540    23.7280    -6.3630 
  227.8750     2.3880    43.2140     6.8930     6.2890     5.9270    23.7440    -6.2480 
  228.0000     2.3880    43.3860     6.7740     6.1800     5.8470    23.7510    -6.0770 
  228.1250     2.3950    41.9300     6.6430     6.0580     5.7040    23.7520    -5.8520 
  228.2500     2.4050    40.5420     6.5020     5.9280     5.5570    23.7770    -5.5990 
  228.3750     2.4130    40.5920     6.3670     5.8030     5.4640    23.8070    -5.3510 
  228.5000     2.4210    42.3770     6.2580     5.7020     5.5020    23.8200    -5.1280 
  228.6250     2.4280    42.8840     6.2040     5.6520     5.5530    23.8260    -4.9240 
  228.7500     2.4350    42.4470     6.2030     5.6510     5.6320    23.8380    -4.7630 
  228.8750     2.4390    43.2490     6.2530     5.6970     5.7110    23.8650    -4.6600 
  229.0000     2.4390    45.3790     6.3520     5.7890     5.7070    23.8780    -4.6120 
  229.1250     2.4330    48.1880     6.5180     5.9420     5.6600    23.8610    -4.6690 
  229.2500     2.4210    52.7490     6.7400     6.1460     5.8330    23.8170    -4.7850 
  229.3750     2.4080    60.9690     6.9820     6.3830     6.3270    23.7910    -4.9770 
  229.5000     2.3960    71.0670     7.1970     6.6170     7.0860    23.8650    -5.2160 
  229.6250     2.3940    76.2140     7.3540     6.7840     7.5820    24.1710    -5.4580 
  229.7500     2.4010    76.2270     7.4410     6.8520     7.3580    24.4520    -5.6280 
  229.8750     2.4160    74.6110     7.4230     6.8100     7.0650    24.5600    -5.7830 
