~V
VERS. 2.00: Ver 2.00
~W
STRT.M 64.0000:
STOP.M 260.0000:
STEP.M 0.1250:
NULL. -999.2500:
UWI. F10016:
~C
DEPT.M :
GR.API :
RML.OHMM :
RI. :
RXO.OHMM :
CALI.CM :
DEN.GM/CC :
SP.MV :
~A
# ...
  244.0000   102.4650     8.8790     8.8190    10.7240    23.8760     2.2920   -22.5400 
  244.1250   103.1480     9.4650     9.3400    12.1610    23.8490     2.2970   -22.7540 
  244.2500   101.2860     9.9350     9.7060    12.6440    23.7870     2.3060   -22.6710 
  244.3750    97.5960    10.1410     9.8360    12.3360    23.7110     2.3170   -22.3510 
  244.5000    95.3300     9.9900     9.7110    11.4800    23.6390     2.3270   -21.8020 
  244.6250    94.0760     9.4630     9.3460     9.6530    23.6300     2.3300   -21.0740 
  244.7500    92.3880     8.7730     8.8630     8.2480    23.6390     2.3260   -20.2850 
  244.8750    90.4820     8.0950     8.3380     7.5410    23.6880     2.3140   -19.4320 
  245.0000    88.7480     7.5670     7.8350     7.3150    23.8010     2.3000   -18.5850 
  245.1250    85.4210     7.2830     7.4170     7.4630    23.8660     2.2920   -17.9950 
  245.2500    81.1290     7.1780     7.1000     7.7730    23.8260     2.2940   -17.6850 
  245.3750    78.3950     7.1800     6.8810     7.8530    23.7510     2.3030   -17.6310 
  245.5000    76.6280     7.2140     6.7490     7.6940    23.7270     2.3140   -17.8710 
  245.6250    75.8930     7.2330     6.7090     7.3540    23.7430     2.3180   -18.3910 
  245.7500    77.2180     7.2460     6.7540     7.2620    23.7850     2.3130   -19.0950 
  245.8750    79.4310     7.2900     6.8940     7.6280    23.7890     2.3020   -19.9680 
  246.0000    81.0600     7.4030     7.1200     8.2660    23.7730     2.2910   -21.0140 
  246.1250    82.7180     7.6160     7.3910     8.8460    23.7620     2.2840   -22.1480 
  246.2500    85.5910     7.8910     7.6420     8.9600    23.7250     2.2830   -23.2760 
  246.3750    86.6740     8.1910     7.8480     9.4160    23.6410     2.2840   -24.4080 
  246.5000    85.5930     8.4760     8.0200    10.4110    23.5580     2.2850   -25.4640 
  246.6250    84.5380     8.7130     8.2040    11.3980    23.5270     2.2800   -26.3590 
  246.7500    83.8660     8.9210     8.4430    11.6880    23.5630     2.2720   -27.1540 
  246.8750    82.7380     9.1370     8.7570    11.2470    23.6100     2.2620   -27.8850 
  247.0000    80.9490     9.4170     9.1450    11.3570    23.5880     2.2550   -28.4850 
  247.1250    79.6290     9.8420     9.6000    12.2230    23.4830     2.2540   -28.9180 
  247.2500    79.8660    10.4130    10.0950    13.9520    23.3490     2.2600   -29.2750 
  247.3750    82.2110    11.0840    10.6140    15.2510    23.3180     2.2720   -29.3940 
  247.5000    85.5680    11.7400    11.1280    15.5280    23.4190     2.2880   -29.5650 
  247.6250    87.1700    12.1680    11.5310    15.7700    23.4970     2.3030   -29.5240 
  247.7500    86.7590    12.2580    11.7000    15.4420    23.5360     2.3130   -29.3520 
  247.8750    85.0380    11.9770    11.5300    14.5660    23.5430     2.3190   -29.0280 
  248.0000    83.2260    11.3980    11.0140    13.2160    23.5740     2.3220   -28.6250 
  248.1250    83.7270    10.6560    10.2700    12.4040    23.5860     2.3220   -28.1630 
  248.2500    86.3070     9.9540     9.5610    11.0170    23.5830     2.3190   -27.6490 
  248.3750    88.6180     9.4280     9.0520    10.0380    23.5770     2.3100   -27.1620 
  248.5000    87.9480     9.1720     8.8090     9.4680    23.5710     2.2940   -26.7520 
  248.6250    84.4590     9.2530     8.8240     9.3040    23.5480     2.2720   -26.4080 
  248.7500    82.3190     9.5310     8.9450     9.2710    23.5120     2.2550   -26.1320 
  248.8750    81.9220     9.8540     9.0710     9.8770    23.4950     2.2470   -25.9380 
  249.0000    81.4860    10.0660     9.1320    11.1720    23.4750     2.2520   -25.7750 
  249.1250    80.2730    10.0300     9.0980    11.6260    23.4520     2.2650   -25.6210 
  249.2500    80.2730     9.8050     9.0200    10.3770    23.4360     2.2790   -25.4700 
  249.3750    80.2730     9.4990     8.9500     9.0340    23.4650     2.2890   -25.3370 
  249.5000    80.2730     9.2400     8.9310     8.9010    23.5070     2.2940   -25.2260 
  249.6250    80.2730     9.1890     9.0140     9.4610    23.5040     2.2940   -25.1710 
  249.7500    80.2730     9.4030     9.2080     9.9070    23.4910     2.2900   -25.1530 
  249.8750    80.2730     9.8930     9.5200    10.0680    23.4930     2.2850   -25.1660 
  250.0000    80.2730    10.5750     9.9230    10.5250    23.5220     2.2840   -25.1890 
  250.1250    80.2730    11.2190    10.3210    11.3950    23.5190     2.2860   -25.1880 
  250.2500    80.2730    11.5460    10.5590    13.4690    23.5080     2.2960   -25.0980 
  250.3750    80.2730    11.3770    10.5040    14.5660    23.4940     2.3070   -24.8200 
  250.5000    80.2730    10.7070    10.1030    13.6840    23.4590     2.3130   -24.3220 
  250.6250    80.2730     9.7250     9.4020    11.1190    23.3180     2.3090   -23.6660 
  250.7500    80.2730     8.7970     8.6210     8.7480    23.0270     2.2930   -22.9460 
  250.8750    80.2730     8.1430     7.9180     7.8730    22.6320     2.2750   -22.1300 
  251.0000    80.2730     7.8520     7.3960     7.8790    22.2960     2.2610   -21.2650 
  251.1250    80.2730     7.9300     7.1290     7.8980    22.1600     2.2550   -20.3810 
  251.2500    80.2730     8.1890     7.0540     7.8660    22.1900     2.2560   -19.5860 
  251.3750    80.2730     8.5010     7.1100     8.0370    22.1090     2.2580   -18.9510 
  251.5000    80.2730     8.7690     7.2270     8.6520    21.7140     2.2570   -18.4750 
  251.6250    80.2730     8.9330     7.3370     8.7170    21.1160     2.2520   -18.1090 
  251.7500    80.2730     9.0170     7.4070     8.7700    20.6520     2.2460   -17.7920 
  251.8750    80.2730     9.0480     7.4390     8.5700    20.5200     2.2440   -17.5380 
  252.0000    80.2730     9.0530     7.4500     8.2720    20.5090     2.2460   -17.3580 
  252.1250    80.2730     9.0540     7.4570     8.0820    20.3710     2.2530   -17.2590 
  252.2500    80.2730     9.0620     7.4740     8.6610    20.0600     2.2620   -17.1940 
  252.3750    80.2730     9.0770     7.5110     9.1630    19.7780     2.2700   -17.1460 
  252.5000    80.2730     9.0920     7.5820     9.0480    19.6270     2.2770   -17.1080 
  252.6250    80.2730     9.0990     7.7030     8.5520    19.6250     2.2840   -17.0940 
  252.7500    80.2730     9.0960     7.8570     8.1430    19.7120     2.2910   -17.0840 
  252.8750    80.2730     9.0900     8.0200     7.7750    19.8040     2.3000   -17.0680 
  253.0000    80.2730     9.0870     8.1610     7.2350    19.8170     2.3080   -17.0710 
  253.1250    80.2730     9.0900     8.2460     6.7400    19.6270     2.3150   -17.1130 
  253.2500    80.2730     9.0920     8.2630     6.5090    19.1990     2.3200   -17.1690 
  253.3750    80.2730     9.0890     8.2060     6.6530    18.6310     2.3260   -17.2260 
  253.5000    80.2730     9.0830     8.0790     6.7300    18.0170     2.3370   -17.3030 
  253.6250    80.2730     9.0800     7.9030     6.8220    17.5370     2.3500   -17.3770 
  253.7500    80.2730     9.0790     7.7320     6.9960    17.3300     2.3580   -17.4470 
  253.8750    80.2730     9.0750     7.6120     7.3180    17.2900     2.3570   -17.5400 
  254.0000    80.2730     9.0680     7.5720     7.6800    17.3110     2.3480   -17.6150 
  254.1250    80.2730     9.0670     7.6120     8.1660    17.3230     2.3380   -17.6380 
  254.2500    80.2730     9.0790     7.6830     8.1180    17.3270     2.3330   -17.6670 
  254.3750    80.2730     9.1010     7.7470     7.7810    17.3260     2.3340   -17.7000 
  254.5000    80.2730     9.1350     7.7830     7.7140    17.3190     2.3360   -17.7060 
  254.6250    80.2730     9.5010     7.9940     8.2900    17.2800     2.3340   -17.7060 
  254.7500    80.2730    11.5350     9.3820     9.4220    17.1790     2.3290   -17.7090 
  254.8750    80.2730    18.5260    14.5870     9.9190    17.0020     2.3250   -17.7120 
  255.0000    80.2730    31.7410    24.7770     9.9100    16.7440     2.3240   -17.7250 
  255.1250    80.2730    46.5540    36.5180     9.7770    16.5610     2.3240   -17.7890 
