~V
VERS. 2.00: Ver 2.00
~W
STRT.M 50.0000:
STOP.M 307.0000:
STEP.M 0.1250:
NULL. -999.2500:
UWI. F10044:
~C
DEPT.M :
GR.API :
RML.OHMM :
RI. :
RXO.OHMM :
CALI.CM :
DEN.GM/CC :
SP.MV :
~A
# ...
  252.5000    51.9180    25.4630    25.5330    26.4870    23.8680     2.3040    -9.4120 
  252.6250    52.6170    25.1920    25.3260    26.4970    23.8190     2.3080    -9.5170 
  252.7500    52.5430    24.7200    24.8290    26.1130    23.7920     2.3090    -9.6040 
  252.8750    54.1500    24.2870    24.2850    25.2280    23.8070     2.3070    -9.6590 
  253.0000    56.9030    24.1030    23.9220    24.1350    23.8440     2.3040    -9.7170 
  253.1250    57.7500    24.3350    23.9360    23.8750    23.8740     2.3010    -9.8330 
  253.2500    55.1370    24.8790    24.2730    24.9550    23.9010     2.3000    -9.9270 
  253.3750    51.5130    25.5870    24.8220    26.9830    23.9310     2.2980    -9.9350 
  253.5000    50.5580    26.2920    25.4320    28.4290    23.9730     2.2950    -9.9120 
  253.6250    53.0500    26.8400    25.9380    28.8800    24.0270     2.2910    -9.9320 
  253.7500    55.3510    27.2210    26.2840    29.0640    24.0720     2.2900    -9.9670 
  253.8750    55.6800    27.4810    26.4900    29.2080    24.0890     2.2920    -9.9750 
  254.0000    55.1740    27.6750    26.6060    29.2350    24.0830     2.2980    -9.9430 
  254.1250    55.6270    27.8440    26.6810    29.4740    24.0640     2.3060    -9.9460 
  254.2500    54.5090    28.0410    26.7750    29.6230    24.0420     2.3100    -9.9980 
  254.3750    51.4530    28.3820    26.9900    30.0050    24.0270     2.3110   -10.0680 
  254.5000    49.6880    29.0720    27.4970    30.5320    24.0220     2.3070   -10.1500 
  254.6250    52.3830    30.5170    28.6560    31.2360    24.0190     2.3010   -10.2600 
  254.7500    56.9990    32.8330    30.6100    33.3950    24.0130     2.2930   -10.4220 
  254.8750    59.8000    35.9870    33.3980    37.0870    24.0050     2.2850   -10.5970 
  255.0000    57.9200    39.6350    36.7870    42.5460    23.9960     2.2770   -10.7790 
  255.1250    54.0960    42.9700    40.1190    48.1820    23.9890     2.2710   -10.9340 
  255.2500    53.4050    45.1510    42.5360    52.5470    23.9830     2.2690   -11.0780 
  255.3750    55.5230    45.6420    43.4150    54.9380    23.9660     2.2730   -11.2210 
  255.5000    55.1760    44.3830    42.5640    53.9540    23.9350     2.2820   -11.3280 
  255.6250    50.9870    41.6920    40.1750    48.3700    23.9030     2.2940   -11.4100 
  255.7500    49.4010    38.5190    37.1790    42.0810    23.8900     2.3080   -11.4960 
  255.8750    52.1000    35.4030    34.1280    37.1950    23.8880     2.3190   -11.6000 
  256.0000    55.1390    32.7170    31.4200    34.8310    23.8910     2.3270   -11.6820 
  256.1250    56.7050    30.9250    29.4860    33.8190    23.8930     2.3330   -11.7480 
  256.2500    59.1750    30.2630    28.5120    32.4580    23.8890     2.3380   -11.8560 
  256.3750    62.5380    31.0500    28.7620    32.1060    23.8720     2.3480   -12.0420 
  256.5000    63.5600    33.4330    30.3980    34.1590    23.8340     2.3700   -12.2560 
  256.6250    61.7840    37.1810    33.3710    39.9540    23.7870     2.4120   -12.4070 
  256.7500    59.2140    40.9030    36.6020    46.5150    23.7580     2.4680   -12.5210 
  256.8750    55.7070    43.1380    38.8500    50.3990    23.7390     2.5310   -12.6630 
  257.0000    50.7060    42.7010    38.9390    50.4080    23.7050     2.5880   -12.8230 
  257.1250    48.0970    39.1430    36.1880    47.4650    23.6230     2.6230   -12.8920 
  257.2500    50.6740    34.4340    32.1790    41.5450    23.4650     2.6360   -12.8270 
  257.3750    55.3370    30.2440    28.3750    32.4580    23.2240     2.6320   -12.6510 
  257.5000    58.2370    27.4130    25.5660    26.3660    22.9230     2.6210   -12.3900 
  257.6250    57.2720    25.7530    23.7090    27.3270    22.6320     2.6080   -12.0030 
  257.7500    54.9580    24.0960    21.9430    30.4750    22.4990     2.5940   -11.4990 
  257.8750    52.3320    21.7110    19.6900    28.9730    22.5970     2.5780   -10.9130 
  258.0000    50.3390    18.4250    16.7820    21.8950    22.8900     2.5570   -10.2780 
  258.1250    52.2130    14.7300    13.5910    15.2510    23.2740     2.5360    -9.6300 
  258.2500    55.2300    11.5280    10.8110    10.7730    23.5540     2.5190    -8.9940 
  258.3750    54.6430     9.2940     8.7930     8.0650    23.6330     2.5070    -8.4170 
  258.5000    49.2480     8.0870     7.5860     7.2030    23.5750     2.4970    -7.9410 
  258.6250    43.0680     7.7690     7.1390     7.1760    23.4960     2.4890    -7.6140 
  258.7500    41.4560     7.8750     7.1240     7.3280    23.4720     2.4820    -7.3670 
  258.8750    43.8680     8.1620     7.3510     7.3780    23.5330     2.4800    -7.1700 
  259.0000    46.8920     8.4600     7.6610     7.4820    23.6360     2.4810    -7.0680 
  259.1250    46.7910     8.6590     7.9230     7.7440    23.6850     2.4840    -7.1000 
  259.2500    46.1340     8.7620     8.0980     7.9950    23.6310     2.4860    -7.2050 
  259.3750    47.8810     8.7950     8.1920     8.3140    23.5040     2.4850    -7.2920 
  259.5000    52.0840     8.7970     8.2320     8.5560    23.3390     2.4850    -7.3610 
  259.6250    56.0690     8.8130     8.2470     8.6250    23.1820     2.4880    -7.4770 
  259.7500    57.0000     8.8780     8.2700     8.6130    23.0720     2.4950    -7.6260 
  259.8750    54.4290     8.9990     8.3120     8.5890    23.0270     2.5010    -7.7300 
  260.0000    49.7940     9.1440     8.3590     8.6280    23.0300     2.5030    -7.7450 
  260.1250    46.9170     9.2340     8.3630     8.7030    23.0770     2.4990    -7.6890 
  260.2500    47.1230     9.1980     8.2770     8.7760    23.1530     2.4910    -7.6200 
  260.3750    48.1660     9.0020     8.0760     8.7520    23.2400     2.4800    -7.5470 
  260.5000    49.0960     8.6720     7.7760     8.5510    23.3010     2.4700    -7.4100 
  260.6250    50.5020     8.3040     7.4480     8.0410    23.2520     2.4640    -7.1850 
  260.7500    51.0560     8.0330     7.1950     7.3940    23.1500     2.4610    -7.0070 
  260.8750    50.0540     7.9370     7.0780     6.9770    23.0470     2.4590    -6.8830 
  261.0000    48.6150     8.0190     7.1030     7.0100    22.9840     2.4580    -6.7690 
  261.1250    48.2610     8.1930     7.2150     7.2790    22.9740     2.4550    -6.6830 
  261.2500    49.3110     8.2910     7.2810     7.4280    22.9850     2.4480    -6.6410 
  261.3750    51.0950     8.1900     7.2030     7.3140    22.9760     2.4360    -6.6440 
  261.5000    51.8940     7.8430     6.9250     6.9220    22.9320     2.4200    -6.6770 
  261.6250    48.9880     7.2840     6.4540     6.3710    22.8630     2.4020    -6.7320 
  261.7500    46.4400     6.7010     5.9360     5.9200    22.7810     2.3890    -6.7540 
  261.8750    49.8880     6.2450     5.4920     5.6860    22.6990     2.3860    -6.7750 
  262.0000    56.0990     6.0150     5.2130     5.6590    22.6420     2.3920    -6.7930 
  262.1250    58.7240     6.0770     5.1730     5.7430    22.6350     2.4050    -6.7580 
  262.2500    59.5510     6.3370     5.3150     6.2250    22.6870     2.4170    -6.7020 
  262.3750    64.1850     6.7100     5.5870     6.8810    22.8150     2.4240    -6.6590 
  262.5000    74.4490     7.1150     5.9260     7.3490    22.9900     2.4250    -6.6590 
  262.6250    84.6880     7.4990     6.2860     7.5690    23.1190     2.4240    -6.6650 
  262.7500    88.2490     7.8930     6.6620     7.7920    23.1930     2.4270    -6.6650 
  262.8750    84.9890     8.3750     7.1010     8.3010    23.2190     2.4370    -6.6830 
  263.0000    80.2050     9.0400     7.6720     9.1010    23.2310     2.4520    -6.7810 
  263.1250    77.4210     9.9850     8.4640    10.2960    23.2560     2.4670    -6.9530 
  263.2500    76.7830    11.1260     9.4400    11.9820    23.2960     2.4760    -7.0920 
  263.3750    79.1530    12.3340    10.5190    13.9880    23.3480     2.4770    -7.1720 
  263.5000    82.3970    13.4410    11.5750    15.6980    23.4040     2.4710    -7.2450 
  263.6250    80.9660    14.2370    12.4270    17.0060    23.4460     2.4580    -7.3580 
