~V
VERS. 2.00: Ver 2.00
~W
STRT.M 50.0000:
STOP.M 293.0000:
STEP.M 0.1250:
NULL. -999.2500:
UWI. F10037:
~C
DEPT.M :
GR.API :
RML.OHMM :
RI. :
RXO.OHMM :
CALI.CM :
SP.MV :
DEN.GM/CC :
~A
# ...
  128.7500    70.4350     6.5080     5.5340     6.9840    24.7740    -5.0720     2.3220 
  128.8750    70.0390     6.7700     5.8470     7.3150    24.7850    -5.3240     2.3000 
  129.0000    68.4740     6.9910     6.1020     7.7100    24.7940    -5.5110     2.2840 
  129.1250    67.4570     7.0910     6.2410     7.7980    24.8190    -5.5420     2.2750 
  129.2500    68.9300     7.0270     6.2400     7.7710    24.8650    -5.4960     2.2700 
  129.3750    72.0430     6.7920     6.0890     7.6530    24.9310    -5.2990     2.2700 
  129.5000    74.8010     6.4390     5.8170     7.2850    25.0020    -5.0110     2.2730 
  129.6250    80.8130     6.0800     5.4960     6.5900    25.0540    -4.5760     2.2810 
  129.7500    89.1710     5.8150     5.2150     5.8610    25.0740    -4.0590     2.2910 
  129.8750    92.7980     5.6820     5.0210     5.4330    25.0590    -3.5600     2.3030 
  130.0000    87.9210     5.6690     4.9250     5.3460    25.0230    -3.0700     2.3110 
  130.1250    80.5180     5.7240     4.9120     5.4930    24.9550    -2.6870     2.3110 
  130.2500    76.8570     5.7700     4.9260     5.6680    24.8610    -2.3590     2.3040 
  130.3750    75.6010     5.7700     4.9310     5.7540    24.7610    -2.1450     2.2930 
  130.5000    76.0790     5.7220     4.9100     5.7240    24.7090    -2.0080     2.2840 
  130.6250    81.7740     5.6560     4.8700     5.7080    24.7670    -1.9730     2.2810 
  130.7500    88.6400     5.6040     4.8310     5.6770    24.8670    -1.9840     2.2820 
  130.8750    91.4050     5.5720     4.8030     5.5800    24.9400    -2.0220     2.2850 
  131.0000    88.9200     5.5510     4.7850     5.5660    24.9740    -2.0690     2.2860 
  131.1250    86.8140     5.5220     4.7680     5.5930    24.9750    -2.1100     2.2830 
  131.2500    87.7420     5.4760     4.7430     5.4970    24.9560    -2.1420     2.2790 
  131.3750    88.7600     5.4250     4.7130     5.2930    24.9190    -2.1510     2.2750 
  131.5000    86.4250     5.3870     4.6880     5.2450    24.8630    -2.1850     2.2720 
  131.6250    83.7680     5.3980     4.6940     5.3520    24.7950    -2.1990     2.2690 
  131.7500    84.4760     5.4800     4.7490     5.4350    24.7290    -2.2740     2.2650 
  131.8750    86.3650     5.6370     4.8620     5.4700    24.6620    -2.3390     2.2630 
  132.0000    85.2110     5.8480     5.0190     5.6360    24.5870    -2.4480     2.2610 
  132.1250    81.9660     6.0470     5.1790     6.0110    24.4950    -2.5600     2.2620 
  132.2500    81.2000     6.1640     5.2850     6.4980    24.4050    -2.6890     2.2630 
  132.3750    82.1030     6.1540     5.2980     6.9330    24.3220    -2.8170     2.2680 
  132.5000    83.2920     6.0170     5.2050     7.0320    24.2560    -2.9170     2.2790 
  132.6250    86.7900     5.7800     5.0290     6.5500    24.2300    -3.0240     2.2930 
  132.7500    90.2210     5.5230     4.8420     5.7140    24.2200    -3.0820     2.3080 
  132.8750    90.1660     5.2800     4.6910     5.3620    24.2140    -3.1810     2.3180 
  133.0000    87.1270     5.0640     4.5980     5.3390    24.2070    -3.2590     2.3200 
  133.1250    85.8380     4.9510     4.5590     5.4610    24.2030    -3.3840     2.3130 
  133.2500    86.6200     4.9640     4.5540     5.6670    24.2010    -3.5220     2.3000 
  133.3750    86.5330     5.1340     4.5960     5.9190    24.2000    -3.7090     2.2840 
  133.5000    85.1610     5.4750     4.7360     6.2790    24.2020    -3.9430     2.2740 
  133.6250    84.5860     6.0270     5.0710     6.9850    24.2060    -4.2450     2.2830 
  133.7500    84.7750     6.7010     5.6140     8.3920    24.2100    -4.6230     2.3120 
  133.8750    83.9000     7.6080     6.3560    10.3830    24.2040    -5.0160     2.3580 
  134.0000    82.6150     8.6510     7.2420    12.6280    24.1760    -5.4750     2.4060 
  134.1250    81.4790     9.6630     8.1680    14.4210    24.1060    -5.9190     2.4340 
  134.2500    79.5000    10.4930     8.9980    14.1890    24.0020    -6.3570     2.4400 
  134.3750    74.6690    11.0410     9.6280    14.6810    23.8860    -6.7400     2.4280 
  134.5000    68.2120    11.2320     9.9710    16.8910    23.7840    -7.0800     2.4030 
  134.6250    63.8490    10.9480     9.9120    19.0530    23.7310    -7.3260     2.3670 
  134.7500    63.0240    10.2850     9.5110    19.1000    23.7170    -7.4800     2.3220 
  134.8750    67.1050     9.3560     8.8410    15.6740    23.7080    -7.5010     2.2780 
  135.0000    73.8040     8.3440     8.0280    10.8370    23.6630    -7.4040     2.2460 
  135.1250    77.0400     7.4960     7.2530     8.1010    23.6170    -7.1810     2.2360 
  135.2500    76.8440     6.9280     6.6470     6.9240    23.5720    -6.8940     2.2400 
  135.3750    78.6820     6.6460     6.2530     6.4030    23.4930    -6.5840     2.2500 
  135.5000    82.3790     6.5780     6.0500     6.2190    23.3810    -6.2380     2.2550 
  135.6250    80.8310     6.6180     5.9900     6.2610    23.3000    -5.9140     2.2550 
  135.7500    77.0040     6.6530     5.9820     6.3300    23.2700    -5.5540     2.2560 
  135.8750    76.6020     6.6400     5.9790     6.3560    23.2600    -5.2440     2.2610 
  136.0000    78.7060     6.5780     5.9620     6.3460    23.2240    -4.9440     2.2690 
  136.1250    78.6250     6.4890     5.9270     6.3090    23.1640    -4.6950     2.2760 
  136.2500    77.7870     6.4020     5.8850     6.2980    23.1340    -4.4710     2.2800 
  136.3750    78.3960     6.3230     5.8400     6.2520    23.1570    -4.2470     2.2820 
  136.5000    79.2480     6.2470     5.7850     6.2740    23.2280    -4.0470     2.2840 
  136.6250    78.9490     6.1620     5.7060     6.3430    23.3560    -3.8060     2.2900 
  136.7500    80.1810     6.0630     5.6010     6.3020    23.5490    -3.6100     2.2990 
  136.8750    82.9320     5.9530     5.4740     6.1200    23.8330    -3.4150     2.3090 
  137.0000    84.2910     5.8440     5.3380     5.9790    24.1910    -3.2710     2.3170 
  137.1250    81.7910     5.7590     5.2200     5.9460    24.4840    -3.1660     2.3220 
  137.2500    80.7600     5.7170     5.1340     5.9500    24.6490    -3.1280     2.3240 
  137.3750    86.0260     5.7280     5.0880     5.9210    24.6990    -3.1400     2.3260 
  137.5000    93.8470     5.7860     5.0770     5.7810    24.7020    -3.2100     2.3270 
  137.6250    93.8790     5.8640     5.0850     5.7610    24.6940    -3.3340     2.3240 
  137.7500    87.7060     5.9170     5.0840     5.8190    24.6820    -3.5000     2.3170 
  137.8750    82.9620     5.9050     5.0530     5.8780    24.6650    -3.7310     2.3120 
  138.0000    83.2950     5.7950     4.9720     5.8800    24.6440    -3.9550     2.3120 
  138.1250    85.0560     5.5700     4.8320     5.8980    24.6300    -4.2620     2.3190 
  138.2500    86.4360     5.3100     4.6770     6.0220    24.6100    -4.5650     2.3260 
  138.3750    87.8840     5.1580     4.6030     6.3040    24.5810    -4.8920     2.3300 
  138.5000    88.4990     5.3290     4.7590     6.8090    24.5430    -5.2550     2.3310 
  138.6250    87.2240     6.1530     5.4080     8.1200    24.5010    -5.6380     2.3380 
  138.7500    84.5950     7.6100     6.5690    11.6850    24.4670    -6.0670     2.3650 
  138.8750    79.9280     9.4910     8.1220    17.4130    24.4220    -6.5140     2.4200 
  139.0000    74.2090    11.3160     9.7260    23.7730    24.3510    -6.9950     2.4960 
  139.1250    69.8860    12.2330    10.7300    27.8310    24.2610    -7.5180     2.5630 
  139.2500    67.4310    11.8950    10.7770    25.7830    24.1680    -8.0750     2.5860 
  139.3750    67.3880    10.5230     9.9030    18.2790    24.1010    -8.6680     2.5500 
  139.5000    69.7650     8.8610     8.5680    11.6300    24.0820    -9.2770     2.4720 
  139.6250    73.3170     7.7210     7.4190     8.9320    24.0720    -9.8850     2.3880 
  139.7500    74.9460     7.2700     6.7630     8.2100    24.0130   -10.4770     2.3240 
  139.8750    72.5040     7.4330     6.6380     8.3300    23.8760   -11.0600     2.2870 
