~V
VERS. 2.00: Ver 2.00
~W
STRT.M 50.0000:
STOP.M 212.0000:
STEP.M 0.1250:
NULL. -999.2500:
UWI. F10013:
~C
DEPT.M :
GR.API :
RML.OHMM :
RI. :
RXO.OHMM :
CALI.CM :
DEN.GM/CC :
SP.MV :
~A
# ...
   61.2500    60.0490    31.8400    29.5640    27.0080    23.4400     2.3810   -15.3370 
   61.3750    62.8120    30.2210    28.1850    28.4750    23.9330     2.2670   -15.4300 
   61.5000    67.2750    28.7460    26.7200    28.5860    24.0920     2.1570   -15.4990 
   61.6250    70.9150    27.8110    25.5570    28.0520    24.1040     2.0930   -15.5670 
   61.7500    70.3440    27.3850    24.8300    27.9210    24.1150     2.0710   -15.6380 
   61.8750    68.3140    27.3540    24.5660    27.7040    24.1130     2.0780   -15.6630 
   62.0000    67.5340    27.5680    24.7010    27.9130    24.1260     2.0970   -15.6790 
   62.1250    65.5680    27.9020    25.1240    29.1140    24.1900     2.1140   -15.7450 
   62.2500    61.8870    28.2440    25.6240    30.2400    24.2570     2.1210   -15.7780 
   62.3750    59.4560    28.5480    26.0830    30.6940    24.2450     2.1180   -15.8330 
   62.5000    59.2970    28.7950    26.4430    30.6550    24.2040     2.1100   -15.9320 
   62.6250    60.1610    28.9790    26.6800    30.9430    24.2290     2.1000   -15.9780 
   62.7500    61.7090    29.1300    26.8370    30.9700    24.2670     2.0930   -16.0400 
   62.8750    62.9980    29.2620    26.9400    31.4540    24.2730     2.0890   -16.1740 
   63.0000    62.2740    29.3670    26.9960    31.9200    24.2750     2.0890   -16.3250 
   63.1250    60.1050    29.3880    26.9840    31.3640    24.2780     2.0950   -16.4610 
   63.2500    60.6620    29.2830    26.8930    30.6160    24.2670     2.1060   -16.6220 
   63.3750    64.6810    29.0320    26.7130    30.4140    24.2430     2.1210   -16.8060 
   63.5000    69.8140    28.6600    26.4650    30.2820    24.1980     2.1400   -17.0110 
   63.6250    72.7390    28.2380    26.2050    29.6880    24.1040     2.1580   -17.2630 
   63.7500    72.5620    27.8570    25.9910    28.9140    24.0460     2.1690   -17.4880 
   63.8750    70.9730    27.5560    25.8460    28.3100    24.0380     2.1680   -17.6850 
   64.0000    68.5080    27.3310    25.7540    28.0980    24.0710     2.1520   -17.8920 
   64.1250    65.7440    27.1550    25.6880    28.2270    24.1550     2.1220   -18.0890 
   64.2500    64.4840    26.9940    25.6180    28.3420    24.3080     2.0950   -18.2560 
   64.3750    66.0210    26.8390    25.5420    27.5640    24.5160     2.0860   -18.3640 
   64.5000    68.4880    26.6950    25.4670    25.7390    24.6400     2.1030   -18.3830 
   64.6250    69.5510    26.5560    25.3850    24.3540    24.5050     2.1360   -18.3710 
   64.7500    70.7750    26.3880    25.2680    25.0290    24.3730     2.1580   -18.3960 
   64.8750    72.4990    26.1570    25.0770    26.4150    24.3640     2.1520   -18.4300 
   65.0000    72.5370    25.8490    24.7910    27.3090    24.5210     2.1180   -18.4580 
   65.1250    69.2020    25.4760    24.4060    26.3630    24.5890     2.0730   -18.4970 
   65.2500    67.2630    25.0780    23.9690    25.1980    24.4750     2.0420   -18.5540 
   65.3750    68.6690    24.6620    23.4910    23.8340    24.2020     2.0330   -18.6200 
   65.5000    70.5130    24.2140    22.9680    23.4650    23.9570     2.0430   -18.6990 
   65.6250    71.2370    23.7160    22.3960    23.9440    23.8590     2.0680   -18.7590 
   65.7500    73.2630    23.2180    21.8280    24.2580    23.8390     2.0960   -18.7850 
   65.8750    76.0160    22.8210    21.3450    23.2480    23.8440     2.1190   -18.7480 
   66.0000    76.0390    22.6570    21.0460    21.4590    23.8420     2.1330   -18.6400 
   66.1250    72.9820    22.8890    21.0580    21.1700    23.8360     2.1350   -18.4870 
   66.2500    70.1140    23.4420    21.3470    22.7600    23.8330     2.1310   -18.3270 
   66.3750    66.5450    24.1730    21.8490    25.1260    23.8070     2.1240   -18.2040 
   66.5000    63.5700    24.8850    22.4500    27.5990    23.7720     2.1180   -18.1050 
   66.6250    66.8420    25.4000    23.0260    27.5780    23.8370     2.1140   -18.0370 
   66.7500    72.7950    25.7860    23.5440    27.0610    23.8950     2.1140   -18.0000 
   66.8750    74.2970    26.2480    24.0900    26.4310    23.8770     2.1190   -18.0040 
   67.0000    69.1290    27.0170    24.7940    27.4330    23.8180     2.1270   -18.0590 
   67.1250    63.2640    28.1920    25.7300    29.6650    23.8230     2.1270   -18.1910 
   67.2500    62.2410    29.3720    26.6240    31.7880    23.8560     2.1110   -18.3990 
   67.3750    65.4690    30.0030    27.0430    32.2150    23.8820     2.0790   -18.6710 
   67.5000    70.0980    29.6030    26.5740    31.9800    23.7960     2.0420   -19.0080 
   67.6250    73.7670    27.8790    24.9620    29.0960    23.3340     2.0270   -19.3770 
   67.7500    76.8260    25.2650    22.7040    22.5840    22.4850     2.0440   -19.7410 
   67.8750    79.9190    22.1940    20.2360    17.2210    21.7960     2.0860   -20.1090 
   68.0000    82.6930    19.5770    17.9100    16.3660    21.7030     2.1340   -20.4930 
   68.1250    84.1190    17.8010    16.0200    18.6510    22.1200     2.1690   -20.8480 
   68.2500    84.2540    16.6820    14.6340    19.6030    22.5370     2.1900   -21.1350 
   68.3750    84.2410    16.1550    13.8320    17.3330    22.7320     2.2040   -21.2990 
   68.5000    83.6980    16.3570    13.6800    14.6750    22.6530     2.2130   -21.3440 
   68.6250    81.5330    17.4410    14.2750    15.3220    22.3930     2.2130   -21.3250 
   68.7500    78.3090    18.9530    15.2950    19.0570    22.1900     2.1960   -21.3180 
   68.8750    76.8670    20.2480    16.2960    23.4480    22.2310     2.1650   -21.3290 
   69.0000    78.6390    20.5850    16.6880    25.5540    22.5160     2.1300   -21.3400 
   69.1250    82.6440    19.3700    15.9060    26.8810    22.7610     2.1170   -21.3190 
   69.2500    85.9660    17.3120    14.3760    22.4870    22.6160     2.1350   -21.2620 
   69.3750    86.7680    15.3430    12.7520    15.8110    22.2040     2.1790   -21.2230 
   69.5000    84.0250    14.3080    11.6540    12.3430    21.8660     2.2300   -21.2210 
   69.6250    78.5930    14.9080    11.6460    13.3200    21.9150     2.2590   -21.2390 
   69.7500    73.3750    16.8040    12.6730    16.3190    22.3350     2.2530   -21.2490 
   69.8750    70.5620    19.3780    14.5020    22.2210    22.8330     2.2130   -21.2360 
   70.0000    70.9820    21.6010    16.5140    26.7990    23.1440     2.1560   -21.2290 
   70.1250    73.6510    22.1050    17.6290    26.8500    23.2560     2.1020   -21.2650 
   70.2500    78.5110    20.8990    17.4760    24.9530    23.2750     2.0740   -21.3650 
   70.3750    85.3130    18.7250    16.3760    21.2700    23.1570     2.0790   -21.5380 
   70.5000    89.2940    16.6140    15.0130    15.6590    22.9340     2.1150   -21.7560 
   70.6250    86.1640    15.4430    14.0640    13.5060    22.8240     2.1670   -21.9940 
   70.7500    81.2590    15.1430    13.6700    14.3380    22.8200     2.2080   -22.2090 
   70.8750    79.7550    15.3790    13.7150    16.2680    22.8450     2.2290   -22.4020 
   71.0000    80.9930    15.7170    13.9560    17.4590    22.8560     2.2290   -22.5650 
   71.1250    81.4870    15.7500    14.0850    18.0160    22.8540     2.2190   -22.7410 
   71.2500    81.2070    15.4340    13.9650    17.5040    22.8440     2.2120   -22.9200 
   71.3750    81.1190    14.9250    13.6390    15.1340    22.8310     2.2100   -23.0440 
   71.5000    81.1510    14.4410    13.2410    13.3790    22.8510     2.2110   -23.1100 
   71.6250    81.3120    14.1280    12.8830    14.0960    22.8780     2.2110   -23.1460 
   71.7500    83.5470    13.9090    12.5480    14.4870    22.8470     2.2110   -23.2000 
   71.8750    88.1910    13.6620    12.1660    13.3550    22.7740     2.2130   -23.2900 
   72.0000    91.9370    13.2720    11.6650    12.8020    22.7260     2.2210   -23.3990 
   72.1250    92.8270    12.6670    11.0170    13.0420    22.7130     2.2350   -23.4660 
   72.2500    93.4800    11.9460    10.4120    12.6640    22.7350     2.2480   -23.5010 
   72.3750    94.5170    11.2250    10.0250    11.6060    22.7830     2.2560   -23.5190 
