~V
VERS. 2.00: Ver 2.00
~W
STRT.M 50.0000:
STOP.M 307.0000:
STEP.M 0.1250:
NULL. -999.2500:
UWI. F10044:
~C
DEPT.M :
GR.API :
RML.OHMM :
RI. :
RXO.OHMM :
CALI.CM :
DEN.GM/CC :
SP.MV :
~A
# ...
   95.0000    59.6330     8.4190     7.2410     9.1230    23.0330     2.1970   -13.6720 
   95.1250    60.4070     8.5110     7.3060     9.2400    23.0570     2.1960   -13.6280 
   95.2500    59.5940     8.6270     7.3990     9.4780    23.1300     2.1960   -13.6230 
   95.3750    59.3230     8.7430     7.5000     9.7540    23.2430     2.1970   -13.5960 
   95.5000    61.3820     8.8350     7.5840     9.9310    23.3530     2.2000   -13.5500 
   95.6250    63.4770     8.8770     7.6240     9.9270    23.4030     2.2040   -13.5450 
   95.7500    62.9910     8.8680     7.6200     9.7880    23.4170     2.2110   -13.5350 
   95.8750    60.7030     8.8150     7.5790     9.6250    23.4180     2.2200   -13.4830 
   96.0000    58.9930     8.7270     7.5120     9.5130    23.4180     2.2310   -13.4770 
   96.1250    59.8230     8.6080     7.4290     9.3990    23.4170     2.2430   -13.5450 
   96.2500    60.9810     8.4740     7.3440     9.2170    23.4130     2.2520   -13.5710 
   96.3750    60.6330     8.3410     7.2610     9.0020    23.4040     2.2560   -13.6250 
   96.5000    58.8080     8.2260     7.1840     8.8690    23.3890     2.2540   -13.7760 
   96.6250    57.3470     8.1500     7.1180     8.6900    23.3720     2.2480   -13.9690 
   96.7500    57.1540     8.1110     7.0610     8.5360    23.3590     2.2400   -14.1510 
   96.8750    56.6360     8.1060     7.0200     8.3870    23.3580     2.2330   -14.3780 
   97.0000    55.7580     8.1280     6.9990     8.2800    23.3670     2.2260   -14.6300 
   97.1250    57.4390     8.1560     6.9970     8.2910    23.3830     2.2190   -14.8040 
   97.2500    61.6790     8.1620     6.9990     8.3960    23.4000     2.2100   -14.9320 
   97.3750    64.4240     8.1200     6.9870     8.6440    23.4070     2.2000   -15.0240 
   97.5000    62.6080     8.0230     6.9500     8.8950    23.4010     2.1920   -15.0450 
   97.6250    57.8680     7.9180     6.9050     8.9680    23.3810     2.1900   -14.9200 
   97.7500    55.1680     7.9020     6.9070     8.9290    23.3540     2.1980   -14.6910 
   97.8750    54.5260     8.0570     7.0110     9.0480    23.3320     2.2180   -14.3750 
   98.0000    53.0730     8.4040     7.2430     9.7160    23.3260     2.2490   -13.9770 
   98.1250    52.0060     8.8680     7.5730    11.4520    23.3440     2.2840   -13.4870 
   98.2500    54.6780     9.2590     7.8790    13.4830    23.3720     2.3100   -12.9490 
   98.3750    59.3970     9.4160     8.0450    15.3300    23.3810     2.3200   -12.3730 
   98.5000    62.0270     9.2530     7.9910    15.7140    23.3450     2.3120   -11.7610 
   98.6250    61.3990     8.7780     7.6860    11.9860    23.2330     2.2910   -11.1740 
   98.7500    60.8750     8.2080     7.2660     9.1730    23.0970     2.2700   -10.6960 
   98.8750    60.4240     7.7070     6.8500     8.1700    22.9910     2.2540   -10.3470 
   99.0000    62.2010     7.3840     6.5280     8.0310    22.9490     2.2440   -10.0710 
   99.1250    67.6730     7.2840     6.3660     8.0450    22.9580     2.2390    -9.9200 
   99.2500    72.5780     7.3090     6.3220     8.0310    22.9910     2.2360    -9.9460 
   99.3750    73.7250     7.3830     6.3580     8.0250    23.0420     2.2330   -10.0630 
   99.5000    71.4850     7.4670     6.4380     8.0830    23.1040     2.2280   -10.2360 
   99.6250    69.5290     7.5740     6.5460     8.1870    23.1600     2.2230   -10.5160 
   99.7500    68.8560     7.7360     6.6750     8.3020    23.1950     2.2190   -10.7880 
   99.8750    69.5140     7.9600     6.8230     8.4130    23.2060     2.2180   -10.9360 
  100.0000    69.8790     8.2120     6.9720     8.5710    23.2080     2.2200   -10.9860 
  100.1250    68.0930     8.3780     7.0610     8.6610    23.2110     2.2240   -10.9700 
  100.2500    66.0750     8.3550     7.0330     8.7690    23.2200     2.2280   -10.7910 
  100.3750    64.8610     8.0860     6.8500     8.7200    23.2380     2.2340   -10.4610 
  100.5000    63.8900     7.5980     6.5190     8.3870    23.2690     2.2400   -10.0710 
  100.6250    63.6040     7.0130     6.1040     7.7920    23.3140     2.2450    -9.6450 
  100.7500    67.1990     6.5300     5.7330     7.0620    23.3520     2.2500    -9.2070 
  100.8750    72.6240     6.2740     5.4900     6.5360    23.3630     2.2510    -8.8380 
  101.0000    75.0460     6.2920     5.4250     6.5240    23.3280     2.2470    -8.5820 
  101.1250    71.1410     6.5610     5.5580     6.7490    23.2170     2.2390    -8.4460 
  101.2500    64.8350     6.9200     5.8100     7.2730    23.0660     2.2290    -8.3560 
  101.3750    59.8350     7.2500     6.1110     7.6970    22.9500     2.2190    -8.2840 
  101.5000    58.6380     7.4730     6.3990     7.8050    22.9050     2.2100    -8.2150 
  101.6250    61.0800     7.5670     6.6310     7.6820    22.9220     2.2010    -8.1090 
  101.7500    62.3000     7.6180     6.8180     7.5430    22.9830     2.1930    -7.9040 
  101.8750    60.6040     7.6880     6.9740     7.5350    23.0600     2.1890    -7.5810 
  102.0000    58.1190     7.7820     7.0970     7.6920    23.1650     2.1930    -7.1170 
  102.1250    57.1930     7.8100     7.1280     7.8600    23.3330     2.2110    -6.4470 
  102.2500    58.0820     7.6640     7.0100     7.8520    23.5560     2.2440    -5.6340 
  102.3750    60.4820     7.2840     6.7000     7.5260    23.7990     2.2860    -4.7930 
  102.5000    65.3940     6.6920     6.2090     6.8150    24.0260     2.3290    -3.9670 
  102.6250    74.0870     5.9770     5.6000     5.9610    24.1680     2.3590    -3.1360 
  102.7500    82.5880     5.3120     5.0030     5.1760    24.2330     2.3710    -2.4230 
  102.8750    89.3860     4.7860     4.5010     4.7120    24.2440     2.3670    -1.8800 
  103.0000    93.1640     4.4720     4.1380     4.5000    24.2260     2.3540    -1.4710 
  103.1250    94.5520     4.3880     3.9560     4.4860    24.2040     2.3420    -1.2040 
  103.2500    94.2590     4.5790     3.9530     4.6740    24.1760     2.3390    -1.1260 
  103.3750    91.6890     5.0800     4.1680     5.0060    24.1400     2.3500    -1.1760 
  103.5000    88.3230     5.8090     4.6490     5.5150    24.0970     2.3770    -1.2080 
  103.6250    82.3950     6.8630     5.4270     6.2570    24.0400     2.4190    -1.2010 
  103.7500    75.2210     7.9820     6.3220     7.4500    23.9640     2.4590    -1.1810 
  103.8750    68.2950     8.8240     7.0990     8.7960    23.8780     2.4800    -1.1020 
  104.0000    64.7510     9.0740     7.4970     9.7350    23.7980     2.4720    -0.9520 
  104.1250    67.0130     8.5110     7.2630     9.4080    23.7630     2.4360    -0.7800 
  104.2500    71.8940     7.5120     6.6020     7.5740    23.7910     2.3940    -0.6200 
  104.3750    75.8670     6.4780     5.7970     6.1840    23.8860     2.3620    -0.4680 
  104.5000    76.0990     5.7270     5.1200     5.4950    24.0130     2.3450    -0.3600 
  104.6250    72.5060     5.4270     4.7570     5.2450    24.1000     2.3410    -0.3360 
  104.7500    69.7850     5.4100     4.6480     5.2910    24.1350     2.3410    -0.3810 
  104.8750    69.9060     5.5140     4.7080     5.4480    24.1340     2.3410    -0.4730 
  105.0000    70.7610     5.6010     4.8360     5.5420    24.1190     2.3410    -0.5980 
  105.1250    70.3770     5.5860     4.9420     5.5250    24.0930     2.3420    -0.7570 
  105.2500    70.2230     5.5120     5.0000     5.4380    24.0490     2.3390    -0.9340 
  105.3750    71.3330     5.4460     5.0300     5.3690    23.9660     2.3330    -1.0970 
  105.5000    73.1890     5.4500     5.0670     5.4110    23.8350     2.3220    -1.2880 
  105.6250    74.1510     5.5580     5.1450     5.7220    23.6770     2.3120    -1.5410 
  105.7500    74.7190     5.7230     5.2560     6.0770    23.5590     2.3070    -1.7360 
  105.8750    74.4430     5.8950     5.3770     6.3010    23.5380     2.3080    -1.8680 
  106.0000    72.9620     6.0290     5.4770     6.3120    23.5900     2.3160    -2.0390 
  106.1250    71.2030     6.0900     5.5210     6.2010    23.6520     2.3250    -2.2280 
