~V
VERS. 2.00: Ver 2.00
~W
STRT.M 56.0000:
STOP.M 235.0000:
STEP.M 0.1250:
NULL. -999.2500:
UWI. F10014:
~C
DEPT.M :
GR.API :
RML.OHMM :
RI. :
RXO.OHMM :
CALI.CM :
DEN.GM/CC :
SP.MV :
~A
# ...
  191.0000    67.6810    20.6660    17.0610    18.1590    24.4300     2.3820   -13.0700 
  191.1250    64.0050    22.8020    18.5640    19.4460    24.4340     2.3980   -13.3180 
  191.2500    60.8720    25.6650    20.6650    22.6230    24.4180     2.4070   -13.5780 
  191.3750    58.5800    29.0320    23.2400    28.1130    24.4610     2.4090   -13.8420 
  191.5000    57.6160    32.4980    26.0010    32.6640    24.5880     2.4020   -14.0570 
  191.6250    58.6630    35.5030    28.5010    34.7680    24.7370     2.3910   -14.3130 
  191.7500    59.2600    37.8540    30.5250    36.2730    24.8450     2.3780   -14.6330 
  191.8750    59.0340    39.6300    32.0850    36.6560    24.9170     2.3660   -14.9460 
  192.0000    60.3130    41.0280    33.3160    38.6180    24.9850     2.3530   -15.2490 
  192.1250    62.0460    42.1160    34.3280    41.4510    25.0260     2.3420   -15.6320 
  192.2500    61.8390    42.9290    35.2150    44.1380    25.0510     2.3350   -16.0410 
  192.3750    61.0690    43.5910    36.0780    46.2170    25.0340     2.3320   -16.4410 
  192.5000    62.7320    44.5850    37.2330    44.7210    24.9420     2.3290   -16.8670 
  192.6250    65.6450    46.9370    39.4270    42.2130    24.7990     2.3130   -17.3450 
  192.7500    67.1850    50.7470    42.8210    41.5680    24.7220     2.2830   -17.7950 
  192.8750    67.1830    54.6230    46.4480    46.0880    24.6900     2.2560   -18.2410 
  193.0000    65.6170    55.1020    47.4430    56.5670    24.6700     2.2670   -18.6320 
  193.1250    62.0900    47.5310    41.3780    66.7510    24.6600     2.3520   -18.7390 
  193.2500    58.6800    35.1100    30.7630    73.5110    24.6840     2.4850   -18.4680 
  193.3750    58.2840    22.9450    20.2710    53.8750    24.6410     2.6100   -17.7710 
  193.5000    61.4790    14.1430    12.6950    23.0000    24.5610     2.6710   -16.7880 
  193.6250    63.0350     8.6200     8.5700     8.0410    24.4720     2.6310   -15.6100 
  193.7500    61.4060     6.5380     6.3980     4.9710    24.4220     2.5380   -14.3840 
  193.8750    58.8630     5.8270     5.4310     4.4870    24.4290     2.4420   -13.2130 
  194.0000    57.7410     5.8430     5.1960     4.6940    24.4650     2.3800   -12.1840 
  194.1250    56.4530     6.1160     5.3940     5.0310    24.5040     2.3600   -11.3770 
  194.2500    54.1500     6.2890     5.6630     5.4630    24.5070     2.3570   -10.9010 
  194.3750    53.2600     6.3060     5.8660     5.6710    24.5070     2.3550   -10.8730 
  194.5000    56.6970     6.2920     6.0290     5.4140    24.5050     2.3530   -11.1000 
  194.6250    66.2600     6.4770     6.2990     5.4030    24.5230     2.3560   -11.4190 
  194.7500    76.1330     6.9390     6.7710     6.2320    24.5980     2.3720   -11.7750 
  194.8750    80.2850     7.6480     7.4640     8.1720    24.7570     2.3990   -11.9870 
  195.0000    79.7150     8.4760     8.3000     9.6290    24.9150     2.4290   -12.0310 
  195.1250    79.8710     9.2080     9.0670    10.1330    24.9880     2.4510   -12.0880 
  195.2500    82.8570     9.7010     9.5660    10.0630    24.9880     2.4620   -12.1160 
  195.3750    86.7140     9.9300     9.7410    10.2010    24.9670     2.4660   -12.0720 
  195.5000    90.3500     9.9690     9.6730    10.2300    24.9500     2.4660   -12.0080 
  195.6250    94.5720     9.9210     9.4990    10.0980    24.9390     2.4640   -12.0050 
  195.7500   100.4250     9.8700     9.3260    10.0920    24.9340     2.4590   -12.0140 
  195.8750   106.8850     9.8350     9.1800    10.2960    24.9450     2.4520   -12.0520 
  196.0000   113.7200     9.8370     9.0740    10.3510    24.9480     2.4460   -12.1900 
  196.1250   120.3420     9.9250     9.0440    10.2080    24.9310     2.4450   -12.3590 
  196.2500   125.7250    10.1110     9.1000    10.1890    24.9080     2.4490   -12.5420 
  196.3750   126.2860    10.3750     9.2360    10.4680    24.9070     2.4510   -12.7930 
  196.5000   120.6960    10.6480     9.4100    10.7280    24.9320     2.4460   -13.0750 
  196.6250   113.3160    10.8080     9.5350    11.1190    24.9480     2.4330   -13.3010 
  196.7500   109.2980    10.8250     9.5680    11.5580    24.9550     2.4180   -13.4530 
  196.8750   109.9420    10.7590     9.5380    11.4950    24.9560     2.4080   -13.6220 
  197.0000   111.4800    10.7440     9.5360    10.6850    24.9610     2.4090   -13.8360 
  197.1250   108.2570    10.9730     9.7000    10.3960    24.9610     2.4250   -14.0460 
  197.2500   102.3470    11.4920    10.0800    11.2780    24.9540     2.4540   -14.2960 
  197.3750    97.0690    12.2720    10.6770    13.4020    24.9250     2.4880   -14.6050 
  197.5000    95.1280    13.2060    11.4360    15.3970    24.8730     2.5180   -14.9030 
  197.6250    93.8400    14.1580    12.2710    15.2030    24.8400     2.5310   -15.1290 
  197.7500    90.7590    15.0530    13.1000    14.9370    24.8280     2.5270   -15.3970 
  197.8750    88.0640    15.9350    13.9240    15.5670    24.8200     2.5110   -15.6440 
  198.0000    86.8630    16.9360    14.8080    16.8440    24.7950     2.4900   -15.7600 
  198.1250    87.5860    18.3150    15.9310    18.4900    24.7320     2.4690   -15.8690 
  198.2500    86.8890    20.1630    17.3970    20.3250    24.6730     2.4460   -16.0010 
  198.3750    83.7610    22.4550    19.2350    21.6570    24.6200     2.4220   -16.0700 
  198.5000    80.5470    25.0030    21.3470    22.9310    24.5360     2.3980   -16.1580 
  198.6250    77.7810    27.4560    23.4930    26.4590    24.3820     2.3790   -16.3530 
  198.7500    77.1880    29.5400    25.4230    30.8200    24.2020     2.3670   -16.5660 
  198.8750    76.7410    31.2750    27.1010    30.7380    24.1180     2.3600   -16.8090 
  199.0000    74.9240    33.0640    28.7860    28.0690    24.1670     2.3550   -17.1450 
  199.1250    72.0210    35.8640    31.2200    29.4120    24.3210     2.3450   -17.4740 
  199.2500    68.7050    40.3850    35.0760    36.9810    24.5080     2.3300   -17.6760 
  199.3750    65.8410    47.2240    41.0280    52.1910    24.6920     2.3130   -17.8820 
  199.5000    63.0340    66.3460    49.6110    70.8420    24.8590     2.2980   -18.1440 
  199.6250    61.7610    80.7570    61.3260    91.4760    24.9400     2.2870   -18.4010 
  199.7500    61.7500    96.7340    74.7670   106.4320    25.0150     2.2770   -18.6610 
  199.8750    60.6790   112.0820    88.1820   120.8800    25.0640     2.2650   -18.9080 
  200.0000    58.6750   124.2780    99.5290   143.4360    25.0800     2.2500   -19.1260 
  200.1250    57.3640   130.5020   106.4770   167.1480    25.0320     2.2320   -19.2790 
  200.2500    58.7410   131.4680   109.2320   164.3820    24.9280     2.2140   -19.4330 
  200.3750    61.7860   128.5440   108.5620   138.6800    24.8340     2.1980   -19.6070 
  200.5000    65.9480   123.5030   105.7140   118.1730    24.7810     2.1870   -19.7390 
  200.6250    68.9450   117.6800   101.7430   114.3390    24.6000     2.1840   -19.7750 
  200.7500    66.6610   111.7690    97.4620   116.5190    24.3970     2.1880   -19.8410 
  200.8750    60.4380   105.8210    93.0610   114.3650    24.4730     2.1930   -19.9460 
  201.0000    57.5260    99.8830    88.6580   104.5740    24.8040     2.1980   -19.9720 
  201.1250    62.5610    94.4370    84.6290    91.5170    25.0300     2.2020   -19.9820 
  201.2500    65.5960    90.1500    81.4910    85.3160    25.1100     2.2070   -20.0170 
  201.3750    61.2760    87.6340    79.7770    83.6210    25.1030     2.2120   -19.9590 
  201.5000    55.8110    87.1710    79.8080    83.6120    25.0880     2.2180   -19.8580 
  201.6250    55.8250    88.8140    81.7560    85.5350    25.0830     2.2200   -19.8260 
  201.7500    57.9430    91.5280    84.7730    91.4130    25.0830     2.2150   -19.6800 
  201.8750    59.6790    94.4520    88.1000    96.8760    25.0770     2.2030   -19.5120 
  202.0000    63.0820    96.7800    90.9770   100.0080    25.0270     2.1850   -19.4610 
  202.1250    67.9190    97.6930    92.5870   101.0300    24.8240     2.1700   -19.4950 
