~V
VERS. 2.00: Ver 2.00
~W
STRT.M 60.0000:
STOP.M 217.0000:
STEP.M 0.1250:
NULL. -999.2500:
UWI. F10010:
~C
DEPT.M :
DEN.GM/CC :
GR.API :
RML.OHMM :
RI. :
RXO.OHMM :
CALI.CM :
SP.MV :
~A
# ...
  127.5000     2.1070    65.5160    36.2400    31.8060    33.0050    24.5090   -31.2430 
  127.6250     2.1220    62.8630    39.7890    34.8440    37.4070    24.3280   -31.1340 
  127.7500     2.1410    59.2600    43.5660    38.2140    40.1780    24.0720   -31.0190 
  127.8750     2.1620    57.5470    46.8070    41.3040    41.2320    23.8220   -30.9180 
  128.0000     2.1810    59.7370    48.4270    43.1470    42.2400    23.6670   -30.8390 
  128.1250     2.1960    62.3090    47.0010    42.3140    45.3240    23.6970   -30.7960 
  128.2500     2.2040    61.7560    43.0330    39.0970    47.7110    23.7730   -30.8140 
  128.3750     2.2060    61.0720    37.6190    34.4540    41.4180    23.9390   -30.8550 
  128.5000     2.2030    63.3590    32.1650    29.6800    29.2150    24.0940   -30.8680 
  128.6250     2.1870    66.6860    27.9970    25.9980    22.1850    23.9920   -30.9260 
  128.7500     2.1490    68.3020    25.4030    23.6540    19.4300    23.7740   -31.0380 
  128.8750     2.0920    68.9920    24.3730    22.6420    19.0490    23.7910   -31.1510 
  129.0000     2.0350    70.6270    24.6480    22.7890    20.5490    24.1230   -31.2570 
  129.1250     2.0230    72.3070    25.8860    23.8900    24.7030    24.5870   -31.3490 
  129.2500     2.0730    72.3080    27.3840    25.3570    30.4310    24.5080   -31.3970 
  129.3750     2.1800    69.4590    28.6630    26.7500    32.6640    24.1210   -31.4360 
  129.5000     2.3130    63.0480    29.3740    27.7000    29.2150    23.7470   -31.5190 
  129.6250     2.4300    56.0350    29.3180    27.9650    24.8740    23.7600   -31.5960 
  129.7500     2.5110    52.0830    28.7540    27.7280    22.4240    23.9890   -31.6030 
  129.8750     2.5560    50.0350    27.8070    27.0850    21.0260    24.1750   -31.5970 
  130.0000     2.5700    46.8150    26.5370    26.0840    19.3160    24.1490   -31.5900 
  130.1250     2.5580    44.4860    25.0020    24.7490    19.0830    23.8970   -31.5980 
  130.2500     2.5320    44.7830    23.3990    23.2850    20.0130    23.5650   -31.6450 
  130.3750     2.5070    45.0650    21.9000    21.8640    19.7900    23.3380   -31.7150 
  130.5000     2.4960    45.9830    20.6610    20.6210    18.5820    23.2890   -31.7850 
  130.6250     2.5060    50.5590    19.8310    19.7070    18.5180    23.4010   -31.8180 
  130.7500     2.5210    54.6760    19.3220    19.0990    19.0190    23.5150   -31.8940 
  130.8750     2.5240    53.4720    19.0810    18.7730    18.0780    23.5060   -32.0380 
  131.0000     2.5080    50.0780    19.1170    18.7260    15.6550    23.4290   -32.2110 
  131.1250     2.4890    50.9420    19.6100    19.0690    15.4280    23.4230   -32.3720 
  131.2500     2.4890    52.6060    20.6630    19.8690    18.3100    23.5280   -32.5030 
  131.3750     2.5170    51.2810    22.4020    21.2530    23.7180    23.7280   -32.6200 
  131.5000     2.5630    48.5190    24.8510    23.2930    29.9650    23.9390   -32.7460 
  131.6250     2.6060    46.5470    27.8470    25.9450    35.6590    24.0730   -32.9550 
  131.7500     2.6360    45.3230    30.7950    28.6990    39.9160    24.0990   -33.1820 
  131.8750     2.6510    45.1720    33.1930    31.0230    39.8220    24.1140   -33.3400 
  132.0000     2.6580    46.7010    34.7370    32.5340    36.1240    24.1710   -33.4840 
  132.1250     2.6590    49.1550    35.2830    33.0530    33.3590    24.1930   -33.6630 
  132.2500     2.6570    50.6010    35.1890    32.9290    33.5600    24.1940   -33.8490 
  132.3750     2.6500    51.8670    34.6840    32.3990    35.1740    24.1940   -33.9940 
  132.5000     2.6410    52.6900    33.9340    31.6430    35.7850    24.1660   -34.0740 
  132.6250     2.6330    51.6640    32.9670    30.7000    32.4350    24.1500   -34.0620 
  132.7500     2.6280    49.3440    31.8070    29.5990    28.3050    24.1440   -34.0490 
  132.8750     2.6270    47.5060    30.4790    28.3500    26.8250    24.1600   -34.0640 
  133.0000     2.6260    47.5930    29.0430    27.0260    28.2300    24.2270   -34.0300 
  133.1250     2.6210    49.2100    27.6350    25.7900    29.1500    24.2450   -33.9390 
  133.2500     2.6070    50.1040    26.4770    24.7850    26.5930    24.2570   -33.8650 
  133.3750     2.5880    50.1250    25.7850    24.1690    23.4610    24.2760   -33.8330 
  133.5000     2.5700    49.3480    25.6940    24.0380    22.7540    24.3250   -33.8280 
  133.6250     2.5690    48.1360    26.3460    24.4970    25.5720    24.3640   -33.8260 
  133.7500     2.5890    46.4650    27.5470    25.4380    29.3000    24.3670   -33.7720 
  133.8750     2.6240    46.3060    29.0550    26.7150    30.3240    24.3450   -33.7180 
  134.0000     2.6610    47.6400    30.4930    28.0500    29.0270    24.3240   -33.7290 
  134.1250     2.6840    49.4700    31.3680    29.0200    28.3060    24.3150   -33.7350 
  134.2500     2.6870    51.0560    31.5860    29.4210    28.1150    24.3080   -33.6880 
  134.3750     2.6720    52.3200    31.2250    29.2690    27.9690    24.2920   -33.6150 
  134.5000     2.6450    52.8550    30.5070    28.7270    27.4300    24.2790   -33.5510 
  134.6250     2.6130    52.3590    29.7370    28.0020    27.6030    24.2660   -33.5380 
  134.7500     2.5850    51.9990    29.1880    27.3450    27.6220    24.2260   -33.5740 
  134.8750     2.5670    51.8080    28.9790    26.8810    26.9900    24.2230   -33.5920 
  135.0000     2.5650    51.0000    29.0980    26.6660    26.4760    24.2480   -33.5550 
  135.1250     2.5780    49.7360    29.3320    26.6270    26.8490    24.2710   -33.5600 
  135.2500     2.5950    48.4520    29.2820    26.4770    27.4310    24.2460   -33.6220 
  135.3750     2.6070    49.3120    28.6760    26.0150    26.3280    24.1960   -33.6890 
  135.5000     2.6070    53.1000    27.5030    25.1880    23.1670    24.1460   -33.7250 
  135.6250     2.5910    57.7530    26.0600    24.1240    20.4030    24.0700   -33.7090 
  135.7500     2.5650    61.0300    24.8870    23.1940    19.2370    23.9470   -33.6570 
  135.8750     2.5360    62.6850    24.3640    22.6770    19.3790    23.8120   -33.6050 
  136.0000     2.5180    62.9470    24.6980    22.7400    20.2270    23.7240   -33.6020 
  136.1250     2.5250    61.3320    25.9570    23.4940    21.8770    23.6250   -33.6270 
  136.2500     2.5570    58.3710    27.6180    24.6130    24.2640    23.5050   -33.6280 
  136.3750     2.5990    56.2770    29.0980    25.6960    26.4820    23.3950   -33.6250 
  136.5000     2.6330    56.8410    29.7820    26.2760    27.7060    23.4070   -33.6370 
  136.6250     2.6370    57.7010    29.1610    25.9320    28.6460    23.6130   -33.6900 
  136.7500     2.6130    57.2980    27.7090    24.9810    27.8110    23.8200   -33.7890 
  136.8750     2.5710    55.5460    26.0130    23.8280    23.6860    23.8510   -33.9290 
  137.0000     2.5240    53.3600    24.6340    22.8650    20.2330    23.8080   -34.0750 
  137.1250     2.4830    52.2990    24.0560    22.4770    20.7000    23.7720   -34.1530 
  137.2500     2.4510    53.0450    24.2260    22.6500    22.8350    23.7760   -34.2210 
  137.3750     2.4320    54.9420    25.0050    23.2870    24.2500    23.8300   -34.3310 
  137.5000     2.4340    55.0830    26.1660    24.2150    25.5630    23.9320   -34.4520 
  137.6250     2.4630    54.2590    27.3050    25.1080    27.6430    24.1230   -34.5530 
  137.7500     2.5090    54.7850    27.8880    25.5370    27.6820    24.1400   -34.6040 
  137.8750     2.5580    55.2110    27.4930    25.1530    25.7940    24.1030   -34.5830 
  138.0000     2.5950    53.8770    26.0030    23.8560    24.2430    24.0730   -34.5180 
  138.1250     2.6040    50.2870    23.6780    21.9010    21.5350    24.0590   -34.5070 
  138.2500     2.5890    48.3590    21.3250    19.9370    17.5380    24.0880   -34.4870 
  138.3750     2.5580    50.7360    19.4910    18.3690    14.8750    24.1270   -34.4120 
  138.5000     2.5210    55.1700    18.4400    17.4160    15.1460    24.1620   -34.3340 
  138.6250     2.4940    56.3840    18.1800    17.1250    17.2600    24.0520   -34.2690 
