~V
VERS. 2.00: Ver 2.00
~W
STRT.M 55.0000:
STOP.M 292.0000:
STEP.M 0.1250:
NULL. -999.2500:
UWI. F10078:
~C
DEPT.M :
GR.API :
RML.OHMM :
RI. :
RXO.OHMM :
CALI.CM :
DEN.GM/CC :
SP.MV :
~A
# ...
  190.0000    60.2100    68.8100    58.0520    71.8600    26.1970     2.2380   -12.7380 
  190.1250    60.4080    74.4590    63.7170    74.3130    26.1900     2.2340   -12.9130 
  190.2500    59.1270    78.7580    68.0120    76.6480    26.1740     2.2340   -13.1130 
  190.3750    56.0330    82.6730    71.7150    80.2810    26.1560     2.2350   -13.2670 
  190.5000    54.2020    87.1700    75.7310    82.8150    26.1120     2.2360   -13.3910 
  190.6250    55.9480    92.7980    80.7380    84.1180    26.0050     2.2340   -13.5420 
  190.7500    58.0790    98.8120    86.3150    87.9730    25.8240     2.2290   -13.6350 
  190.8750    59.5470   104.0230    91.5510    94.4370    25.5830     2.2200   -13.7240 
  191.0000    61.4290   107.1100    95.2860   102.2420    25.3710     2.2080   -13.8490 
  191.1250    63.3710   106.7070    96.1500   107.4100    25.4220     2.1970   -13.9020 
  191.2500    63.5180   103.6230    94.5280   107.0980    25.6050     2.1920   -13.9280 
  191.3750    62.1090    99.0560    91.2480   102.3360    25.7750     2.1960   -13.9500 
  191.5000    59.9060    94.3850    87.4950    94.9440    25.8600     2.2070   -13.9280 
  191.6250    58.5880    90.6540    84.4950    89.5610    25.9020     2.2200   -13.9210 
  191.7500    59.7020    88.3470    82.6930    86.9330    25.9330     2.2280   -13.9620 
  191.8750    63.4110    87.4800    82.1820    84.8090    25.9330     2.2280   -13.9340 
  192.0000    66.5830    88.8110    82.9370    82.7990    25.8730     2.2210   -13.8980 
  192.1250    65.1360    92.2590    85.1450    82.9370    25.7570     2.2150   -13.9430 
  192.2500    61.3130    98.3340    88.5800    84.9970    25.5860     2.2110   -13.9740 
  192.3750    59.1460   106.2510    93.1510    89.5110    25.4240     2.2080   -14.0090 
  192.5000    58.9360   113.0220    98.6390    96.0370    25.4780     2.2020   -14.1110 
  192.6250    57.7020   119.7150   104.6610   103.0420    25.8870     2.1910   -14.1780 
  192.7500    56.3210   126.0610   110.5210   110.2070    26.3620     2.1770   -14.1810 
  192.8750    56.4350   131.2430   115.5930   116.1640    26.6370     2.1670   -14.2350 
  193.0000    57.6380   134.4160   119.1960   123.3580    26.7050     2.1650   -14.3190 
  193.1250    56.4600   134.2010   120.1300   130.5290    26.6690     2.1720   -14.2910 
  193.2500    53.0540   130.4580   118.0740   135.3510    26.6250     2.1830   -14.2330 
  193.3750    51.2630   123.1910   112.8080   132.3390    26.5690     2.1930   -14.2070 
  193.5000    52.4010   113.1680   104.7670   122.7090    26.5030     2.2010   -14.1480 
  193.6250    54.5250   102.0100    95.1040   109.8760    26.4260     2.2090   -14.0980 
  193.7500    55.1000    91.7720    85.8390    96.2390    26.3150     2.2170   -14.0840 
  193.8750    55.1250    83.6550    78.2600    83.5190    26.1570     2.2270   -14.0240 
  194.0000    57.3580    78.3510    73.0890    74.7040    25.9850     2.2370   -13.9400 
  194.1250    60.7250    76.4230    70.9400    74.4180    25.9200     2.2430   -13.9130 
  194.2500    62.8970    77.5170    71.1820    77.8010    26.0630     2.2440   -13.8920 
  194.3750    64.3760    81.3320    73.5160    82.3210    26.3600     2.2400   -13.8660 
  194.5000    64.7250    87.3430    77.6080    86.8120    26.6320     2.2340   -13.8430 
  194.6250    63.2630    94.9110    83.1550    92.2730    26.7480     2.2300   -13.7710 
  194.7500    61.4210   101.1910    89.2040    98.0830    26.7920     2.2260   -13.7080 
  194.8750    62.1200   106.7770    94.8410   104.2420    26.8200     2.2220   -13.6690 
  195.0000    65.3100   110.4770    99.0100   112.5970    26.8460     2.2180   -13.5560 
  195.1250    65.7140   110.8190   100.3250   115.5290    26.8530     2.2130   -13.4730 
  195.2500    63.5220   108.2660    98.9810   113.0760    26.8410     2.2100   -13.4400 
  195.3750    61.7620   103.8150    95.7010   103.8240    26.7940     2.2090   -13.3470 
  195.5000    62.4890    98.9180    91.7290    90.6950    26.6930     2.2120   -13.2510 
  195.6250    63.7770    94.9540    88.3770    78.4530    26.4810     2.2150   -13.1610 
  195.7500    63.4180    91.9500    85.8750    69.2480    26.1260     2.2130   -13.0340 
  195.8750    61.4200    89.1450    83.6260    68.1460    25.6980     2.2000   -12.9120 
  196.0000    59.2830    85.5180    80.6770    73.4890    25.4500     2.1780   -12.8540 
  196.1250    59.5790    80.1950    76.0920    79.3160    25.5520     2.1620   -12.7500 
  196.2500    62.1020    73.8850    70.3940    78.8720    25.6740     2.1630   -12.6220 
  196.3750    64.1610    67.8560    64.6750    70.6550    25.5170     2.1830   -12.5810 
  196.5000    64.8470    63.5760    60.2800    59.3290    25.0700     2.2170   -12.5850 
  196.6250    66.3020    62.7470    58.8040    56.5310    24.6150     2.2520   -12.6020 
  196.7500    67.4690    65.3280    60.3770    61.7570    24.2630     2.2750   -12.6800 
  196.8750    66.1430    71.1080    64.9630    72.3560    24.0880     2.2850   -12.7900 
  197.0000    63.4880    79.4390    72.1160    85.4590    24.2460     2.2830   -12.8840 
  197.1250    62.9530    89.3860    81.0730    97.6870    24.7880     2.2710   -13.0610 
  197.2500    63.8320    99.3500    90.2090   107.1330    25.2940     2.2510   -13.2600 
  197.3750    63.5120   108.2560    98.3590   114.3720    25.6540     2.2260   -13.4310 
  197.5000    61.6180   115.4240   104.7610   119.3060    25.9260     2.1990   -13.6230 
  197.6250    59.9550   120.4430   108.9520   123.6990    26.0240     2.1750   -13.8150 
  197.7500    58.9320   124.0900   111.7120   128.1900    26.0190     2.1570   -13.9860 
  197.8750    58.1160   126.9880   113.6860   129.7830    25.9230     2.1470   -14.1750 
  198.0000    57.5180   129.5740   115.3880   129.7400    25.7340     2.1440   -14.3490 
  198.1250    59.2670   131.6560   116.8370   129.8460    25.3220     2.1490   -14.4930 
  198.2500    62.6200   132.4820   117.4880   129.1720    24.6330     2.1610   -14.6730 
  198.3750    64.5730   131.0140   116.4840   128.5610    23.8520     2.1760   -14.8250 
  198.5000    63.3470   126.5290   113.1180   127.6570    23.4400     2.1930   -14.8990 
  198.6250    61.0250   118.9560   107.0950   120.5660    23.4620     2.2070   -15.0510 
  198.7500    61.1810   110.3770    99.9560   111.3660    23.7860     2.2160   -15.1980 
  198.8750    63.7150   102.5490    93.1490   101.6950    24.2890     2.2230   -15.2710 
  199.0000    64.9930    96.6270    87.7800    93.0300    24.7860     2.2290   -15.3750 
  199.1250    61.6890    93.0740    84.5050    91.8350    24.9920     2.2370   -15.4850 
  199.2500    57.7120    90.8060    82.5870    96.0120    25.0520     2.2430   -15.5270 
  199.3750    57.1090    89.0070    81.3550    99.5930    25.0510     2.2460   -15.5750 
  199.5000    60.4660    87.1790    80.2710    96.8510    25.0280     2.2460   -15.6920 
  199.6250    64.2800    85.3230    79.1350    87.5730    24.9550     2.2430   -15.7210 
  199.7500    64.3700    83.7800    78.1160    76.6980    24.7980     2.2410   -15.7070 
  199.8750    61.3430    82.7750    77.4120    69.0870    24.5180     2.2390   -15.7580 
  200.0000    58.0740    82.2110    77.0200    66.8480    24.1390     2.2400   -15.7900 
  200.1250    57.8460    81.5590    76.5560    67.3510    23.8230     2.2430   -15.7910 
  200.2500    60.2850    80.2110    75.4830    68.8520    23.6990     2.2470   -15.8320 
  200.3750    62.5330    77.8870    73.4880    69.9050    23.7820     2.2500   -15.8550 
  200.5000    62.5450    74.7140    70.6200    69.9320    24.0370     2.2510   -15.8570 
  200.6250    60.9430    71.2510    67.3410    66.3190    24.1580     2.2490   -15.8940 
  200.7500    61.2290    68.2680    64.4170    60.0330    23.9640     2.2480   -15.9550 
  200.8750    63.4610    66.2270    62.3270    54.6050    23.5870     2.2480   -16.0160 
  201.0000    64.7900    65.3290    61.3020    53.2550    23.4150     2.2510   -16.1010 
  201.1250    64.2450    65.7790    61.5610    57.0000    23.5890     2.2550   -16.1900 
