~V
VERS. 2.00: Ver 2.00
~W
STRT.M 56.0000:
STOP.M 269.0000:
STEP.M 0.1250:
NULL. -999.2500:
UWI. F10026:
~C
DEPT.M :
GR.API :
RML.OHMM :
RI. :
RXO.OHMM :
CALI.CM :
DEN.GM/CC :
SP.MV :
~A
# ...
  202.2500    76.4140     6.8260     6.2430     6.8880    24.2540     2.3390   -23.4790 
  202.3750    79.1470     6.9220     6.3400     7.2040    24.2330     2.3400   -23.6080 
  202.5000    81.6680     7.1780     6.5530     7.9850    23.9380     2.3400   -23.6800 
  202.6250    81.3180     7.5720     6.8750     8.9400    23.7170     2.3330   -23.7240 
  202.7500    78.0170     7.9850     7.2470    10.1960    23.8570     2.3210   -23.8130 
  202.8750    74.9970     8.3520     7.6350    11.4330    24.3260     2.3070   -23.9490 
  203.0000    74.6440     8.6930     8.0410    12.0360    24.2250     2.2950   -24.0810 
  203.1250    75.6930     9.1820     8.5550    12.4820    24.0190     2.2980   -24.1840 
  203.2500    75.7560    10.0120     9.3010    13.7100    23.7890     2.3180   -24.2700 
  203.3750    75.2960    11.3130    10.4020    15.4390    23.6850     2.3500   -24.3410 
  203.5000    76.5080    13.1920    11.9080    16.1460    23.7300     2.3800   -24.4030 
  203.6250    81.2500    15.5110    13.7120    18.3620    23.9980     2.3920   -24.4360 
  203.7500    84.9670    17.5850    15.3480    25.6620    24.2460     2.3910   -24.4450 
  203.8750    84.3380    18.5030    16.3310    33.7920    24.3130     2.3870   -24.4450 
  204.0000    80.8130    18.1380    16.3390    32.8630    24.2730     2.3930   -24.4380 
  204.1250    80.1790    16.7940    15.3580    23.6540    24.2700     2.4070   -24.4090 
  204.2500    82.3620    15.2310    14.0220    16.7630    24.3230     2.4160   -24.3370 
  204.3750    82.7950    13.8940    12.7610    15.7310    24.4040     2.4100   -24.2370 
  204.5000    80.9930    12.9890    11.8150    15.9940    24.4650     2.3900   -24.1740 
  204.6250    79.1280    12.5560    11.2820    14.5560    24.4760     2.3650   -24.1680 
  204.7500    77.0500    12.3670    11.0130    13.3470    24.4540     2.3440   -24.1580 
  204.8750    75.3190    12.2810    10.9150    13.6620    24.4080     2.3290   -24.1030 
  205.0000    74.7660    12.2410    10.9410    13.5740    24.3710     2.3200   -23.9900 
  205.1250    74.3210    12.3590    11.1660    12.6080    24.3490     2.3140   -23.8700 
  205.2500    73.0270    12.7880    11.6670    12.5000    24.3260     2.3060   -23.8240 
  205.3750    73.4010    13.6380    12.5110    12.9790    24.2980     2.2930   -23.8290 
  205.5000    75.3730    14.8420    13.6570    13.8430    24.2740     2.2740   -23.8050 
  205.6250    74.0070    15.9950    14.8030    16.1930    24.2490     2.2590   -23.7320 
  205.7500    69.6970    16.5140    15.4440    19.1950    24.2430     2.2590   -23.6460 
  205.8750    66.6830    16.0390    15.2110    21.0260    24.2530     2.2830   -23.6010 
  206.0000    66.5870    14.6380    14.0840    19.4190    24.2690     2.3240   -23.6150 
  206.1250    68.5330    12.8060    12.4130    13.8680    24.2870     2.3670   -23.6420 
  206.2500    71.8770    11.2290    10.8170    10.0690    24.2600     2.3960   -23.5990 
  206.3750    75.9910    10.2050     9.6020     8.5440    24.2610     2.4090   -23.5100 
  206.5000    77.5130     9.7680     8.8740     8.3630    24.2780     2.4090   -23.4360 
  206.6250    76.8920     9.8480     8.6660     8.8810    24.2830     2.4020   -23.4070 
  206.7500    77.1630    10.1900     8.7980     9.3050    24.2350     2.3920   -23.4200 
  206.8750    77.9740    10.6830     9.1720     9.7510    24.3950     2.3800   -23.4250 
  207.0000    76.7460    11.2810     9.7110    10.1900    24.4780     2.3640   -23.3920 
  207.1250    73.2570    12.0020    10.3910    10.8820    24.5750     2.3450   -23.3400 
  207.2500    70.3050    12.8480    11.1910    12.7390    24.3050     2.3260   -23.3060 
  207.3750    67.9290    13.8560    12.1450    14.8470    24.3880     2.3150   -23.3130 
  207.5000    65.0550    15.0980    13.3140    16.6040    24.5000     2.3180   -23.3480 
  207.6250    62.4040    16.7430    14.8380    18.3110    24.5380     2.3350   -23.3720 
  207.7500    60.3480    18.7850    16.7190    21.0720    24.5360     2.3580   -23.3560 
  207.8750    59.3880    21.1230    18.9120    26.3420    24.5380     2.3840   -23.3180 
  208.0000    58.1720    23.4970    21.2450    32.7360    24.5150     2.4160   -23.3100 
  208.1250    56.4060    25.4540    23.3670    36.6970    24.2970     2.4510   -23.3460 
  208.2500    57.0070    26.7990    25.0110    34.9720    24.2680     2.4780   -23.4070 
  208.3750    59.7090    27.5370    26.0530    32.3650    24.2910     2.4790   -23.4350 
  208.5000    61.5850    27.7490    26.4570    31.6560    24.3700     2.4480   -23.4060 
  208.6250    59.9350    27.1970    25.9610    33.0870    24.3870     2.3880   -23.3570 
  208.7500    58.6230    25.6180    24.4330    33.7860    24.3370     2.3230   -23.3410 
  208.8750    62.1630    22.8230    21.7910    31.2880    24.3070     2.2680   -23.3620 
  209.0000    70.0900    19.0810    18.3340    27.0450    24.3790     2.2330   -23.3930 
  209.1250    77.1140    15.1800    14.7580    19.5790    24.4030     2.2320   -23.4010 
  209.2500    81.1210    11.9600    11.7400    13.3400    24.4770     2.2630   -23.3800 
  209.3750    84.1660     9.7750     9.5520     8.9270    24.4930     2.3180   -23.3530 
  209.5000    86.3680     8.6150     8.2070     7.7180    24.4420     2.3810   -23.3420 
  209.6250    86.0990     8.3210     7.6540     8.1070    24.3690     2.4290   -23.3480 
  209.7500    83.8960     8.4090     7.5580     9.0040    24.3100     2.4570   -23.3480 
  209.8750    80.3620     8.6160     7.7260    10.1630    24.2580     2.4670   -23.3520 
  210.0000    77.3100     8.7940     7.9950    10.4420    24.2370     2.4630   -23.3470 
  210.1250    76.5930     8.9240     8.2500     9.1450    24.2520     2.4490   -23.3240 
  210.2500    77.0380     9.0670     8.4580     8.7630    24.2820     2.4360   -23.2970 
  210.3750    76.7290     9.2330     8.6210     9.2220    24.2980     2.4280   -23.2800 
  210.5000    77.6370     9.3590     8.7240    10.1620    24.3020     2.4290   -23.3030 
  210.6250    82.5070     9.3180     8.7040    10.5680    24.3080     2.4380   -23.3570 
  210.7500    86.6810     9.0990     8.5500     9.9620    24.3300     2.4470   -23.4120 
  210.8750    87.7090     8.7700     8.2820     9.6490    24.3490     2.4530   -23.4390 
  211.0000    86.5700     8.4480     7.9650     9.6740    24.3570     2.4560   -23.4360 
  211.1250    85.0190     8.2640     7.6950     9.1050    24.3670     2.4540   -23.4440 
  211.2500    83.3660     8.2280     7.5260     8.3940    24.3930     2.4480   -23.5170 
  211.3750    81.1690     8.2940     7.4640     8.4290    24.4240     2.4370   -23.6410 
  211.5000    78.0810     8.3920     7.4830     9.0630    24.4390     2.4250   -23.7390 
  211.6250    76.8780     8.4510     7.5390     9.4930    24.4500     2.4170   -23.7820 
  211.7500    78.8150     8.4550     7.5780     9.3740    24.4550     2.4140   -23.8180 
  211.8750    82.4220     8.4260     7.5830     8.9700    24.4670     2.4140   -23.8860 
  212.0000    84.5950     8.4020     7.5630     8.9010    24.4770     2.4140   -24.0070 
  212.1250    84.3790     8.4410     7.5700     9.1270    24.4730     2.4150   -24.1330 
  212.2500    82.8420     8.5650     7.6530     9.3890    24.4480     2.4180   -24.1920 
  212.3750    79.6930     8.7790     7.8350     9.7340    24.4200     2.4250   -24.2100 
  212.5000    77.2220     9.0790     8.1060    10.1650    24.3880     2.4340   -24.2490 
  212.6250    77.8390     9.4600     8.4380    11.5890    24.3780     2.4370   -24.3360 
  212.7500    78.9900     9.8740     8.7720    13.8650    24.5500     2.4320   -24.4290 
  212.8750    78.5200    10.2700     9.0740    13.3400    24.8900     2.4210   -24.4850 
  213.0000    76.3860    10.5960     9.3150    11.7710    24.6650     2.4100   -24.4800 
  213.1250    72.6960    10.7780     9.4640    11.5850    24.4550     2.4070   -24.4430 
  213.2500    68.9170    10.8140     9.5180    12.5490    24.3390     2.4140   -24.4150 
  213.3750    68.3900    10.7280     9.4760    13.1410    24.3740     2.4270   -24.3960 
