~V
VERS. 2.00: Ver 2.00
~W
STRT.M 64.0000:
STOP.M 220.0000:
STEP.M 0.1250:
NULL. -999.2500:
UWI. F10051:
~C
DEPT.M :
SP.MV :
GR.API :
RML.OHMM :
RI. :
RXO.OHMM :
CALI.CM :
DEN.GM/CC :
~A
# ...
  199.0000    -7.9280    70.0200    19.1340    18.2590    14.1530    23.7980     2.5890 
  199.1250    -7.8570    68.8520    19.5530    18.6200    14.6650    23.7940     2.5860 
  199.2500    -7.7880    69.1070    20.0190    19.0620    14.5960    23.7660     2.5770 
  199.3750    -7.7330    71.1620    20.3330    19.4030    14.0110    23.7230     2.5670 
  199.5000    -7.6660    72.2140    20.3410    19.4830    12.4550    23.6830     2.5610 
  199.6250    -7.6570    69.9050    19.9570    19.1870    11.2920    23.6900     2.5610 
  199.7500    -7.6720    68.6330    19.3810    18.6770    11.6490    23.7350     2.5650 
  199.8750    -7.6780    71.2410    18.8260    18.1370    13.5130    23.7830     2.5710 
  200.0000    -7.6900    74.2230    18.4810    17.7470    16.4710    23.8040     2.5750 
  200.1250    -7.6970    74.0240    18.5000    17.6680    19.0840    23.8060     2.5750 
  200.2500    -7.7030    72.8110    18.8040    17.8540    20.4270    23.8180     2.5710 
  200.3750    -7.7180    72.8920    19.2770    18.2210    19.8590    23.8470     2.5660 
  200.5000    -7.7270    73.4710    19.7800    18.6460    17.6760    23.8710     2.5620 
  200.6250    -7.7130    71.6590    20.1560    18.9820    15.0060    23.8780     2.5640 
  200.7500    -7.6720    69.1650    20.3480    19.1540    13.7810    23.8790     2.5720 
  200.8750    -7.6400    68.3950    20.3500    19.1430    13.7770    23.8880     2.5840 
  201.0000    -7.6230    69.4240    20.1990    18.9730    14.1100    23.9070     2.5980 
  201.1250    -7.6060    71.0170    19.9470    18.6860    14.4230    23.9370     2.6100 
  201.2500    -7.5960    73.0710    19.6830    18.3690    14.9160    23.9500     2.6160 
  201.3750    -7.6310    75.1260    19.4670    18.0790    15.6310    23.9530     2.6160 
  201.5000    -7.6660    76.8750    19.3410    17.8650    15.5900    23.9520     2.6080 
  201.6250    -7.7090    77.1020    19.3500    17.7760    14.3780    23.9520     2.5950 
  201.7500    -7.7670    74.7220    19.4730    17.8010    13.1130    23.9620     2.5810 
  201.8750    -7.8110    72.2480    19.7010    17.9370    12.5010    23.9900     2.5700 
  202.0000    -7.8310    72.1030    20.0310    18.1810    12.4430    24.0130     2.5640 
  202.1250    -7.8550    73.4130    20.4850    18.5570    13.1800    24.0210     2.5650 
  202.2500    -7.8640    73.5940    21.0450    19.0460    14.4980    24.0120     2.5690 
  202.3750    -7.8140    73.5380    21.6910    19.6320    16.1650    23.9730     2.5750 
  202.5000    -7.7700    75.1200    22.3720    20.2700    17.7510    23.8930     2.5830 
  202.6250    -7.7060    76.6330    22.9760    20.8620    18.9320    23.8350     2.5890 
  202.7500    -7.6290    76.2400    23.4100    21.3120    20.2300    23.8270     2.5970 
  202.8750    -7.5620    73.8120    23.6150    21.5520    22.1370    23.8480     2.6070 
  203.0000    -7.5200    69.9460    23.5890    21.5640    24.3440    23.8570     2.6200 
  203.1250    -7.4630    66.4180    23.3820    21.3680    24.3150    23.8430     2.6350 
  203.2500    -7.4310    64.2770    23.1320    21.0900    22.6560    23.8330     2.6470 
  203.3750    -7.4080    63.6190    22.9340    20.8220    20.0720    23.8250     2.6540 
  203.5000    -7.3850    64.5280    22.8440    20.6290    17.4020    23.8150     2.6530 
  203.6250    -7.3670    64.4880    22.8810    20.5450    14.8580    23.8080     2.6460 
  203.7500    -7.3670    62.1460    22.9650    20.5240    13.1900    23.8080     2.6350 
  203.8750    -7.3620    59.6090    23.0150    20.5060    12.5660    23.8070     2.6220 
  204.0000    -7.3730    59.3930    22.9570    20.4350    12.5390    23.8050     2.6090 
  204.1250    -7.3790    62.7660    22.7480    20.2740    12.9180    23.8040     2.6010 
  204.2500    -7.3880    65.8590    22.4730    20.0760    13.5370    23.8010     2.5970 
  204.3750    -7.4200    66.8890    22.2530    19.9310    14.1800    23.7870     2.5990 
  204.5000    -7.4650    66.3710    22.2170    19.9460    14.3920    23.7550     2.6050 
  204.6250    -7.4920    65.2910    22.4980    20.2440    14.1620    23.7400     2.6110 
  204.7500    -7.4680    65.2980    23.0300    20.7840    13.5790    23.7350     2.6130 
  204.8750    -7.4290    67.3020    23.6880    21.4710    13.0300    23.7350     2.6100 
  205.0000    -7.3850    70.7570    24.2790    22.1370    12.8450    23.7350     2.6030 
  205.1250    -7.3390    73.1210    24.5070    22.5050    13.0770    23.7260     2.5940 
  205.2500    -7.2570    73.3230    24.2370    22.4210    13.4220    23.7140     2.5890 
  205.3750    -7.1700    73.2040    23.4250    21.8160    13.6360    23.7170     2.5880 
  205.5000    -7.0740    72.7590    22.1600    20.7450    13.4590    23.7210     2.5890 
  205.6250    -7.0160    69.9370    20.6380    19.3650    12.3060    23.6790     2.5930 
  205.7500    -7.0130    65.8340    19.1650    17.9690    11.1050    23.6130     2.5970 
  205.8750    -7.0240    63.2860    17.9280    16.7400    10.4160    23.6250     2.5990 
  206.0000    -7.0070    63.5560    17.0260    15.7850    10.1450    23.7280     2.5980 
  206.1250    -7.0310    64.0740    16.5140    15.1810    10.0950    23.7830     2.5940 
  206.2500    -7.0890    63.5180    16.2690    14.8420    10.0960    23.7880     2.5890 
  206.3750    -7.1470    63.8100    16.2240    14.7180    10.1210    23.7840     2.5860 
  206.5000    -7.2390    64.1720    16.3410    14.7740    10.2000    23.7940     2.5870 
  206.6250    -7.3380    60.7280    16.6490    15.0320    10.5720    23.8020     2.5930 
  206.7500    -7.4310    57.6620    17.1310    15.4650    11.5250    23.8100     2.6000 
  206.8750    -7.5200    59.1010    17.7600    16.0500    13.0580    23.8280     2.6070 
  207.0000    -7.6230    63.6390    18.4600    16.7230    15.1520    23.8630     2.6130 
  207.1250    -7.7270    66.5190    19.1000    17.3660    17.1100    23.8740     2.6180 
  207.2500    -7.8520    66.9640    19.6020    17.8850    17.4140    23.8620     2.6200 
  207.3750    -7.9540    66.4290    19.9640    18.2550    16.2180    23.8430     2.6180 
  207.5000    -8.0200    65.2350    20.2570    18.5190    14.5770    23.8550     2.6120 
  207.6250    -8.0930    65.5260    20.6100    18.7810    13.4880    23.8690     2.6040 
  207.7500    -8.1630    67.6220    21.1000    19.1300    12.7760    23.8730     2.5970 
  207.8750    -8.2520    69.6790    21.7200    19.5870    12.0920    23.8730     2.5940 
  208.0000    -8.3250    71.3740    22.4060    20.1140    11.8090    23.8730     2.5930 
  208.1250    -8.3400    73.0460    23.0440    20.6310    12.0970    23.8690     2.5920 
  208.2500    -8.3220    74.5960    23.5600    21.0750    13.0380    23.8540     2.5890 
  208.3750    -8.3180    74.8660    23.9170    21.4180    14.5330    23.8270     2.5830 
  208.5000    -8.3190    74.0710    24.1010    21.6550    16.1400    23.8090     2.5760 
  208.6250    -8.3020    72.9180    24.0730    21.7640    17.7710    23.8040     2.5710 
  208.7500    -8.2610    71.8350    23.8850    21.7720    18.7530    23.8040     2.5710 
  208.8750    -8.1970    71.6330    23.6120    21.7200    18.1530    23.8040     2.5800 
  209.0000    -8.1540    72.2580    23.3910    21.6990    16.8320    23.8040     2.5940 
  209.1250    -8.1240    72.0560    23.4560    21.8820    15.8700    23.8040     2.6070 
  209.2500    -8.1050    71.4840    23.9250    22.3800    15.7000    23.8030     2.6120 
  209.3750    -8.1240    71.8980    24.8330    23.2420    16.5270    23.7990     2.6050 
  209.5000    -8.1420    73.2510    26.0720    24.4040    18.9460    23.7930     2.5910 
  209.6250    -8.1020    74.2580    27.3490    25.6410    23.5020    23.8120     2.5780 
  209.7500    -8.0660    74.2580    28.2750    26.6030    27.6150    23.8400     2.5720 
  209.8750    -8.0250    74.2580    28.5720    27.0180    29.6580    23.8640     2.5750 
  210.0000    -7.9710    74.2580    28.1290    26.7540    30.4490    23.8740     2.5810 
  210.1250    -7.9770    74.2580    27.0070    25.8300    28.0600    23.8770     2.5860 
